     3.00           OBSERVATION DATA    M: Mixed            RINEX VERSION / TYPE
CONVBIN 2.4.3                           20240409 092942 UTC PGM / RUN BY / DATE 
format: u-blox UBX                                          COMMENT             
log: data/2024-04-09/20240409091500.ubx                     COMMENT             
AQUI00CHL                                                   MARKER NAME         
                                                            MARKER NUMBER       
                                                            MARKER TYPE         
                                                            OBSERVER / AGENCY   
UNKNOWN             UBLOX-ZED-F9P                           REC # / TYPE / VERS 
UNKNOWN             TWIVSP6037L                             ANT # / TYPE        
  1713381.0000 -5047934.0000 -3490983.0000                  APPROX POSITION XYZ 
        0.0000        0.0000        0.0000                  ANTENNA: DELTA H/E/N
G    8 C1C L1C D1C S1C C2L L2L D2L S2L                      SYS / # / OBS TYPES 
R    8 C1C L1C D1C S1C C2C L2C D2C S2C                      SYS / # / OBS TYPES 
E    8 C1C L1C D1C S1C C7Q L7Q D7Q S7Q                      SYS / # / OBS TYPES 
S    4 C1C L1C D1C S1C                                      SYS / # / OBS TYPES 
  2024    04    09    09    15   00.5000000     GPS         TIME OF FIRST OBS   
  2024    04    09    09    29   30.0000000     GPS         TIME OF LAST OBS    
                                                            END OF HEADER       
> 2024 04 09 09 15 00.5000000  0 27                     
S33  39662541.963   208428217.1951       -639.405          44.000  
G23  22697843.763   119278142.4641      -3797.335          43.000    22697838.328    92944063.8191      -2958.841          44.000  
E25  24978317.369   131261914.5541      -2970.235          45.000    24978317.861   100577351.6051      -2275.913          51.000  
G26  23827105.412   125212273.7281      -4086.987          38.000    23827103.975    97568009.1881      -3184.821          37.000  
G27  20223647.311   106276028.7391        199.091          48.000    20223643.515    82812478.6931        155.146          46.000  
R01  21929201.319   117224059.3611       3555.579          48.000    21929196.084    91174340.6711       2765.425          42.000  
R22  22083544.638   117883809.4981      -2541.579          45.000    22083541.125    91687311.8101      -1977.229          46.000  
R23  20275921.418   108462545.0061       -321.271          48.000                                                                  
R24  22223469.529   118838897.0311       1722.584          46.000    22223465.536    92430306.6991       1339.554          41.000  
R08  19814525.731   106105905.7871        321.050          51.000    19814519.187    82526817.6201        249.674          51.000  
E02  24997815.278   131364441.0481       -580.721          47.000    24997814.681   100655908.0211       -444.943          50.000  
G21  23660705.625   124337869.5551       1988.573          44.000                                                                  
E10  26213051.582   137750761.2671      -2186.735          37.000    26213052.965   105549409.7081      -1675.604          46.000  
G08  21671904.405   113886635.8311       2035.628          48.000    21671901.692    88742810.1781       1586.156          45.000  
G16  21635878.483   113697331.5841      -3030.521          46.000                                                                  
R13  22552039.641   120426530.5381      -3936.095          34.000    22552032.192                1      -3061.956          27.000  
R07  21670205.515   116002363.8721      -3356.619          50.000    21670199.035    90224038.5221      -2610.748          48.000  
R14  22418263.553   119501790.0111       -878.950          46.000    22418264.011    92945999.3241       -683.558          47.000  
S31  38707902.175   203411502.0541       -640.211          43.000  
E36  24333868.028   127875412.0791         -1.275          43.000    24333870.850    97982511.2991         -1.080          52.000  
E04  25954764.793   136393224.4371        154.059          43.000    25954763.441   104509098.6431        117.877          47.000  
G10  20256714.654   106449833.7781      -2061.501          52.000    20256710.411    82947931.1871      -1606.380          47.000  
E11  23458888.341   123277518.9011      -1581.130          44.000    23458884.379    94459505.2101      -1211.557          49.000  
E09  26234440.856   137862937.4631       1918.481          45.000    26234440.626   105635224.0801       1469.908          49.000  
G32  22770422.995   119659386.2631       1972.722          50.000    22770418.531    93241084.4631       1537.253          44.000  
E12                                                                  28328796.434                3      -1853.936          25.000  
G18                                                                  25223510.433                3      -2430.232          17.000  
> 2024 04 09 09 15 30.5000000  0 27                     
S33  39666192.264   208447400.862        -639.557          43.000  
G23  22719540.005   119392155.621       -3803.853          44.000    22719535.227    93032905.245       -2964.001          45.000  
E25  24995297.205   131351140.969       -2978.432          45.000    24995297.474   100645719.885       -2282.295          52.000  
G26  23850436.895   125334876.736       -4086.810          40.000    23850434.185    97663543.992       -3184.772          36.000  
G27  20222551.045   106270272.149         184.497          47.000    20222547.712    82807993.068         143.656          45.000  
R01  21909269.126   117117514.061        3547.246          47.000    21909264.733    91091472.114        2758.745          42.000  
R22  22097846.358   117960146.405       -2547.455          46.000    22097841.098    91746684.959       -1981.177          45.000  
R23  20277739.935   108472266.162        -327.137          49.000                                                                  
R24  22213806.204   118787218.835        1722.429          47.000    22213802.479    92390112.570        1339.767          41.000  
R08  19812803.676   106096685.145         293.417          51.000    19812796.389    82519645.999         228.183          51.000  
E02  25001170.712   131382075.874        -595.268          46.000    25001170.363   100669420.425        -456.081          50.000  
G21  23649353.573   124278214.145        1988.154          43.000                                                                  
E10  26225536.764   137816360.946       -2186.810          39.000    26225535.089   105599674.392       -1675.837          44.000  
G08  21660305.509   113825684.321        2027.553          47.000    21660303.318    88695315.514        1580.121          45.000  
G16  21653218.511   113788454.141       -3044.246          46.000                                                                  
R13  22574179.408   120544762.998       -3945.285          33.000    22574175.660    93757067.2711      -3068.968          32.000  
R07  21689074.279   116103374.243       -3377.629          50.000    21689068.058    90302602.143       -2627.005          48.000  
R14  22423278.628   119528514.123        -902.928          48.000    22423276.325    92966784.767        -702.354          45.000  
S31  38711557.005   203430707.480        -640.333          43.000  
E36  24333881.583   127875484.422          -3.778          43.000    24333884.611    97982566.756          -2.857          52.000  
E04  25953922.322   136388792.182         141.224          44.000    25953919.918   104505702.533         108.124          46.000  
G10  20268531.686   106511934.950       -2078.816          51.000    20268528.126    82996321.721       -1619.855          47.000  
E11  23467917.876   123324966.656       -1582.096          45.000    23467913.626    94495861.319       -1212.472          49.000  
E09  26223499.252   137805441.326        1914.318          45.000    26223499.155   105591168.608        1466.666          48.000  
G32  22759188.736   119600351.758        1962.535          49.000    22759184.567    93195083.554        1529.374          44.000  
E12                                                                  28342607.127                3      -1853.484          23.000  
G18                                                                  25241418.099                3      -2446.647          20.000  
> 2024 04 09 09 16 00.5000000  0 26                     
S33  39669842.925   208466584.964        -639.832          44.000  
G23  22741271.584   119506354.131       -3809.876          45.000    22741265.944    93121891.123       -2968.760          45.000  
E25  25012321.524   131440604.734       -2986.261          45.000    25012321.670   100714270.028       -2288.233          52.000  
G26  23873766.107   125457469.908       -4086.523          39.000    23873763.063    97759071.118       -3184.436          36.000  
G27  20221536.878   106264945.636         170.112          47.000    20221533.557    82803842.517         132.633          45.000  
R01  21889382.749   117011212.784        3539.032          46.000    21889379.224    91008793.377        2752.651          43.000  
R22  22112174.557   118036639.400       -2552.490          44.000    22112170.195    91806179.541       -1985.433          45.000  
R23  20279588.191   108482153.024        -332.591          50.000                                                                  
R24  22204140.094   118735531.996        1722.786          46.000    22204136.717    92349911.737        1340.029          41.000  
R08  19811235.596   106088283.855         266.112          51.000    19811228.595    82513111.682         207.037          51.000  
E02  25004606.781   131400136.402        -609.400          45.000    25004607.006   100683259.015        -466.955          50.000  
G21  23638001.842   124218567.277        1987.920          41.000                                                                  
E10  26238018.108   137881953.715       -2186.542          40.000    26238017.698   105649933.823       -1675.458          45.000  
G08  21648750.945   113764964.064        2019.864          48.000    21648748.417    88648001.046        1573.943          45.000  
G16  21670637.126   113879987.973       -3058.131          46.000                                                                  
R13  22596366.769   120663243.185       -3953.427          33.000    22596362.341    93849218.510       -3074.400          33.000  
R07  21708059.332   116205005.054       -3398.251          49.000    21708054.112    90381648.319       -2643.060          46.000  
R14  22428425.395   119555947.871        -926.454          48.000    22428422.344    92988122.110        -720.696          45.000  
S31  38715211.720   203449913.121        -640.587          43.000  
E36  24333908.843   127875618.501          -5.692          45.000    24333909.929    97982669.498          -4.415          52.000  
E04  25953150.131   136384737.708         128.698          44.000    25953147.779   104502595.892          98.423          46.000  
G10  20280445.490   106574546.553       -2095.798          51.000    20280442.803    83045110.002       -1633.135          48.000  
E11  23476952.690   123372444.401       -1583.223          44.000    23476948.258    94532240.379       -1213.171          49.000  
E09  26212579.826   137748058.923        1910.621          44.000    26212579.763   105547200.295        1463.924          49.000  
G32  22748011.304   119541613.792        1952.691          48.000    22748007.348    93149313.692        1521.573          45.000  
E12                                                                  28356417.090                3      -1852.490          23.000  
> 2024 04 09 09 16 30.0000000  0 26                     
S33  39673433.516   208485451.919        -639.360          44.000  
G23  22762674.854   119618830.378       -3815.506          46.000    22762669.631    93209534.936       -2973.167          45.000  
E25  25029105.887   131528809.857       -2993.566          45.000    25029106.674   100781855.771       -2293.898          52.000  
G26  23896704.504   125578010.416       -4085.888          38.000    23896701.657    97852998.745       -3183.698          37.000  
G27  20220620.903   106260131.859         156.216          47.000    20220617.680    82800091.539         121.776          45.000  
R01  21869874.062   116906928.480        3531.039          46.000    21869871.020    90927683.406        2746.359          44.000  
R22  22126295.282   118112013.122       -2557.497          46.000    22126289.939    91864803.548       -1989.166          44.000  
R23  20281436.553   108492040.747        -337.840          50.000                                                                  
R24  22194634.094   118684701.693        1723.306          45.000    22194629.604    92310377.150        1340.263          39.000  
R08  19809843.197   106080825.897         239.476          52.000    19809835.651    82507311.069         186.185          51.000  
E02  25008065.543   131418313.769        -623.152          45.000    25008065.778   100697187.125        -477.324          49.000  
G21  23626843.073   124159925.996        1987.779          42.000                                                                  
E10  26250291.584   137946449.557       -2186.160          40.000    26250290.385   105699352.689       -1675.032          45.000  
G08  21637432.538   113705486.480        2012.443          47.000    21637430.301    88601654.899        1568.157          46.000  
G16  21687841.539   113970396.891       -3071.136          47.000                                                                  
R13  22618230.345   120779988.863       -3960.857          32.000    22618222.738    93940020.752       -3081.616          35.000  
R07  21726842.642   116305546.169       -3418.082          49.000    21726834.247    90459846.978       -2658.562          46.000  
R14  22433615.988   119583617.867        -949.465          47.000    22433613.692    93009643.193        -738.431          45.000  
S31  38718806.138   203468801.966        -640.370          43.000  
E36  24333946.842   127875812.946          -7.426          46.000    24333946.601    97982818.493          -5.731          51.000  
E04  25952461.210   136381122.955         116.576          43.000    25952459.774   104499826.180          89.313          45.000  
G10  20292256.703   106636612.988       -2112.232          51.000    20292253.252    83093473.468       -1645.884          47.000  
E11  23485842.221   123419162.808       -1583.789          43.000    23485838.580    94568037.611       -1213.650          49.000  
E09  26201863.594   137691748.638        1907.241          44.000    26201864.504   105504053.477        1461.169          50.000  
G32  22737075.256   119484149.834        1943.110          47.000    22737072.393    93104536.585        1514.146          45.000  
E12                                                                  28369989.234                3      -1853.083          22.000  
> 2024 04 09 09 17 00.0000000  0 26                     
S33  39677083.451   208504634.106        -639.379          44.000  
G23  22784473.912   119733386.765       -3821.494          46.000    22784469.813    93298799.658       -2977.724          46.000  
E25  25046217.806   131618736.764       -3001.318          45.000    25046219.021   100850760.795       -2299.790          51.000  
G26  23920027.940   125700573.762       -4085.327          37.000    23920025.046    97948502.630       -3183.411          36.000  
G27  20219771.134   106255661.696         141.688          48.000    20219767.183    82796608.290         110.483          45.000  
R01  21850080.724   116801121.838        3522.539          47.000    21850077.805    90845389.376        2739.915          43.000  
R22  22140683.542   118188815.476       -2562.912          46.000    22140677.279    91924538.701       -1993.226          44.000  
R23  20283346.844   108502257.523        -343.419          50.000                                                                  
R24  22184966.605   118632997.340        1723.629          45.000    22184960.537    92270162.643        1340.539          41.000  
R08  19808577.778   106074052.492         212.164          51.000    19808570.506    82502042.876         164.973          51.000  
E02  25011662.437   131437216.280        -637.114          46.000    25011662.482   100711670.886        -488.174          49.000  
G21  23615496.248   124100294.302        1987.584          43.000                                                                  
E10  26262769.692   138012027.084       -2185.676          41.000    26262770.010   105749600.429       -1674.740          46.000  
G08  21625966.087   113645230.093        2004.584          47.000    21625963.561    88554701.898        1561.885          45.000  
G16  21705412.754   114062734.457       -3084.720          46.000                                                                  
R13  22640506.406   120898944.996       -3969.373          33.000    22640501.365    94032542.041       -3087.188          36.000  
R07  21746055.377   116408394.869       -3438.497          50.000    21746048.858    90539840.403       -2674.482          47.000  
R14  22439026.280   119612452.983        -972.864          48.000    22439024.125    93032070.524        -756.912          45.000  
S31  38722460.494   203488006.028        -640.106          43.000  
E36  24333994.853   127876066.130          -9.473          46.000    24333994.663    97983012.512          -7.249          51.000  
E04  25951833.630   136377818.665         103.918          44.000    25951831.198   104497294.338          79.547          46.000  
G10  20304362.367   106700228.139       -2128.898          51.000    20304358.412    83143043.705       -1658.909          47.000  
E11  23494887.342   123466697.752       -1585.132          43.000    23494884.045    94604460.492       -1214.592          49.000  
E09  26190987.685   137634595.934        1903.272          44.000    26190988.704   105460261.157        1458.232          50.000  
G32  22726011.178   119426007.442        1933.029          47.000    22726008.236    93059230.860        1506.266          45.000  
E12                                                                  28383783.376                3      -1855.120          21.000  
> 2024 04 09 09 17 30.5000000  0 26                     
S33  39680794.498   208524134.429        -639.449          44.000  
G23  22806670.761   119850032.497       -3827.333          45.000    22806666.402    93389692.442       -2982.461          46.000  
E25  25063660.817   131710397.990       -3009.148          45.000    25063661.662   100920994.715       -2305.784          51.000  
G26  23943736.516   125825159.167       -4084.668          37.000    23943732.657    98045582.174       -3182.343          36.000  
G27  20218991.070   106251561.514         126.943          48.000    20218986.798    82793413.336          98.890          45.000  
R01  21830006.743   116693812.856        3513.924          48.000    21830002.731    90761926.813        2732.938          41.000  
R22  22155340.607   118267057.967       -2568.094          45.000    22155335.590    91985393.968       -1997.441          45.000  
R23  20285320.123   108512816.141        -349.101          49.000                                                                  
R24  22175134.321   118580421.859        1723.936          46.000    22175129.218    92229270.687        1340.868          40.000  
R08  19807449.803   106068008.798         184.096          51.000    19807441.756    82497342.224         143.212          50.000  
E02  25015402.924   131456867.938        -651.445          46.000    25015402.243   100726728.668        -499.163          49.000  
G21  23603961.437   124039675.541        1987.308          43.000                                                                  
E10  26275454.836   138078689.086       -2185.382          40.000    26275455.105   105800679.116       -1674.626          46.000  
G08  21614354.873   113584212.088        1996.306          47.000    21614352.031    88507155.409        1555.731          45.000  
G16  21723354.037   114157021.279       -3098.368          45.000                                                                  
R13  22663199.068   121020121.524       -3977.205          32.000    22663193.677    94126790.488       -3093.382          34.000  
R07  21765704.105   116513580.616       -3459.033          50.000    21765697.918    90621651.519       -2690.303          47.000  
R14  22444660.128   119642490.106        -997.034          47.000    22444658.933    93055432.701        -775.297          45.000  
S31  38726175.737   203507529.167        -640.294          43.000  
E36  24334054.659   127876383.517         -11.516          46.000    24334055.022    97983255.726          -8.829          51.000  
E04  25951266.739   136374847.672          90.904          42.000    25951266.550   104495017.865          69.681          46.000  
G10  20316768.124   106765417.812       -2145.936          51.000    20316763.261    83193840.854       -1672.105          47.000  
E11  23504089.433   123515053.352       -1585.858          42.000    23504085.670    94641512.182       -1215.133          49.000  
E09  26179954.042   137576611.663        1899.107          44.000    26179954.600   105415831.641        1455.156          49.000  
G32  22714822.627   119367207.953        1922.538          49.000    22714818.987    93013413.100        1498.116          45.000  
G18                                                                  25312905.494                       -2437.860          24.000  
> 2024 04 09 09 18 00.5000000  0 25                     
S33  39684442.827   208543308.455        -638.920          44.000  
G23  22828536.393   119964934.429       -3832.987          46.000    22828531.519    93479226.426       -2986.813          46.000  
E25  25080860.479   131800780.160       -3016.468          47.000    25080860.868   100990248.584       -2311.334          51.000  
G26  23967048.711   125947672.896       -4083.819          35.000    23967047.617    98141047.434       -3181.610          35.000  
G27  20218306.203   106247961.409         112.741          49.000    20218301.974    82790608.079          87.671          46.000  
R01  21810309.108   116588518.192        3505.449          47.000    21810305.697    90680030.949        2726.554          43.000  
R22  22169786.259   118344169.573       -2573.095          46.000    22169780.172    92045369.670       -2001.381          44.000  
R23  20287291.755   108523364.935        -354.521          49.000                                                                  
R24  22165460.023   118528693.077        1724.517          44.000    22165454.341    92189037.280        1341.028          41.000  
R08  19806492.168   106062887.744         157.001          50.000    19806485.667    82493359.171         122.021          51.000  
E02  25019161.750   131476618.153        -665.256          46.000    25019160.643   100741861.943        -509.789          49.000  
G21  23592615.275   123980051.687        1987.309          43.000                                                                  
E10  26287930.634   138144243.946       -2185.033          41.000    26287929.318   105850909.441       -1674.111          46.000  
G08  21602978.769   113524429.324        1988.821          47.000    21602975.607    88460571.482        1549.656          46.000  
G16  21741077.185   114250157.320       -3111.114          45.000                                                                  
R13  22685559.993                       -3984.143          27.000    22685556.258    94219667.532       -3098.689          36.000  
R07  21785144.990   116617644.930       -3478.831          51.000    21785137.825    90702590.422       -2705.757          46.000  
R14  22450333.018   119672736.529       -1019.992          47.000    22450332.475    93078957.656        -793.240          45.000  
S31  38729828.259   203526724.041        -639.697          43.000  
E36  24334123.814   127876748.154         -13.057          45.000    24334124.587    97983535.146         -10.001          51.000  
E04  25950781.797   136372302.135          78.481          41.000    25950781.734   104493067.416          60.149          46.000  
G10  20329064.611   106830036.118       -2162.303          51.000    20329059.488    83244192.790       -1684.865          47.000  
E11  23513143.511   123562638.036       -1586.744          42.000    23513140.683    94677973.178       -1215.727          49.000  
E09  26169122.615   137519692.890        1895.172          44.000    26169123.299   105372218.567        1452.251          50.000  
G32  22703875.774   119309676.339        1912.485          49.000    22703870.982    92968583.251        1490.245          45.000  
> 2024 04 09 09 18 30.5000000  0 26                     
S33  39688089.166   208562468.953        -638.164          44.000  
G23  22850431.442   120079996.278       -3837.825          46.000    22850426.481    93568885.041       -2990.558          46.000  
E25  25098100.388   131891377.730       -3023.314          47.000    25098101.160   101059667.509       -2316.558          51.000  
G26  23990355.681   126070150.332       -4081.511          35.000    23990353.727    98236484.479       -3180.800          34.000  
G27  20217702.426   106244787.996          98.864          49.000    20217698.204    82788135.284          77.056          46.000  
R01  21790659.062   116483475.973        3497.283          47.000    21790655.688    90598331.471        2720.288          43.000  
R22  22184258.721   118421428.067       -2577.508          45.000    22184253.867    92105459.591       -2004.784          44.000  
R23  20289294.146   108534072.921        -359.369          50.000                                                                  
R24  22155782.207   118476945.524        1725.447          41.000    22155778.263    92148789.197        1341.974          42.000  
R08  19805689.223   106058580.715         130.222          51.000    19805681.411    82490009.271         101.236          51.000  
E02  25022999.271   131496781.010        -678.747          47.000    25022997.407   100757311.389        -519.989          49.000  
G21  23581268.446   123920424.581        1987.978          44.000                                                                  
E10  26300401.761   138209780.277       -2183.987          41.000    26300400.159   105901125.610       -1673.427          46.000  
G08  21591646.616   113464877.690        1981.326          47.000    21591643.345    88414167.633        1544.089          46.000  
G16  21758874.399   114343677.311       -3123.375          46.000                                                                  
R13  22707962.586                1      -3990.968          27.000    22707957.756    94312709.491       -3104.459          35.000  
R07  21804696.004   116722298.938       -3498.048          51.000    21804688.087    90783987.988       -2720.686          47.000  
R14  22456135.768   119703673.451       -1042.545          47.000    22456135.670    93103019.685        -811.017          44.000  
S31  38733478.691   203545907.091        -638.927          43.000  
E36  24334202.705   127877159.950         -14.334          46.000    24334202.980    97983850.696         -11.040          51.000  
E04  25950370.434   136370126.856          66.602          42.000    25950367.894   104491400.623          51.069          46.000  
G10  20341452.536   106895140.828       -2178.079          51.000    20341448.784    83294923.763       -1697.169          47.000  
E11  23522202.099   123610239.800       -1586.812          42.000    23522198.988    94714447.266       -1215.995          49.000  
E09  26158313.884   137462885.766        1891.923          45.000    26158313.586   105328691.036        1449.549          50.000  
G32  22692985.117   119252444.912        1902.828          50.000    22692980.750    92923987.329        1482.690          45.000  
G18                                                                  25348612.835                       -2435.162          26.000  
> 2024 04 09 09 19 00.5000000  0 26                     
S33  39691733.663   208581619.635        -638.464          44.000  
G23  22872357.012   120195217.323       -3843.552          46.000    22872351.953    93658667.658       -2994.892          46.000  
E25  25115381.270   131982190.549       -3030.939          47.000    25115381.881   101129251.364       -2322.354          50.000  
G26  24013652.957   126192590.493       -4081.064          32.000    24013653.173    98331892.434       -3179.868          36.000  
G27  20217180.486   106242044.797          84.161          49.000    20217175.912    82785997.748          65.539          46.000  
R01  21771056.862   116378692.390        3488.147          47.000    21771053.639    90516833.178        2712.972          43.000  
R22  22198761.044   118498835.742       -2583.143          46.000    22198755.896    92165665.555       -2009.031          45.000  
R23  20291326.187   108544942.495        -365.199          50.000                                                                  
R24  22146101.350   118425181.240        1725.543          43.000    22146098.558    92108528.129        1341.895          42.000  
R08  19805036.298   106055090.384         102.565          51.000    19805029.278    82487294.587          79.694          50.000  
E02  25026915.452   131517358.103        -692.945          47.000    25026912.914   100773078.255        -530.993          49.000  
G21  23569921.505   123860795.827        1987.494          44.000                                                                  
E10  26312869.855   138275300.062       -2183.849          42.000    26312868.305   105951329.103       -1673.242          46.000  
G08  21580359.028   113405561.384        1973.176          47.000    21580355.653    88367947.169        1537.343          45.000  
G16  21776743.804   114437579.978       -3136.703          46.000                                                                  
R13  22730397.176                       -3998.226          27.000    22730399.673    94405914.545       -3108.893          35.000  
R07  21824355.173   116827540.624       -3518.018          50.000    21824349.276    90865842.603       -2736.240          49.000  
R14  22462070.509   119735300.821       -1065.953          50.000    22462068.143    93127618.751        -828.957          43.000  
S31  38737127.224   203565079.165        -639.166          43.000  
E36  24334290.654   127877620.233         -16.364          47.000    24334290.433    97984203.410         -12.558          51.000  
E04  25950026.641   136368324.480          53.695          41.000    25950025.270   104490019.579          41.326          46.000  
G10  20353933.924   106960731.418       -2194.614          50.000    20353930.515    83346033.311       -1710.073          47.000  
E11  23531263.848   123657860.324       -1587.702          42.000    23531260.696    94750935.738       -1216.676          49.000  
E09  26147526.284   137406194.115        1887.655          45.000    26147525.703   105285251.981        1446.366          50.000  
G32  22682151.585   119195518.649        1892.051          48.000    22682148.456    92879629.196        1474.387          46.000  
G18                                                                  25366452.583                3      -2436.935          21.000  
> 2024 04 09 09 19 30.0000000  0 26                     
S33  39695316.107   208600447.202        -637.855          44.000  
G23  22893947.017   120308677.220       -3848.598          46.000    22893942.311    93747077.985       -2998.633          46.000  
E25  25132415.116   132071704.364       -3037.663          47.000    25132415.624   101197839.894       -2327.712          50.000  
G26  24036557.182   126312957.555       -4079.122          32.000    24036558.468    98425684.895       -3179.185          35.000  
G27  20216748.672   106239775.084          69.970          49.000    20216744.279    82784229.147          54.522          46.000  
R01  21751830.760   116275917.980        3479.637          47.000    21751827.461    90436897.559        2706.475          43.000  
R22  22213048.195   118575106.169       -2587.705          47.000    22213044.860    92224986.971       -2012.589          45.000  
R23  20293355.410   108555796.354        -370.459          50.000                                                                  
R24  22136581.373   118374270.397        1726.223          43.000    22136577.535    92068930.833        1342.576          42.000  
R08  19804547.013   106052462.659          75.790          51.000    19804538.282    82485250.800          58.902          50.000  
E02  25030842.443   131538002.498        -706.494          46.000    25030841.323   100788896.686        -541.288          49.000  
G21  23558764.590   123802166.162        1987.733          43.000                                                                  
E10  26325128.455   138339718.438       -2183.541          42.000    26325126.751   106000688.636       -1672.874          47.000  
G08  21569304.911   113347472.110        1965.248          47.000    21569301.805    88322682.815        1531.426          46.000  
G16  21794386.850   114530294.780       -3149.031          45.000                                                                  
R13  22752509.198                3      -4004.907          25.000    22752506.264    94497726.633       -3114.787          36.000  
R07  21843794.497   116931604.811       -3537.039          48.000    21843788.735    90946781.459       -2750.932          50.000  
R14  22468033.126   119767079.512       -1088.440          50.000    22468030.758    93152335.476        -846.345          44.000  
S31  38740714.035   203583928.508        -638.508          43.000  
E36  24334386.849   127878126.275         -17.806          47.000    24334386.636    97984591.178         -13.647          51.000  
E04  25949758.798   136366923.183          41.574          41.000    25949759.274   104488945.915          31.817          47.000  
G10  20366298.629   107025706.819       -2210.372          51.000    20366294.751    83396663.501       -1722.502          47.000  
E11  23540179.859   123704711.945       -1588.440          43.000    23540176.168    94786835.028       -1217.137          49.000  
E09  26136940.294   137350568.424        1883.727          45.000    26136940.570   105242629.714        1443.408          50.000  
G32  22671556.944   119139848.374        1882.299          47.000    22671555.425    92836249.788        1466.739          46.000  
G18                                                                  25384002.272                3      -2421.219          18.000  
> 2024 04 09 09 20 00.0000000  0 26                     
S33  39698957.974   208619584.688        -637.762          44.000  
G23  22915933.471   120424214.410       -3853.867          47.000    22915928.700    93837106.963       -3003.107          46.000  
E25  25149778.840   132162946.469       -3045.059          47.000    25149778.198   101267752.670       -2333.215          49.000  
G26  24059844.488   126435323.655       -4078.236          34.000    24059843.357    98521035.075       -3177.878          34.000  
G27  20216391.219   106237898.459          55.135          49.000    20216387.191    82782766.837          43.096          46.000  
R01  21732328.584   116171668.228        3470.360          47.000    21732325.019    90355814.414        2699.003          43.000  
R22  22227607.053   118652819.923       -2593.098          45.000    22227602.917    92285431.062       -2016.838          43.000  
R23  20295449.551   108566998.311        -376.217          49.000                                                                  
R24  22126897.358   118322482.475        1726.242          44.000    22126893.804    92028651.366        1342.851          43.000  
R08  19804199.890   106050604.390          48.108          51.000    19804191.187    82483805.488          37.366          50.000  
E02  25034915.719   131559408.670        -720.344          45.000    25034915.005   100805298.817        -552.077          49.000  
G21  23547418.331   123742543.022        1987.315          44.000                                                                  
E10  26337590.707   138405214.133       -2183.269          40.000    26337589.847   106050873.652       -1672.654          47.000  
G08  21558109.023   113288638.021        1956.841          47.000    21558106.482    88276838.082        1524.779          46.000  
G16  21812400.123   114624956.269       -3161.741          45.000                                                                  
R13  22775026.056                3      -4011.119          22.000    22775024.438    94591250.579       -3119.888          36.000  
R07  21863671.796   117038009.690       -3556.565          48.000    21863666.356    91029540.784       -2766.301          49.000  
R14  22474223.560   119800080.121       -1111.555          49.000    22474222.647    93178002.644        -864.751          44.000  
S31  38744360.085   203603088.549        -638.632          43.000  
E36  24334494.149   127878689.654         -19.697          47.000    24334493.831    97985022.860         -15.102          51.000  
E04  25949560.618   136365871.263          28.774          43.000    25949558.209   104488139.929          22.036          45.000  
G10  20378963.924   107092262.090       -2226.546          50.000    20378959.871    83448524.729       -1734.994          47.000  
E11  23549250.758   123752377.601       -1589.189          44.000    23549246.787    94823358.050       -1217.632          49.000  
E09  26126198.680   137294119.941        1879.579          45.000    26126198.529   105199376.986        1440.085          50.000  
G32  22660843.408   119083545.003        1871.399          48.000    22660840.862    92792377.039        1458.150          45.000  
G18                                                                  25401819.522                3      -2428.033          19.000  
> 2024 04 09 09 20 30.0000000  0 26                     
S33  39702600.087   208638723.813        -637.478          44.000  
G23  22937950.955   120539914.641       -3858.903          47.000    22937944.865    93927263.005       -3006.814          46.000  
E25  25167183.861   132254409.571       -3051.999          47.000    25167183.002   101337834.797       -2338.483          49.000  
G26  24083121.998   126557655.657       -4076.763          34.000    24083122.350    98616358.760       -3175.959          32.000  
G27  20216118.920   106236468.782          40.805          48.000    20216115.694    82781652.810          31.833          47.000  
R01  21712879.603   116067701.286        3461.321          47.000    21712875.838    90274951.254        2692.358          42.000  
R22  22242194.889   118730696.707       -2598.066          45.000    22242190.800    92346001.889       -2020.712          42.000  
R23  20297576.662   108578377.297        -381.799          50.000                                                                  
R24  22117212.533   118270691.115        1726.954          44.000    22117207.877    91988369.221        1343.233          42.000  
R08  19804007.421   106049578.344          20.850          51.000    19803999.847    82483007.452          16.185          50.000  
E02  25039070.028   131581239.982        -734.395          45.000    25039069.415   100822026.697        -562.716          49.000  
G21  23536074.964   123682930.935        1987.355          44.000                                                                  
E10  26350053.113   138470705.310       -2182.487          40.000    26350053.010   106101055.212       -1672.121          47.000  
G08  21546961.418   113230058.148        1948.813          46.000    21546958.986    88231191.459        1518.538          46.000  
G16  21830486.171   114720003.381       -3174.034          45.000                                                                  
R13  22797588.203                3      -4016.694          26.000    22797581.956    94684936.015       -3124.644          34.000  
R07  21883659.092   117145003.026       -3575.834          46.000    21883653.967    91112757.805       -2781.151          51.000  
R14  22480545.137   119833778.492       -1134.404          50.000    22480542.870    93204212.476        -882.318          44.000  
S31  38748005.909   203622249.216        -638.211          43.000  
E36  24334611.982   127879311.794         -21.253          47.000    24334612.299    97985499.579         -16.271          51.000  
E04  25949434.319   136365206.506          16.129          42.000    25949430.977   104487630.585          12.313          44.000  
G10  20391722.270   107159307.618       -2242.425          51.000    20391718.342    83500767.993       -1747.270          47.000  
E11  23558326.948   123800073.308       -1589.875          44.000    23558322.793    94859904.112       -1218.173          49.000  
E09  26115481.830   137237804.575        1875.415          44.000    26115482.171   105156226.242        1436.976          50.000  
G32  22650191.559   119027567.839        1861.036          48.000    22650188.522    92748758.473        1450.232          45.000  
E12                                                                  28480162.043                3      -1844.719          25.000  
> 2024 04 09 09 21 00.5000000  0 25                     
S33  39706301.775   208658176.888        -637.622          44.000  
G23  22960365.225   120657701.887       -3864.460          47.000    22960360.308    94019045.264       -3011.247          46.000  
E25  25184920.131   132347615.745       -3059.451          47.000    25184919.958   101409252.512       -2344.294          49.000  
G26  24106780.125   126681982.927       -4075.253          34.000    24106779.830                       -3175.907          30.000  
G27  20215928.383   106235469.418          25.208          49.000    20215925.956    82780874.101          19.711          47.000  
R01  21693160.738   115962290.099        3451.287          48.000    21693156.095    90192964.828        2684.203          43.000  
R22  22257057.944   118810033.225       -2603.703          46.000    22257052.389    92407708.024       -2025.089          42.000  
R23  20299772.349   108590122.759        -388.017          50.000                                                                  
R24  22107363.395   118218027.524        1727.054          45.000    22107359.778    91947408.685        1343.157          43.000  
R08  19803971.300   106049383.164          -7.512          51.000    19803963.592    82482855.666          -5.939          50.000  
E02  25043375.945   131603864.846        -748.754          46.000    25043374.969   100839362.639        -573.778          50.000  
G21  23524543.181   123622329.942        1986.907          45.000                                                                  
E10  26362721.099   138537277.728       -2182.692          40.000    26362721.643   106152065.260       -1672.264          48.000  
G08  21535677.298   113170759.283        1939.852          45.000    21535674.734    88184984.569        1511.741          46.000  
G16  21848947.989   114817021.238       -3187.324          45.000                                                                  
R13  22820558.803                3      -4025.610          25.000    22820552.362    94780340.146       -3130.429          33.000  
R07  21904090.709   117254373.387       -3595.588          46.000    21904084.667    91197823.655       -2796.590          51.000  
R14  22487105.490   119868745.996       -1158.151          50.000    22487103.835    93231409.435        -900.656          46.000  
S31  38751712.309   203641724.720        -638.366          43.000  
E36  24334741.544   127879998.292         -23.483          46.000    24334743.039    97986025.603         -17.872          52.000  
E04  25949379.843   136364922.557           2.856          43.000    25949376.919   104487413.034           2.150          44.000  
G10  20404787.540   107227964.804       -2259.201          51.000    20404783.656    83554267.113       -1760.421          48.000  
E11  23567559.746   123848588.893       -1590.922          45.000    23567555.009    94897078.388       -1219.012          49.000  
E09  26104611.659   137180683.322        1870.766          44.000    26104612.239   105112458.009        1433.278          50.000  
G32  22639424.323   118970989.585        1849.675          48.000    22639421.162    92704671.561        1440.996          43.000  
> 2024 04 09 09 21 30.5000000  0 25                     
S33  39709942.675   208677309.985        -637.297          44.000  
G23  22982441.981   120773715.830       -3869.372          47.000    22982437.593    94109445.766       -3015.152          47.000  
E25  25202406.713   132439511.214       -3066.431          46.000    25202406.919   101479665.915       -2349.557          49.000  
G26  24130043.874   126804230.560       -4073.339          33.000    24130043.178                       -3175.031          28.000  
G27  20215827.590   106234938.984          10.495          49.000    20215824.855    82780460.775           8.108          47.000  
R01  21673819.431   115858899.230        3441.693          49.000    21673814.363    90112549.703        2676.992          43.000  
R22  22271706.707   118888233.036       -2608.966          42.000    22271701.142    92468530.055       -2029.062          42.000  
R23  20301964.717   108601854.936        -393.702          49.000                                                                  
R24  22097676.371   118166222.908        1727.254          47.000    22097671.240    91907116.236        1343.427          43.000  
R08  19804092.227   106050030.755         -35.062          51.000    19804085.128    82483359.362         -27.329          50.000  
E02  25047692.293   131626545.382        -762.767          46.000    25047691.017   100856741.239        -584.505          50.000  
G21  23513201.878   123562731.841        1986.805          45.000                                                                  
E10  26375183.101   138602753.089       -2182.108          41.000    26375181.103   106202234.689       -1671.930          48.000  
G08  21524627.541   113112692.279        1931.708          46.000    21524624.763    88139737.594        1505.289          46.000  
G16  21867179.478   114912829.627       -3199.513          46.000                                                                  
R13  22843188.248                       -4030.705          27.000    22843182.125    94874334.501       -3135.760          33.000  
R07  21924294.873   117362534.666       -3614.723          44.000    21924290.089    91281949.083       -2811.471          50.000  
R14  22493688.389   119903838.690       -1180.955          48.000    22493687.745    93258703.744        -918.530          47.000  
S31  38755357.181   203660880.365        -638.209          43.000  
E36  24334880.873   127880730.383         -24.965          46.000    24334882.227    97986586.573         -19.181          52.000  
E04  25949400.429   136365033.839         -10.167          42.000    25949398.201   104487498.307          -7.482          44.000  
G10  20417731.045   107295984.308       -2275.056          51.000    20417727.661    83607269.331       -1772.699          48.000  
E11  23576645.628   123896337.777       -1591.736          44.000    23576641.508    94933665.202       -1219.599          49.000  
E09  26093945.603   137124635.241        1866.357          43.000    26093946.550   105069512.082        1429.940          50.000  
G32  22628897.726   118915672.649        1838.694          48.000    22628894.476    92661567.483        1432.707          44.000  
> 2024 04 09 09 22 00.5000000  0 25                     
S33  39713583.051   208696440.176        -637.719          44.000  
G23  23004547.194   120889880.689       -3874.829          46.000    23004541.833    94199963.847       -3019.266          46.000  
E25  25219934.013   132531617.317       -3073.763          46.000    25219934.471   101550240.726       -2355.298          50.000  
G26  24153295.909                1      -4072.731          30.000    24153298.989                       -3173.818          27.000  
G27  20215812.553   106234856.232          -4.844          49.000    20215808.994    82780396.289          -3.700          47.000  
R01  21654531.580   115755799.274        3431.664          48.000    21654527.584    90032360.880        2669.019          43.000  
R22  22286386.650   118966593.160       -2614.872          42.000    22286382.252    92529476.880       -2033.985          42.000  
R23  20304190.442   108613763.284        -399.990          49.000                                                                  
R24  22087986.681   118114411.842        1727.152          44.000    22087982.151    91866818.802        1343.159          44.000  
R08  19804368.112   106051508.673         -63.296          51.000    19804360.033    82484508.849         -49.176          49.000  
E02  25052087.882   131649645.803        -777.108          46.000    25052086.971   100874441.579        -595.470          50.000  
G21  23501861.930   123503140.806        1986.193          45.000                                                                  
E10  26387641.486   138668220.107       -2182.201          41.000    26387638.936   106252397.732       -1672.112          48.000  
G08  21513626.422   113054882.550        1922.590          46.000    21513624.001    88094691.101        1498.202          46.000  
G16  21885482.072   115009010.376       -3212.347          46.000                                                                  
R13  22865853.376                       -4037.277          30.000    22865846.927    94968475.994       -3140.460          32.000  
R07  21944607.404   117471268.480       -3634.185          45.000    21944602.698    91366519.858       -2826.512          51.000  
R14  22500400.972   119939619.675       -1204.342          50.000    22500399.888    93286533.381        -936.659          46.000  
S31  38759001.705   203680032.182        -638.179          43.000  
E36  24335031.395   127881515.608         -27.139          47.000    24335031.720    97987188.249         -20.787          52.000  
E04  25949495.079   136365530.380         -22.958          42.000    25949492.886   104487878.785         -17.587          44.000  
G10  20430765.723   107364482.306       -2291.477          51.000    20430762.039    83660644.404       -1785.567          47.000  
E11  23585736.416   123944112.052       -1592.859          44.000    23585732.788    94970271.491       -1220.687          49.000  
E09  26083306.796   137068721.982        1861.427          45.000    26083306.829   105026669.465        1426.290          50.000  
G32  22618435.004   118860687.080        1827.109          49.000    22618431.816    92618721.614        1423.790          44.000  
> 2024 04 09 09 22 30.0000000  0 25                     
S33  39717162.320   208715249.329        -637.319          44.000  
G23  23026312.389   121004256.117       -3879.352          45.000    23026307.122    94289087.566       -3022.866          46.000  
E25  25237208.003   132622393.764       -3080.341          46.000    25237208.506   101619796.697       -2360.222          50.000  
G27  20215880.035   106235214.952         -19.289          50.000    20215877.283    82780675.822         -15.109          47.000  
R01  21635621.066   115654707.788        3422.234          48.000    21635616.793    89953734.203        2661.574          43.000  
R22  22300851.210   119043806.328       -2619.730          43.000    22300847.368    92589531.525       -2037.699          42.000  
R23  20306412.987   108625647.902        -405.474          50.000                                                                  
R24  22078457.739   118063460.524        1727.624          44.000    22078455.222    91827190.036        1343.469          45.000  
R08  19804791.211   106053774.926         -90.238          51.000    19804782.203    82486271.505         -70.215          49.000  
E02  25056488.216   131672772.374        -790.490          46.000    25056487.707   100892161.935        -605.672          49.000  
G21  23490712.497   123444551.786        1986.151          45.000                                                                  
E10  26399889.987   138732589.947       -2181.642          40.000    26399888.027   106301720.094       -1671.668          48.000  
G08  21502857.831   112998291.546        1914.375          46.000    21502855.049    88050594.225        1491.755          46.000  
G16  21903547.840   115103950.283       -3224.088          46.000                                                                  
R13  22888175.472   122221598.7991      -4043.714          32.000    22888169.226                       -3145.096          31.000  
R07  21964684.399   117578746.815       -3652.386          47.000    21964679.345    91450114.093       -2840.672          49.000  
R14  22507126.856   119975475.725       -1226.445          50.000    22507125.706    93314421.424        -953.916          45.000  
S31  38762585.192   203698863.708        -638.156          43.000  
E36  24335188.206   127882341.054         -28.539          47.000    24335188.836    97987820.759         -21.912          52.000  
E04  25949658.305   136366397.153         -35.466          40.000    25949658.523   104488542.953         -27.298          45.000  
G10  20443672.463   107432304.867       -2306.550          51.000    20443668.258    83713493.142       -1797.315          47.000  
E11  23594682.077   123991116.836       -1593.593          45.000    23594677.751    95006288.141       -1221.112          49.000  
E09  26072870.296   137013876.006        1857.153          45.000    26072870.020   104984644.633        1423.077          51.000  
G32  22608207.986   118806946.073        1816.497          48.000    22608204.793    92576845.491        1415.433          44.000  
G26                                                                  24176157.456                3      -3173.507          22.000  
> 2024 04 09 09 23 00.0000000  0 25                     
S33  39720801.149   208734372.143        -637.472          44.000  
G23  23048473.206   121120712.542       -3884.232          45.000    23048467.978    94379832.879       -3026.758          46.000  
E25  25254813.725   132714911.582       -3087.291          45.000    25254813.884   101690686.991       -2365.542          49.000  
G27  20216034.039   106236024.774         -34.458          49.000    20216031.378    82781306.842         -26.853          48.000  
R01  21616444.098   115552197.568        3412.121          48.000    21616440.117    89874004.041        2653.784          43.000  
R22  22315590.772   119122486.231       -2625.423          42.000    22315585.155    92650726.943       -2042.180          40.000  
R23  20308705.304   108637908.675        -411.643          50.000                                                                  
R24  22068767.686   118011637.878        1727.609          45.000    22068763.922    91786883.588        1343.760          45.000  
R08  19805375.741   106056903.018        -118.041          50.000    19805367.564    82488704.461         -91.846          50.000  
E02  25061042.932   131696704.582        -804.625          46.000    25061041.492   100910499.586        -616.559          49.000  
G21  23479375.122   123384974.198        1985.715          45.000                                                                  
E10  26412344.034   138798040.733       -2181.345          40.000    26412343.044   106351870.717       -1671.615          48.000  
G08  21491955.179   112940999.215        1905.370          46.000    21491952.691    88005950.864        1484.755          46.000  
G16  21921988.748   115200860.586       -3236.356          46.000                                                                  
R13  22910910.664   122342999.833       -4049.903          34.000    22910903.319    95155613.030       -3150.172          33.000  
R07  21985208.187   117688604.710       -3671.262          49.000    21985202.104    91535559.121       -2855.451          50.000  
R14  22514094.664   120012616.158       -1249.373          51.000    22514092.332    93343308.411        -971.658          45.000  
S31  38766228.411   203718008.650        -638.217          43.000  
E36  24335357.108   127883230.186         -30.392          47.000    24335358.113    97988502.058         -23.307          52.000  
E04  25949900.471   136367660.159         -48.522          41.000    25949898.666   104489510.706         -37.249          45.000  
G10  20456886.168   107501744.427       -2322.506          52.000    20456882.086    83767601.914       -1809.724          47.000  
E11  23603782.092   124038941.303       -1594.576          44.000    23603778.316    95042932.871       -1221.786          49.000  
E09  26062282.538   136958235.948        1852.355          46.000    26062282.297   104942011.375        1419.354          51.000  
G32  22597871.134   118752626.804        1804.919          48.000    22597868.539    92534518.806        1406.291          45.000  
G26                                                                  24199400.992                3      -3170.134          16.000  
> 2024 04 09 09 23 30.0000000  0 25                     
S33  39724439.420   208753492.277        -637.020          44.000  
G23  23070662.575   121237313.366       -3888.819          46.000    23070655.753    94470690.687       -3030.313          46.000  
E25  25272458.432   132807635.171       -3094.116          45.000    25272458.776   101761734.921       -2370.704          50.000  
G27  20216275.004   106237288.237         -49.583          50.000    20216272.348    82782291.360         -38.651          48.000  
R01  21597324.117   115449991.962        3401.927          48.000    21597320.428    89794510.794        2645.806          42.000  
R22  22330357.136   119201329.334       -2630.691          35.000    22330355.153    92712049.384       -2045.921          40.000  
R23  20311031.271   108650350.163        -417.505          50.000                                                                  
R24  22059075.775   117959811.477        1727.777          47.000    22059070.617    91746574.212        1343.902          45.000  
R08  19806114.617   106060865.111        -145.682          50.000    19806107.904    82491786.088        -113.452          50.000  
E02  25065676.414   131721056.736        -818.593          46.000    25065675.190   100929159.045        -627.278          48.000  
G21  23468038.833   123325405.011        1985.699          44.000                                                                  
E10  26424795.281   138863484.837       -2181.185          38.000    26424796.515   106402016.152       -1671.249          48.000  
G08  21481102.889   112883972.500        1896.641          45.000    21481101.241    87961514.499        1478.064          46.000  
G16  21940500.194   115298135.334       -3248.310          47.000                                                                  
R13  22933679.472   122464577.471       -4055.233          34.000    22933673.233    95250173.377       -3153.755          35.000  
R07  22005835.584   117799025.082       -3689.823          48.000    22005828.957    91621441.619       -2869.760          49.000  
R14  22521190.339   120050440.318       -1271.881          51.000    22521188.579    93372727.188        -989.382          46.000  
S31  38769871.078   203737150.621        -638.046          43.000  
E36  24335536.398   127884172.223         -31.958          47.000    24335537.516    97989223.901         -24.631          52.000  
E04  25950213.715   136369311.871         -61.127          39.000    25950212.594   104490776.328         -46.942          44.000  
G10  20470189.931   107571656.101       -2337.965          52.000    20470185.603    83822078.550       -1821.784          47.000  
E11  23612887.880   124086792.057       -1595.230          44.000    23612883.667    95079597.746       -1222.318          48.000  
E09  26051721.292   136902737.762        1847.793          45.000    26051721.160   104899486.834        1415.724          51.000  
G32  22587599.848   118698649.243        1793.766          48.000    22587597.362    92492458.384        1397.704          46.000  
G26                                                                  24222630.773                3      -3171.796          17.000  
> 2024 04 09 09 24 00.5000000  0 24                     
S33  39728138.187   208772929.141        -637.143          44.000  
G23  23093248.584   121356004.353       -3893.714          45.000    23093242.288    94563177.139       -3034.078          45.000  
E25  25290438.795   132902114.362       -3100.830          47.000    25290437.258   101834128.062       -2376.000          49.000  
G27  20216608.208   106239040.810         -64.978          49.000    20216606.086    82783657.001         -50.616          49.000  
R01  21577945.174   115346401.198        3391.310          47.000    21577941.224    89713940.197        2637.743          43.000  
R22  22345406.856   119281655.905       -2636.048          41.000    22345404.250    92774525.584       -2050.646          41.000  
R23  20313430.278   108663187.041        -423.835          50.000                                                                  
R24  22049222.641   117907119.356        1727.973          49.000    22049216.912    91705591.482        1343.926          45.000  
R08  19807027.021   106065750.440        -174.078          50.000    19807020.496    82495585.793        -135.497          50.000  
E02  25070469.666   131746246.296        -832.734          47.000    25070468.832   100948460.141        -638.062          49.000  
G21  23456516.247   123264852.625        1985.363          44.000                                                                  
E10  26437455.225   138930014.188       -2180.889          39.000    26437456.685   106452993.224       -1671.065          48.000  
G08  21470122.563   112826271.640        1887.395          46.000    21470120.681    87916552.808        1470.833          46.000  
G16  21959390.408   115397402.724       -3260.540          47.000                                                                  
R13  22956859.924   122588359.105       -4060.178          33.000    22956854.749    95346447.973       -3158.442          36.000  
R07  22026913.469   117911859.154       -3708.503          49.000    22026907.863    91709201.447       -2884.428          49.000  
R14  22528536.528   120089595.771       -1295.049          51.000    22528533.469    93403181.420       -1007.365          46.000  
S31  38773574.330   203756610.504        -637.932          43.000  
E36  24335729.309   127885185.150         -33.854          48.000    24335730.287    97990000.047         -25.887          52.000  
E04  25950610.245   136371391.768         -74.689          40.000    25950608.132   104492370.039         -57.150          44.000  
G10  20483807.504   107643215.796       -2353.858          52.000    20483802.919    83877839.353       -1834.297          47.000  
E11  23622150.339   124135468.618       -1596.323          44.000    23622146.528    95116895.374       -1223.110          48.000  
E09  26041012.592   136846463.511        1842.832          45.000    26041012.023   104856367.618        1412.079          50.000  
G32  22577224.197   118644126.920        1782.002          47.000    22577221.575    92449973.465        1388.511          45.000  
> 2024 04 09 09 24 30.5000000  0 24                     
S33  39731776.228   208792045.356        -636.766          44.000  
G23  23115491.642   121472890.376       -3898.193          42.000    23115484.539    94654257.185       -3037.466          45.000  
E25  25308161.042   132995248.491       -3107.443          46.000    25308159.814   101905490.575       -2380.951          49.000  
G27  20217023.923   106241225.763         -80.076          50.000    20217021.999    82785359.574         -62.395          49.000  
R01  21558943.096   115244824.867        3380.902          47.000    21558939.610    89634936.405        2629.552          43.000  
R22  22360241.264   119360831.899       -2641.504          43.000    22360235.807    92836106.938       -2054.614          42.000  
R23  20315825.923   108675998.475        -429.777          51.000                                                                  
R24  22039530.993   117855288.629        1728.231          49.000    22039524.206    91665278.733        1344.049          46.000  
R08  19808082.950   106071398.997        -201.847          51.000    19808074.803    82499979.132        -157.019          49.000  
E02  25075265.823   131771446.056        -846.568          47.000    25075264.655   100967769.053        -648.688          49.000  
G21  23445184.491   123205302.143        1985.434          45.000                                                                  
E10  26449906.976   138995446.936       -2180.615          38.000    26449908.193   106503129.965       -1670.816          48.000  
G08  21459374.817   112769789.965        1878.660          46.000    21459372.675    87872541.141        1463.773          46.000  
G16  21978039.846   115495404.416       -3272.480          47.000                                                                  
R13  22979690.900   122710281.048       -4066.507          35.000    22979688.764    95441276.050       -3162.862          37.000  
R07  22047752.346   118023402.945       -3726.799          50.000    22047745.117    91795957.701       -2898.803          46.000  
R14  22535888.915   120128795.168       -1317.555          50.000    22535887.438    93433669.833       -1024.739          47.000  
S31  38777216.086   203775748.938        -637.305          43.000  
E36  24335929.294   127886234.388         -35.457          48.000    24335929.734    97990804.025         -27.209          52.000  
E04  25951073.320   136373831.460         -87.542          39.000    25951072.445   104494239.437         -66.970          44.000  
G10  20497291.262   107714073.761       -2369.194          51.000    20497286.808    83933053.345       -1846.178          47.000  
E11  23631267.096   124183374.032       -1596.760          44.000    23631262.574    95153602.125       -1223.621          48.000  
E09  26030506.760   136791259.331        1838.037          45.000    26030506.648   104814068.318        1408.400          50.000  
G32  22567086.299   118590849.679        1770.557          47.000    22567082.900    92408458.737        1379.567          44.000  
> 2024 04 09 09 25 00.5000000  0 24                     
S33  39735413.338   208811159.268        -637.187          44.000  
G23  23137760.758   121589913.860       -3903.013          41.000    23137754.374    94745444.309       -3041.369          46.000  
E25  25325921.302   133088583.001       -3114.649          45.000    25325920.942   101977006.634       -2386.522          49.000  
G27  20217526.905   106243869.888         -95.957          50.000    20217525.222    82787419.938         -74.820          49.000  
R01  21540000.886   115143566.670        3369.815          47.000    21539997.318    89556180.066        2620.995          43.000  
R22  22375103.334   119440173.741       -2647.723          41.000    22375101.344    92897817.186       -2059.179          44.000  
R23  20318254.751   108688995.079        -436.395          51.000                                                                  
R24  22029837.225   117803456.487        1727.703          47.000    22029830.830    91624964.886        1343.707          44.000  
R08  19809293.499   106077884.276        -230.298          50.000    19809285.312    82505023.244        -179.082          48.000  
E02  25080140.362   131797065.393        -861.140          47.000    25080140.454   100987399.455        -659.815          50.000  
G21  23433854.128   123145760.899        1984.423          46.000                                                                  
E10  26462360.280   139060874.156       -2181.094          40.000    26462358.360   106553262.510       -1671.123          47.000  
G08  21448679.015   112713582.126        1869.016          47.000    21448676.973    87828742.831        1456.257          46.000  
G16  21996756.548   115593762.257       -3284.529          45.000                                                                  
R13  23002552.788   122832366.271       -4071.951          33.000    23002550.055    95536231.212       -3167.328          36.000  
R07  22068691.960   118135497.926       -3745.764          49.000    22068686.353    91883142.640       -2913.282          47.000  
R14  22543370.193   120168673.323       -1340.603          51.000    22543368.796    93464686.191       -1042.722          47.000  
S31  38780857.482   203794885.213        -637.917          43.000  
E36  24336138.612   127887336.044         -37.792          48.000    24336139.098    97991648.158         -28.922          52.000  
E04  25951613.259   136376662.900        -101.154          41.000    25951611.831   104496409.017         -77.439          44.000  
G10  20510863.341   107785396.994       -2385.260          51.000    20510859.170    83988629.889       -1858.649          47.000  
E11  23640389.089   124231306.260       -1598.094          45.000    23640383.985    95190329.418       -1224.640          49.000  
E09  26020029.496   136736203.812        1832.493          44.000    26020029.664   104771882.908        1404.188          49.000  
G32  22557014.157   118537924.261        1758.183          46.000    22557011.643    92367218.166        1369.993          44.000  
> 2024 04 09 09 25 30.5000000  0 24                     
S33  39739051.033   208830274.755        -636.969          44.000  
G23  23160054.598   121707076.033       -3907.614          40.000    23160049.140    94836739.503       -3044.986          46.000  
E25  25343720.391   133182119.639       -3121.160          45.000    25343720.273   102048677.548       -2391.532          49.000  
G27  20218118.572   106246978.527        -111.275          50.000    20218116.207    82789842.263         -86.583          48.000  
R01  21521120.098   115042634.307        3358.894          49.000    21521115.698    89477677.129        2612.477          43.000  
R22  22389999.436   119519685.747       -2653.067          42.000    22389994.866    92959659.833       -2063.114          40.000  
R23  20320719.847   108702181.932        -442.723          50.000                                                                  
R24  22020145.035   117751627.363        1727.640          47.000    22020138.801    91584653.389        1343.660          45.000  
R08  19810660.873   106085210.996        -258.144          50.000    19810654.152    82510721.818        -200.731          49.000  
E02  25085096.344   131823107.625        -875.084          47.000    25085096.115   101007353.885        -670.511          50.000  
G21  23422526.931   123086233.403        1984.007          46.000                                                                  
E10  26474809.379   139126299.724       -2180.627          41.000    26474809.101   106603393.823       -1670.920          48.000  
G08  21438036.670   112657654.306        1859.543          48.000    21438034.352    87785162.729        1448.964          46.000  
G16  22015541.751   115692476.918       -3296.443          46.000                                                                  
R13  23025444.345   122954614.540       -4077.625          32.000    23025444.085    95631313.062       -3171.396          37.000  
R07  22089735.233   118248143.686       -3764.091          51.000    22089729.331    91970756.061       -2927.695          46.000  
R14  22550978.507   120209232.018       -1363.318          49.000    22550978.035    93496231.855       -1060.418          47.000  
S31  38784499.336   203814023.109        -637.968          44.000  
E36  24336359.387   127888493.388         -39.371          48.000    24336359.150    97992534.973         -30.211          52.000  
E04  25952227.973   136379890.511        -114.047          41.000    25952224.720   104498882.117         -87.413          43.000  
G10  20524523.764   107857186.654       -2400.723          51.000    20524520.429    84044569.896       -1870.552          47.000  
E11  23649515.224   124279269.067       -1599.396          45.000    23649510.888    95227080.141       -1225.434          48.000  
E09  26009581.130   136681302.662        1827.433          43.000    26009582.250   104729815.789        1400.257          49.000  
G32  22547010.593   118485357.428        1746.246          46.000    22547008.579    92326257.002        1360.888          44.000  
> 2024 04 09 09 26 00.0000000  0 24                     
S33  39742627.697   208849071.680        -637.013          44.000  
G23  23182002.808   121822416.835       -3911.836          40.000    23181997.871    94926615.469       -3048.164          46.000  
E25  25361260.201   133274291.024       -3127.411          45.000    25361260.127   102119302.366       -2396.368          49.000  
G27  20218786.717   106250488.369        -126.449          50.000    20218784.212    82792577.215         -98.445          48.000  
R01  21502612.626   114943704.586        3348.327          48.000    21502608.523    89400731.796        2604.446          44.000  
R22  22404678.169   119598037.673       -2658.778          44.000    22404672.190    93020600.314       -2067.870          43.000  
R23  20323178.282   108715334.025        -448.844          50.000                                                                  
R24  22010614.165   117700664.036        1727.666          47.000    22010608.824    91545015.242        1343.744          45.000  
R08  19812159.920   106093235.377        -285.638          50.000    19812152.444    82516963.009        -221.996          49.000  
E02  25090047.975   131849126.373        -888.615          47.000    25090046.868   101027290.332        -680.919          50.000  
G21  23411390.692   123027709.886        1983.831          47.000                                                                  
E10  26487051.113   139190632.145       -2180.597          41.000    26487051.039   106652687.506       -1670.812          48.000  
G08  21427622.926   112602932.622        1850.599          47.000    21427621.244    87742522.484        1441.976          46.000  
G16  22034078.504   115789888.827       -3307.681          46.000                                                                  
R13  23047984.185   123074978.229       -4082.546          32.000    23047982.435    95724929.214       -3175.554          36.000  
R07  22110526.853   118359444.445       -3781.557          50.000    22110521.476    92057323.325       -2941.144          45.000  
R14  22558584.850   120249775.092       -1385.236          49.000    22558583.385    93527765.378       -1077.452          47.000  
S31  38788080.484   203832842.008        -637.810          43.000  
E36  24336585.957   127889683.963         -41.035          48.000    24336585.636    97993447.257         -31.431          52.000  
E04  25952903.644   136383449.897        -126.889          40.000    25952902.035   104501609.494         -97.417          42.000  
G10  20538043.253   107928230.822       -2415.602          51.000    20538040.012    84099928.982       -1882.276          47.000  
E11  23658495.791   124326460.797       -1600.123          45.000    23658491.058    95263240.054       -1225.932          48.000  
E09  25999337.042   136627467.598        1822.556          43.000    25999338.178   104688565.541        1396.514          50.000  
G32  22537241.555   118434017.907        1734.637          47.000    22537238.587    92286252.204        1351.600          43.000  
> 2024 04 09 09 26 30.0000000  0 24                     
S33  39746265.085   208868186.848        -637.068          44.000  
G23  23204347.615   121939843.085       -3916.259          40.000    23204344.261    95018116.450       -3051.630          47.000  
E25  25379133.643   133368218.990       -3133.945          44.000    25379133.975   102191273.139       -2401.373          49.000  
G27  20219554.303   106254519.309        -142.104          50.000    20219550.790    82795718.212        -110.776          48.000  
R01  21483854.162   114843427.744        3337.118          49.000    21483849.956    89322738.717        2595.527          44.000  
R22  22419635.941   119677885.488       -2664.195          44.000    22419631.485    93082704.111       -2072.147          43.000  
R23  20325714.151   108728897.792        -455.220          50.000                                                                  
R24  22000923.428   117648838.925        1727.662          49.000    22000917.378    91504706.851        1343.691          46.000  
R08  19813839.700   106102229.103        -313.782          50.000    19813831.608    82523958.127        -243.947          49.000  
E02  25095162.241   131876002.570        -902.728          47.000    25095161.110   101047883.773        -691.601          49.000  
G21  23400067.718   122968205.628        1983.374          47.000                                                                  
E10  26499499.848   139256051.715       -2180.408          42.000    26499500.027   106702814.173       -1670.821          47.000  
G08  21417086.338   112547563.990        1840.925          47.000    21417085.128    87699378.103        1434.618          46.000  
G16  22052995.746   115889297.697       -3319.323          46.000                                                                  
R13  23070935.107   123197532.049       -4087.863          32.000    23070932.135    95820248.706       -3179.398          36.000  
R07  22131771.825   118473168.331       -3799.735          51.000    22131765.897    92145775.279       -2955.255          45.000  
R14  22566444.982   120291674.122       -1407.734          49.000    22566443.473    93560353.520       -1094.939          47.000  
S31  38791722.102   203851978.877        -637.828          43.000  
E36  24336826.492   127890947.128         -42.887          48.000    24336826.205    97994415.152         -32.889          52.000  
E04  25953669.405   136387461.839        -140.345          42.000    25953665.060   104504683.557        -107.395          42.000  
G10  20551879.188   108000934.563       -2431.006          51.000    20551874.828    84156581.244       -1894.374          47.000  
E11  23667632.637   124374480.514       -1601.227          44.000    23667629.032    95300034.395       -1226.913          48.000  
E09  25988949.482   136572875.031        1817.154          44.000    25988949.854   104646734.888        1392.435          51.000  
G32  22527374.671   118382167.851        1722.316          46.000    22527371.991    92245849.590        1341.947          44.000  
> 2024 04 09 09 27 00.0000000  0 24                     
S33  39749902.376   208887300.537        -637.059          44.000  
G23  23226717.848   122057398.137       -3920.567          39.000    23226713.877    95109717.789       -3055.030          47.000  
E25  25397044.364   133462340.631       -3140.558          44.000    25397044.899   102263392.295       -2406.268          49.000  
G27  20220410.342   106259016.936        -157.723          50.000    20220406.285    82799222.864        -122.885          47.000  
R01  21465158.223   114743486.752        3325.707          49.000    21465154.010    89245006.838        2586.746          44.000  
R22  22434624.694   119757902.861       -2670.205          42.000    22434620.258    93144939.773       -2076.681          42.000  
R23  20328285.845   108742653.086        -461.707          50.000                                                                  
R24  21991232.147   117597016.157        1727.421          49.000    21991225.917    91464400.277        1343.528          46.000  
R08  19815675.844   106112062.909        -341.788          50.000    19815667.513    82531606.653        -265.741          48.000  
E02  25100356.245   131903297.958        -916.722          47.000    25100354.847   101068798.417        -702.478          48.000  
G21  23388746.333   122908713.128        1982.985          47.000                                                                  
E10  26511949.182   139321467.863       -2180.373          43.000    26511948.232   106752938.227       -1670.648          46.000  
G08  21406603.903   112492480.323        1831.537          47.000    21406602.379    87656455.798        1426.990          46.000  
G16  22071978.123   115989051.640       -3330.792          46.000                                                                  
R13  23093913.568   123320232.859       -4092.131          33.000    23093910.643    95915682.610       -3182.774          37.000  
R07  22153116.508   118587428.756       -3817.517          51.000    22153110.402    92234644.505       -2969.165          44.000  
R14  22574431.449   120334245.283       -1430.240          50.000    22574430.073    93593464.405       -1112.308          48.000  
S31  38795363.293   203871115.103        -637.580          44.000  
E36  24337076.541   127892262.414         -44.624          48.000    24337076.678    97995422.980         -34.182          52.000  
E04  25954506.877   136391869.615        -153.687          41.000    25954503.584   104508060.975        -117.629          42.000  
G10  20565800.591   108074094.714       -2446.154          51.000    20565796.223    84213589.142       -1906.036          47.000  
E11  23676776.484   124422528.244       -1601.976          44.000    23676772.178    95336850.188       -1227.518          48.000  
E09  25978592.240   136518440.393        1811.961          46.000    25978591.312   104605025.249        1388.329          50.000  
G32  22517578.716   118330683.189        1710.109          47.000    22517574.134    92205731.663        1332.421          43.000  
> 2024 04 09 09 27 30.5000000  0 24                     
S33  39753599.384   208906728.512        -636.966          44.000  
G23  23249485.027   122177039.175       -3924.509          38.000    23249479.948    95202944.596       -3058.122          46.000  
E25  25415289.140   133558224.626       -3146.858          43.000    25415291.118   102336861.858       -2411.208          50.000  
G27  20221371.066   106264066.800        -173.364          50.000    20221367.417    82803157.835        -135.107          47.000  
R01  21446214.215   114642226.041        3314.342          48.000    21446210.745    89166248.528        2577.826          43.000  
R22  22449898.621   119839425.466       -2675.769          42.000    22449892.560    93208346.281       -2081.282          43.000  
R23  20330936.559   108756832.454        -468.021          51.000                                                                  
R24  21981378.331   117544329.957        1727.556          48.000    21981373.382    91423422.158        1343.576          46.000  
R08  19817704.060   106122920.089        -370.074          50.000    19817694.515    82540051.122        -287.811          48.000  
E02  25105717.179   131931474.786        -930.761          47.000    25105716.383   101090388.464        -713.210          48.000  
G21  23377237.505   122848238.502        1982.692          46.000                                                                  
E10  26524602.953   139387968.310       -2180.080          42.000    26524602.291   106803893.135       -1670.521          46.000  
G08  21396002.991   112436770.626        1821.637          47.000    21396001.107    87613045.656        1419.618          46.000  
G16  22091343.225   116090815.725       -3342.199          46.000                                                                  
R13  23117304.766   123445122.117       -4096.899          34.000    23117298.656    96012818.645       -3186.480          38.000  
R07  22174918.177   118704136.908       -3835.331          51.000    22174912.402    92325417.537       -2983.053          46.000  
R14  22582678.946   120378209.825       -1452.734          50.000    22582677.643    93627659.017       -1130.004          47.000  
S31  38799064.971   203890566.417        -637.763          44.000  
E36  24337340.884   127893649.972         -46.233          49.000    24337340.797    97996486.189         -35.453          52.000  
E04  25955436.784   136396754.603        -166.827          42.000    25955433.655   104511804.057        -127.841          42.000  
G10  20580042.507   108148936.662       -2461.303          51.000    20580038.655    84271907.558       -1917.939          48.000  
E11  23686076.328   124471402.824       -1602.872          44.000    23686072.670    95374299.559       -1228.218          48.000  
E09  25968091.216   136463259.734        1806.632          45.000    25968090.167   104562743.979        1384.212          49.000  
G32  22507688.550   118278715.346        1697.658          46.000    22507684.227    92165237.230        1322.909          42.000  
> 2024 04 09 09 28 00.5000000  0 24                     
S33  39757235.672   208925836.758        -637.188          44.000  
G23  23271901.985   122294842.403       -3929.030          37.000    23271897.286    95294739.289       -3061.396          46.000  
E25  25433272.537   133652726.491       -3153.180          44.000    25433274.150   102409272.378       -2416.130          49.000  
G27  20222405.529   106269506.152        -189.145          50.000    20222401.906    82807396.291        -147.397          47.000  
R01  21427646.193   114542971.249        3302.630          48.000    21427643.609    89089050.347        2568.722          44.000  
R22  22464951.182   119919782.302       -2681.488          40.000    22464946.038    93270846.042       -2085.584          44.000  
R23  20333580.499   108770973.492        -474.699          52.000                                                                  
R24  21971687.339   117492509.795        1727.170          48.000    21971682.215    91383117.652        1343.521          46.000  
R08  19819855.865   106134446.285        -398.194          50.000    19819846.621    82549015.925        -309.667          46.000  
E02  25111071.411   131959610.007        -944.816          47.000    25111070.589   101111946.620        -723.993          48.000  
G21  23365919.421   122788765.960        1982.273          46.000                                                                  
E10  26537050.106   139453374.167       -2180.090          42.000    26537048.884   106854009.315       -1670.498          46.000  
G08  21385631.220   112382265.194        1811.980          47.000    21385628.749    87570573.905        1412.040          46.000  
G16  22110455.194   116191251.282       -3353.500          46.000                                                                  
R13  23140333.997                       -4101.896          32.000    23140330.070    96108469.162       -3190.251          38.000  
R07  22196461.426   118819463.684       -3853.040          51.000    22196457.072    92415116.159       -2996.810          46.000  
R14  22590917.126   120422125.520       -1475.117          50.000    22590916.372    93661815.683       -1147.301          47.000  
S31  38802705.466   203909696.536        -637.904          44.000  
E36  24337609.856   127895065.169         -48.026          48.000    24337610.185    97997570.571         -36.797          52.000  
E04  25956426.806   136401958.648        -179.942          41.000    25956423.234   104515791.605        -138.092          41.000  
G10  20594137.117   108223005.276       -2476.516          51.000    20594133.763    84329623.375       -1929.745          48.000  
E11  23695229.993   124519502.954       -1603.856          45.000    23695225.724    95411155.511       -1228.917          48.000  
E09  25957792.648   136409145.548        1800.947          45.000    25957792.508   104521279.861        1379.995          49.000  
G32  22498031.858   118227972.530        1685.083          47.000    22498028.307    92125697.383        1313.072          43.000  
> 2024 04 09 09 28 30.5000000  0 24                     
S33  39760870.231   208944937.698        -636.364          44.000  
G23  23294340.558   122412761.621       -3932.167          36.000    23294336.729    95386624.403       -3064.196          46.000  
E25  25451290.891   133747410.540       -3159.061          44.000    25451292.117   102481822.496       -2420.447          49.000  
G27  20223529.274   106275411.500        -204.547          49.000    20223525.515    82811997.862        -159.263          47.000  
R01  21409143.228   114444059.694        3291.433          48.000    21409140.756    89012119.148        2560.121          45.000  
R22  22480032.206   120000305.026       -2686.298          37.000    22480031.358    93333474.814       -2089.559          45.000  
R23  20336258.878   108785304.268        -480.667          50.000                                                                  
R24  21961997.283   117440688.581        1727.566          49.000    21961991.364    91342812.292        1343.715          46.000  
R08  19822163.773   106146808.437        -425.754          49.000    19822154.203    82558630.928        -331.132          45.000  
E02  25116503.785   131988157.673        -958.281          47.000    25116503.240   101133820.810        -734.175          48.000  
G21  23354603.981   122729300.269        1982.465          45.000                                                                  
E10  26549494.091   139518771.964       -2179.491          42.000    26549493.770   106904119.318       -1670.036          46.000  
G08  21375314.381   112328046.933        1802.804          48.000    21375311.501    87528325.936        1404.514          45.000  
G16  22129630.977   116292017.346       -3364.156          47.000                                                                  
R13  23163390.621   123691208.353       -4105.229          32.000    23163383.563    96204218.978       -3193.083          37.000  
R07  22218103.505   118935309.759       -3869.821          52.000    22218098.323    92505218.676       -3010.009          45.000  
R14  22599280.929   120466701.500       -1496.622          51.000    22599278.888    93696485.903       -1164.164          46.000  
S31  38806344.408   203928820.033        -637.208          44.000  
E36  24337887.663   127896526.033         -49.192          48.000    24337888.230    97998689.939         -37.723          52.000  
E04  25957490.160   136407555.199        -192.815          40.000    25957488.252   104520079.887        -147.950          41.000  
G10  20608315.438   108297517.196       -2490.893          50.000    20608312.771    84387684.625       -1940.942          48.000  
E11  23704387.152   124567625.704       -1604.193          45.000    23704382.809    95448028.803       -1229.111          47.000  
E09  25947526.060   136355189.995        1796.082          46.000    25947525.409   104479937.305        1376.183          49.000  
G32  22488447.406   118177598.949        1673.092          48.000    22488443.438    92086445.256        1303.779          44.000  
> 2024 04 09 09 29 00.0000000  0 24                     
S33  39764443.511   208963714.774        -636.781          44.000  
G23  23316426.340   122528827.977       -3936.221          37.000    23316423.760    95477065.695       -3067.335          46.000  
E25  25469042.330   133840693.911       -3165.319          45.000    25469043.278   102553299.362       -2425.390          49.000  
G27  20224721.463   106281675.904        -220.303          49.000    20224717.636    82816879.221        -171.639          47.000  
R01  21391011.693   114347136.781        3279.518          48.000    21391008.847    88936734.698        2550.763          45.000  
R22  22494899.724   120079649.803       -2692.743          42.000    22494895.680    93395187.419       -2094.245          45.000  
R23  20338928.055   108799584.244        -487.504          50.000                                                                  
R24  21952469.150   117389732.369        1727.084          48.000    21952462.383    91303179.747        1343.377          46.000  
R08  19824586.755   106159781.727        -453.744          50.000    19824577.466    82568721.306        -352.875          46.000  
E02  25121922.382   132016632.940        -972.196          46.000    25121921.766   101155639.516        -744.944          48.000  
G21  23343478.542   122670834.457        1981.559          46.000                                                                  
E10  26561729.500   139583073.845       -2179.863          40.000    26561729.980   106953389.597       -1670.225          46.000  
G08  21365223.136   112275016.470        1792.622          48.000    21365219.934    87487003.508        1396.984          45.000  
G16  22148547.125   116391424.815       -3375.332          46.000                                                                  
R13  23186076.655                1      -4109.650          28.000    23186074.871    96298467.716       -3196.297          34.000  
R07  22239478.287   119049729.284       -3887.260          52.000    22239472.664    92594211.662       -3023.530          47.000  
R14  22607624.033   120511177.719       -1518.691          50.000    22607622.117    93731078.526       -1181.273          45.000  
S31  38809921.857   203947619.694        -637.494          44.000  
E36  24338169.408   127898008.460         -51.280          48.000    24338170.171    97999825.830         -39.260          52.000  
E04  25958610.807   136413443.505        -206.197          40.000    25958608.938   104524591.713        -158.020          41.000  
G10  20622340.621   108371218.712       -2505.813          50.000    20622337.260    84445114.386       -1952.485          48.000  
E11  23713397.152   124614970.251       -1605.443          45.000    23713391.911    95484305.803       -1229.980          47.000  
E09  25937460.457   136302292.001        1790.186          47.000    25937459.496   104439405.090        1371.788          50.000  
G32  22479091.436   118128429.578        1660.427          48.000    22479087.743    92048131.456        1293.915          45.000  
> 2024 04 09 09 29 30.0000000  0 24                     
S33  39768077.363   208982809.772        -636.920          44.000  
G23  23338909.812   122646976.862       -3940.536          39.000    23338906.448    95569129.776       -3070.597          45.000  
E25  25487129.752   133935740.100       -3171.763          45.000    25487129.839   102626126.965       -2430.190          49.000  
G27  20226023.384   106288516.527        -236.264          50.000    20226019.640    82822209.591        -184.053          47.000  
R01  21372639.383   114248924.905        3267.276          48.000    21372635.871    88860347.684        2541.278          44.000  
R22  22510047.222   120160510.197       -2698.237          38.000    22510043.399    93458078.802       -2098.948          46.000  
R23  20341679.262   108814302.413        -494.346          51.000                                                                  
R24  21942779.008   117337918.005        1726.726          47.000    21942773.058    91262879.763        1342.823          46.000  
R08  19827206.464   106173809.779        -481.991          49.000    19827198.748    82579632.024        -374.865          47.000  
E02  25127511.758   132046003.900        -986.299          47.000    25127511.075   101178144.538        -755.852          48.000  
G21  23332166.971   122611389.975        1980.787          46.000                                                                  
E10  26574172.406   139648463.215       -2180.178          40.000    26574173.110   107003493.122       -1670.379          46.000  
G08  21355016.418   112221381.971        1782.382          47.000    21355013.550    87445210.427        1388.796          46.000  
G16  22167846.685   116492843.458       -3386.405          46.000                                                                  
R13  23209178.220                       -4113.845          28.000    23209172.978    96394409.656       -3200.060          33.000  
R07  22261310.684   119166600.365       -3904.733          52.000    22261304.869    92685111.385       -3036.826          47.000  
R14  22616231.154   120557063.190       -1540.964          51.000    22616229.759    93766767.238       -1198.668          46.000  
S31  38813559.720   203966736.539        -637.528          44.000  
E36  24338465.575   127899565.667         -53.080          48.000    24338466.680    98001019.041         -40.675          52.000  
E04  25959826.526   136419827.204        -219.970          41.000    25959823.896   104529483.153        -168.487          42.000  
G10  20636687.567   108446608.971       -2520.803          51.000    20636683.591    84503860.042       -1964.297          47.000  
E11  23722563.898   124663144.808       -1606.671          45.000    23722559.318    95521218.795       -1231.058          47.000  
E09  25927255.248   136248663.752        1784.473          46.000    25927254.969   104398313.331        1367.283          51.000  
G32  22469647.590   118078803.949        1647.533          47.000    22469644.563    92009462.153        1283.808          46.000  
