     3.00           OBSERVATION DATA    M: Mixed            RINEX VERSION / TYPE
CONVBIN 2.4.3                           20240409 001442 UTC PGM / RUN BY / DATE 
format: u-blox UBX                                          COMMENT             
log: data/2024-04-09/20240409000000.ubx                     COMMENT             
AQUI00CHL                                                   MARKER NAME         
                                                            MARKER NUMBER       
                                                            MARKER TYPE         
                                                            OBSERVER / AGENCY   
UNKNOWN             UBLOX-ZED-F9P                           REC # / TYPE / VERS 
UNKNOWN             TWIVSP6037L                             ANT # / TYPE        
  1713381.0000 -5047934.0000 -3490983.0000                  APPROX POSITION XYZ 
        0.0000        0.0000        0.0000                  ANTENNA: DELTA H/E/N
G    8 C1C L1C D1C S1C C2L L2L D2L S2L                      SYS / # / OBS TYPES 
R    8 C1C L1C D1C S1C C2C L2C D2C S2C                      SYS / # / OBS TYPES 
E    8 C1C L1C D1C S1C C7Q L7Q D7Q S7Q                      SYS / # / OBS TYPES 
S    4 C1C L1C D1C S1C                                      SYS / # / OBS TYPES 
  2024    04    09    00    00   00.0060000     GPS         TIME OF FIRST OBS   
  2024    04    09    00    14   30.0060000     GPS         TIME OF LAST OBS    
                                                            END OF HEADER       
> 2024 04 09 00 00 00.0060000  0 24                     
S33  41453511.975   217839715.7581       -785.797          44.000  
E26  28843796.316   151575248.0331       1303.136          40.000    28843797.069   116142120.2451        998.639          45.000  
G24  22589731.725   118709952.8811        532.135          50.000    22589728.921    92501346.6231        414.648          48.000  
E09  27395544.339   143964504.5701        933.907          45.000    27395543.995   110310576.4621        715.611          47.000  
G15  23211691.163   121978214.8001      -2983.909          49.000    23211688.679    95048015.3781      -2325.184          44.000  
R06  22919251.772   122301523.7631      -3881.693          39.000                                                                  
R07  22708410.693   121559941.0451       -385.559          52.000    22708405.437    94546608.0761       -299.799          50.000  
R16  22552173.558   120470158.1631      -2002.472          50.000    22552168.836    93699206.7501      -1557.526          49.000  
R09  22538365.729   120353917.2211        429.816          51.000    22538361.424    93608689.7311        334.369          49.000  
R19  23629962.637   126404676.9501       2633.092          39.000    23629960.307    98314894.1731       2047.914          46.000  
G19  23628607.036   124169590.8511      -2907.593          43.000                                                                  
G13  24268320.530   127531020.4581      -4225.129          44.000                                                                  
G17  25059397.940   131688465.0401      -3899.110          41.000    25059392.884   102614606.2981      -3038.356          44.000  
E31  26403257.329   138750376.5181        262.793          49.000    26403258.244   106315292.2031        201.403          51.000  
G12  23316187.276   122527716.5531        298.516          49.000    23316182.415    95476323.9351        232.660          46.000  
R17  24995798.658   133757614.6271      -3270.548          42.000    24995792.338   104033655.8971      -2543.606          39.000  
R18  22924995.875   122375441.4351        -49.104          50.000    22924993.757    95180868.6331        -38.081          49.000  
E19  28244406.852   148425428.3611      -3784.777          39.000    28244416.566   113728621.0571      -2899.848          42.000  
S31  40501085.925   212834671.5661       -785.328          44.000  
G25  25227976.292   132574065.5351       1298.289          42.000    25227977.712   103304552.1001       1011.534          41.000  
G06  25878473.255   135992366.7381       1305.583          44.000    25878471.826   105968101.6631       1017.368          42.000  
E21  28848534.316   151600475.4901      -2860.163          44.000    28848534.257   116161607.8841      -2191.466          41.000  
G22  25837679.645   135777931.4251      -3858.932          43.000                                                                  
E04  25556649.839   134301137.8251      -1656.096          49.000    25556649.721   102906173.4611      -1268.908          53.000  
> 2024 04 09 00 00 30.0060000  0 25                     
S33  41457995.994   217863280.527        -785.314          44.000  
E26  28836371.518   151536226.518        1298.005          41.000    28836371.595   116112220.755         994.475          45.000  
G24  22586717.412   118694111.241         523.700          50.000    22586714.162    92489002.494         408.118          47.000  
E09  27390241.868   143936640.999         923.443          45.000    27390242.134   110289226.483         707.554          47.000  
G15  23228763.150   122067928.041       -2997.032          49.000    23228760.708    95117921.629       -2335.355          44.000  
R06  22941118.634   122418207.562       -3897.116          38.000                                                                  
R07  22710645.702   121571901.681        -412.085          52.000    22710639.261    94555910.774        -320.538          49.000  
R16  22563429.929   120530277.907       -2005.670          52.000    22563423.329    93745966.506       -1559.918          48.000  
R09  22535961.561   120341081.052         425.842          52.000    22535958.725    93598706.065         331.158          50.000  
R19  23615230.249   126325866.140        2620.797          41.000    23615226.511    98253597.047        2038.479          45.000  
G19  23645248.122   124257042.014       -2922.945          43.000                                                                  
G13  24292463.526   127657888.392       -4232.932          45.000                                                                  
G17  25081687.601   131805598.854       -3910.234          39.000    25081682.299   102705879.413       -3046.678          44.000  
E31  26401769.338   138742561.815         257.908          48.000    26401771.120   106309304.365         197.706          51.000  
G12  23314506.197   122518883.803         290.142          49.000    23314501.421    95469441.320         226.011          46.000  
R17  25014189.610   133856032.338       -3290.714          39.000    25014183.646   104110202.966       -2559.384          38.000  
R18  22925341.873   122377289.007         -74.373          50.000    22925339.015    95182305.639         -57.816          49.000  
E19  28266021.516   148539013.265       -3788.269          39.000    28266031.489   113815653.126       -2902.421          42.000  
S31  40505567.114   212858220.471        -784.946          44.000  
G25  25220577.383   132535184.430        1293.254          43.000    25220579.026   103274255.367        1007.952          42.000  
G06  25871042.350   135953319.278        1297.673          42.000    25871041.653   105937675.149        1010.954          42.000  
E21  28864856.986   151686251.749       -2858.388          45.000    28864857.023   116227332.557       -2190.371          42.000  
G22  25859707.580   135893688.261       -3858.243          42.000                                                                  
E04  25566141.612   134351014.323       -1669.256          49.000    25566141.006   102944390.481       -1279.036          53.000  
E13                                                                  29712796.775                1       -360.384          24.000  
> 2024 04 09 00 01 00.0060000  0 25                     
S33  41462479.938   217886845.449        -785.449          45.000  
E26  28828978.064   151497370.698        1292.562          42.000    28828976.828   116082448.204         990.259          43.000  
G24  22583753.542   118678535.734         514.746          50.000    22583750.008    92476865.750         401.056          47.000  
E09  27385001.547   143909103.429         912.535          45.000    27385002.263   110268126.290         699.263          48.000  
G15  23245911.398   122158041.487       -3010.413          49.000    23245909.173    95188139.724       -2345.859          44.000  
R06  22963073.367   122535365.632       -3912.631          37.000                                                                  
R07  22713029.846   121584665.526        -438.745          52.000    22713023.688    94565838.206        -341.266          49.000  
R16  22574700.750   120590496.876       -2009.027          49.000    22574696.749    93792803.499       -1562.476          50.000  
R09  22533581.716   120328371.317         421.655          52.000    22533577.830    93588820.769         328.009          49.000  
R19  23600566.919   126247424.486        2608.354          41.000    23600562.210    98192587.045        2028.798          45.000  
G19  23661977.979   124344960.465       -2938.590          43.000                                                                  
G13  24316652.176   127784998.090       -4240.940          45.000                                                                  
G17  25104038.575   131923058.578       -3920.620          36.000    25104034.598   102797406.585       -3055.049          44.000  
E31  26400310.274   138734901.094         252.931          47.000    26400313.093   106303434.530         193.728          50.000  
G12  23312874.079   122510307.621         281.659          49.000    23312869.512    95462758.623         219.471          47.000  
R17  25032695.996   133955058.974       -3311.057          38.000    25032688.210   104187223.590       -2575.090          38.000  
R18  22925830.822   122379902.979         -99.886          49.000    22925829.036    95184338.741         -77.626          50.000  
E19  28287656.184   148652699.676       -3791.062          40.000    28287665.923   113902762.996       -2904.840          41.000  
S31  40510047.645   212881767.695        -784.780          44.000  
G25  25213207.909   132496454.176        1288.629          43.000    25213209.548   103244076.237        1003.922          42.000  
G06  25863658.928   135914520.474        1288.930          42.000    25863658.029   105907442.327        1004.769          41.000  
E21  28881171.210   151771985.089       -2857.073          44.000    28881171.628   116293024.307       -2189.246          42.000  
G22  25881733.932   136009436.329       -3858.013          42.000                                                                  
E04  25575709.603   134401293.550       -1682.666          49.000    25575709.108   102982916.089       -1289.298          53.000  
E13                                                                  29715521.853                3       -370.410          26.000  
> 2024 04 09 00 01 30.0060000  0 25                     
S33  41466964.127   217910408.584        -785.432          45.000  
E26  28821614.981   151458682.606        1286.382          42.000    28821614.482   116052804.169         985.992          44.000  
G24  22580840.380   118663228.151         505.658          49.000    22580837.093    92464937.787         394.116          47.000  
E09  27379824.384   143881893.288         901.479          46.000    27379824.752   110247276.990         690.730          48.000  
G15  23263135.271   122248552.652       -3023.647          49.000    23263132.759    95258667.730       -2356.117          44.000  
R06  22985117.129   122652993.483       -3928.630          36.000                                                                  
R07  22715563.774   121598233.271        -465.662          52.000    22715557.871    94576390.866        -362.170          49.000  
R16  22585992.492   120650815.112       -2012.396          51.000    22585987.465    93839717.675       -1565.149          48.000  
R09  22531225.012   120315788.324         417.273          51.000    22531221.080    93579034.055         324.585          49.000  
R19  23585972.861   126169357.080        2595.994          40.000    23585968.954    98131868.146        2019.172          46.000  
G19  23678797.232   124433344.015       -2953.874          44.000                                                                  
G13  24340885.920   127912346.835       -4248.934          45.000                                                                  
G17  25126445.465                3      -3931.239          27.000    25126447.873   102889185.565       -3063.365          44.000  
E31  26398881.633   138727393.752         247.770          47.000    26398884.555   106297682.207         189.836          50.000  
G12  23311290.338   122501987.424         273.104          49.000    23311286.322    95456275.405         212.787          47.000  
R17  25051313.668   134054691.409       -3331.378          37.000    25051307.360   104264715.522       -2590.930          38.000  
R18  22926465.199   122383285.063        -125.739          49.000    22926462.268    95186969.235         -97.679          49.000  
E19  28309309.584   148766485.924       -3794.584          40.000    28309318.806   113989949.356       -2907.402          41.000  
S31  40514528.369   212905313.862        -784.935          44.000  
G25  25205866.880   132457874.562        1283.552          45.000    25205868.054   103214014.474        1000.140          42.000  
G06  25856323.075   135875973.197        1280.542          42.000    25856322.369   105877405.619         997.740          40.000  
E21  28897477.326   151857675.074       -2855.850          44.000    28897477.506   116358682.828       -2188.199          41.000  
G22  25903757.810   136125174.399       -3857.916          42.000                                                                  
E04  25585353.999   134451974.986       -1696.198          49.000    25585353.421   103021749.875       -1299.618          53.000  
E13                                                                  29718322.248                3       -380.242          25.000  
> 2024 04 09 00 02 00.0060000  0 27                     
S33  41471447.908   217933971.486        -785.165          45.000  
E26  28814285.740   151420165.348        1281.169          43.000    28814284.899   116023291.021         981.812          44.000  
G24  22577978.363   118648191.281         496.997          49.000    22577975.113    92453220.759         387.219          47.000  
E09  27374709.405   143855012.948         890.867          46.000    27374709.649   110226680.396         682.493          49.000  
G15  23280434.395   122339460.299       -3036.579          49.000    23280432.446    95329504.701       -2366.178          44.000  
R06  23007248.132   122771087.743       -3944.319          37.000                                                                  
R07  22718248.601   121612605.675        -492.206          53.000    22718242.690    94587569.387        -382.867          50.000  
R08  25478720.942                3       2015.000          13.000                                                                  
R16  22597303.406   120711233.320       -2015.357          50.000    22597298.317    93886709.604       -1567.584          48.000  
R09  22528892.140   120303332.360         413.257          52.000    22528888.606    93569346.122         321.454          49.000  
R19  23571450.465   126091669.849        2583.493          41.000    23571446.971    98071444.925        2009.382          48.000  
G19  23695704.178   124522191.375       -2969.060          44.000                                                                  
G13  24365164.679   128039933.046       -4256.458          44.000                                                                  
G17  25148929.692                1      -3941.493          27.000    25148922.572   102981214.755       -3071.610          44.000  
E31  26397483.204   138720040.210         242.876          48.000    26397485.285   106292047.733         186.106          51.000  
G12  23309755.912   122493923.567         264.714          50.000    23309752.013    95449991.924         206.282          47.000  
R17  25070046.735   134154927.988       -3351.027          32.000    25070039.146   104342677.278       -2606.100          33.000  
R18  22927242.214   122387437.871        -150.981          49.000    22927240.078    95190199.226        -117.457          49.000  
E19  28330981.820   148880370.991       -3797.183          40.000    28330990.979   114077211.439       -2909.634          41.000  
S31  40519008.949   212928859.646        -784.454          44.000  
G25  25198553.927   132419446.317        1278.370          44.000    25198554.798   103184070.641         996.182          42.000  
G06  25849037.160   135837681.551        1272.187          43.000    25849034.982   105847568.041         991.289          39.000  
E21  28913776.324   151943322.358       -2853.929          44.000    28913775.398   116424308.656       -2186.542          41.000  
G22  25925780.143   136240902.467       -3856.934          38.000                                                                  
E04  25595074.803   134503059.003       -1709.131          49.000    25595074.319   103060892.142       -1309.656          53.000  
G11  26722193.647   140426043.5261       1858.511          30.000    26722198.323                1       1448.318          28.000  
E13                                                                  29721183.425                        -390.621          26.000  
> 2024 04 09 00 02 30.0060000  0 27                     
S33  41475930.999   217957530.859        -785.252          45.000  
E26  28806988.923   151381817.258        1275.222          44.000    28806987.907   115993907.468         977.333          45.000  
G24  22575167.982   118633423.094         487.683          49.000    22575165.007    92441713.091         379.938          47.000  
E09  27369656.814   143828460.008         879.590          46.000    27369656.811   110206334.655         673.916          49.000  
G15  23297808.043   122430757.752       -3049.829          49.000    23297806.405    95400645.385       -2376.382          45.000  
R06  23029465.881   122889639.830       -3959.198          37.000                                                                  
R07  22721083.992   121627778.717        -519.183          53.000    22721077.592    94599370.629        -403.790          50.000  
R16  22608631.686   120771747.882       -2018.793          51.000    22608626.559    93933776.488       -1570.294          48.000  
R09  22526583.527   120290999.008         408.990          53.000    22526578.241    93559753.555         318.024          49.000  
R19  23556998.065   126014362.761        2570.452          40.000    23556995.250    98011317.325        1999.151          47.000  
G19  23712698.371   124611495.984       -2984.388          44.000                                                                  
G13  24389488.497   128167750.278       -4264.435          45.000                                                                  
G17  25171469.862   132276911.1693      -3952.321          29.000    25171456.083   103073488.799       -3080.010          44.000  
E31  26396113.217   138712835.967         237.629          48.000    26396114.217   106286527.657         182.021          51.000  
G12  23308268.902   122486111.671         256.243          49.000    23308265.079    95443904.774         199.669          47.000  
R17  25088890.060   134255761.445       -3371.393          33.000    25088883.062   104421103.327       -2621.769          33.000  
R18  22928164.005   122392358.996        -176.940          48.000    22928161.872    95194026.794        -137.588          49.000  
E19  28352671.288   148994349.560       -3800.846          39.000    28352681.168   114164545.149       -2912.394          41.000  
S31  40523488.703   212952401.936        -784.665          44.000  
G25  25191269.121   132381165.254        1273.656          45.000    25191269.166   103154241.495         992.356          41.000  
G06  25841799.724   135799644.649        1263.750          42.000    25841796.811   105817928.972         984.685          38.000  
E21  28930064.662   152028922.799       -2852.645          43.000    28930064.135   116489898.597       -2185.988          40.000  
G22  25947800.681   136356616.071       -3856.863          39.000                                                                  
E04  25604871.409   134554541.228       -1722.872          49.000    25604871.209   103100339.528       -1320.076          53.000  
G11  26711576.966   140370265.348        1859.979          31.000    26711586.052   109379595.4171       1449.367          32.000  
E13                                                                  29724130.280                3       -400.654          25.000  
R08                                                                  25467515.344                3       2105.766          12.000  
> 2024 04 09 00 03 00.0060000  0 27                     
S33  41480413.487   217981087.674        -785.445          45.000  
E26  28799723.596   151343641.545        1269.352          43.000    28799723.762   115964656.027         972.750          46.000  
G24  22572409.683   118618926.662         478.314          49.000    22572406.331    92430417.162         372.791          47.000  
E09  27364666.563   143802237.063         868.245          46.000    27364666.552   110186241.768         665.396          48.000  
G15  23315256.027   122522444.085       -3063.054          49.000    23315253.610    95472089.106       -2386.589          45.000  
R06  23051767.089   123008646.739       -3974.668          37.000                                                                  
R07  22724066.908   121643753.791        -546.161          51.000    22724062.270    94611795.685        -424.762          50.000  
R08  25756123.629                3       1964.266          14.000                                                                  
R16  22619978.951   120832359.599       -2022.272          51.000    22619973.246    93980918.939       -1572.955          48.000  
R09  22524297.562   120278789.811         404.639          53.000    22524291.653    93550257.558         314.752          48.000  
R19  23542617.939   125937442.573        2557.632          40.000    23542615.266    97951490.681        1989.013          47.000  
G19  23729779.759   124701256.941       -3000.079          45.000                                                                  
G13  24413855.833   128295797.124       -4272.347          46.000                                                                  
G17  25194070.852                1      -3963.461          27.000    25194049.448   103166006.119       -3088.198          43.000  
E31  26394770.090   138705781.690         232.456          48.000    26394771.983   106281122.491         178.070          51.000  
G12  23306830.296   122478552.048         247.476          49.000    23306826.283    95438014.208         192.778          46.000  
R17  25107844.069   134357189.864       -3391.226          32.000    25107839.200                       -2637.674          31.000  
R18  22929230.885   122398051.407        -202.904          49.000    22929228.236    95198454.280        -157.784          49.000  
E19  28374378.838   149108421.283       -3804.065          39.000    28374388.633   114251950.257       -2915.012          41.000  
S31  40527968.397   212975940.921        -784.961          44.000  
G25  25184012.697   132343032.368        1268.320          45.000    25184012.087   103124527.837         988.083          42.000  
G06  25834610.367   135761866.755        1254.280          42.000    25834608.365   105788491.747         977.603          39.000  
E21  28946344.377   152114477.264       -2851.318          42.000    28946345.106   116555453.305       -2184.638          41.000  
G22  25969816.793   136472314.877       -3856.366          37.000                                                                  
E04  25614743.596   134606422.271       -1736.258          48.000    25614743.771   103140092.518       -1330.403          53.000  
G11  26700949.796   140314438.571        1861.356          34.000    26700962.225   109336094.938        1450.097          36.000  
E13                                                                  29727151.343                        -411.127          27.000  
> 2024 04 09 00 03 30.0060000  0 27                     
S33  41484897.244   218004650.524        -785.868          45.000  
E26  28792493.523   151305649.113        1263.284          43.000    28792493.773   115935545.011         967.840          46.000  
G24  22569704.905   118604712.580         468.854          50.000    22569701.473    92419341.246         365.570          46.000  
E09  27359741.194   143776354.244         856.913          46.000    27359741.077   110166409.516         656.536          48.000  
G15  23332779.035   122614525.591       -3076.189          49.000    23332776.478    95543840.763       -2396.980          45.000  
R06  23074155.304   123128112.530       -3989.935          36.000                                                                  
R07  22727202.137   121660539.782        -573.248          51.000    22727198.220    94624851.445        -445.819          50.000  
R16  22631344.954   120893077.819       -2026.001          51.000    22631339.678    94028144.226       -1575.757          46.000  
R09  22522034.582   120266713.450         400.165          51.000    22522030.160    93540864.838         311.279          49.000  
R19  23528312.962   125860922.679        2543.682          39.000    23528309.270    97891975.381        1978.290          45.000  
G19  23746949.018   124791480.581       -3015.461          46.000                                                                  
G13  24438267.808   128424079.529       -4280.332          46.000                                                                  
G17  25216724.016                1      -3973.798          27.000    25216703.689   103258771.736       -3096.437          43.000  
E31  26393457.507   138698885.551         226.980          48.000    26393459.547   106275838.481         173.981          50.000  
G12  23305441.355   122471252.677         238.624          48.000    23305437.610    95432326.422         186.130          47.000  
R17  25126897.546                1      -3411.561          28.000    25126910.483                       -2653.081          27.000  
R18  22930445.514   122404525.670        -229.128          51.000    22930441.467    95203489.830        -178.132          49.000  
E19  28396105.140   149222592.942       -3807.561          38.000    28396115.404   114339431.885       -2917.324          41.000  
S31  40532448.679   212999485.437        -785.173          44.000  
G25  25176785.613   132305056.101        1262.978          45.000    25176785.378   103094936.211         984.071          42.000  
G06  25827472.880   135724359.595        1245.232          41.000    25827469.815   105759265.463         970.404          37.000  
E21  28962617.610   152199994.218       -2849.993          41.000    28962618.313   116620979.280       -2183.877          41.000  
G22  25991832.047   136588006.814       -3856.602          36.000                                                                  
E04  25624693.055   134658710.324       -1749.921          48.000    25624693.881   103180157.363       -1340.868          53.000  
G11  26690320.311   140258574.774        1862.598          40.000    26690329.828   109292565.670        1451.007          38.000  
E13                                                                  29730250.373                        -420.903          28.000  
R08                                                                  25440137.903                3       2054.499          12.000  
> 2024 04 09 00 04 00.0060000  0 26                     
S33  41489382.151   218028218.150        -785.574          45.000  
E26  28785299.438   151267841.069        1257.225          43.000    28785299.329   115906575.267         963.422          46.000  
G24  22567053.528   118590781.650         459.662          49.000    22567050.290    92408485.992         358.264          47.000  
E09  27354880.451   143750812.017         845.921          45.000    27354880.532   110146838.219         648.050          48.000  
G15  23350375.780   122706998.799       -3088.782          49.000    23350373.863    95615897.650       -2407.054          45.000  
R06  23096627.827   123248032.186       -4005.134          36.000                                                                  
R07  22730490.064   121678135.136        -599.884          52.000    22730484.333    94638536.707        -466.626          49.000  
R16  22642730.472   120953901.445       -2029.022          51.000    22642725.740    94075451.545       -1578.137          46.000  
R09  22519798.027   120254768.253         396.161          52.000    22519793.352    93531574.166         308.228          49.000  
R19  23514084.488   125784806.868        2530.459          41.000    23514079.875    97832774.350        1968.169          45.000  
G19  23764206.281   124882163.365       -3030.262          47.000                                                                  
G13  24462723.767   128552593.767       -4287.345          46.000                                                                  
G17  25239433.330   132634142.3121      -3983.900          32.000    25239418.043   103351782.614       -3104.403          42.000  
E31  26392174.757   138692145.933         222.180          47.000    26392176.509   106270674.404         170.237          50.000  
G12  23304101.673   122464212.092         230.546          49.000    23304097.310    95426840.298         179.760          46.000  
R17  25146083.084                3      -3427.884          18.000    25146087.044   104659168.694       -2667.933          32.000  
R18  22931804.453   122411782.081        -254.787          50.000    22931801.310    95209133.733        -198.074          50.000  
E19  28417850.350   149336861.893       -3810.221          38.000    28417860.637   114426988.093       -2919.731          42.000  
S31  40536929.788   213023035.608        -784.838          44.000  
G25  25169587.884   132267235.240        1258.287          43.000    25169588.098   103065465.669         980.588          42.000  
G06  25820386.727   135687125.187        1236.575          42.000    25820384.045   105730251.750         963.491          38.000  
E21  28978884.148   152285472.359       -2848.362          41.000    28978884.070   116686475.530       -2182.495          41.000  
G22  26013845.006   136703690.148       -3855.926          32.000                                                                  
E04  25634720.333   134711403.806       -1763.143          48.000    25634721.198   103220532.857       -1350.956          53.000  
G11  26679683.041   140202675.816        1863.890          43.000    26679691.553   109249008.973        1452.487          41.000  
E13                                                                  29733428.458                        -430.994          30.000  
> 2024 04 09 00 04 30.0060000  0 26                     
S33  41493865.837   218051783.609        -785.102          45.000  
E26  28778139.945   151230212.255        1251.408          44.000    28778139.143   115877742.854         958.847          47.000  
G24  22564455.135   118577128.425         450.659          49.000    22564452.050    92397847.117         351.202          46.000  
E09  27350083.368   143725604.412         834.839          45.000    27350083.686   110127523.332         639.653          48.000  
G15  23368045.738   122799854.085       -3101.233          49.000    23368044.457    95688252.197       -2416.658          46.000  
R06  23119184.146   123368393.489       -4019.366          37.000                                                                  
R07  22733927.039   121696533.060        -626.459          51.000    22733920.446    94652846.175        -487.274          49.000  
R16  22654137.049   121014823.094       -2032.159          51.000    22654131.121    94122835.073       -1580.524          47.000  
R09  22517583.627   120242946.746         392.249          51.000    22517579.938    93522379.698         305.042          49.000  
R19  23499931.291   125709092.115        2517.208          41.000    23499926.074    97773885.275        1957.910          46.000  
G19  23781547.978   124973295.608       -3044.972          47.000                                                                  
G13  24487222.056   128681330.118       -4294.694          46.000                                                                  
G17  25262201.480   132753810.828       -3993.786          34.000    25262191.020   103445030.813       -3112.012          42.000  
E31  26390920.860   138685554.995         217.452          46.000    26390922.377   106265624.235         166.540          50.000  
G12  23302810.329   122457422.103         222.321          49.000    23302804.811    95421549.446         173.237          46.000  
R18  22933309.372   122419814.795        -280.535          50.000    22933305.663    95215381.416        -218.167          49.000  
E19  28439612.949   149451218.996       -3813.118          38.000    28439622.477   114514611.799       -2921.571          42.000  
S31  40541410.810   213046582.794        -784.526          43.000  
G25  25162419.294   132229562.184        1253.466          44.000    25162419.138   103036110.282         976.737          42.000  
G06  25813352.788   135650159.267        1227.742          43.000    25813351.390   105701447.220         956.919          40.000  
E21  28995140.286   152370904.071       -2846.429          40.000    28995141.996   116751936.217       -2181.260          43.000  
G22  26035854.727   136819356.736       -3855.033          34.000                                                                  
E04  25644823.567   134764494.803       -1776.127          48.000    25644824.133   103261212.927       -1360.934          53.000  
G11  26669037.406   140146737.222        1865.427          44.000    26669045.659   109205421.413        1453.542          43.000  
E13                                                                  29736678.825                        -441.053          28.000  
R17                                                                  25165381.086                       -2683.851          26.000  
> 2024 04 09 00 05 00.0060000  0 26                     
S33  41498350.478   218075351.178        -785.641          44.000  
E26  28771014.846   151192768.488        1244.830          45.000    28771013.175   115849052.249         953.944          46.000  
G24  22561910.455   118563758.580         441.034          48.000    22561907.913    92387429.062         343.506          46.000  
E09  27345350.014   143700736.695         823.229          45.000    27345351.658   110108468.870         630.763          48.000  
G15  23385788.615   122893092.613       -3114.320          49.000    23385786.882    95760905.416       -2426.877          45.000  
R06  23141822.204   123489195.867       -4034.138          37.000                                                                  
R07  22737514.015   121715736.530        -653.534          51.000    22737508.234    94667782.207        -508.356          49.000  
R16  22665559.456   121075846.683       -2035.822          50.000    22665554.110    94170297.856       -1583.429          47.000  
R09  22515394.565   120231252.518         387.604          52.000    22515389.683    93513284.238         301.459          49.000  
R19  23485853.295   125633787.183        2503.104          40.000    23485848.941    97715314.962        1946.832          45.000  
G19  23798975.053   125064878.663       -3060.165          46.000                                                                  
G13  24511762.199   128810289.578       -4302.333          45.000                                                                  
G17  25285027.485   132873784.446       -4003.991          38.000    25285021.480   103538516.841       -3120.315          42.000  
E31  26389695.570   138679115.976         212.054          46.000    26389697.216   106260690.473         162.481          51.000  
G12  23301566.192   122450885.843         213.571          49.000    23301561.348    95416456.314         166.482          46.000  
R18  22934960.327   122428629.119        -306.869          50.000    22934957.021    95222237.014        -238.758          49.000  
E19  28461391.901   149565666.643       -3816.544          38.000    28461401.967   114602304.926       -2924.406          42.000  
S31  40545891.807   213070131.398        -784.965          44.000  
G25  25155278.942   132192040.489        1248.125          44.000    25155278.886   103006872.851         972.648          42.000  
G06  25806370.575   135613468.583        1218.486          43.000    25806368.803   105672857.143         949.310          41.000  
E21  29011390.174   152456292.949       -2845.533          41.000    29011390.827   116817364.073       -2180.348          44.000  
G22  26057861.587   136935009.229       -3854.546          36.000                                                                  
E04  25655003.087   134817986.523       -1789.843          49.000    25655003.447   103302200.056       -1371.411          53.000  
G11  26658385.978   140090765.642        1866.110          41.000    26658393.279   109161808.190        1454.320          42.000  
E13                                                                  29740001.752                3       -450.876          25.000  
R17                                                                  25184772.740                1      -2698.830          29.000  
> 2024 04 09 00 05 30.0060000  0 26                     
S33  41502835.246   218098918.779        -785.586          44.000  
E26  28763925.200   151155510.552        1238.751          45.000    28763922.986   115820504.025         949.238          46.000  
G24  22559420.931   118550672.571         431.409          49.000    22559418.001    92377232.163         336.279          47.000  
E09  27340682.239   143676208.840         811.958          44.000    27340683.849   110089674.812         622.059          48.000  
G15  23403603.816   122986710.669       -3126.897          50.000    23403601.087    95833854.337       -2436.505          44.000  
R06  23164542.726   123610433.538       -4048.412          37.000                                                                  
R07  22741252.833   121735744.412        -680.261          52.000    22741246.242    94683343.877        -529.132          49.000  
R16  22677002.714   121136970.686       -2039.111          49.000    22676997.697    94217838.751       -1586.053          48.000  
R09  22513227.835   120219684.045         383.496          51.000    22513223.167    93504286.557         298.230          49.000  
R19  23471852.852   125558895.408        2489.596          40.000    23471847.338    97657065.941        1936.163          45.000  
G19  23816487.825   125156908.768       -3075.107          46.000                                                                  
G13  24536343.939   128939468.328       -4309.666          44.000                                                                  
G17  25307913.159   132994059.341       -4014.069          40.000    25307909.228   103632237.547       -3127.850          42.000  
E31  26388498.079   138672826.867         207.171          46.000    26388500.769   106255871.600         158.792          51.000  
G12  23300370.153   122444601.501         205.466          49.000    23300365.256    95411559.500         159.706          46.000  
R18  22936757.987   122438225.051        -332.893          49.000    22936754.736    95229700.524        -258.909          50.000  
E19  28483187.148   149680201.758       -3818.850          38.000    28483198.103   114690065.068       -2926.563          43.000  
S31  40550372.874   213093680.056        -785.154          44.000  
G25  25148166.725   132154668.432        1243.254          43.000    25148167.475   102977752.058         968.631          42.000  
G06  25799441.696   135577054.784        1209.517          43.000    25799440.120   105644482.818         942.344          43.000  
E21  29027629.211   152541637.321       -2844.019          39.000    29027631.824   116882757.805       -2179.292          45.000  
G22  26079867.866   137050645.581       -3854.071          38.000                                                                  
E04  25665258.522   134871876.934       -1802.873          49.000    25665258.418   103343492.669       -1381.451          53.000  
G11  26647728.103   140034762.496        1867.275          43.000    26647736.277   109118170.397        1454.825          43.000  
E13                                                                  29743411.402                3       -461.884          25.000  
R17                                                                  25204278.885                       -2714.317          26.000  
> 2024 04 09 00 06 00.0060000  0 26                     
S33  41507318.696   218122478.716        -784.896          44.000  
E26  28756869.000   151118433.599        1232.897          45.000    28756866.982   115792094.454         944.674          45.000  
G24  22556983.979   118537865.355         422.351          49.000    22556981.141    92367252.537         329.108          47.000  
E09  27336078.539   143652015.322         801.017          44.000    27336079.744   110071136.938         613.815          48.000  
G15  23421489.217   123080698.706       -3138.934          50.000    23421486.955    95907091.592       -2445.929          44.000  
R06  23187342.717   123732095.073       -4062.489          38.000    23186822.812                3      -2776.555          13.000  
R07  22745138.666   121756549.040        -706.641          51.000    22745133.079    94699525.272        -549.567          50.000  
R16  22688462.406   121198188.340       -2041.992          50.000    22688456.796    94265452.469       -1588.220          48.000  
R09  22511082.731   120208234.093         379.761          51.000    22511078.900    93495381.051         295.520          48.000  
R19  23457929.107   125484414.681        2475.939          40.000    23457924.522    97599136.595        1925.946          46.000  
G19  23834083.381   125249376.748       -3089.183          47.000                                                                  
G13  24560966.099   129068856.606       -4316.167          44.000                                                                  
G17  25330856.764   133114625.462       -4023.302          40.000    25330851.435   103726185.206       -3135.284          40.000  
E31  26387328.470   138666680.217         202.676          46.000    26387331.029   106251161.888         155.366          51.000  
G12  23299220.597   122438561.358         197.522          49.000    23299215.720    95406852.944         153.796          45.000  
R18  22938698.956   122448596.844        -358.408          47.000    22938696.960    95237767.482        -278.838          49.000  
E19  28504997.478   149794815.677       -3821.552          38.000    28505009.375   114777885.536       -2928.208          43.000  
S31  40554852.823   213117221.540        -784.347          44.000  
G25  25141082.252   132117438.914        1238.864          43.000    25141082.838   102948742.281         965.345          42.000  
G06  25792564.569   135540914.015        1200.349          44.000    25792562.737   105616321.273         935.320          44.000  
E21  29043860.552   152626930.013       -2842.308          39.000    29043861.762   116948111.913       -2177.693          45.000  
G22  26101867.765   137166257.850       -3852.972          35.000                                                                  
E04  25675588.085   134926158.532       -1815.713          49.000    25675587.849   103385085.009       -1391.250          53.000  
G11  26637063.434   139978723.832        1868.809          43.000    26637072.331   109074504.927        1456.196          44.000  
E13                                                                  29746887.181                3       -477.688          20.000  
R17                                                                  25223878.715                3      -2730.609          22.000  
> 2024 04 09 00 06 30.0060000  0 26                     
S33  41511799.618   218146027.487        -784.750          44.000  
E26  28749847.462   151081534.777        1227.048          44.000    28749845.873   115763821.389         940.097          46.000  
G24  22554599.351   118525333.800         413.190          49.000    22554596.450    92357487.684         321.942          47.000  
E09  27331538.151   143628152.570         789.862          44.000    27331538.771   110052852.519         605.160          49.000  
G15  23439443.780   123175049.411       -3151.004          50.000    23439441.297    95980611.420       -2455.166          44.000  
R06  23210220.804   123854170.827       -4076.326          39.000                                                                  
R07  22749172.182   121778144.927        -733.044          51.000    22749167.303    94716322.037        -570.093          49.000  
R16  22699939.470   121259494.733       -2045.007          51.000    22699934.417    94313135.201       -1590.613          48.000  
R09  22508959.867   120196897.139         376.031          51.000    22508955.325    93486563.465         292.444          48.000  
R19  23444082.048   125410344.403        2462.200          40.000    23444077.799    97541526.526        1915.167          45.000  
G19  23851761.816   125342275.192       -3103.819          47.000                                                                  
G13  24585627.399   129198446.959       -4322.929          45.000                                                                  
G17  25353853.680   133235474.721       -4033.119          43.000    25353847.989   103820353.416       -3142.663          38.000  
E31  26386185.631   138660670.494         198.008          47.000    26386187.333   106246557.097         151.745          51.000  
G12  23298116.439   122432759.621         189.399          48.000    23298112.025    95402332.151         147.504          46.000  
R18  22940788.239   122459740.914        -384.452          50.000    22940785.346    95246435.085        -299.001          50.000  
E19  28526821.857   149909501.550       -3824.182          37.000    28526834.114   114865761.141       -2930.033          44.000  
S31  40559330.070   213140751.057        -783.851          44.000  
G25  25134023.790   132080346.683        1234.250          43.000    25134025.222   102919839.482         961.696          42.000  
G06  25785738.124   135505044.238        1191.212          44.000    25785736.590   105588370.905         928.052          44.000  
E21  29060080.843   152712165.766       -2840.303          39.000    29060081.515   117013422.418       -2176.307          44.000  
G22  26123862.789   137281840.208       -3852.113          38.000                                                                  
E04  25685990.842   134980825.636       -1828.563          49.000    25685990.509   103426972.750       -1401.182          53.000  
G11  26626391.035   139922647.548        1869.805          41.000    26626400.044   109030810.152        1457.082          44.000  
E13                                                                  29750443.549                        -482.177          30.000  
R17                                                                  25243618.182                1      -2742.816          28.000  
> 2024 04 09 00 07 00.0060000  0 27                     
S33  41516278.164   218169563.284        -784.571          44.000  
E26  28742859.985   151044814.499        1220.772          44.000    28742858.683   115735685.136         935.442          46.000  
G24  22552267.091   118513078.016         403.918          48.000    22552264.644    92347937.720         314.636          47.000  
E09  27327059.773   143604620.207         778.848          45.000    27327061.022   110034821.255         596.724          49.000  
G15  23457466.157   123269758.683       -3163.099          49.000    23457464.187    96054410.648       -2464.689          44.000  
R06  23233174.905   123976654.519       -4089.658          40.000                                                                  
R07  22753354.825   121800530.262        -759.558          52.000    22753348.859    94733732.824        -590.656          49.000  
R08  25352342.292                3       2210.873          26.000                                                                  
R16  22711432.136   121320887.994       -2048.059          51.000    22711426.806    94360885.507       -1593.011          48.000  
R09  22506858.494   120185671.513         372.229          52.000    22506853.821    93477832.455         289.508          49.000  
R19  23430312.678   125336687.102        2448.203          41.000    23430308.799    97484237.658        1904.077          46.000  
G19  23869521.562   125435599.593       -3118.073          48.000                                                                  
G13  24610325.253   129328235.069       -4329.730          44.000                                                                  
G17  25376904.290   133356602.725       -4042.496          45.000    25376896.806   103914738.842       -3149.744          37.000  
E31  26385068.995   138654795.401         193.479          48.000    26385069.018   106242055.459         148.229          50.000  
G12  23297056.893   122427193.532         181.381          48.000    23297052.818    95397994.980         141.472          46.000  
R18  22943020.131   122471656.540        -410.282          50.000    22943017.451    95255702.824        -319.178          50.000  
E19  28548659.641   150024256.148       -3826.497          37.000    28548671.643   114953689.426       -2931.955          44.000  
S31  40563805.355   213164266.976        -783.933          44.000  
G25  25126991.020   132043389.739        1229.619          43.000    25126992.096   102891042.071         958.073          42.000  
G06  25778963.851   135469446.730        1181.879          43.000    25778962.711   105560632.651         920.789          44.000  
E21  29076291.214   152797342.670       -2838.471          38.000    29076290.264   117078687.850       -2174.852          44.000  
G22  26145851.369   137397390.224       -3851.613          36.000                                                                  
E04  25696466.815   135035875.949       -1841.558          49.000    25696466.201   103469154.115       -1411.096          53.000  
G11  26615711.781   139866534.839        1870.919          41.000    26615721.505   108987086.960        1457.729          44.000  
E13                                                                  29754069.625                        -491.954          31.000  
R17                                                                  25263430.472                3      -2757.492          24.000  
> 2024 04 09 00 07 30.0060000  0 27                     
S33  41520755.069   218193090.009        -784.406          44.000  
E26  28735906.339   151008279.288        1214.491          43.000    28735905.961   115707690.705         930.669          46.000  
G24  22549988.271   118501104.336         394.104          48.000    22549986.403    92338607.585         306.970          48.000  
E09  27322646.479   143581424.061         767.388          45.000    27322647.032   110017047.608         587.917          49.000  
G15  23475557.341   123364828.410       -3175.315          50.000    23475556.190    96128490.747       -2474.188          45.000  
R06  23256204.113   124099546.191       -4103.530          38.000                                                                  
R07  22757684.089   121823708.668        -786.127          52.000    22757678.765    94751760.464        -611.371          49.000  
R08  25340004.766                1       2194.097          28.000    25339980.251                3       1707.162          25.000  
R16  22722941.985   121382373.164       -2051.251          52.000    22722937.116    94408707.297       -1595.551          49.000  
R09  22504778.162   120174561.545         368.018          52.000    22504772.951    93469191.416         286.285          49.000  
R19  23416622.495   125263452.679        2433.602          39.000    23416617.725    97427277.714        1892.905          46.000  
G19  23887361.772   125529352.223       -3132.390          48.000                                                                  
G13  24635061.815   129458222.429       -4336.440          44.000                                                                  
G17  25400007.824   133478011.413       -4051.876          47.000    25399998.845   104009343.046       -3157.836          35.000  
E31  26383976.954   138649058.794         188.721          48.000    26383977.032   106237659.925         144.640          50.000  
G12  23296044.368   122421867.322         173.304          48.000    23296039.448    95393844.714         134.962          46.000  
R18  22945397.518   122484349.643        -436.379          49.000    22945395.937    95265575.262        -339.422          50.000  
E19  28570511.305   150139082.227       -3828.966          37.000    28570522.373   115041672.456       -2933.776          44.000  
S31  40568278.371   213187774.035        -783.649          44.000  
G25  25119984.724   132006572.270        1224.542          44.000    25119985.697   102862353.295         954.401          42.000  
G06  25772242.194   135434128.884        1172.162          42.000    25772241.621   105533112.331         913.403          43.000  
E21  29092489.291   152882464.880       -2836.954          37.000    29092487.756   117143911.355       -2173.484          43.000  
G22  26167833.522   137512911.323       -3850.162          34.000                                                                  
E04  25707016.620   135091313.158       -1854.531          49.000    25707015.367   103511631.936       -1421.022          53.000  
G11  26605028.420   139810393.076        1871.523          43.000    26605036.538   108943341.119        1458.502          43.000  
E13                                                                  29757768.649                        -501.920          27.000  
R17                                                                  25283383.642                3      -2773.190          23.000  
> 2024 04 09 00 08 00.0060000  0 27                     
S33  41525231.434   218216615.295        -784.260          44.000  
E26  28728991.404   150971939.479        1207.845          43.000    28728990.927   115679846.006         925.461          46.000  
G24  22547765.569   118489422.781         384.363          48.000    22547763.484    92329505.075         299.500          47.000  
E09  27318298.381   143558573.711         755.827          45.000    27318298.849   109999538.899         579.180          50.000  
G15  23493718.567   123460264.202       -3187.427          49.000    23493717.501    96202856.082       -2483.760          45.000  
R06  23279311.216   124222849.590       -4116.969          39.000                                                                  
R07  22762164.373   121847688.559        -812.762          52.000    22762158.274    94770411.460        -632.172          49.000  
R08  25327751.626                3       2166.467          20.000    25327740.304                3       1694.073          24.000  
R16  22734471.434   121443958.119       -2054.590          52.000    22734466.399    94456606.694       -1598.065          49.000  
R09  22502720.287   120163575.819         363.953          51.000    22502715.838    93460646.982         283.215          50.000  
R19  23403011.838   125190653.671        2419.397          36.000    23403007.364    97370656.458        1881.663          44.000  
G19  23905284.933   125623538.628       -3146.820          48.000                                                                  
G13  24659836.754   129588414.647       -4343.223          43.000                                                                  
G17  25423165.560   133599705.752       -4061.274          46.000    25423156.983   104104169.763       -3164.403          38.000  
E31  26382912.631   138643468.290         183.862          48.000    26382913.317   106233376.332         140.882          50.000  
G12  23295077.489   122416788.309         164.960          48.000    23295072.686    95389887.090         128.690          45.000  
R17  25303398.730                1      -3582.942          27.000    25303394.399                3      -2781.087          24.000  
R18  22947923.685   122497829.724        -462.538          49.000    22947920.665    95276059.773        -359.713          49.000  
E19  28592377.351   150253986.260       -3831.801          38.000    28592387.942   115129715.237       -2935.745          43.000  
S31  40572751.667   213211279.607        -783.540          43.000  
G25  25113006.279   131969902.162        1219.750          43.000    25113006.688   102833779.350         950.723          42.000  
G06  25765577.574   135399101.905        1162.531          43.000    25765575.729   105505818.642         906.122          43.000  
E21  29108673.826   152967540.365       -2835.015          33.000    29108677.402   117209099.097       -2172.323          44.000  
G22  26189812.216   137628410.871       -3849.348          34.000                                                                  
E04  25717640.524   135147144.849       -1867.781          48.000    25717639.856   103554412.018       -1431.038          53.000  
G11  26594340.959   139754233.275        1872.172          44.000    26594349.309   108899581.235        1458.748          44.000  
E13                                                                  29761557.337                3       -512.665          23.000  
> 2024 04 09 00 08 30.0060000  0 27                     
S33  41529708.538   218240143.123        -784.346          44.000  
E26  28722113.734   150935799.929        1201.324          43.000    28722114.084   115652154.773         920.623          47.000  
G24  22545599.138   118478038.144         374.640          48.000    22545597.171    92320633.931         291.876          48.000  
E09  27314017.712   143536073.352         744.084          46.000    27314016.933   109982298.381         570.179          49.000  
G15  23511949.720   123556066.538       -3199.468          50.000    23511947.776    96277507.013       -2493.109          44.000  
R06  23302495.152   124346563.180       -4130.930          39.000                                                                  
R07  22766794.652   121872471.921        -839.429          52.000    22766789.103    94789687.419        -652.893          50.000  
R08  25315598.888                1       2158.878          31.000    25315603.864                2       1678.950          27.000  
R16  22746018.389   121505646.458       -2058.087          51.000    22746014.142    94504586.481       -1600.726          49.000  
R09  22500686.896   120152716.366         359.833          52.000    22500682.887    93452200.760         279.901          50.000  
R19  23389485.783   125118297.986        2404.625          38.000    23389481.897    97314379.943        1870.188          45.000  
G19  23923290.547   125718159.336       -3161.266          48.000                                                                  
G13  24684652.252   129718812.164       -4349.917          45.000                                                                  
G17  25446377.218   133721685.610       -4070.723          46.000    25446369.287   104199219.004       -3172.048          38.000  
E31  26381876.972   138638026.186         179.073          48.000    26381877.693   106229206.468         137.160          50.000  
G12  23294157.684   122411958.835         156.863          48.000    23294152.877    95386123.923         122.253          45.000  
R18  22950595.636   122512101.009        -488.799          49.000    22950594.044    95287159.633        -380.207          50.000  
E19  28614257.964   150368969.487       -3833.787          38.000    28614269.479   115217818.720       -2937.871          43.000  
S31  40577224.773   213234787.400        -783.755          44.000  
G25  25106056.962   131933382.023        1214.835          44.000    25106056.201   102805322.267         947.072          41.000  
G06  25758969.127   135364371.661        1152.692          44.000    25758967.101   105478756.139         898.218          43.000  
E21  29124857.546   153052571.897       -2833.608          36.000    29124858.768   117274253.116       -2171.212          43.000  
G22  26211788.669   137743890.912       -3848.127          33.000                                                                  
E04  25728340.044   135203373.178       -1880.902          48.000    25728340.201   103597496.036       -1441.189          53.000  
G11  26583651.173   139698061.332        1872.526          44.000    26583659.519   108855811.900        1459.116          45.000  
E13                                                                  29765409.193                3       -522.537          20.000  
R17                                                                  25323526.421                1      -2801.628          25.000  
> 2024 04 09 00 09 00.0060000  0 27                     
S33  41534184.852   218263665.821        -783.993          44.000  
E26  28715274.354   150899854.815        1194.917          44.000    28715273.195   115624612.484         915.565          46.000  
G24  22543488.006   118466944.216         364.893          49.000    22543485.707    92311989.319         284.338          48.000  
E09  27309800.700   143513916.306         732.822          47.000    27309800.131   109965320.938         561.503          49.000  
G15  23530247.923   123652224.810       -3211.279          49.000    23530246.076    96352435.302       -2502.145          44.000  
R06  23325752.729   124470674.421       -4143.644          37.000                                                                  
R07  22771572.439   121898050.231        -865.930          52.000    22771567.208    94809581.648        -673.468          50.000  
R08  25303557.640   135499396.1621       2140.763          37.000    25303552.805                1       1664.608          28.000  
R16  22757584.539   121567429.916       -2061.029          51.000    22757581.506    94552640.269       -1603.015          49.000  
R09  22498675.677   120141975.498         355.988          52.000    22498670.360    93443846.757         276.862          49.000  
R19  23376041.667   125046381.807        2389.749          38.000    23376039.029    97258445.250        1858.753          46.000  
G19  23941376.630   125813203.866       -3175.268          48.000                                                                  
G13  24709503.511   129849404.156       -4356.389          45.000                                                                  
G17  25469641.007   133843939.404       -4079.725          46.000    25469633.162   104294481.696       -3179.327          36.000  
E31  26380867.446   138632723.943         174.439          47.000    26380868.818   106225143.761         133.688          51.000  
G12  23293284.681   122407370.228         148.890          47.000    23293279.764    95382548.407         116.097          45.000  
R18  22953416.191   122527156.190        -514.938          49.000    22953414.235    95298869.249        -400.495          50.000  
E19  28636152.519   150484022.093       -3836.073          37.000    28636163.673   115305975.364       -2939.385          43.000  
S31  40581696.816   213258289.183        -783.329          44.000  
G25  25099133.483   131897003.530        1210.278          44.000    25099133.778   102776975.634         942.835          41.000  
G06  25752415.774   135329933.052        1142.969          43.000    25752414.187   105451920.943         890.619          44.000  
E21  29141028.680   153137551.114       -2831.553          37.000    29141029.138   117339367.051       -2169.534          42.000  
G22  26233759.557                       -3848.024          32.000                                                                  
E04  25739113.607   135259989.414       -1893.589          48.000    25739113.819   103640877.269       -1450.900          53.000  
G11  26572958.304   139641872.188        1873.149          44.000    26572965.681   108812029.096        1459.598          45.000  
E13                                                                  29769333.206                3       -534.072          22.000  
R17                                                                  25343771.823                1      -2815.713          25.000  
> 2024 04 09 00 09 30.0060000  0 27                     
S33  41538658.475   218287175.835        -783.547          44.000  
E26  28708470.207   150864100.491        1188.467          45.000    28708469.974   115597216.395         910.558          47.000  
G24  22541431.886   118456137.243         355.157          49.000    22541429.248    92303568.298         276.709          47.000  
E09  27305648.005   143492098.283         721.338          46.000    27305647.850   109948603.262         552.662          48.000  
G15  23548612.158   123748730.876       -3223.026          50.000    23548610.522    96427634.622       -2511.223          44.000  
R06  23349084.323   124595172.832       -4157.013          38.000                                                                  
R07  22776497.530   121924417.482        -892.261          52.000    22776492.854    94830089.499        -693.964          49.000  
R08  25291617.126   135435431.251        2123.292          38.000    25291614.096   105338598.8671       1650.614          32.000  
R16  22769167.129   121629302.948       -2064.282          50.000    22769163.573    94600763.748       -1605.536          48.000  
R09  22496684.656   120131346.979         352.118          51.000    22496680.262    93435580.154         273.889          49.000  
R19  23362679.597   124974904.187        2374.995          38.000    23362676.190    97202851.659        1847.163          45.000  
G19  23959541.926   125908663.985       -3189.150          49.000                                                                  
G13  24734389.284   129980182.246       -4362.632          44.000                                                                  
G17  25492955.219   133966460.406       -4088.684          45.000    25492948.721   104389952.608       -3186.023          36.000  
E31  26379883.837   138627555.274         169.732          47.000    26379885.523   106221183.408         130.088          51.000  
G12  23292456.484   122403015.722         141.097          48.000    23292451.213    95379155.319         109.869          45.000  
R18  22956382.763   122542990.648        -541.161          49.000    22956380.990    95311184.948        -420.794          50.000  
E19  28658057.739   150599136.854       -3838.575          35.000    28658069.655   115394179.553       -2941.027          43.000  
S31  40586166.937   213281779.320        -783.190          44.000  
G25  25092237.054   131860760.788        1205.252          43.000    25092237.005   102748734.730         939.204          42.000  
G06  25745916.908   135295783.419        1133.203          43.000    25745915.811   105425310.896         883.014          43.000  
E21  29157190.330   153222472.242       -2830.001          38.000    29157188.674   117404436.478       -2168.517          41.000  
G22  26255724.364                       -3846.441          31.000                                                                  
E04  25749960.393   135316987.244       -1906.739          48.000    25749960.345   103684550.870       -1460.857          53.000  
G11  26562260.438   139585663.034        1873.734          42.000    26562268.713   108768230.720        1459.907          45.000  
E13                                                                  29773334.848                3       -543.057          25.000  
R17                                                                  25364066.373                3      -2827.133          18.000  
> 2024 04 09 00 10 00.0060000  0 25                     
S33  41543131.693   218310683.404        -783.876          44.000  
E26  28701704.773   150828547.441        1181.433          45.000    28701704.659   115569974.522         905.183          48.000  
G24  22539432.153   118445627.409         345.135          49.000    22539429.253    92295378.809         268.854          48.000  
E09  27301562.044   143470628.947         709.571          46.000    27301562.129   109932152.760         543.594          48.000  
G15  23567044.155   123845590.359       -3234.785          49.000    23567043.608    96503109.304       -2520.548          45.000  
R06  23372488.657   124720062.525       -4169.619          38.000                                                                  
R07  22781573.454   121951581.108        -918.964          53.000    22781566.507    94851216.743        -714.752          49.000  
R08  25279773.390   135372007.341        2104.823          39.000    25279767.275                        1638.082          30.000  
R16  22780768.817   121691274.403       -2067.664          51.000    22780765.000    94648963.785       -1608.075          48.000  
R09  22494716.416   120120839.601         347.888          50.000    22494713.312    93427407.776         270.581          50.000  
R19  23349402.003   124903878.743        2359.896          38.000    23349399.102    97147609.765        1835.253          46.000  
G19  23977788.019   126004545.422       -3203.292          48.000                                                                  
G13  24759311.766   130111152.277       -4369.248          43.000                                                                  
G17  25516321.851   134089252.921       -4097.894          46.000    25516315.561   104485635.141       -3192.975          37.000  
E31  26378927.326   138622528.003         164.980          47.000    26378928.898   106217331.392         126.339          51.000  
G12  23291673.925   122398903.225         132.729          47.000    23291668.124    95375950.820         103.400          45.000  
R18  22959497.577   122559613.917        -567.597          50.000    22959494.690    95324114.184        -441.388          49.000  
E19  28679977.686   150714320.166       -3840.801          36.000    28679988.921   115482436.271       -2942.911          43.000  
S31  40590636.293   213305266.127        -783.105          44.000  
G25  25085367.207   131824661.784        1200.585          44.000    25085367.781   102720605.877         935.263          42.000  
G06  25739474.890   135261934.094        1122.931          43.000    25739474.139   105398934.821         875.201          43.000  
E21  29173341.534   153307343.337       -2828.579          39.000    29173339.215   117469467.567       -2167.217          40.000  
E04  25760881.076   135374374.191       -1919.542          48.000    25760880.537   103728522.656       -1470.870          53.000  
G11  26551561.324   139529445.279        1873.714          40.000    26551569.511   108724425.616        1460.039          44.000  
E13                                                                  29777415.614                        -553.127          27.000  
> 2024 04 09 00 10 30.0060000  0 27                     
S33  41547603.886   218334184.091        -783.663          44.000  
E26  28694976.541   150793194.321        1174.700          45.000    28694976.708   115542885.831         900.206          48.000  
G24  22537488.337   118435413.160         335.236          49.000    22537485.138    92287419.646         261.292          48.000  
E09  27297542.480   143449506.265         697.982          46.000    27297542.540   109915967.852         534.865          48.000  
G15  23585543.142   123942797.379       -3246.318          51.000    23585541.801    96578854.799       -2529.557          45.000  
R06  23395965.484   124845335.392       -4182.227          38.000                                                                  
R07  22786794.670   121979537.396        -945.445          53.000    22786788.221    94872960.466        -735.269          48.000  
R08  25268029.138   135309124.623        2086.556          35.000    25268021.034                        1622.271          31.000  
R16  22792387.222   121753340.638       -2070.856          50.000    22792384.338    94697237.520       -1610.616          49.000  
R09  22492770.743   120110449.420         344.165          51.000    22492767.106    93419326.552         267.596          50.000  
R19  23336209.386   124833305.959        2344.688          39.000    23336206.293    97092719.937        1823.372          46.000  
G19  23996112.259   126100842.600       -3217.182          47.000                                                                  
G13  24784270.639   130242307.951       -4375.282          43.000                                                                  
G17  25539738.818   134212311.101       -4106.659          45.000    25539733.792   104581524.641       -3200.012          36.000  
E31  26377997.237   138617638.133         160.492          47.000    26377998.522   106213584.653         122.969          51.000  
G12  23290936.039   122395028.745         124.950          47.000    23290930.937    95372931.785          97.406          45.000  
R18  22962758.406   122577023.535        -593.758          49.000    22962756.117    95337655.017        -461.819          49.000  
E19  28701909.323   150829567.290       -3842.932          37.000    28701919.710   115570741.933       -2944.555          42.000  
S31  40595104.042   213328746.096        -782.943          44.000  
G25  25078524.272   131788702.907        1196.191          44.000    25078523.544   102692586.186         931.919          40.000  
G06  25733089.804   135228384.520        1112.915          43.000    25733088.624   105372792.384         867.151          42.000  
G22  26299627.544                1      -3844.736          28.000                                                                  
E21  29189481.825   153392160.827       -2826.748          38.000    29189479.666   117534457.611       -2165.933          40.000  
E04  25771874.887   135432146.227       -1932.440          49.000    25771874.248   103772789.493       -1480.767          53.000  
G11  26540861.276   139473218.456        1874.315          41.000    26540868.809   108680613.450        1460.237          44.000  
E13                                                                  29781574.200   119918063.6121       -563.253          29.000  
E33                                                                  29772779.884                3       1405.498          25.000  
> 2024 04 09 00 11 00.0060000  0 26                     
S33  41552075.931   218357686.030        -783.346          44.000  
E26  28688289.301   150758050.178        1167.969          45.000    28688288.897   115515957.258         894.904          47.000  
G24  22535602.893   118425503.336         325.171          49.000    22535599.179    92279697.702         253.491          47.000  
E09  27293590.938   143428738.475         686.382          46.000    27293591.096   109900054.880         525.821          48.000  
G15  23604108.018   124040356.301       -3257.752          50.000    23604106.564    96654874.480       -2538.584          45.000  
R06  23419514.658   124970993.727       -4194.569          39.000                                                                  
R07  22792166.406   122008292.179        -971.762          52.000    22792159.446    94895325.274        -755.811          48.000  
R08  25256390.196   135246793.025        2068.438          38.000    25256380.634                        1607.644          31.000  
R16  22804026.473   121815509.468       -2073.975          51.000    22804023.185    94745591.029       -1612.992          49.000  
R09  22490849.651   120100183.843         340.094          52.000    22490844.214    93411342.242         264.618          50.000  
R19  23323104.087   124763197.974        2329.148          40.000    23323099.934    97038191.614        1811.577          46.000  
G19  24014517.062   126197559.578       -3230.930          46.000                                                                  
G13  24809265.695   130373653.663       -4381.335          44.000                                                                  
G17  25563207.360   134335638.754       -4115.424          45.000    25563201.666   104677624.157       -3207.178          36.000  
E31  26377093.781   138612892.051         155.837          47.000    26377095.114   106209948.099         119.401          51.000  
G12  23290244.839   122391398.435         116.996          47.000    23290240.027    95370103.013          91.346          45.000  
R18  22966168.917   122595227.563        -619.854          49.000    22966166.674    95351813.712        -482.242          49.000  
E19  28723853.889   150944883.397       -3845.076          38.000    28723863.972   115659100.443       -2946.210          42.000  
S31  40599572.061   213352226.244        -782.582          44.000  
G25  25071709.840   131752890.859        1191.222          44.000    25071708.729   102664680.881         928.518          41.000  
G06  25726765.382   135195144.709        1102.832          44.000    25726763.624   105346891.282         859.497          43.000  
E21  29205613.699   153476931.496       -2824.582          37.000    29205611.190   117599411.768       -2164.707          39.000  
E04  25782942.919   135490309.501       -1945.236          49.000    25782942.303   103817356.113       -1490.541          53.000  
G11  26530160.836   139416992.461        1874.261          41.000    26530166.587   108636801.894        1460.316          42.000  
E13                                                                  29785811.868   119935114.859        -573.573          31.000  
E33                                                                  29762293.542                3       1409.893          24.000  
> 2024 04 09 00 11 30.0060000  0 27                     
S33  41556547.026   218381183.070        -783.168          45.000  
E26  28681640.718   150723112.482        1160.972          45.000    28681640.456   115489186.853         889.607          48.000  
G24  22533774.297   118415895.177         315.057          50.000    22533770.520    92272210.835         245.435          47.000  
E09  27289706.462   143408322.243         674.575          47.000    27289706.311   109884411.273         516.879          49.000  
G15  23622738.508   124138260.140       -3269.301          50.000    23622736.598    96731162.927       -2547.317          45.000  
R06  23443134.600   125097028.649       -4207.431          39.000                                                                  
R07  22797686.185   122037840.260        -998.242          52.000    22797680.553    94918307.108        -776.423          49.000  
R08  25244853.469   135185011.693        2050.209          39.000    25244848.393                        1594.463          31.000  
R16  22815682.098   121877775.822       -2077.322          52.000    22815678.886    94794020.376       -1615.652          48.000  
R09  22488949.375   120090037.914         336.078          52.000    22488944.449    93403450.986         261.487          50.000  
R19  23310084.986   124693554.482        2313.498          39.000    23310079.854    96984024.567        1799.374          44.000  
G19  24032999.946   126294689.554       -3244.585          45.000                                                                  
G13  24834295.500   130505182.338       -4387.433          45.000                                                                  
G17  25586726.044   134459228.225       -4124.054          45.000    25586720.515   104773927.680       -3213.440          38.000  
E31  26376216.093   138608284.549         151.113          46.000    26376218.017   106206417.731         115.763          51.000  
G12  23289599.468   122388006.601         109.021          47.000    23289594.270    95367460.093          84.823          44.000  
R18  22969725.739   122614222.024        -646.542          47.000    22969723.990    95366587.194        -502.876          49.000  
E19  28745809.352   151060262.135       -3847.051          37.000    28745820.229   115747506.956       -2947.610          42.000  
S31  40604039.557   213375701.393        -782.753          44.000  
G25  25064921.179   131717220.660        1186.479          43.000    25064920.284   102636886.077         924.522          41.000  
G06  25720497.994   135162212.871        1092.468          44.000    25720496.963   105321230.174         851.288          43.000  
E21  29221733.924   153561650.549       -2823.504          37.000    29221732.211   117664326.383       -2163.283          39.000  
E04  25794084.437   135548858.589       -1958.236          49.000    25794084.048   103862218.370       -1500.502          53.000  
G11  26519460.737   139360765.658        1873.991          43.000    26519465.599   108592989.684        1460.306          41.000  
E13                                                                  29790122.946   119952473.815        -584.181          33.000  
E33                                                                  29751784.868                        1411.425          27.000  
R17                                                                  25446505.058                1      -2885.983          27.000  
> 2024 04 09 00 12 00.0060000  0 27                     
S33  41561018.233   218404680.410        -783.380          45.000  
E26  28675031.738   150688387.321        1153.744          44.000    28675031.645   115462579.326         883.985          48.000  
G24  22532004.258   118406594.568         304.694          49.000    22532000.663    92264963.618         237.445          47.000  
E09  27285889.590   143388262.925         662.506          47.000    27285889.235   109869041.154         507.599          49.000  
G15  23641434.080   124236510.299       -3281.024          49.000    23641433.456    96807721.243       -2556.536          45.000  
R06  23466824.825   125223439.483       -4220.231          39.000                                                                  
R07  22803354.028   122068184.851       -1024.945          51.000    22803349.325    94941908.434        -797.058          50.000  
R08  25233420.217   135123788.528        2031.433          38.000    25233417.978   105096210.677        1579.455          33.000  
R16  22827358.203   121940144.167       -2080.883          52.000    22827353.908    94842529.122       -1618.555          48.000  
R09  22487072.274   120080015.262         331.812          52.000    22487068.022    93395655.633         258.130          50.000  
R19  23297154.330   124624384.673        2297.810          39.000    23297148.519    96930225.910        1786.932          43.000  
G19  24051561.338   126392233.874       -3258.576          44.000                                                                  
G13  24859359.838   130636894.988       -4393.694          45.000                                                                  
G17  25610294.382   134583079.891       -4132.922          44.000    25610289.007   104870435.483       -3220.557          37.000  
E31  26375365.514   138603819.083         146.327          46.000    26375367.950   106202996.195         112.031          51.000  
G12  23289000.790   122384856.813         100.735          48.000    23288995.380    95365005.742          78.330          45.000  
R17  25467366.848                3      -3728.637          24.000    25467348.525                       -2899.997          26.000  
R18  22973433.645   122634011.958        -673.191          48.000    22973431.803    95381979.382        -523.478          48.000  
E19  28767777.399   151175706.026       -3849.448          37.000    28767789.498   115835963.371       -2949.532          42.000  
S31  40608506.607   213399177.080        -782.960          44.000  
G25  25058160.834   131681696.027        1181.602          42.000    25058160.922   102609204.720         920.608          41.000  
G06  25714292.481   135129596.043        1081.708          44.000    25714290.793   105295814.490         842.816          43.000  
E21  29237845.572   153646321.817       -2821.929          37.000    29237844.582   117729204.367       -2162.184          38.000  
E04  25805299.201   135607796.790       -1971.308          48.000    25805299.766   103907378.776       -1510.497          53.000  
G11  26508762.706   139304545.102        1873.466          44.000    26508767.279   108549182.328        1460.153          44.000  
E13                                                                  29794510.230   119970143.841        -594.646          32.000  
E33                                                                  29741259.122                        1414.169          26.000  
> 2024 04 09 00 12 30.0060000  0 27                     
S33  41565489.068   218428174.753        -783.212          45.000  
E26  28668464.793   150653874.287        1146.531          44.000    28668464.555   115436134.302         878.661          49.000  
G24  22530292.663   118397600.972         294.421          49.000    22530289.500    92257955.639         229.504          47.000  
E09  27282140.208   143368559.375         650.564          47.000    27282139.454   109853943.623         498.502          49.000  
G15  23660196.356   124335101.613       -3292.307          49.000    23660195.077    96884545.372       -2565.373          45.000  
R06  23490582.972   125350219.327       -4232.433          38.000                                                                  
R07  22809171.007   122099322.626       -1051.380          52.000    22809166.374    94966126.681        -817.713          49.000  
R08  25222090.030   135063123.811        2012.125          32.000    25222088.585   105049026.966        1565.105          34.000  
R16  22839051.025   122002612.447       -2084.234          52.000    22839047.570    94891115.539       -1621.091          47.000  
R09  22485216.981   120070113.501         327.814          50.000    22485213.887    93387954.274         255.011          50.000  
R19  23284312.640   124555689.886        2281.582          39.000    23284306.947    96876796.751        1774.545          44.000  
G19  24070201.536   126490187.398       -3272.097          44.000                                                                  
G13  24884458.544   130768786.574       -4399.576          44.000                                                                  
G17  25633911.800   134707190.417       -4141.455          44.000    25633906.255   104967145.015       -3226.959          37.000  
E31  26374542.355   138599492.634         141.680          46.000    26374544.599   106199681.153         108.489          51.000  
G12  23288447.405   122381946.152          92.858          48.000    23288441.727    95362737.735          72.319          45.000  
R17  25488308.578                       -3745.679          27.000    25488303.139                1      -2913.574          27.000  
R18  22977290.473   122654595.534        -699.675          49.000    22977287.258    95397988.829        -544.153          48.000  
E19  28789757.848   151291210.601       -3851.299          38.000    28789770.533   115924466.270       -2951.039          43.000  
S31  40612973.392   213422649.990        -782.506          44.000  
G25  25051427.392   131646314.268        1176.791          41.000    25051427.833   102581634.687         916.986          41.000  
G06  25708145.433   135097294.651        1070.941          45.000    25708143.094   105270644.595         834.662          42.000  
E21  29253948.204   153730942.688       -2819.985          36.000    29253946.852   117794043.738       -2160.583          38.000  
E04  25816587.959   135667120.896       -1984.174          48.000    25816588.753   103952834.856       -1520.330          53.000  
G11  26498064.458   139248331.249        1873.358          44.000    26498070.104   108505380.264        1459.688          45.000  
E13                                                                  29798975.485                        -604.971          30.000  
E33                                                                  29730712.760                        1417.162          30.000  
> 2024 04 09 00 13 00.0060000  0 27                     
S33  41569958.964   218451664.445        -783.256          45.000  
E26  28661937.275   150619572.551        1139.829          44.000    28661937.880   115409851.223         873.217          50.000  
G24  22528639.547   118388913.187         284.546          49.000    22528635.884    92251185.935         221.625          47.000  
E09  27278457.566   143349209.865         639.001          47.000    27278457.056   109839117.396         489.541          49.000  
G15  23679021.043   124434028.419       -3303.252          48.000    23679020.017    96961630.970       -2574.128          44.000  
R06  23514408.726   125477360.705       -4244.370          37.000                                                                  
R07  22815135.937   122131249.589       -1077.425          52.000    22815130.167    94990958.761        -838.037          49.000  
R08  25210862.941   135003017.751        1994.408          34.000    25210862.008   105002277.934        1551.284          34.000  
R16  22850763.469   122065177.644       -2087.291          52.000    22850759.605    94939777.387       -1623.360          46.000  
R09  22483384.697   120060329.793         323.986          51.000    22483381.166    93380344.721         252.131          49.000  
R19  23271560.409   124487472.144        2265.957          38.000    23271555.651    96823738.602        1762.318          46.000  
G19  24088919.066   126588544.316       -3285.366          44.000                                                                  
G13  24909590.187   130900851.703       -4405.250          45.000                                                                  
G17  25657577.158   134831552.898       -4149.713          44.000    25657571.881   105064050.885       -3233.368          39.000  
E31  26373745.841   138595301.642         137.329          46.000    26373746.980   106196469.918         105.200          51.000  
G12  23287937.691   122379270.447          85.121          48.000    23287932.386    95360652.811          66.344          45.000  
R17  25509359.136                3      -3756.429          21.000    25509352.106                       -2926.727          27.000  
R18  22981295.488   122675970.622        -725.837          50.000    22981290.854    95414613.939        -564.496          47.000  
E19  28811748.745   151406771.311       -3852.888          38.000    28811761.837   116013012.161       -2952.269          44.000  
S31  40617439.103   213446117.248        -782.272          44.000  
G25  25044721.650   131611072.020        1172.363          43.000    25044721.454   102554173.394         913.488          42.000  
G06  25702058.167   135065308.642        1060.742          45.000    25702056.656   105245720.472         826.721          42.000  
E21  29270040.434   153815510.053       -2817.963          37.000    29270040.266   117858842.132       -2159.487          39.000  
E04  25827950.105   135726827.076       -1996.775          48.000    25827950.525   103998583.698       -1529.927          53.000  
G11  26487367.845   139192124.242        1873.348          44.000    26487373.541   108461583.500        1459.855          44.000  
E13                                                                  29803519.135   120006410.277        -614.894          33.000  
E33                                                                  29720146.832                        1419.478          31.000  
> 2024 04 09 00 13 30.0060000  0 27                     
S33  41574427.016   218475145.379        -783.083          45.000  
E26  28655450.356   150585481.266        1132.441          44.000    28655450.051   115383729.371         867.779          49.000  
G24  22527044.352   118380530.219         273.999          49.000    22527041.517    92244653.767         213.483          47.000  
E09  27274841.902   143330212.826         627.013          46.000    27274842.086   109824561.242         480.355          50.000  
G15  23697909.286   124533285.492       -3314.323          48.000    23697907.907    97038973.891       -2582.742          44.000  
R06  23538301.602   125604855.880       -4255.988          36.000                                                                  
R07  22821246.389   122163961.797       -1103.770          52.000    22821241.026    95016401.589        -858.657          48.000  
R08  25199742.970   134943471.262        1975.391          35.000    25199728.382                3       1536.319          23.000  
R16  22862494.713   122127837.100       -2090.552          53.000    22862488.966    94988512.563       -1626.163          46.000  
R09  22481574.858   120050661.267         319.975          52.000    22481570.111    93372824.767         248.895          50.000  
R19  23258896.125   124419732.438        2249.673          38.000    23258893.097    96771052.304        1749.625          47.000  
G19  24107711.112   126687299.675       -3298.812          44.000                                                                  
G13  24934753.876   131033084.427       -4410.879          45.000                                                                  
G17  25681289.438   134956161.473       -4158.032          43.000    25681284.011   105161148.478       -3240.155          39.000  
E31  26372972.955   138591242.659         132.673          46.000    26372974.678   106193359.837         101.751          51.000  
G12  23287472.574   122376826.394          77.327          48.000    23287467.154    95358748.379          60.083          45.000  
R17  25530502.540                3      -3780.283          26.000    25530506.002                3      -2939.644          24.000  
R18  22985448.031   122698135.054        -752.336          49.000    22985444.547    95431852.968        -585.081          48.000  
E19  28833749.073   151522383.663       -3855.052          38.000    28833762.527   116101597.606       -2953.698          43.000  
S31  40621902.984   213469575.645        -782.199          44.000  
G25  25038041.110   131575966.157        1167.427          44.000    25038040.848   102526818.358         909.871          42.000  
G06  25696031.683   135033638.032        1050.043          46.000    25696030.551   105221042.128         817.981          43.000  
E21  29286122.776   153900020.918       -2816.542          38.000    29286122.716   117923597.196       -2158.321          39.000  
E04  25839383.628   135786911.676       -2009.438          48.000    25839384.299   104044622.508       -1539.700          53.000  
G11  26476672.871   139135924.191        1872.757          45.000    26476678.033   108417792.104        1459.518          44.000  
E13                                                                  29808135.251   120025002.741        -624.688          32.000  
E33                                                                  29709560.247   119628102.5071       1421.692          35.000  
> 2024 04 09 00 14 00.0060000  0 26                     
S33  41578893.725   218498618.106        -782.353          44.000  
E26  28649002.803   150551602.364        1125.700          43.000    28649002.627   115357770.246         862.425          48.000  
G24  22525507.899   118372453.805         263.916          49.000    22525504.532    92238360.450         205.621          47.000  
E09  27271294.437   143311569.413         615.518          47.000    27271294.578   109810276.049         471.502          50.000  
G15  23716860.045   124632869.779       -3325.024          48.000    23716859.581    97116571.782       -2591.026          45.000  
R06  23562259.681   125732700.215       -4267.162          35.000                                                                  
R07  22827504.495   122197458.474       -1129.730          53.000    22827498.509    95042454.508        -878.550          48.000  
R08  25188722.946                        1955.667          30.000    25188731.580                1       1521.078          31.000  
R16  22874242.223   122190591.069       -2093.604          53.000    22874237.198    95037321.190       -1628.302          47.000  
R09  22479785.800   120041107.606         316.441          52.000    22479781.315    93365394.171         246.079          49.000  
R19  23246323.596   124352476.324        2233.672          40.000    23246319.014    96718742.110        1737.162          44.000  
G19  24126579.296   126786450.980       -3311.771          44.000                                                                  
G13  24959948.360   131165482.386       -4416.016          44.000                                                                  
G17  25705048.020   135081013.408       -4166.046          42.000    25705042.463   105258435.655       -3245.972          39.000  
E31  26372225.890   138587315.002         128.516          47.000    26372227.449   106190350.400          98.444          51.000  
G12  23287050.770   122374613.567          69.717          46.000    23287046.232    95357024.147          54.249          44.000  
R18  22989746.375   122721089.352        -778.467          47.000    22989744.806    95449706.348        -605.444          48.000  
E19  28855759.797   151638045.797       -3856.304          38.000    28855772.574   116190221.228       -2954.983          42.000  
S31  40626365.347   213493025.314        -781.593          44.000  
G25  25031386.959   131540996.302        1163.197          44.000    25031386.193   102499569.268         906.423          42.000  
G06  25690066.462   135002285.690        1039.734          46.000    25690064.019   105196611.752         809.979          43.000  
E21  29302192.595   153984474.952       -2814.162          37.000    29302194.389   117988308.727       -2156.498          41.000  
E04  25850889.866   135847373.740       -2021.849          49.000    25850890.149   104090950.545       -1549.252          53.000  
G11  26465979.301   139079733.982        1872.619          44.000    26465984.823   108374008.361        1459.321          44.000  
E13                                                                  29812828.640   120043901.054        -635.299          35.000  
E33                                                                  29698953.583   119585401.212        1424.617          34.000  
> 2024 04 09 00 14 30.0060000  0 27                     
S33  41583358.545   218522082.348        -781.868          45.000  
E26  28642597.177   150517938.462        1118.517          44.000    28642596.052   115331975.842         857.134          48.000  
G24  22524029.855   118364686.364         253.802          49.000    22524026.146    92232307.894         197.821          47.000  
E09  27267814.296   143293281.459         603.706          47.000    27267814.518   109796263.197         462.588          50.000  
G15  23735871.396   124732779.766       -3335.575          47.000    23735871.896    97194423.450       -2599.178          45.000  
R06  23586283.756   125860889.699       -4279.021          37.000                                                                  
R07  22833909.027   122231739.072       -1155.643          53.000    22833902.218    95069117.183        -898.927          48.000  
R08  25177812.145                        1937.676          30.000    25177821.585   104864652.5581       1506.986          35.000  
R16  22886008.198   122253440.168       -2096.449          53.000    22886001.547    95086203.827       -1630.421          45.000  
R09  22478018.639   120031669.448         312.831          52.000    22478014.049    93358053.396         243.348          49.000  
R19  23233842.312   124285708.617        2217.213          39.000    23233835.537    96666811.718        1724.751          44.000  
G19  24145522.800   126885996.394       -3324.538          44.000                                                                  
G13  24985173.538   131298043.071       -4421.206          44.000                                                                  
G17  25728851.876   135206106.368       -4173.749          42.000    25728846.652   105355910.690       -3252.136          39.000  
E31  26371503.792   138583518.697         124.551          47.000    26371504.688   106187441.583          95.311          51.000  
G12  23286672.977   122372631.078          62.354          47.000    23286668.699    95355479.413          48.458          44.000  
R17  25573059.701                3      -3819.472          15.000                                                                  
R18  22994194.605   122744834.664        -804.478          48.000    22994193.644    95468174.912        -625.904          48.000  
E19  28877779.827   151753756.658       -3857.630          39.000    28877792.000   116278882.150       -2955.595          42.000  
S31  40630826.148   213516467.208        -781.051          44.000  
G25  25024757.982   131506162.599        1159.079          44.000    25024756.775   102472426.284         903.189          42.000  
G06  25684160.791   134971254.994        1029.047          44.000    25684159.409   105172432.049         801.801          43.000  
E21  29318254.736   154068872.613       -2812.221          37.000    29318254.585   118052977.028       -2154.986          40.000  
E04  25862466.508   135908212.992       -2034.165          49.000    25862467.473   104137567.603       -1558.665          53.000  
G11  26455287.868   139023557.149        1872.342          44.000    26455293.507   108330235.080        1458.998          44.000  
E13                                                                  29817598.443   120063105.694        -645.044          37.000  
E33                                                                  29688327.846   119542623.091        1427.247          37.000  
