     3.00           OBSERVATION DATA    M: Mixed            RINEX VERSION / TYPE
CONVBIN 2.4.3                           20240409 075942 UTC PGM / RUN BY / DATE 
format: u-blox UBX                                          COMMENT             
log: data/2024-04-09/20240409074500.ubx                     COMMENT             
AQUI00CHL                                                   MARKER NAME         
                                                            MARKER NUMBER       
                                                            MARKER TYPE         
                                                            OBSERVER / AGENCY   
UNKNOWN             UBLOX-ZED-F9P                           REC # / TYPE / VERS 
UNKNOWN             TWIVSP6037L                             ANT # / TYPE        
  1713381.0000 -5047934.0000 -3490983.0000                  APPROX POSITION XYZ 
        0.0000        0.0000        0.0000                  ANTENNA: DELTA H/E/N
G    8 C1C L1C D1C S1C C2L L2L D2L S2L                      SYS / # / OBS TYPES 
R    8 C1C L1C D1C S1C C2C L2C D2C S2C                      SYS / # / OBS TYPES 
E    8 C1C L1C D1C S1C C7Q L7Q D7Q S7Q                      SYS / # / OBS TYPES 
S    4 C1C L1C D1C S1C                                      SYS / # / OBS TYPES 
  2024    04    09    07    45   00.4970000     GPS         TIME OF FIRST OBS   
  2024    04    09    07    59   30.4980000     GPS         TIME OF LAST OBS    
                                                            END OF HEADER       
> 2024 04 09 07 45 00.4970000  0 25                     
S33  38995835.102   204924642.2301       -659.154          44.000  
G23  19854798.726   104337838.8011      -1299.103          48.000    19854792.810    81302268.8521      -1012.299          47.000  
E25  22930735.172   120501796.0791       -831.742          48.000    22930735.075    92332585.7301       -637.222          52.000  
G26  20140375.116   105838370.8291      -2569.623          48.000    20140371.372    82471461.7801      -2002.251          45.000  
G27  21359371.176   112244288.2331       1650.147          49.000    21359367.482    87463068.5261       1285.757          44.000  
R22  19868611.186   106060338.3761      -1892.401          52.000    19868605.786    82491278.4551      -1471.918          51.000  
R23  20323926.052   108719318.7091        393.136          50.000                                                                  
R12  20093894.518   107337925.5561      -3710.686          52.000    20093891.380    83485121.7621      -2886.182          51.000  
R06  21966827.759   117219176.2961      -2349.452          39.000                                                                  
R08  22034632.619   117994456.5541       3340.285          47.000    22034624.388    91773463.3861       2598.214          43.000  
E02  25602366.972   134541386.2971       1567.325          38.000    25602367.489   103090189.7761       1201.136          46.000  
E12  25701409.723   135062033.6421      -2686.154          38.000    25701406.601   103489253.7171      -2058.367          45.000  
E10  23946903.279   125842059.6741      -2163.502          49.000    23946901.777    96424559.9661      -1657.708          52.000  
G16  20144088.989   105857924.8191        284.072          48.000                                                                  
R13  20077936.426   107214979.7201       -382.666          42.000    20077930.977    83389499.0861       -297.601          40.000  
R07  20534136.361   109920900.4541       1148.269          48.000    20534131.088    85494010.1951        892.994          48.000  
R21  23005947.615   123109574.3781      -3059.552          40.000    23005936.492    95751764.5711      -2380.017          33.000  
E24  24594420.286   129244556.8401      -3254.335          45.000    24594420.305    99031580.4431      -2493.595          51.000  
S31  38040572.954   199904656.5271       -659.536          43.000  
G29  24283561.131   127611291.3131      -3207.402          42.000    24283556.182    99437504.8691      -2499.281          39.000  
E36  24614883.319   129352130.3181        656.263          46.000    24614883.847    99114019.8111        502.833          51.000  
G18  21929912.224   115242687.0911      -3192.372          44.000    21929907.376    89799647.1021      -2487.707          47.000  
E04  26989087.264   141828614.1711       1533.571          41.000    26989086.856   108673874.1891       1175.122          45.000  
G10  19950241.615   104839309.0371       1495.978          49.000    19950239.523    81692974.9691       1165.509          46.000  
E11  21982482.958   115518953.4501      -1183.854          44.000    21982479.009    88514629.6431       -907.138          49.000  
> 2024 04 09 07 45 30.4980000  0 26                     
S33  38999598.588   204944419.274        -659.171          44.000  
G23  19862273.632   104377119.641       -1319.382          48.000    19862268.424    81332877.315       -1028.153          48.000  
E25  22935523.364   120526957.819        -845.560          48.000    22935523.248    92351865.511        -647.936          52.000  
G26  20155092.605   105915714.723       -2586.169          47.000    20155089.717    82531729.753       -2015.332          45.000  
G27  21349957.711   112194820.859        1647.568          49.000    21349954.337    87424522.514        1284.027          44.000  
R11  23197021.256                3      -5224.569          11.000                                                                  
R22  19879257.486   106117170.337       -1896.134          52.000    19879252.000    82535481.120       -1474.703          51.000  
R23  20321734.853   108707597.801         388.422          50.000                                                                  
R12  20114784.101   107449514.228       -3728.125          52.000    20114781.790    83571912.920       -2899.646          51.000  
R06  21980103.033   117290008.796       -2372.515          41.000                                                                  
R08  22015928.957   117894301.972        3336.488          48.000    22015920.189    91695565.457        2595.148          43.000  
E02  25593441.841   134494482.848        1559.359          39.000    25593442.039   103054250.786        1194.926          46.000  
E12  25716744.490   135142613.069       -2685.580          39.000    25716739.615   103550996.405       -2057.768          44.000  
E10  23959259.799   125906993.884       -2165.204          49.000    23959258.526    96474314.758       -1659.033          52.000  
G16  20142521.444   105849688.100         265.161          48.000                                                                  
R13  20080160.053   107226857.528        -409.374          41.000    20080154.952    83398737.344        -318.160          40.000  
R07  20527763.750   109886785.820        1126.067          49.000    20527758.185    85467476.587         875.824          49.000  
R21  23023098.433   123201352.149       -3058.529          41.000    23023089.486    95823147.222       -2378.658          32.000  
E24  24613020.680   129342303.589       -3261.800          44.000    24613020.472    99106477.289       -2499.243          50.000  
S31  38044338.752   199924446.300        -659.380          43.000  
G29  24301884.670   127707580.486       -3211.669          41.000    24301880.004    99512535.368       -2502.275          40.000  
E36  24611151.528   129332525.403         650.904          45.000    24611153.166    99098997.893         498.569          50.000  
G18  21948144.589   115338496.946       -3194.402          44.000    21948138.552    89874304.088       -2489.232          47.000  
E04  26980338.275   141782637.908        1531.306          41.000    26980338.143   108638645.627        1173.573          46.000  
G10  19941753.999   104794702.771        1477.767          49.000    19941751.268    81658216.821        1151.695          46.000  
E11  21989254.110   115554536.867       -1188.270          44.000    21989250.411    88541894.858        -910.510          49.000  
> 2024 04 09 07 46 00.4980000  0 25                     
S33  39003361.510   204964193.504        -658.917          44.000  
G23  19869862.713   104417003.288       -1339.318          49.000    19869857.684    81363955.511       -1043.757          48.000  
E25  22940390.324   120552535.469        -859.445          48.000    22940390.422    92371463.965        -658.504          51.000  
G26  20169903.765   105993550.755       -2602.582          47.000    20169901.783    82592381.179       -2027.875          46.000  
G27  21340559.301   112145433.451        1645.102          49.000    21340556.443    87386038.842        1281.737          44.000  
R22  19889922.543   106174106.293       -1899.487          52.000    19889918.024    82579764.633       -1477.343          50.000  
R23  20319569.551   108696015.114         384.082          50.000                                                                  
R12  20135770.136   107561616.719       -3745.215          52.000    20135767.526    83659103.720       -2912.903          50.000  
R06  21993505.933   117361529.521       -2395.278          42.000                                                                  
R08  21997248.818   117794263.875        3332.812          50.000    21997239.608    91617758.139        2592.240          45.000  
E02  25584563.663   134447825.009        1551.379          40.000    25584563.435   103018499.981        1188.791          46.000  
E12  25732072.631   135223166.032       -2684.514          38.000    25732069.624   103612718.798       -2056.995          46.000  
E10  23971625.641   125971978.398       -2166.910          49.000    23971624.587    96524108.088       -1660.299          52.000  
G16  20141061.175   105842016.676         246.490          48.000                                                                  
R13  20082532.660   107239530.924        -435.417          41.000    20082528.521    83408594.433        -338.911          41.000  
R07  20521515.619   109853336.989        1103.983          48.000    20521510.064    85441460.827         858.737          49.000  
R21  23040240.353   123293085.883       -3057.142          39.000    23040235.090                       -2376.788          29.000  
E24  24631662.002   129440265.403       -3268.700          44.000    24631661.807    99181538.916       -2504.698          50.000  
S31  38048104.385   199944234.882        -659.456          43.000  
G29  24320231.208   127803993.252       -3215.888          42.000    24320226.763    99587662.221       -2505.609          40.000  
E36  24607451.599   129313085.624         645.394          45.000    24607453.479    99084102.474         494.590          50.000  
G18  21966385.923   115434359.877       -3196.119          44.000    21966380.928    89949002.468       -2490.505          47.000  
E04  26971602.342   141736723.418        1529.469          41.000    26971600.684   108603464.389        1172.049          46.000  
G10  19933369.277   104750638.865        1459.875          50.000    19933365.439    81623881.320        1137.721          46.000  
E11  21996050.269   115590254.269       -1192.620          44.000    21996047.137    88569262.740        -913.818          49.000  
> 2024 04 09 07 46 30.4980000  0 25                     
S33  39007122.917   204983959.351        -658.717          44.000  
G23  19877565.808   104457483.050       -1359.119          48.000    19877560.291    81395498.163       -1059.218          48.000  
E25  22945335.301   120578522.988        -873.047          47.000    22945335.746    92391376.486        -669.029          51.000  
G26  20184807.799   106071872.429       -2618.683          47.000    20184806.100    82653411.025       -2040.503          46.000  
G27  21331175.216   112096118.774        1642.535          48.000    21331172.287    87347611.810        1280.019          45.000  
R22  19900606.658   106231140.455       -1902.778          51.000    19900602.549    82624124.540       -1479.908          50.000  
R23  20317428.325   108684562.702         379.572          49.000                                                                  
R12  20156849.712   107674225.501       -3762.024          50.000    20156847.878    83746688.291       -2925.971          50.000  
R06  22007036.754   117433731.624       -2418.025          42.000                                                                  
R08  21978588.888   117694336.249        3328.963          50.000    21978580.163    91540036.744        2589.256          44.000  
E02  25575730.161   134401405.962        1543.306          40.000    25575730.009   102982932.127        1182.590          46.000  
E12  25747395.320   135303687.854       -2683.609          38.000    25747392.070   103674417.325       -2056.245          45.000  
E10  23983999.984   126037007.445       -2168.333          48.000    23983999.285    96573935.545       -1661.542          52.000  
G16  20139707.648   105834904.567         227.802          47.000                                                                  
R13  20085054.264   107252993.169        -461.739          41.000    20085049.656    83419065.069        -359.309          41.000  
R07  20515389.274   109820549.168        1081.924          46.000    20515385.319    85415959.240         841.500          49.000  
R21  23057373.459   123384771.704       -3055.495          40.000    23057368.881                       -2376.176          29.000  
E24  24650344.708   129538437.040       -3275.841          45.000    24650343.136    99256761.327       -2510.105          50.000  
S31  38051868.415   199964014.784        -659.239          43.000  
G29  24338599.982   127900525.510       -3219.716          41.000    24338596.005    99662882.253       -2508.967          40.000  
E36  24603783.256   129293802.841         640.177          46.000    24603783.967    99069327.388         490.496          49.000  
G18  21984636.439   115530270.937       -3197.873          44.000    21984631.294    90023738.360       -2491.665          46.000  
E04  26962875.828   141690864.215        1527.477          41.000    26962874.169   108568325.527        1170.568          46.000  
G10  19925085.860   104707110.984        1441.904          50.000    19925082.453    81589963.493        1123.872          46.000  
E11  22002871.733   115626098.919       -1197.127          44.000    22002868.039    88596728.120        -917.090          49.000  
> 2024 04 09 07 47 00.4980000  0 25                     
S33  39010882.831   205003718.915        -658.521          44.000  
G23  19885381.896   104498558.686       -1379.145          47.000    19885376.915    81427505.155       -1074.641          48.000  
E25  22950358.839   120604921.361        -886.859          47.000    22950359.134    92411603.797        -679.521          51.000  
G26  20199804.195   106150678.535       -2635.016          48.000    20199801.803    82714818.388       -2053.204          45.000  
G27  21321805.187   112046879.153        1639.987          49.000    21321802.530    87309243.267        1277.997          45.000  
R22  19911309.874   106288273.091       -1906.134          52.000    19911304.953    82668561.048       -1482.557          50.000  
R23  20315311.113   108673240.269         375.177          48.000                                                                  
R12  20178024.809   107787337.029       -3778.809          50.000    20178022.405    83834663.903       -2939.026          49.000  
R06  22020695.448   117506614.079       -2440.744          43.000                                                                  
R08  21959950.031   117594524.177        3324.960          50.000    21959942.055    91462405.193        2586.157          46.000  
E02  25566943.465   134355228.222        1534.984          40.000    25566942.658   102947549.180        1176.259          46.000  
E12  25762712.250   135384178.834       -2682.663          38.000    25762708.957   103736092.222       -2055.459          45.000  
E10  23996382.980   126102081.030       -2169.873          48.000    23996382.320    96623797.115       -1662.647          52.000  
G16  20138461.016   105828354.129         208.795          47.000                                                                  
R13  20087722.678   107267244.961        -488.605          41.000    20087719.028    83430149.782        -379.846          42.000  
R07  20509390.554   109788426.058        1059.575          49.000    20509383.734    85390974.606         824.117          49.000  
R21  23074498.451   123476410.853       -3054.084          40.000    23074494.824    96037081.659       -2375.432          33.000  
E24  24669066.576   129636817.819       -3282.917          46.000    24669064.620    99332143.986       -2515.419          50.000  
S31  38055630.966   199983786.671        -659.095          43.000  
G29  24356992.327   127997178.519       -3223.701          40.000    24356987.407    99738196.348       -2512.030          38.000  
E36  24600143.556   129274677.399         634.817          46.000    24600144.433    99054672.846         486.420          49.000  
G18  22002896.843   115626229.779       -3199.515          44.000    22002892.505    90098511.470       -2493.018          46.000  
E04  26954160.407   141645063.241        1525.477          41.000    26954158.252   108533231.273        1168.777          46.000  
G10  19916905.213   104664122.126        1423.765          49.000    19916901.969    81556465.688        1109.353          46.000  
E11  22009717.331   115662070.600       -1201.328          45.000    22009713.229    88624290.853        -920.515          49.000  
> 2024 04 09 07 47 30.4980000  0 25                     
S33  39014642.298   205023475.149        -658.717          44.000  
G23  19893312.300   104540234.159       -1399.452          47.000    19893307.324    81459979.532       -1090.357          48.000  
E25  22955461.063   120631735.828        -901.037          47.000    22955461.671    92432149.932        -690.388          51.000  
G26  20214893.623   106229972.127       -2651.392          48.000    20214891.192    82776605.604       -2066.113          45.000  
G27  21312450.669   111997721.225        1636.960          49.000    21312447.799    87270938.407        1275.616          45.000  
R22  19922033.137   106345509.030       -1909.846          52.000    19922027.506    82713077.875       -1485.414          51.000  
R23  20313218.350   108662052.466         370.551          47.000                                                                  
R12  20199293.579   107900952.237       -3795.850          50.000    20199291.221    83923031.274       -2952.350          49.000  
R06  22034481.916   117580180.319       -2463.966          42.000                                                                  
R08  21941334.814   117494837.650        3320.473          50.000    21941326.945    91384871.302        2582.540          47.000  
E02  25558204.280   134309298.564        1526.552          41.000    25558202.629   102912356.320        1169.768          47.000  
E12  25778023.471   135464643.461       -2681.788          37.000    25778021.229   103797746.904       -2054.986          46.000  
E10  24008775.536   126167203.390       -2171.749          49.000    24008774.617    96673696.063       -1664.093          52.000  
G16  20137323.238   105822371.985         189.697          47.000                                                                  
R13  20090540.994   107282291.690        -515.027          40.000    20090536.843    83441852.762        -400.342          41.000  
R07  20503516.345   109756976.626        1036.809          49.000    20503508.684    85366513.912         806.404          49.000  
R21  23091616.103   123568009.271       -3052.734          39.000    23091612.448    96108324.930       -2374.274          33.000  
E24  24687827.915   129735411.354       -3290.290          46.000    24687826.253    99407689.649       -2521.030          50.000  
S31  38059392.883   200003557.248        -659.229          43.000  
G29  24375408.089   128093957.075       -3228.197          39.000    24375403.715    99813608.245       -2515.447          40.000  
E36  24596534.071   129255713.872         629.114          46.000    24596535.744    99040142.371         482.174          49.000  
G18  22021167.195   115722240.229       -3201.432          45.000    22021162.469    90173324.805       -2494.625          46.000  
E04  26945456.390   141599327.649        1523.127          41.000    26945455.438   108498187.131        1167.121          46.000  
G10  19908828.882   104621679.446        1405.184          50.000    19908824.956    81523393.490        1094.955          46.000  
E11  22016587.246   115698173.493       -1205.761          44.000    22016583.219    88651954.114        -923.951          49.000  
> 2024 04 09 07 48 00.4980000  0 25                     
S33  39018402.522   205043235.346        -658.539          44.000  
G23  19901358.390   104582514.816       -1419.177          47.000    19901353.942    81492925.486       -1105.853          49.000  
E25  22960643.886   120658973.011        -914.617          47.000    22960644.542    92453019.975        -700.893          51.000  
G26  20230075.499   106309757.611       -2667.383          47.000    20230074.067    82838776.104       -2078.601          45.000  
G27  21303112.724   111948652.971        1634.328          48.000    21303109.734    87232703.423        1273.479          44.000  
R22  19932776.232   106402854.316       -1913.042          52.000    19932769.922    82757679.761       -1488.013          50.000  
R23  20311154.541   108651005.432         366.058          49.000                                                                  
R12  20220658.222   108015073.329       -3812.128          50.000    20220655.631    84011792.117       -2965.027          49.000  
R06  22048397.025   117654434.850       -2486.269          41.000                                                                  
R08  21922743.415   117395287.925        3316.284          50.000    21922737.265    91307443.783        2579.330          47.000  
E02  25549513.116   134263625.184        1518.291          42.000    25549511.235   102877359.839        1163.402          47.000  
E12  25793333.109   135545087.598       -2680.865          39.000    25793329.240   103859385.903       -2054.181          45.000  
E10  24021177.946   126232380.196       -2173.198          48.000    24021177.368    96723636.724       -1665.171          52.000  
G16  20136294.673   105816965.776         170.868          48.000                                                                  
R13  20093508.889   107298139.311        -541.376          41.000    20093504.843    83454178.679        -421.387          41.000  
R07  20497767.280   109726210.687        1014.394          47.000    20497761.807    85342584.905         788.810          48.000  
R21  23108727.518   123659573.703       -3051.263          37.000    23108726.049    96179541.739       -2373.163          34.000  
E24  24706631.724   129834222.575       -3297.039          47.000    24706629.350    99483402.134       -2526.389          49.000  
S31  38063156.020   200023331.574        -658.929          43.000  
G29  24393848.807   128190867.655       -3232.507          39.000    24393845.918    99889123.020       -2518.577          40.000  
E36  24592957.785   129236918.360         623.970          45.000    24592959.194    99025740.624         478.058          49.000  
G18  22039447.913   115818307.562       -3202.852          44.000    22039443.167    90248182.496       -2495.841          46.000  
E04  26936767.377   141553666.076        1521.219          41.000    26936766.137   108463199.747        1165.436          46.000  
G10  19900858.487   104579791.550        1387.324          50.000    19900854.923    81490753.601        1081.111          46.000  
E11  22023484.156   115734413.136       -1209.879          45.000    22023479.342    88679722.151        -927.053          49.000  
> 2024 04 09 07 48 30.4980000  0 25                     
S33  39022162.184   205062992.467        -658.320          44.000  
G23  19909517.551   104625391.556       -1438.979          48.000    19909513.137    81526335.917       -1121.247          48.000  
E25  22965906.557   120686625.061        -928.357          48.000    22965906.484    92474207.890        -711.365          51.000  
G26  20245349.746   106390024.944       -2683.551          47.000    20245348.106    82901322.070       -2090.967          44.000  
G27  21293791.129   111899667.906        1631.645          47.000    21293787.877    87194533.281        1271.265          44.000  
R22  19943537.287   106460300.294       -1916.365          51.000    19943531.672    82802359.969       -1490.418          49.000  
R23  20309113.986   108640090.029         361.945          49.000                                                                  
R12  20242114.711   108129687.883       -3828.473          51.000    20242111.192    84100936.745       -2977.771          49.000  
R06  22062439.034   117729367.419       -2508.972          38.000                                                                  
R08  21904177.063   117295871.446        3311.756          49.000    21904171.443    91230119.905        2575.891          47.000  
E02  25540869.344   134218201.798        1510.007          43.000    25540867.490   102842554.914        1157.146          47.000  
E12  25808635.733   135625502.935       -2679.618          38.000    25808631.511   103921002.858       -2053.406          45.000  
E10  24033590.022   126297602.588       -2174.589          49.000    24033588.869    96773612.328       -1666.213          52.000  
G16  20135374.188   105812128.771         151.868          48.000                                                                  
R13  20096624.441   107314780.031        -567.786          41.000    20096621.587    83467121.442        -441.540          42.000  
R07  20492146.153   109696123.477         991.693          47.000    20492140.925    85319183.714         771.251          48.000  
R21  23125830.959   123751096.780       -3049.768          35.000    23125830.688                       -2371.917          31.000  
E24  24725474.320   129933242.009       -3303.914          47.000    24725472.211    99559274.150       -2531.583          49.000  
S31  38066918.074   200043102.109        -658.830          43.000  
G29  24412314.644   128287902.167       -3236.527          41.000    24412311.393    99964734.355       -2521.908          41.000  
E36  24589411.711   129218282.302         618.750          46.000    24589412.886    99011461.056         474.092          49.000  
G18  22057738.502   115914422.620       -3204.382          45.000    22057733.781    90323077.306       -2496.873          46.000  
E04  26928089.655   141508072.636        1518.885          39.000    26928090.150   108428264.537        1163.801          46.000  
G10  19892992.041   104538452.518        1368.943          50.000    19892988.835    81458541.375        1066.987          47.000  
E11  22030404.032   115770780.538       -1214.193          44.000    22030399.822    88707588.084        -930.293          49.000  
> 2024 04 09 07 49 00.4980000  0 25                     
S33  39025919.223   205082736.287        -657.999          44.000  
G23  19917788.128   104668853.960       -1458.337          48.000    19917783.571    81560202.724       -1136.365          48.000  
E25  22971246.160   120714682.826        -941.853          48.000    22971245.844    92495706.697        -721.670          51.000  
G26  20260713.888   106470762.767       -2698.901          48.000    20260712.292    82964234.670       -2103.076          45.000  
G27  21284484.099   111850758.329        1629.227          47.000    21284481.171    87156421.925        1269.651          45.000  
R22  19954314.885   106517837.295       -1919.318          52.000    19954310.546    82847110.961       -1492.817          51.000  
R23  20307097.172   108629296.041         357.910          49.000                                                                  
R12  20263659.967   108244782.169       -3844.373          51.000    20263656.620    84190454.476       -2989.887          49.000  
R06  22076606.104   117804966.675       -2530.744          38.000                                                                  
R08  21885636.147   117196583.458        3307.569          48.000    21885629.404    91152895.965        2572.509          47.000  
E02  25532272.138   134173020.897        1502.015          43.000    25532270.218   102807935.789        1151.093          47.000  
E12  25823931.162   135705879.620       -2678.330          38.000    25823926.632   103982590.198       -2052.446          44.000  
E10  24046007.743   126362860.549       -2175.667          49.000    24046007.129    96823615.181       -1667.142          52.000  
G16  20134560.570   105807853.356         133.246          48.000                                                                  
R13  20099887.267   107332203.999        -593.610          41.000    20099884.275    83480673.422        -462.091          41.000  
R07  20486652.740   109666708.198         969.356          49.000    20486645.836    85296305.201         753.899          47.000  
R21  23142926.926   123842569.314       -3048.230          34.000    23142924.981                       -2370.312          29.000  
E24  24744354.526   130032458.916       -3310.389          47.000    24744352.736    99635297.494       -2536.531          49.000  
S31  38070677.785   200062859.997        -658.046          43.000  
G29  24430801.763   128385051.086       -3240.316          39.000    24430798.078   100040434.845       -2524.740          40.000  
E36  24585893.177   129199796.070         613.778          46.000    24585894.795    98997296.291         470.293          49.000  
G18  22076035.863   116010574.977       -3205.361          45.000    22076031.006    90398001.223       -2497.806          46.000  
E04  26919424.889   141462540.127        1516.857          40.000    26919425.238   108393376.052        1162.117          45.000  
G10  19885228.206   104497655.160        1350.951          50.000    19885224.973    81426751.257        1052.747          47.000  
E11  22037347.149   115807265.507       -1218.151          44.000    22037342.698    88735544.106        -933.400          49.000  
> 2024 04 09 07 49 30.4980000  0 25                     
S33  39029673.943   205102467.215        -657.788          44.000  
G23  19926170.610   104712901.278       -1478.440          49.000    19926165.280    81594525.306       -1151.900          48.000  
E25  22976662.408   120743146.817        -956.023          47.000    22976662.817    92517516.757        -732.478          52.000  
G26  20276167.824   106551969.427       -2715.247          49.000    20276165.527    83027512.550       -2115.619          44.000  
G27  21275192.176   111801926.228        1626.002          47.000    21275188.537    87118370.950        1267.052          46.000  
R22  19965110.546   106575465.139       -1922.749          52.000    19965105.811    82891932.650       -1495.565          50.000  
R23  20305101.631   108618623.787         353.345          49.000                                                                  
R12  20285294.990   108360352.440       -3860.596          51.000    20285290.700    84280342.446       -3002.618          48.000  
R06  22090897.534   117881230.989       -2553.776          36.000                                                                  
R08  21867118.924   117097429.182        3302.579          48.000    21867112.416    91075776.042        2568.677          46.000  
E02  25523721.590   134128084.599        1493.484          43.000    25523719.134   102773504.078        1144.276          47.000  
E12  25839217.151   135786217.621       -2677.926          37.000    25839214.538   104044147.878       -2051.800          44.000  
E10  24058433.726   126428153.646       -2177.366          49.000    24058431.932    96873644.943       -1668.399          52.000  
G16  20133854.216   105804140.728         114.026          48.000                                                                  
R13  20103297.523   107350411.535        -620.416          41.000    20103294.018    83494834.805        -482.379          42.000  
R07  20481284.766   109637969.111         946.174          49.000    20481276.679    85273952.589         735.980          47.000  
R21  23160014.231   123933992.133       -3046.313          35.000    23160013.585                1      -2369.507          26.000  
E24  24763271.894   130131872.169       -3317.389          46.000    24763270.457    99711471.274       -2541.890          49.000  
S31  38074435.247   200082604.812        -658.269          43.000  
G29  24449310.838   128482314.736       -3244.501          39.000    24449306.752   100116224.729       -2528.048          40.000  
E36  24582404.485   129181459.558         608.417          46.000    24582405.608    98983246.235         466.168          49.000  
G18  22094339.424   116106763.927       -3207.528          45.000    22094335.034    90472953.630       -2499.183          46.000  
E04  26910773.477   141417071.216        1514.173          41.000    26910772.841   108358536.222        1160.216          45.000  
G10  19877567.349   104457401.925        1332.297          50.000    19877564.745    81395385.120        1038.120          47.000  
E11  22044311.504   115843867.597       -1222.515          44.000    22044308.065    88763589.867        -936.628          49.000  
> 2024 04 09 07 50 00.4980000  0 25                     
S33  39033428.746   205122197.986        -657.413          44.000  
G23  19934665.982   104757543.883       -1497.866          49.000    19934660.610    81629311.760       -1167.202          48.000  
E25  22982158.193   120772028.744        -969.479          47.000    22982159.042    92539647.048        -742.829          52.000  
G26  20291711.873   106633654.355       -2730.695          48.000    20291708.596    83091163.130       -2127.728          43.000  
G27  21265917.452   111753184.753        1623.317          48.000    21265913.517    87080390.619        1264.693          46.000  
R22  19975926.229   106633195.314       -1925.960          53.000    19975921.105    82936833.895       -1497.944          50.000  
R23  20303131.012   108608084.035         349.188          48.000                                                                  
R12  20307020.539   108476405.990       -3876.288          51.000    20307016.560    84370606.277       -3014.954          48.000  
R06  22105315.786   117958169.785       -2575.985          37.000                                                                  
R08  21848630.175   116998424.446        3297.816          48.000    21848623.757    90998772.405        2564.894          47.000  
E02  25515219.237   134083406.229        1485.317          43.000    25515217.249   102739269.999        1138.029          47.000  
E12  25854498.970   135866528.143       -2676.344          35.000    25854497.021   104105684.493       -2050.729          44.000  
E10  24070866.012   126493492.688       -2178.508          48.000    24070865.427    96923709.920       -1669.260          52.000  
G16  20133257.736   105801004.415          95.056          48.000                                                                  
R13  20106856.042   107369414.164        -646.497          42.000    20106852.575    83509614.624        -502.649          42.000  
R07  20476045.424   109609921.000         923.597          50.000    20476037.067    85252137.383         718.344          47.000  
R21  23177092.856   124025377.739       -3045.667          32.000    23177086.101                       -2368.811          29.000  
E24  24782228.484   130231491.861       -3323.877          45.000    24782226.997    99787803.233       -2546.826          48.000  
S31  38078192.566   200102349.374        -657.939          43.000  
G29  24467843.704   128579704.724       -3248.209          40.000    24467839.476   100192113.053       -2531.170          40.000  
E36  24578945.824   129163283.912         603.410          46.000    24578946.703    98969319.450         462.420          49.000  
G18  22112651.994   116202999.867       -3208.479          45.000    22112648.036    90547942.674       -2500.017          45.000  
E04  26902135.254   141371679.488        1511.892          41.000    26902134.913   108323755.588        1158.479          45.000  
G10  19870013.488   104417706.443        1314.024          50.000    19870011.300    81364453.583        1023.875          47.000  
E11  22051301.241   115880597.430       -1226.133          44.000    22051297.851    88791733.519        -939.568          50.000  
> 2024 04 09 07 50 30.4980000  0 25                     
S33  39037181.286   205141918.594        -657.120          44.000  
G23  19943272.383   104802771.598       -1517.181          49.000    19943267.166    81664554.143       -1182.270          49.000  
E25  22987732.282   120801319.708        -983.119          47.000    22987733.000    92562090.756        -753.356          52.000  
G26  20307344.738   106715806.493       -2746.106          48.000    20307342.606    83155177.769       -2139.734          44.000  
G27  21256657.828   111704526.529        1620.571          47.000    21256654.208    87042475.156        1262.945          46.000  
R22  19986758.238   106691018.229       -1928.844          52.000    19986753.508    82981807.287       -1500.213          49.000  
R23  20301183.413   108597667.211         345.197          48.000                                                                  
R12  20328834.100   108592929.388       -3891.809          52.000    20328829.953    84461235.531       -3026.886          47.000  
R06  22119856.606   118035772.149       -2597.431          34.000                                                                  
R08  21830167.940   116899565.243        3292.846          47.000    21830162.963    90921881.937        2561.241          48.000  
E02  25506764.341   134038978.549        1476.735          41.000    25506762.849   102705227.987        1131.631          47.000  
E12  25869774.185   135946801.670       -2675.449          36.000    25869772.448   104167192.771       -2049.712          44.000  
E10  24083307.295   126558867.979       -2179.700          48.000    24083306.045    96973802.672       -1670.146          51.000  
G16  20132768.503   105798436.239          76.227          48.000                                                                  
R13  20110561.829   107389202.385        -672.662          41.000    20110558.440    83525005.453        -523.315          41.000  
R07  20470932.745   109582558.056         900.698          49.000    20470925.348    85230855.092         700.421          47.000  
R21  23194163.498   124116717.542       -3043.774          33.000    23194151.151                1      -2367.102          31.000  
E24  24801222.842   130331307.511       -3330.521          45.000    24801221.091    99864285.357       -2551.824          48.000  
S31  38081947.776   200122084.221        -657.507          43.000  
G29  24486399.010   128677211.768       -3251.942          42.000    24486393.994   100268092.637       -2534.198          39.000  
E36  24575515.876   129145259.661         598.394          46.000    24575516.806    98955508.678         458.496          49.000  
G18  22130971.805   116299272.846       -3209.546          44.000    22130967.672    90622960.564       -2501.008          45.000  
E04  26893509.580   141326358.163        1509.473          40.000    26893510.408   108289028.863        1156.533          45.000  
G10  19862564.875   104378561.776        1295.746          50.000    19862562.259    81333951.249        1009.650          47.000  
E11  22058313.566   115917445.208       -1230.247          44.000    22058309.811    88819967.530        -942.668          50.000  
> 2024 04 09 07 51 00.4980000  0 26                     
S33  39040932.937   205161632.723        -656.726          43.000  
G23  19951990.943   104848586.608       -1536.560          49.000    19951985.422    81700254.153       -1197.271          49.000  
E25  22993384.632   120831023.184        -996.607          47.000    22993385.224    92584850.548        -763.640          52.000  
G26  20323066.921   106798427.082       -2761.420          48.000    20323064.760    83219557.430       -2151.672          44.000  
G27  21247415.347   111655956.563        1617.837          47.000    21247411.813    87004628.451        1260.794          46.000  
R22  19997607.673   106748936.954       -1931.848          52.000    19997603.769    83026855.193       -1502.564          50.000  
R23  20299260.785   108587375.979         341.339          49.000                                                                  
R12  20350735.444   108709921.886       -3907.129          50.000    20350731.434    84552229.686       -3038.837          48.000  
R06  22134524.216   118114038.968       -2618.915          33.000                                                                  
R08  21811737.106   116800859.694        3287.997          50.000    21811731.141    90845111.039        2557.344          49.000  
E02  25498358.070   133994806.661        1468.513          41.000    25498357.223   102671381.997        1125.133          47.000  
E12  25885041.192   136027041.153       -2673.421          35.000    25885041.339   104228675.004       -2048.757          44.000  
E10  24095755.155   126624282.062       -2180.686          48.000    24095753.744    97023925.156       -1671.029          51.000  
G16  20132388.500   105796441.010          57.324          47.000                                                                  
R13  20114414.456   107409779.453        -698.444          41.000    20114410.931    83541009.832        -543.195          41.000  
R07  20465948.856   109555886.468         877.786          48.000    20465944.132    85210110.517         682.784          48.000  
R21  23211221.339                3      -3041.934          23.000    23211214.645                1      -2366.254          32.000  
E24  24820255.468   130431321.015       -3336.714          46.000    24820253.402    99940919.088       -2556.705          49.000  
S31  38085702.274   200141812.852        -657.312          43.000  
G29  24504976.382   128774839.347       -3255.892          43.000    24504971.458   100344166.116       -2537.042          39.000  
E36  24572114.596   129127389.788         593.568          45.000    24572116.199    98941816.205         454.707          49.000  
G18  22149299.859   116395585.013       -3210.642          44.000    22149295.179    90698009.013       -2501.781          44.000  
E04  26884901.647   141281112.732        1507.209          41.000    26884900.754   108254360.303        1154.884          46.000  
G10  19855222.228   104339973.277        1277.386          51.000    19855219.077    81303882.290         995.410          47.000  
E11  22065348.655   115954413.300       -1233.878          44.000    22065344.643    88848293.717        -945.546          50.000  
G15                                                                  24661860.956                3      -1031.534          25.000  
> 2024 04 09 07 51 30.4980000  0 26                     
S33  39044682.231   205181335.339        -656.517          43.000  
G23  19960819.687   104894982.649       -1556.233          49.000    19960814.696    81736406.924       -1212.690          49.000  
E25  22999114.466   120861134.262       -1010.719          47.000    22999115.068    92607922.665        -774.338          52.000  
G26  20338876.703   106881508.967       -2777.008          47.000    20338873.696    83284296.571       -2163.831          43.000  
G27  21238188.735   111607471.461        1614.781          47.000    21238185.248    86966847.872        1258.135          46.000  
R22  20008475.970   106806946.091       -1935.126          53.000    20008470.341    83071973.427       -1505.164          50.000  
R23  20297359.409   108577204.945         336.963          49.000                                                                  
R12  20372721.709   108827373.896       -3922.748          50.000    20372719.045    84643581.214       -3051.013          49.000  
R06  22149316.969   118192963.373       -2641.591          29.000                                                                  
R08  21793333.877   116702307.161        3282.449          50.000    21793326.387    90768459.140        2553.054          48.000  
E02  25490000.474   133950887.295        1459.691          41.000    25489999.732   102637729.498        1118.484          47.000  
E12  25900304.439   136107241.274       -2672.504          36.000    25900303.203   104290127.035       -2047.841          44.000  
E10  24108209.597   126689729.249       -2182.117          48.000    24108208.090    97074072.998       -1672.080          51.000  
G16  20132116.889   105795015.241          38.000          47.000                                                                  
R13  20118414.532   107431139.703        -725.128          41.000    20118411.277    83557623.345        -563.989          42.000  
R07  20461096.418   109529904.646         854.552          50.000    20461089.267    85189902.488         664.582          46.000  
R21  23228288.086                       -3041.656          26.000    23228264.127                       -2365.216          30.000  
E24  24839323.982   130531525.870       -3343.354          47.000    24839321.952   100017699.437       -2561.843          49.000  
S31  38089454.161   200161529.992        -657.109          43.000  
G29  24523576.112   128872582.414       -3259.969          43.000    24523571.451   100420329.620       -2540.507          39.000  
E36  24568742.692   129109668.802         588.240          46.000    24568744.407    98928237.794         450.688          50.000  
G18  22167634.222   116491930.334       -3212.181          45.000    22167629.365    90773083.250       -2502.847          44.000  
E04  26876304.879   141235940.397        1504.614          40.000    26876304.320   108219747.756        1152.716          46.000  
G10  19847984.443   104301937.932        1258.464          50.000    19847980.870    81274244.367         980.768          46.000  
E11  22072405.044   115991495.908       -1237.876          44.000    22072400.968    88876707.651        -948.609          50.000  
G15                                                                  24669460.922                3      -1045.784          21.000  
> 2024 04 09 07 52 00.4980000  0 26                     
S33  39048430.562   205201034.644        -656.433          43.000  
G23  19969760.130   104941965.266       -1575.778          50.000    19969754.958    81773016.759       -1227.753          49.000  
E25  23004923.243   120891659.822       -1024.355          47.000    23004923.587    92631312.380        -784.858          51.000  
G26  20354775.327   106965056.828       -2792.553          47.000    20354772.494    83349398.818       -2176.105          44.000  
G27  21228979.951   111559079.672        1611.532          47.000    21228976.642    86929139.997        1255.626          46.000  
R22  20019360.439   106865052.240       -1938.386          52.000    20019355.630    83117167.093       -1507.649          51.000  
R23  20295480.961   108567160.096         332.751          48.000                                                                  
R12  20394796.732   108945287.958       -3937.960          51.000    20394792.989    84735292.131       -3062.841          49.000  
R06  22164234.158                3      -2663.212          23.000                                                                  
R08  21774960.467   116603919.647        3276.857          50.000    21774951.377    90691935.566        2548.653          47.000  
E02  25481692.376   133907229.023        1450.854          40.000    25481692.012   102604277.058        1111.798          47.000  
E12  25915558.313   136187408.381       -2672.020          35.000    25915557.854   104351553.762       -2047.064          42.000  
E10  24120670.337   126755215.586       -2183.375          47.000    24120669.793    97124250.848       -1672.969          51.000  
G16  20131955.976   105794166.665          18.744          48.000                                                                  
R13  20122563.027   107453289.592        -751.465          42.000    20122559.540    83574851.020        -584.271          42.000  
R07  20456373.437   109504622.557         831.044          49.000    20456366.580    85170238.646         646.560          48.000  
R21  23245344.035                3      -3056.156          15.000    23245312.476                       -2363.873          29.000  
E24  24858429.787   130631927.404       -3349.929          47.000    24858427.707   100094630.469       -2566.731          49.000  
S31  38093205.720   200181243.206        -656.740          43.000  
G29  24542199.790   128970447.584       -3264.053          43.000    24542194.970   100496588.239       -2543.439          40.000  
E36  24565400.002   129092103.140         583.027          45.000    24565401.690    98914778.404         446.672          50.000  
G18  22185975.687   116588314.575       -3213.530          46.000    22185969.954    90848187.868       -2503.993          44.000  
E04  26867724.067   141190850.067        1501.830          40.000    26867723.698   108185198.040        1150.657          45.000  
G10  19840852.891   104264464.549        1239.724          49.000    19840849.282    81245044.348         966.081          46.000  
E11  22079483.938   116028698.932       -1242.164          44.000    22079480.099    88905213.853        -951.613          49.000  
G15                                                                  24677139.753                3      -1059.663          19.000  
> 2024 04 09 07 52 30.4980000  0 26                     
S33  39052177.299   205220722.430        -655.986          44.000  
G23  19978811.195   104989526.738       -1594.714          50.000    19978804.994    81810077.661       -1242.688          48.000  
E25  23010809.988   120922593.453       -1037.695          47.000    23010810.067    92655014.778        -795.154          51.000  
G26  20370760.239   107049062.062       -2807.440          46.000    20370758.041    83414857.418       -2187.653          44.000  
G27  21219788.049   111510776.428        1608.850          47.000    21219785.058    86891501.110        1253.539          47.000  
R22  20030262.509   106923248.509       -1941.119          51.000    20030257.446    83162430.890       -1509.765          51.000  
R23  20293625.732   108557234.519         329.102          49.000                                                                  
R12  20416955.951   109063653.330       -3952.670          52.000    20416951.501    84827354.059       -3074.281          50.000  
R06  22179277.488                1      -2685.828          26.000                                                                  
R08  21756617.497   116505694.958        3271.785          49.000    21756609.323    90615538.665        2544.588          47.000  
E02  25473434.192   133863827.105        1442.651          41.000    25473433.002   102571021.042        1105.442          47.000  
E12  25930808.730   136267535.618       -2670.095          37.000    25930806.092   104412949.952       -2045.948          43.000  
E10  24133138.059   126820733.886       -2184.072          47.000    24133137.309    97174453.188       -1673.685          51.000  
G16  20131904.003   105793889.994          -0.006          48.000                                                                  
R13  20126858.256   107476222.183        -777.399          42.000    20126853.331    83592687.459        -604.462          41.000  
R07  20451780.512   109480036.480         808.302          49.000    20451774.130    85151116.185         628.536          48.000  
E24  24877570.742   130732517.653       -3355.895          46.000    24877569.558   100171706.112       -2571.482          49.000  
S31  38096954.759   200200945.690        -656.225          43.000  
G29  24560844.895   129068428.399       -3267.794          43.000    24560840.098   100572936.980       -2546.452          39.000  
E36  24562086.078   129074685.816         578.502          45.000    24562087.391    98901432.669         443.150          50.000  
G18  22204323.423   116684730.190       -3214.178          46.000    22204318.323    90923316.876       -2504.464          44.000  
E04  26859159.351   141145837.527        1499.372          41.000    26859158.656   108150707.900        1148.795          46.000  
G10  19833828.424   104227548.582        1221.571          50.000    19833824.724    81216278.683         951.677          46.000  
E11  22086585.431   116066015.076       -1245.696          44.000    22086581.065    88933806.746        -954.503          49.000  
G15                                                                  24684884.078                3      -1055.900          21.000  
R21                                                                  23262348.830                       -2362.744          27.000  
> 2024 04 09 07 53 00.4980000  0 26                     
S33  39055921.979   205240401.992        -655.791          43.000  
G23  19987972.026   105037667.139       -1614.218          49.000    19987965.464    81847589.653       -1257.808          48.000  
E25  23016773.336   120953936.623       -1051.569          46.000    23016774.827    92679030.967        -805.761          52.000  
G26  20386833.311   107133523.822       -2822.795          47.000    20386830.615    83480671.755       -2199.489          43.000  
G27  21210613.698   111462564.732        1605.473          47.000    21210610.820    86853933.570        1250.995          47.000  
R22  20041182.198   106981536.010       -1944.307          51.000    20041176.456    83207765.603       -1512.159          51.000  
R23  20291792.615   108547428.872         325.073          49.000                                                                  
R12  20439198.293   109182466.918       -3967.696          51.000    20439193.210    84919764.600       -3085.879          48.000  
R06  22194438.262                1      -2706.818          26.000                                                                  
R08  21738306.646   116407639.431        3265.924          50.000    21738297.824    90539273.321        2540.026          47.000  
E02  25465224.227   133820684.655        1433.807          41.000    25465223.379   102537963.836        1098.752          48.000  
E12  25946047.845   136347623.890       -2669.083          37.000    25946046.808   104474316.271       -2044.797          43.000  
E10  24145612.491   126886284.834       -2185.515          47.000    24145611.194    97224680.511       -1674.573          51.000  
G16  20131960.349   105794187.853         -19.299          48.000                                                                  
R13  20131299.287   107499938.656        -803.491          41.000    20131294.614    83611133.581        -625.085          42.000  
R07  20447318.247   109456150.960         784.610          49.000    20447311.733    85132538.538         610.275          47.000  
E24  24896749.252   130833296.533       -3362.276          47.000    24896747.005   100248926.250       -2576.301          49.000  
S31  38100702.249   200220638.787        -655.864          43.000  
G29  24579512.585   129166525.971       -3271.737          43.000    24579507.301   100649376.703       -2549.347          40.000  
E36  24558799.367   129057417.767         573.242          45.000    24558801.474    98888201.318         439.271          50.000  
G18  22222676.739   116781177.500       -3215.275          46.000    22222670.481    90998470.634       -2505.455          44.000  
E04  26850609.552   141100906.214        1496.609          42.000    26850608.882   108116280.025        1146.657          47.000  
G10  19826910.972   104191193.398        1202.690          51.000    19826907.122    81187949.962         937.194          47.000  
E11  22093708.136   116103444.798       -1249.347          44.000    22093703.793    88962486.666        -957.343          49.000  
G15                                                                  24692713.791                3      -1070.855          19.000  
R21                                                                  23279377.816                       -2362.018          25.000  
> 2024 04 09 07 53 30.4980000  0 26                     
S33  39059666.352   205260077.696        -655.703          44.000  
G23  19997242.734   105086391.517       -1633.697          49.000    19997237.484    81885556.705       -1272.961          48.000  
E25  23022818.015   120985695.724       -1065.529          47.000    23022818.302    92703365.839        -816.442          52.000  
G26  20402993.180   107218446.293       -2838.227          46.000    20402991.133    83546845.131       -2211.886          44.000  
G27  21201458.485   111414452.662        1602.094          47.000    21201455.305    86816443.642        1248.399          47.000  
R22  20052119.642   107039920.952       -1947.655          53.000    20052113.746    83253176.087       -1514.825          50.000  
R23  20289983.148   108537749.350         320.624          49.000                                                                  
R12  20461524.759   109301730.740       -3982.864          50.000    20461519.194    85012525.333       -3097.723          48.000  
R06  22209717.956                1      -2728.955          28.000    22209083.703                3      -2016.174          14.000  
R08  21720028.752   116309764.357        3259.520          51.000    21720021.088    90463148.301        2535.129          48.000  
E02  25457065.720   133777809.782        1424.957          42.000    25457064.272   102505111.685        1091.679          47.000  
E12  25961282.843   136427679.280       -2667.820          38.000    25961280.178   104535657.424       -2044.182          42.000  
E10  24158093.771   126951874.106       -2186.935          47.000    24158092.491    97274937.221       -1675.752          51.000  
G16  20132128.390   105795067.783         -38.849          48.000                                                                  
R13  20135888.203   107524444.456        -829.718          41.000    20135884.358    83630193.609        -645.380          41.000  
R07  20442986.711   109432975.527         760.759          48.000    20442982.570    85114513.210         591.742          47.000  
R21  23296429.289                3      -3035.918          24.000    23296400.525                3      -2361.786          24.000  
E24  24915963.268   130934268.845       -3368.875          46.000    24915960.836   100326294.622       -2581.339          48.000  
S31  38104449.107   200240329.666        -656.378          43.000  
G29  24598203.522   129264746.782       -3275.940          41.000    24598196.852   100725912.399       -2552.868          37.000  
E36  24555543.093   129040304.950         567.932          45.000    24555544.829    98875088.902         435.169          50.000  
G18  22241037.151   116877661.904       -3216.635          46.000    22241032.273    91073653.259       -2506.457          45.000  
E04  26842076.938   141056064.730        1493.306          42.000    26842075.826   108081920.976        1144.105          47.000  
G10  19820101.042   104155407.240        1183.398          51.000    19820097.399    81160064.672         922.156          47.000  
E11  22100853.646   116140993.649       -1253.454          45.000    22100849.251    88991257.871        -960.310          49.000  
G15                                                                  24700622.442                3      -1080.085          21.000  
> 2024 04 09 07 54 00.4980000  0 27                     
S33  39063409.355   205279748.681        -655.368          44.000  
G23  20006624.848   105135695.942       -1653.194          49.000    20006620.248    81923975.756       -1288.253          49.000  
E25  23028940.245   121017868.177       -1079.290          47.000    23028940.694    92728017.454        -827.058          52.000  
G26  20419240.301   107303824.712       -2853.549          46.000    20419239.504    83613373.741       -2223.609          45.000  
G27  21192321.931   111366439.306        1598.728          47.000    21192318.449    86779030.666        1245.743          46.000  
R22  20063075.003   107098400.402       -1950.911          52.000    20063069.248    83298660.097       -1517.341          50.000  
R23  20288196.550   108528192.476         316.644          50.000                                                                  
R12  20483933.285   109421437.973       -3997.709          50.000    20483928.415    85105630.915       -3109.283          49.000  
R06  22225118.828                       -2750.454          28.000                                                                  
R08  21701784.303   116212071.453        3253.244          49.000    21701777.441    90387164.968        2530.357          48.000  
E02  25448957.100   133735201.656        1415.739          42.000    25448955.955   102472463.903        1084.898          47.000  
E12  25976510.988   136507698.848       -2666.828          38.000    25976507.600   104596971.117       -2043.440          43.000  
E10  24170581.695   127017498.332       -2188.171          47.000    24170580.214    97325220.678       -1676.457          51.000  
G16  20132405.818   105796528.350         -58.411          48.000                                                                  
R13  20140624.894   107549736.682        -856.085          40.000    20140620.784    83649865.317        -666.052          42.000  
R07  20438790.575   109410510.348         737.000          47.000    20438785.292    85097040.327         573.239          45.000  
E24  24935213.758   131035430.508       -3375.258          46.000    24935210.959   100403808.087       -2586.173          48.000  
S31  38108195.361   200260014.888        -656.447          43.000  
G29  24616916.657   129363087.992       -3279.975          40.000    24616911.236   100802541.956       -2556.048          38.000  
E36  24552315.800   129023344.292         562.833          46.000    24552317.557    98862093.094         431.251          50.000  
G18  22259403.553   116974179.777       -3217.755          46.000    22259398.876    91148861.972       -2507.251          45.000  
E04  26833561.331   141011312.613        1490.184          43.000    26833559.626   108047630.414        1141.858          47.000  
G10  19813398.810   104120189.362        1164.354          51.000    19813395.745    81132622.187         907.292          47.000  
E11  22108021.587   116178658.162       -1257.546          45.000    22108016.603    89020117.704        -963.467          49.000  
G15                                                                  24708602.834                3      -1093.699          23.000  
G08                                                                  23826386.044                3       1842.305          25.000  
R21                                                                  23313417.939                       -2360.272          27.000  
> 2024 04 09 07 54 30.4980000  0 27                     
S33  39067152.523   205299418.840        -655.782          44.000  
G23  20016118.629   105185583.401       -1672.645          49.000    20016113.717    81962849.111       -1303.481          49.000  
E25  23035142.188   121050458.378       -1093.423          47.000    23035142.462    92752989.151        -837.819          52.000  
G26  20435574.755   107389661.197       -2868.862          46.000    20435573.415    83680259.293       -2235.373          44.000  
G27  21183204.864   111318530.711        1595.033          47.000    21183201.527    86741699.308        1243.048          46.000  
R22  20074047.564   107156978.562       -1954.346          52.000    20074043.267    83344220.901       -1520.050          50.000  
R23  20286433.497   108518762.349         312.231          50.000                                                                  
R12  20506426.624   109541588.761       -4012.381          50.000    20506420.807    85199081.469       -3120.852          49.000  
R06  22240637.294                       -2771.760          31.000                                                                  
R08  21683576.436   116114570.466        3246.838          49.000    21683570.579    90311330.940        2525.230          48.000  
E02  25440899.869   133692866.357        1406.544          41.000    25440899.584   102440025.183        1077.666          47.000  
E12  25991731.959   136587686.489       -2665.924          38.000    25991729.252   104658260.357       -2042.543          43.000  
E10  24183076.369   127083161.270       -2189.409          47.000    24183075.404    97375533.838       -1677.701          51.000  
G16  20132794.780   105798575.127         -78.137          48.000                                                                  
R13  20145508.644   107575819.137        -882.855          40.000    20145505.563    83670151.623        -686.475          42.000  
R07  20434728.529   109388763.113         712.880          48.000    20434721.595    85080125.846         554.480          45.000  
E24  24954500.986   131136784.401       -3381.801          46.000    24954497.974   100481468.878       -2591.279          48.000  
S31  38111941.133   200279699.269        -656.376          43.000  
G29  24635653.637   129461553.834       -3284.421          40.000    24635648.724   100879268.622       -2559.150          38.000  
E36  24549117.988   129006539.718         557.461          46.000    24549119.674    98849216.863         427.149          50.000  
G18  22277776.664   117070734.500       -3219.064          45.000    22277772.543    91224099.383       -2508.331          46.000  
E04  26825062.905   140966656.443        1486.872          42.000    26825062.132   108013413.377        1139.332          47.000  
G10  19806806.421   104085546.051        1145.043          51.000    19806803.737    81105627.413         892.062          47.000  
E11  22115211.444   116216441.834       -1261.605          45.000    22115206.457    89049068.839        -966.699          49.000  
G15                                                                  24716676.310                3      -1110.515          21.000  
G08                                                                  23812879.562                        1843.937          28.000  
R21                                                                  23330429.539                3      -2363.522          16.000  
> 2024 04 09 07 55 00.4980000  0 27                     
S33  39070895.386   205319088.059        -655.639          44.000  
G23  20025722.781   105236052.344       -1691.914          49.000    20025717.370    82002175.556       -1318.447          49.000  
E25  23041423.539   121083466.121       -1107.229          48.000    23041423.777    92778280.802        -848.442          52.000  
G26  20451994.412   107475953.371       -2883.938          45.000    20451994.001    83747499.948       -2247.188          44.000  
G27  21174108.066   111270728.431        1591.622          46.000    21174104.834    86704450.814        1240.103          46.000  
R22  20085040.738   107215654.883       -1957.465          52.000    20085035.333    83389858.031       -1522.412          50.000  
R23  20284694.238   108509458.073         307.996          50.000                                                                  
R12  20529000.505   109662178.354       -4026.954          49.000    20528995.843    85292873.296       -3131.980          48.000  
R06  22256287.556   118763867.3181      -2794.274          36.000                                                                  
R08  21665404.663   116017265.265        3240.195          49.000    21665398.983    90235649.149        2520.219          48.000  
E02  25432895.556   133650805.465        1397.486          41.000    25432895.580   102407796.698        1070.682          46.000  
E12  26006945.863   136667641.769       -2664.357          38.000    26006944.611   104719524.773       -2041.675          44.000  
E10  24195578.384   127148862.015       -2190.698          46.000    24195577.801    97425875.963       -1678.522          51.000  
G16  20133296.214   105801208.615         -97.662          48.000                                                                  
R13  20150540.846   107602690.824        -908.856          40.000    20150537.967    83691051.837        -707.007          42.000  
R07  20430800.612   109367736.219         688.884          49.000    20430793.595    85063771.553         535.855          45.000  
R21  23347450.567                       -3032.581          26.000                                                                  
E24  24973824.083   131238328.775       -3387.971          46.000    24973821.876   100559275.582       -2595.938          49.000  
S31  38115686.680   200299383.492        -656.194          43.000  
G29  24654414.948   129560144.082       -3288.528          41.000    24654410.493   100956092.265       -2562.762          38.000  
E36  24545950.064   128989890.593         552.357          47.000    24545950.934    98836459.733         423.335          49.000  
G18  22296157.491   117167324.882       -3220.252          45.000    22296152.008    91299364.614       -2509.274          45.000  
E04  26816583.083   140922098.229        1483.630          41.000    26816583.562   107979271.390        1136.828          48.000  
G10  19800323.771   104051478.946        1125.907          51.000    19800320.601    81079081.638         877.255          47.000  
E11  22122423.565   116254343.711       -1265.175          45.000    22122419.020    89078110.544        -969.496          49.000  
G15                                                                  24724805.798                3      -1116.442          21.000  
G08                                                                  23799366.901                        1845.165          28.000  
> 2024 04 09 07 55 30.4980000  0 27                     
S33  39074638.018   205338755.416        -655.603          44.000  
G23  20035436.804   105287100.322       -1711.152          48.000    20035431.758    82041953.211       -1333.375          49.000  
E25  23047783.397   121116890.363       -1120.965          47.000    23047784.220    92803891.580        -858.888          52.000  
G26  20468502.440   107562697.894       -2898.910          46.000    20468501.296    83815093.087       -2259.027          44.000  
G27  21165031.562   111223033.141        1588.078          46.000    21165028.618    86667285.675        1237.544          45.000  
R22  20096050.954   107274428.196       -1960.724          53.000    20096045.646    83435570.595       -1525.012          50.000  
R23  20282978.813   108500278.592         303.943          50.000                                                                  
R12  20551655.457   109783201.207       -4041.135          50.000    20551651.303    85387002.145       -3143.184          48.000  
R06  22272059.288   118848021.525       -2815.646          37.000                                                                  
R08  21647271.134   115920160.148        3233.476          49.000    21647265.064    90160122.991        2514.891          48.000  
E02  25424944.290   133609019.622        1388.570          41.000    25424944.383   102375778.975        1063.779          47.000  
E12  26022155.311   136747563.279       -2663.498          39.000    26022152.955   104780763.319       -2040.834          44.000  
E10  24208087.536   127214598.853       -2191.800          47.000    24208087.184    97476245.753       -1679.373          51.000  
G16  20133908.966   105804429.287        -117.120          47.000                                                                  
R13  20155720.638   107630349.993        -935.101          39.000    20155717.543    83712564.503        -727.136          42.000  
R07  20427008.145   109347431.500         664.827          50.000    20427001.162    85047979.013         516.837          44.000  
R21  23364423.741                3      -3030.815          25.000                                                                  
E24  24993182.269   131340061.158       -3394.103          45.000    24993180.898   100637226.351       -2600.762          49.000  
S31  38119432.078   200319065.364        -655.939          43.000  
G29  24673199.434   129658857.831       -3292.595          41.000    24673195.597   101033012.178       -2565.857          38.000  
E36  24542811.374   128973395.447         547.339          47.000    24542811.575    98823820.592         419.382          49.000  
G18  22314544.535   117263948.918       -3221.330          46.000    22314540.714    91374656.027       -2510.060          46.000  
E04  26808123.067   140877639.068        1480.264          41.000    26808122.785   107945205.323        1134.357          47.000  
G10  19793950.583   104017988.855        1106.682          51.000    19793947.666    81052985.466         862.315          47.000  
E11  22129657.282   116292361.873       -1268.913          44.000    22129653.916    89107241.347        -972.291          49.000  
G15                                                                  24733014.240                3      -1121.311          19.000  
G08                                                                  23785843.186                        1846.585          28.000  
> 2024 04 09 07 56 00.4980000  0 27                     
S33  39078379.873   205358418.067        -655.369          44.000  
G23  20045260.017   105338722.718       -1730.214          48.000    20045254.960    82082178.439       -1348.194          48.000  
E25  23054222.344   121150727.944       -1134.678          47.000    23054223.343    92829819.072        -869.472          52.000  
G26  20485094.131   107649889.355       -2913.590          45.000    20485093.359    83883034.490       -2270.541          45.000  
G27  21155975.764   111175443.350        1584.748          47.000    21155972.624    86630202.762        1234.764          45.000  
R22  20107078.128   107333295.109       -1963.629          51.000    20107073.771    83481355.958       -1527.289          51.000  
R23  20281284.211   108491219.710         300.104          50.000                                                                  
R12  20574389.933   109904649.835       -4055.179          48.000    20574386.500    85481462.161       -3153.980          48.000  
R06  22287948.803   118932817.802       -2837.069          38.000                                                                  
R08  21629175.087   115823256.455        3226.868          48.000    21629168.946    90084753.473        2509.893          48.000  
E02  25417046.783   133567507.391        1379.017          42.000    25417045.024   102343970.879        1056.845          47.000  
E12  26037356.902   136827447.534       -2662.003          40.000    26037353.716   104841973.337       -2039.759          43.000  
E10  24220603.126   127280367.914       -2192.704          47.000    24220602.736    97526640.244       -1680.228          51.000  
G16  20134633.214   105808235.000        -136.511          48.000                                                                  
R13  20161047.588   107658792.679        -961.060          40.000    20161043.691    83734686.583        -747.650          42.000  
R07  20423350.222   109327848.520         640.864          50.000    20423342.243    85032747.805         498.413          44.000  
R21  23381453.575                       -3029.883          25.000                                                                  
E24  25012575.887   131441976.820       -3400.049          44.000    25012574.999   100715317.552       -2605.287          49.000  
S31  38123176.623   200338742.568        -655.814          43.000  
G29  24692006.919   129757691.477       -3296.293          43.000    24692002.716   101110025.456       -2568.820          38.000  
G08  23772320.178                3       2371.817          26.000    23772309.411                        1848.074          28.000  
E36  24539700.831   128957050.625         542.361          47.000    24539701.194    98811296.634         415.579          49.000  
G18  22332936.949   117360602.384       -3222.113          45.000    22332932.884    91449970.424       -2510.679          46.000  
E04  26799680.972   140833277.922        1477.297          41.000    26799680.453   107911214.362        1131.807          46.000  
G10  19787687.199   103985074.343        1087.615          51.000    19787683.697    81027337.818         847.417          47.000  
E11  22136913.219   116330492.282       -1273.027          44.000    22136909.963    89136458.150        -975.315          49.000  
G15                                                                  24741325.086                3      -1138.035          20.000  
> 2024 04 09 07 56 30.4980000  0 26                     
S33  39082120.280   205378074.667        -655.135          44.000  
G23  20055191.960   105390917.589       -1749.476          47.000    20055186.398    82122849.775       -1363.283          48.000  
E25  23060739.669   121184978.295       -1148.660          47.000    23060740.938    92856062.840        -880.159          52.000  
G26  20501770.989   107737524.970       -2929.085          46.000    20501769.744    83951321.950       -2281.933          45.000  
G27  21146940.143   111127960.343        1580.902          47.000    21146936.804    86593203.041        1231.859          45.000  
R22  20118122.791   107392254.771       -1967.059          52.000    20118118.057    83527213.484       -1529.846          50.000  
R23  20279613.285   108482280.427         295.935          51.000                                                                  
R12  20597203.367   110026519.242       -4069.221          47.000    20597201.350    85576249.470       -3164.975          49.000  
R06  22303960.891   119018253.532       -2858.831          39.000                                                                  
R08  21611117.335   115726558.295        3219.711          49.000    21611111.374    90009543.873        2504.110          48.000  
E02  25409199.932   133526269.958        1369.887          42.000    25409197.823   102312373.376        1049.660          47.000  
E12  26052552.557   136907293.571       -2660.912          41.000    26052548.714   104903154.082       -2038.998          44.000  
E10  24233125.355   127346168.053       -2194.013          48.000    24233124.073    97577058.536       -1681.123          51.000  
G16  20135469.037   105812626.375        -156.189          49.000                                                                  
R13  20166520.618   107688017.558        -987.219          41.000    20166517.300    83757417.039        -767.804          43.000  
R07  20419826.307   109308989.223         616.392          50.000    20419818.275    85018079.476         479.487          41.000  
E24  25032004.319   131544073.745       -3406.322          44.000    25032003.570   100793547.624       -2610.051          49.000  
S31  38126920.152   200358415.039        -655.649          43.000  
G29  24710837.636   129856644.442       -3300.412          43.000    24710833.452   101187131.707       -2571.652          39.000  
G08  23758772.450   124853124.7231       2373.441          32.000    23758770.408                1       1849.208          30.000  
E36  24536618.759   128940855.187         537.271          46.000    24536619.479    98798887.144         411.743          49.000  
G18  22351334.477   117457283.887       -3223.281          45.000    22351332.202    91525306.649       -2511.664          47.000  
E04  26791257.546   140789016.526        1473.999          40.000    26791257.104   107877299.806        1129.035          45.000  
G10  19781533.558   103952736.733        1068.311          51.000    19781530.096    81002139.679         832.342          47.000  
E11  22144190.145   116368733.600       -1276.594          43.000    22144186.883    89165759.946        -978.171          49.000  
G15                                                                  24749704.045                3      -1152.139          24.000  
> 2024 04 09 07 57 00.4980000  0 26                     
S33  39085861.019   205397731.880        -655.082          44.000  
G23  20065233.998   105443687.875       -1768.501          48.000    20065228.228    82163969.468       -1377.972          48.000  
E25  23067337.068   121219645.802       -1162.461          47.000    23067337.814    92882626.248        -890.785          52.000  
G26  20518532.147   107825606.849       -2943.318          46.000    20518530.733    84019957.189       -2293.567          44.000  
G27  21137926.470   111080590.305        1577.206          47.000    21137922.910    86556291.328        1228.834          46.000  
R22  20129186.133   107451311.564       -1970.111          51.000    20129182.122    83573146.525       -1532.343          50.000  
R23  20277966.760   108473464.968         291.809          51.000                                                                  
R12  20620096.621   110148809.512       -4083.069          48.000    20620094.061    85671364.122       -3175.896          48.000  
R06  22320092.116   119104330.434       -2880.121          41.000                                                                  
R08  21593100.132   115630075.515        3212.546          50.000    21593092.773    89934501.729        2498.662          48.000  
E02  25401405.334   133485313.484        1360.873          41.000    25401403.786   102280991.165        1042.558          46.000  
E12  26067738.735   136987105.652       -2659.684          41.000    26067735.939   104964308.771       -2037.981          44.000  
E10  24245652.814   127412003.037       -2194.941          48.000    24245652.016    97627503.523       -1681.823          51.000  
G16  20136417.756   105817608.252        -175.922          49.000                                                                  
R13  20172140.725   107718028.377       -1013.574          41.000    20172137.601    83780758.781        -788.403          43.000  
R07  20416439.801   109290861.654         592.108          49.000    20416433.044    85003980.291         460.287          45.000  
E24  25051468.857   131646354.835       -3412.415          45.000    25051466.579   100871918.825       -2614.662          49.000  
S31  38130663.484   200378086.088        -655.609          43.000  
G29  24729690.647   129955721.216       -3304.645          41.000    24729686.713   101264334.431       -2574.984          39.000  
G08  23745215.393   124781883.780        2376.272          33.000    23745210.390                        1850.862          29.000  
E36  24533565.653   128924813.083         532.178          45.000    24533567.017    98786595.162         407.814          50.000  
G18  22369739.066   117553996.897       -3224.188          45.000    22369734.562    91600667.408       -2512.482          46.000  
E04  26782856.567   140744861.502        1470.027          41.000    26782855.010   107843466.729        1126.425          45.000  
G10  19775491.206   103920982.187        1048.876          51.000    19775487.341    80977395.882         817.371          47.000  
E11  22151489.133   116407089.412       -1280.123          44.000    22151485.444    89195149.462        -980.910          49.000  
G15                                                                  24758151.706                3      -1157.586          23.000  
> 2024 04 09 07 57 30.4980000  0 26                     
S33  39089601.173   205417387.386        -655.284          44.000  
G23  20075385.104   105497031.091       -1787.801          47.000    20075379.385    82205535.601       -1393.031          48.000  
E25  23074013.741   121254729.404       -1176.589          47.000    23074013.653    92909508.471        -901.412          52.000  
G26  20535377.700   107914131.735       -2958.585          46.000    20535375.953    84088937.597       -2305.090          44.000  
G27  21128933.486   111033333.885        1573.191          48.000    21128930.483    86519468.162        1225.870          46.000  
R22  20140267.909   107510464.264       -1973.517          51.000    20140263.634    83619154.214       -1534.985          51.000  
R23  20276340.586   108464771.653         287.482          50.000                                                                  
R12  20643067.740   110271515.239       -4097.153          47.000    20643064.744    85766801.902       -3186.697          48.000  
R06  22336342.623   119191045.098       -2901.191          42.000                                                                  
R08  21575124.027   115533811.540        3205.009          50.000    21575117.291    89859629.781        2492.816          48.000  
E02  25393663.748   133444638.711        1351.039          41.000    25393663.487   102249824.797        1035.120          46.000  
E12  26082919.840   137066882.378       -2658.765          41.000    26082916.720   105025436.401       -2037.279          44.000  
E10  24258186.239   127477871.228       -2196.323          47.000    24258186.104    97677973.943       -1682.771          51.000  
G16  20137478.015   105823181.134        -195.776          49.000                                                                  
R13  20177907.787   107748823.038       -1039.465          41.000    20177904.305    83804710.160        -808.667          43.000  
R07  20413190.759   109273467.333         567.524          50.000    20413183.864    84990451.407         441.583          43.000  
E24  25070966.861   131748817.494       -3418.499          46.000    25070965.114   100950429.175       -2619.278          49.000  
S31  38134406.688   200397756.219        -655.780          43.000  
G29  24748567.811   130054920.404       -3308.837          42.000    24748563.571   101341632.576       -2578.172          39.000  
G08  23731646.354   124710588.345        2376.783          32.000    23731641.924                        1852.584          27.000  
E36  24530541.188   128908922.846         527.005          44.000    24530543.869    98774419.560         403.939          50.000  
G18  22388148.814   117650739.525       -3225.400          45.000    22388144.889    91676051.243       -2513.316          46.000  
E04  26774474.265   140700813.955        1466.496          41.000    26774473.571   107809716.030        1123.672          46.000  
G10  19769560.138   103889811.421        1029.166          51.000    19769555.679    80953106.987         801.845          47.000  
E11  22158810.080   116445558.028       -1284.345          44.000    22158805.724    89224625.395        -984.008          49.000  
G15                                                                  24766681.027                3      -1166.139          20.000  
> 2024 04 09 07 58 00.4980000  0 26                     
S33  39093340.697   205437038.194        -654.975          44.000  
G23  20085644.473   105550943.875       -1806.562          48.000    20085639.335    82247545.573       -1407.783          49.000  
E25  23080768.153   121290227.115       -1190.125          47.000    23080768.415    92936708.024        -911.985          51.000  
G26  20552307.338   108003095.405       -2972.854          45.000    20552305.455    84158259.949       -2316.550          44.000  
G27  21119962.207   110986191.146        1569.477          48.000    21119959.521    86482733.558        1222.930          46.000  
R22  20151366.220   107569710.775       -1976.471          50.000    20151362.183    83665234.799       -1537.183          51.000  
R23  20274736.519   108456198.162         283.710          48.000                                                                  
R12  20666115.639   110394630.106       -4110.688          48.000    20666112.667    85862557.878       -3197.047          47.000  
R06  22352711.320   119278393.138       -2922.191          42.000                                                                  
R08  21557188.604   115437769.121        3197.689          49.000    21557182.537    89784930.167        2487.057          48.000  
E02  25385977.540   133404245.499        1341.630          41.000    25385976.391   102218874.145        1028.042          45.000  
E12  26098093.075   137146621.623       -2657.381          40.000    26098091.357   105086535.302       -2036.176          45.000  
E10  24270726.670   127543770.132       -2197.088          47.000    24270726.295    97728467.913       -1683.519          50.000  
G16  20138650.500   105829343.775        -215.356          49.000                                                                  
R13  20183820.643   107780398.959       -1065.662          40.000    20183816.753    83829269.169        -828.766          42.000  
R07  20410078.080   109256806.637         543.208          49.000    20410072.384    84977493.073         422.411          45.000  
E24  25090498.657   131851458.446       -3424.242          46.000    25090497.387   101029076.127       -2623.752          50.000  
S31  38138148.768   200417422.754        -655.422          43.000  
G29  24767467.528   130154240.108       -3312.787          42.000    24767462.486   101419024.607       -2581.398          39.000  
G08  23718068.967   124639237.658        2379.479          31.000    23718057.154                3       1855.034          24.000  
E36  24527546.050   128893182.182         522.100          45.000    24527549.041    98762358.577         400.048          51.000  
G18  22406563.956   117747508.930       -3226.090          45.000    22406558.102    91751455.955       -2513.943          44.000  
E04  26766112.460   140656874.193        1462.894          41.000    26766112.088   107776047.915        1120.748          46.000  
G10  19763739.237   103859224.264        1009.900          51.000    19763735.201    80929272.849         786.989          47.000  
E11  22166151.275   116484136.583       -1287.879          45.000    22166147.068    89254185.577        -986.812          49.000  
G15                                                                  24775292.615                3      -1182.175          20.000  
> 2024 04 09 07 58 30.4980000  0 27                     
S33  39097080.263   205456689.771        -654.829          44.000  
G23  20096012.659   105605428.452       -1825.549          48.000    20096008.015    82290001.088       -1422.424          49.000  
E25  23087602.160   121326142.633       -1203.934          47.000    23087602.759    92964227.705        -922.499          51.000  
G26  20569320.156   108092499.286       -2987.432          45.000    20569318.239    84227925.299       -2327.939          44.000  
G27  21111014.072   110939167.553        1565.626          47.000    21111010.918    86446091.800        1219.869          46.000  
R22  20162482.727   107629054.854       -1979.590          50.000    20162479.509    83711391.263       -1539.649          51.000  
R23  20273156.902   108447747.960         279.755          49.000                                                                  
R12  20689239.466   110518153.302       -4124.037          48.000    20689236.831    85958631.453       -3207.488          48.000  
R06  22369199.280   119366375.803       -2943.173          41.000                                                                  
R08  21539296.050   115341956.801        3190.029          49.000    21539289.478    89710409.509        2481.211          48.000  
E02  25378345.750   133364139.245        1332.223          41.000    25378344.515   102188143.383        1020.769          45.000  
E12  26113260.673   137226326.760       -2655.918          41.000    26113259.089   105147608.035       -2035.160          45.000  
E10  24283273.439   127609702.823       -2198.133          48.000    24283273.090    97778987.758       -1684.299          50.000  
G16  20139936.608   105836101.342        -235.034          49.000                                                                  
R21  23466285.723                       -3024.843          26.000                                                                  
R13  20189879.726   107812758.829       -1091.638          39.000    20189875.856    83854437.950        -849.225          41.000  
R07  20407103.932   109240885.955         518.445          49.000    20407098.941    84965110.395         403.216          45.000  
E24  25110064.438   131954279.837       -3430.220          46.000    25110063.597   101107861.342       -2628.344          50.000  
S31  38141891.598   200437090.033        -655.466          43.000  
G29  24786390.386   130253683.799       -3316.618          40.000    24786385.741   101496513.228       -2584.197          38.000  
G08  23704478.605                        2381.084          25.000    23704448.005                3       1848.844          18.000  
E36  24524580.221   128877594.366         517.247          45.000    24524582.724    98750414.692         396.298          50.000  
G18  22424984.148   117844307.907       -3226.819          45.000    22424978.014    91826883.721       -2514.447          44.000  
E04  26757773.248   140613048.158        1459.237          42.000    26757772.476   107742466.944        1118.028          47.000  
G10  19758030.358   103829226.187         990.256          51.000    19758026.827    80905897.748         771.615          47.000  
E11  22173514.595   116522828.102       -1291.412          45.000    22173509.830    89283832.329        -989.595          49.000  
G15                                                                  24783969.854                3      -1194.238          21.000  
> 2024 04 09 07 59 00.4980000  0 27                     
S33  39100818.264   205476332.495        -654.369          44.000  
G23  20106486.952   105660472.789       -1843.750          48.000    20106482.208    82332892.771       -1436.884          49.000  
E25  23094515.079   121362465.393       -1217.315          47.000    23094514.754    92992059.415        -932.666          51.000  
G26  20586413.936   108182330.562       -3001.226          46.000    20586412.800    84297923.690       -2338.719          44.000  
G27  21102086.957   110892254.406        1562.068          48.000    21102083.514    86409536.069        1217.507          45.000  
R22  20173615.844   107688485.551       -1982.147          49.000    20173612.362    83757615.158       -1541.705          50.000  
R23  20271599.935   108439409.915         276.361          51.000                                                                  
R12  20712437.414   110642069.989       -4136.693          47.000    20712434.545    86055011.086       -3217.469          47.000  
R06  22385803.460   119454979.832       -2963.525          41.000                                                                  
R08  21521445.599   115246369.193        3182.745          49.000    21521437.808    89636063.627        2475.239          47.000  
E02  25370767.196   133324311.220        1323.159          41.000    25370765.480   102157625.811        1013.803          45.000  
E12  26128419.841   137305987.174       -2654.348          41.000    26128417.120   105208646.482       -2033.856          44.000  
E10  24295824.557   127675658.236       -2198.588          48.000    24295823.974    97829525.025       -1684.743          50.000  
G16  20141333.754   105843443.834        -254.248          49.000                                                                  
R21  23483238.040                3      -3024.791          26.000                                                                  
R13  20196084.714   107845891.001       -1116.968          40.000    20196080.604    83880207.388        -868.829          41.000  
R07  20404266.744   109225697.453         494.387          49.000    20404260.411    84953297.114         384.517          46.000  
E24  25129662.847   132057269.659       -3435.551          46.000    25129662.105   101186775.610       -2632.408          50.000  
S31  38145631.799   200456747.032        -654.852          43.000  
G29  24805335.900   130353241.048       -3320.192          38.000    24805330.921   101574090.347       -2586.980          38.000  
E36  24521641.544   128862148.435         512.722          46.000    24521642.894    98738579.493         392.939          50.000  
G18  22443407.643   117941125.151       -3227.317          45.000    22443402.868    91902325.677       -2514.887          45.000  
E04  26749453.248   140569327.565        1455.954          42.000    26749452.647   107708966.803        1115.593          47.000  
G10  19752431.924   103799808.370         971.145          51.000    19752429.100    80882974.803         756.771          48.000  
E11  22180896.323   116561621.333       -1294.440          45.000    22180891.787    89313557.016        -991.867          48.000  
G15                                                                  24792749.919                3      -1207.027          25.000  
G08                                                                  23690854.432                3       1856.043          20.000  
> 2024 04 09 07 59 30.4980000  0 26                     
S33  39104554.288   205495966.660        -654.647          44.000  
G23  20117068.393   105716076.984       -1862.994          48.000    20117063.455    82376220.717       -1451.685          49.000  
E25  23101504.074   121399196.933       -1231.538          47.000    23101504.861    93020204.353        -943.573          52.000  
G26  20603589.701   108272588.581       -3015.959          46.000    20603588.399    84368254.583       -2350.137          45.000  
G27  21093181.315   110845455.178        1557.918          48.000    21093178.259    86373069.164        1213.835          45.000  
R22  20184767.814   107748004.596       -1985.730          51.000    20184763.350    83803907.712       -1544.324          51.000  
R23  20270062.105   108431184.948         272.089          50.000                                                                  
R12  20735708.661   110766377.498       -4150.116          49.000    20735705.364    86151694.664       -3228.018          47.000  
R06  22402524.807   119544204.379       -2984.596          41.000                                                                  
R08  21503637.778   115151012.693        3174.459          49.000    21503630.258    89561897.494        2469.030          47.000  
E02  25363240.790   133284764.762        1313.401          41.000    25363240.281   102127324.000        1006.247          45.000  
E12  26143571.617   137385604.073       -2653.350          42.000    26143567.749   105269651.654       -2033.161          44.000  
E10  24308380.662   127741637.412       -2199.917          49.000    24308379.342    97880080.493       -1685.543          50.000  
G16  20142842.868   105851373.565        -274.359          49.000                                                                  
R13  20202435.321   107879796.238       -1143.127          40.000    20202430.067    83906578.127        -889.435          42.000  
R07  20401568.057   109211245.533         469.204          51.000    20401561.670    84942056.738         364.839          47.000  
E24  25149293.872   132160428.015       -3441.528          47.000    25149292.457   101265819.016       -2636.990          50.000  
S31  38149371.152   200476396.444        -655.094          43.000  
G29  24824302.735   130452913.161       -3324.475          41.000    24824297.970   101651756.999       -2590.700          39.000  
E36  24518729.076   128846845.629         507.566          46.000    24518730.960    98726853.979         388.918          50.000  
G18  22461835.225   118037961.407       -3228.345          45.000    22461829.353    91977782.505       -2515.598          44.000  
E04  26741153.551   140525716.251        1451.736          42.000    26741153.263   107675550.378        1112.383          46.000  
G10  19746944.759   103770974.085         951.229          51.000    19746942.418    80860506.542         741.214          48.000  
E11  22188298.173   116600517.130       -1298.549          45.000    22188293.288    89343360.297        -994.962          48.000  
G15                                                                  24801590.507                3      -1208.371          20.000  
G08                                                                  23677285.021                3       1859.637          25.000  
