     3.00           OBSERVATION DATA    M: Mixed            RINEX VERSION / TYPE
CONVBIN 2.4.3                           20240409 041442 UTC PGM / RUN BY / DATE 
format: u-blox UBX                                          COMMENT             
log: data/2024-04-09/20240409040000.ubx                     COMMENT             
AQUI00CHL                                                   MARKER NAME         
                                                            MARKER NUMBER       
                                                            MARKER TYPE         
                                                            OBSERVER / AGENCY   
UNKNOWN             UBLOX-ZED-F9P                           REC # / TYPE / VERS 
UNKNOWN             TWIVSP6037L                             ANT # / TYPE        
  1713381.0000 -5047934.0000 -3490983.0000                  APPROX POSITION XYZ 
        0.0000        0.0000        0.0000                  ANTENNA: DELTA H/E/N
G    8 C1C L1C D1C S1C C2L L2L D2L S2L                      SYS / # / OBS TYPES 
R    8 C1C L1C D1C S1C C2C L2C D2C S2C                      SYS / # / OBS TYPES 
E    8 C1C L1C D1C S1C C7Q L7Q D7Q S7Q                      SYS / # / OBS TYPES 
S    4 C1C L1C D1C S1C                                      SYS / # / OBS TYPES 
  2024    04    09    04    00   00.4920000     GPS         TIME OF FIRST OBS   
  2024    04    09    04    14   30.4920000     GPS         TIME OF LAST OBS    
                                                            END OF HEADER       
> 2024 04 09 04 00 00.4920000  0 23                     
S33  37221584.908   195600882.9101       -724.491          44.000  
R11  17763203.996    94921319.1941       1947.489          51.000    17763198.471    73827552.0061       1514.844          50.000  
R22  20462442.153   109230164.0971       3131.140          40.000    20462458.235                1       2435.211          27.000  
R09  19961776.681   106595059.5761      -4179.486          48.000    19961775.495    82907350.6241      -3250.676          49.000  
G28  18846300.997    99038080.7491        -36.102          47.000    18846295.817    77172440.6281        -28.185          47.000  
E12  21480730.023   112882205.2771        666.097          45.000    21480726.609    86494320.0041        510.310          50.000  
E10  22476757.971   118116378.1631       1740.992          47.000    22476757.857    90504877.9201       1333.906          52.000  
E31  21422715.628   112577480.1581      -1320.854          46.000    21422716.306    86260740.7061      -1012.081          51.000  
G12  20083063.656   105537548.6641      -2554.687          43.000    20083058.223    82237234.5941      -1990.425          43.000  
R20  17902259.007    95731757.0871      -3590.374          42.000    17902255.755    74458106.7111      -2792.446          42.000  
R10  17085934.923    91077655.1571      -1826.704          47.000                                                                  
R21  17005519.347    91000416.9871        510.125          52.000    17005512.807    70777925.1231        396.721          47.000  
E24  21924776.823   115215492.2671        686.637          46.000    21924776.153    88282039.3541        526.134          52.000  
S31  36266701.545   190582892.2511       -723.716          44.000  
G29  18230416.292    95801813.8441      -1271.095          49.000    18230410.857    74650902.3701       -990.443          47.000  
G25  18076376.584    94992217.5511      -1116.761          48.000    18076374.794    74020011.7251       -870.222          45.000  
G31  20721763.673   108893613.4811       1961.002          42.000    20721758.351    84852202.8731       1528.139          40.000  
G20  21388630.298   112397999.4811       -878.796          38.000                                                                  
G18  19600528.449   103001682.9641       2430.130          46.000    19600525.171    80261198.0081       1893.640          46.000  
G05  21522674.672   113102479.4621        871.307          46.000    21522670.799    88131795.0561        678.809          42.000  
E33  22282925.389   117097831.3691      -2295.292          49.000    22282921.542    89724504.7141      -1758.746          49.000  
E11  23524551.573   123622483.2911       2335.740          40.000    23524553.706    94723802.1931       1789.706          42.000  
G11  22329231.792                       -4065.969          28.000    22329226.698    91434872.0611      -3167.703          33.000  
> 2024 04 09 04 00 30.4920000  0 23                     
S33  37225719.776   195622612.395        -724.312          44.000  
R11  17752303.301    94863068.998        1935.661          51.000    17752298.132    73782246.305        1505.503          51.000  
R22  20444871.285   109136362.022        3122.286          42.000    20444884.047    84883717.1761       2428.633          35.000  
R09  19985288.372   106720597.890       -4189.923          51.000    19985284.208    83004991.393       -3258.917          48.000  
G28  18846562.164    99039449.830         -55.354          48.000    18846556.674    77173507.430         -43.008          48.000  
E12  21476963.000   112862413.447         653.469          45.000    21476960.219    86479154.847         500.561          50.000  
E10  22466842.314   118064276.469        1732.388          46.000    22466842.916    90464955.890        1327.418          52.000  
E31  21430271.951   112617192.134       -1326.940          46.000    21430273.195    86291169.367       -1016.696          51.000  
G12  20097669.587   105614303.036       -2562.440          43.000    20097663.496    82297043.191       -1996.594          42.000  
R20  17922438.670    95839669.792       -3604.034          42.000    17922435.783    74542038.837       -2802.978          41.000  
R10  17096273.132    91132759.840       -1847.227          47.000                                                                  
R21  17002721.184    90985445.159         487.861          51.000    17002715.628    70766280.405         379.492          47.000  
E24  21920863.561   115194929.935         684.177          46.000    21920863.361    88266283.795         524.264          52.000  
S31  36270832.306   190604598.969        -723.440          44.000  
G29  18237696.681    95840071.783       -1279.565          49.000    18237691.101    74680713.742        -997.082          47.000  
G25  18082782.546    95025880.886       -1127.313          48.000    18082780.943    74046242.887        -878.529          45.000  
G31  20710599.778   108834952.390        1949.501          42.000    20710594.914    84806492.936        1518.774          38.000  
G20  21393695.063   112424616.783        -895.898          38.000                                                                  
G18  19586685.879   102928940.931        2419.180          46.000    19586683.119    80204515.975        1884.994          46.000  
G05  21517730.255   113076491.985         861.005          46.000    21517724.977    88111545.064         670.972          42.000  
E33  22296059.392   117166853.565       -2306.442          48.000    22296055.860    89777391.847       -1767.217          49.000  
E11  23511223.962   123552448.651        2332.924          40.000    23511226.590    94670139.854        1787.496          43.000  
G11                                                                  22352456.998                       -3173.426          31.000  
> 2024 04 09 04 01 00.4920000  0 23                     
S33  37229854.599   195644340.285        -724.229          44.000  
R11  17741470.906    94805184.801        1923.464          51.000    17741465.951    73737225.265        1496.086          51.000  
R22  20427348.381   109042829.848        3113.436          43.000    20427355.957    84810970.664        2421.510          35.000  
R09  20008857.249   106846455.505       -4200.456          50.000    20008852.072    83102880.494       -3266.864          47.000  
G28  18846933.758    99041400.651         -74.606          48.000    18846927.733    77175027.532         -58.068          47.000  
E12  21473270.221   112843007.978         640.555          44.000    21473267.652    86464285.726         490.902          50.000  
E10  22456978.331   118012442.770        1723.420          46.000    22456979.353    90425239.231        1320.667          52.000  
E31  21437865.668   112657095.044       -1333.068          46.000    21437866.570    86321744.325       -1021.456          51.000  
G12  20112321.419   105691301.654       -2570.537          44.000    20112315.658    82357042.083       -2003.084          42.000  
R20  17942697.869    95948004.175       -3617.891          44.000    17942694.708    74626298.931       -2813.916          41.000  
R10  17106726.547    91188485.308       -1867.753          46.000                                                                  
R21  17000050.094    90971147.211         465.675          52.000    17000043.260    70755159.823         362.069          47.000  
E24  21916967.445   115174453.610         681.273          46.000    21916966.775    88250594.145         522.083          52.000  
S31  36274962.851   190626305.329        -723.389          44.000  
G29  18245027.572    95878594.983       -1288.368          49.000    18245021.777    74710731.819       -1003.938          47.000  
G25  18089250.671    95059871.115       -1138.129          47.000    18089248.343    74072728.762        -886.754          45.000  
G31  20699507.756   108776660.455        1937.119          43.000    20699502.108    84761070.659        1509.146          40.000  
G20  21398859.697   112451752.514        -912.830          38.000                                                                  
G18  19572908.777   102856538.157        2407.937          45.000    19572905.142    80148098.288        1876.259          46.000  
G05  21512845.418   113050823.728         850.616          46.000    21512841.086    88091543.888         662.720          42.000  
E33  22309257.609   117236216.945       -2317.502          48.000    22309255.156    89830540.412       -1775.675          49.000  
E11  23497915.010   123482512.477        2330.052          40.000    23497918.119    94616552.957        1785.249          44.000  
G11                                                                  22375721.900                       -3178.111          29.000  
> 2024 04 09 04 01 30.4920000  0 23                     
S33  37233987.061   195666058.013        -723.997          44.000  
R11  17730706.289    94747660.953        1911.183          51.000    17730700.943    73692484.523        1486.558          50.000  
R22  20409876.646   108949561.054        3104.384          44.000    20409880.964    84738428.907        2415.105          34.000  
R09  20032482.255   106972621.364       -4210.758          48.000    20032479.324    83201009.348       -3274.890          47.000  
G28  18847414.045    99043924.788         -93.922          48.000    18847408.031    77176994.371         -73.126          47.000  
E12  21469648.228   112823980.319         627.851          44.000    21469646.667    86449706.130         481.089          50.000  
E10  22447164.650   117960869.384        1714.534          46.000    22447164.813    90385722.008        1313.857          51.000  
E31  21445494.027   112697180.500       -1339.361          46.000    21445494.604    86352459.146       -1026.224          51.000  
G12  20127018.062   105768535.426       -2578.585          43.000    20127012.961    82417224.224       -2009.144          42.000  
R20  17963033.090    96056746.461       -3631.395          44.000    17963030.129    74710876.250       -2824.786          42.000  
R10  17117295.017    91244822.396       -1888.131          47.000                                                                  
R21  16997502.121    90957513.886         443.314          52.000    16997496.023    70744556.130         344.639          47.000  
E24  21913086.515   115154055.112         678.393          47.000    21913085.079    88234964.125         519.836          52.000  
S31  36279091.406   190648000.779        -723.168          44.000  
G29  18252406.686    95917373.031       -1296.869          49.000    18252400.841    74740948.490       -1010.504          46.000  
G25  18095779.763    95094180.114       -1149.073          47.000    18095777.186    74099463.024        -895.159          45.000  
G31  20688484.959   108718731.326        1924.759          44.000    20688478.695    84715931.060        1499.943          40.000  
G20  21404121.604   112479398.074        -929.730          35.000                                                                  
G18  19559194.277   102784468.080        2396.655          47.000    19559190.727    80091939.865        1867.529          46.000  
G05  21508020.004   113025467.584         839.929          46.000    21508015.715    88071785.897         654.474          42.000  
E33  22322519.707   117305910.835       -2328.685          48.000    22322517.533    89883942.221       -1784.315          49.000  
E11  23484623.398   123412667.250        2326.472          40.000    23484626.513    94563035.718        1782.525          44.000  
G11                                                                  22399024.650                       -3183.021          29.000  
> 2024 04 09 04 02 00.4920000  0 23                     
S33  37238119.181   195687771.594        -723.481          44.000  
R11  17720010.938    94690506.252        1899.150          52.000    17720005.067    73648030.876        1476.986          50.000  
R22  20392454.005   108856563.406        3095.646          43.000    20392457.232    84666097.967        2407.670          36.000  
R09  20056167.983   107099098.689       -4220.830          49.000    20056165.018    83299380.447       -3282.934          47.000  
G28  18848004.163    99047028.105        -112.937          48.000    18847998.778    77179412.535         -87.902          48.000  
E12  21466101.088   112805336.428         615.384          44.000    21466098.734    86435420.589         471.364          50.000  
E10  22437401.379   117909562.843        1705.965          47.000    22437401.507    90346409.253        1307.256          52.000  
E31  21453158.044   112737454.324       -1345.449          46.000    21453158.366    86383318.302       -1030.848          51.000  
G12  20141761.479   105846009.700       -2586.355          45.000    20141756.574    82477593.794       -2015.255          43.000  
R20  17983445.349    96165898.334       -3644.954          43.000    17983442.381    74795772.162       -2834.974          41.000  
R10  17127980.195    91301776.801       -1908.738          47.000                                                                  
R21  16995078.854    90944550.467         421.179          52.000    16995072.854    70734473.451         327.500          48.000  
E24  21909221.037   115133740.610         675.937          47.000    21909219.328    88219398.482         517.938          52.000  
S31  36283219.092   190669692.350        -722.827          44.000  
G29  18259835.175    95956409.590       -1305.360          49.000    18259828.680    74771366.602       -1017.200          45.000  
G25  18102369.608    95128814.083       -1159.655          46.000    18102367.709    74126450.515        -903.619          44.000  
G31  20677531.879   108661172.571        1912.626          44.000    20677525.950    84671080.102        1490.079          40.000  
G20  21409479.025   112507559.128        -947.467          36.000                                                                  
G18  19545544.827   102712738.414        2385.470          47.000    19545540.925    80036046.691        1858.763          46.000  
G05  21503256.603   113000431.955         829.480          47.000    21503251.925    88052277.646         646.259          43.000  
E33  22335845.808   117375938.855       -2339.731          47.000    22335843.607    89937600.035       -1792.671          49.000  
E11  23471349.884   123342919.668        2323.524          39.000    23471353.502    94509593.300        1780.336          44.000  
G11                                                                  22422364.949                       -3187.131          27.000  
> 2024 04 09 04 02 30.4920000  0 23                     
S33  37242249.483   195709477.006        -723.429          44.000  
R11  17709384.578    94633721.606        1886.701          52.000    17709378.710    73603865.040        1467.424          50.000  
R22  20375082.373   108763836.424        3086.271          40.000    20375082.415    84593977.592        2400.744          39.000  
R09  20079911.177   107225882.694       -4231.083          49.000    20079908.282    83397990.049       -3290.892          47.000  
G28  18848704.891    99050708.464        -132.191          49.000    18848699.778    77182280.361        -103.033          48.000  
E12  21462625.410   112787074.119         602.621          44.000    21462623.336    86421427.412         461.622          50.000  
E10  22427688.053   117858521.718        1697.037          46.000    22427688.688    90307299.866        1300.254          52.000  
E31  21460857.511   112777914.324       -1351.571          46.000    21460857.958    86414320.121       -1035.724          51.000  
G12  20156548.615   105923721.655       -2594.086          44.000    20156544.688    82538148.531       -2021.450          43.000  
R20  18003932.912    96275453.160       -3658.374          43.000    18003928.690    74880981.439       -2845.533          40.000  
R10  17138779.840    91359346.331       -1929.235          47.000                                                                  
R21  16992780.858    90932253.783         398.838          52.000    16992775.775    70724909.379         310.228          48.000  
E24  21905370.667   115113508.214         673.073          47.000    21905369.019    88203895.753         515.830          52.000  
S31  36287345.454   190691375.251        -722.565          44.000  
G29  18267311.517    95995700.715       -1313.750          49.000    18267305.506    74801983.069       -1023.847          45.000  
G25  18109022.248    95163771.208       -1170.630          46.000    18109019.248    74153689.856        -911.999          44.000  
G31  20666649.485   108603983.310        1900.206          45.000    20666642.606    84626517.047        1480.304          40.000  
G20  21414937.886   112536233.423        -964.282          35.000                                                                  
G18  19531959.598   102641348.854        2374.134          47.000    19531955.696    79980418.538        1849.903          46.000  
G05  21498553.477   112975716.347         818.597          46.000    21498548.497    88033018.761         637.860          42.000  
E33  22349234.340   117446296.624       -2350.688          47.000    22349232.181    89991510.521       -1801.121          49.000  
E11  23458095.718   123273268.519        2320.166          40.000    23458098.906    94456224.743        1777.955          44.000  
G11                                                                  22445724.451                3      -3191.160          22.000  
> 2024 04 09 04 03 00.4920000  0 23                     
S33  37246378.722   195731175.037        -722.947          44.000  
R11  17698827.887    94577311.741        1874.245          51.000    17698822.346    73559990.697        1457.680          50.000  
R22  20357761.854   108671384.029        3077.199          41.000    20357761.228    84522070.703        2393.501          40.000  
R09  20103711.111   107352972.289       -4241.154          49.000    20103707.666    83496837.329       -3298.736          47.000  
G28  18849515.007    99054967.718        -151.419          48.000    18849510.422    77185599.267        -117.960          48.000  
E12  21459223.512   112769195.328         589.781          44.000    21459220.952    86407728.101         451.881          50.000  
E10  22418025.895   117807748.617        1688.183          46.000    22418027.072    90268395.845        1293.570          52.000  
E31  21468592.395   112818562.500       -1357.873          46.000    21468592.709    86445466.112       -1040.346          51.000  
G12  20171383.943   106001672.925       -2602.212          46.000    20171377.737    82598889.732       -2027.746          43.000  
R20  18024494.664    96385407.566       -3671.695          43.000    18024490.414    74966501.555       -2856.059          40.000  
R10  17149695.182    91417531.334       -1949.519          46.000                                                                  
R21  16990607.713    90920625.249         376.687          52.000    16990602.244    70715864.996         292.941          47.000  
E24  21901536.202   115093360.150         670.513          47.000    21901534.856    88188457.643         513.680          52.000  
S31  36291470.388   190713051.957        -722.385          44.000  
G29  18274836.452    96035246.235       -1322.206          49.000    18274831.090    74832797.747       -1030.169          45.000  
G25  18115736.016    95199053.718       -1181.332          46.000    18115733.403    74181182.725        -920.583          44.000  
G31  20655838.610   108547168.012        1887.802          46.000    20655830.820    84582245.369        1471.127          40.000  
G20  21420490.924   112565422.566        -981.006          34.000                                                                  
G18  19518439.098   102570303.146        2362.592          46.000    19518435.578    79925058.314        1841.000          47.000  
G05  21493911.108   112951324.848         807.794          45.000    21493905.833    88014012.407         629.413          42.000  
E33  22362686.515   117516983.825       -2361.528          47.000    22362683.559    90045673.430       -1809.440          49.000  
E11  23444859.765   123203716.673        2316.798          39.000    23444862.897    94402932.246        1775.197          44.000  
G11                                                                  22469124.665                3      -3199.308          21.000  
> 2024 04 09 04 03 30.4920000  0 23                     
S33  37250505.721   195752863.173        -723.108          44.000  
R11  17688341.502    94521276.248        1861.237          52.000    17688336.361    73516407.528        1447.694          50.000  
R22  20340493.878   108579204.467        3067.801          41.000    20340493.618    84450376.025        2385.960          43.000  
R09  20127567.008   107480361.823       -4251.686          49.000    20127563.380    83595917.894       -3306.899          45.000  
G28  18850434.290    99059802.411        -171.195          48.000    18850429.912    77189366.550        -133.259          48.000  
E12  21455894.324   112751696.557         576.575          44.000    21455890.795    86394319.949         441.743          49.000  
E10  22408414.972   117757240.833        1678.763          46.000    22408415.705    90229695.116        1286.397          52.000  
E31  21476362.504   112859395.399       -1364.694          46.000    21476363.072    86476753.649       -1045.584          51.000  
G12  20186261.973   106079859.381       -2610.378          47.000    20186255.979    82659814.253       -2034.162          43.000  
R20  18045129.692    96495753.684       -3684.991          42.000    18045126.963    75052326.260       -2866.094          42.000  
R10  17160724.364    91476328.939       -1970.522          46.000                                                                  
R21  16988558.994    90909660.320         354.151          52.000    16988552.461    70707336.741         275.357          47.000  
E24  21897717.439   115073293.369         667.252          47.000    21897716.257    88173081.808         511.180          52.000  
S31  36295593.455   190734718.639        -722.245          44.000  
G29  18282409.283    96075040.563       -1330.921          49.000    18282403.458    74863806.328       -1037.048          45.000  
G25  18122511.754    95234658.511       -1192.683          47.000    18122508.339    74208926.694        -929.260          42.000  
G31  20645097.909   108490724.795        1874.927          46.000    20645090.210    84538263.656        1461.064          41.000  
G20  21426144.620   112595123.349        -998.700          33.000                                                                  
G18  19504984.768   102499599.735        2350.676          46.000    19504981.946    79869964.798        1831.791          47.000  
G05  21489330.047   112927255.941         796.552          44.000    21489325.857    87995257.449         620.691          42.000  
E33  22376199.229   117587994.812       -2372.771          47.000    22376196.976    90100084.445       -1818.192          50.000  
E11  23431642.740   123134261.572        2313.043          39.000    23431645.186    94349713.888        1772.362          43.000  
G11                                                                  22492587.669                3      -3196.823          16.000  
> 2024 04 09 04 04 00.4920000  0 22                     
S33  37254632.799   195774551.654        -722.657          44.000  
R11  17677928.708    94465629.612        1848.452          52.000    17677922.671    73473126.831        1437.769          51.000  
R22  20323279.679   108487311.427        3058.529          44.000    20323278.696    84378904.193        2378.694          43.000  
R09  20151480.815   107608060.061       -4261.524          49.000    20151477.564    83695238.584       -3314.598          45.000  
G28  18851465.982    99065224.220        -190.382          47.000    18851461.601    77193591.313        -148.265          48.000  
E12  21452638.883   112734589.536         563.740          44.000    21452635.318    86381211.976         432.096          49.000  
E10  22398856.389   117707010.782        1669.738          46.000    22398857.205    90191207.193        1279.444          52.000  
E31  21484170.226   112900424.719       -1370.809          46.000    21484170.965    86508191.696       -1050.307          51.000  
G12  20201186.344   106158292.583       -2618.389          46.000    20201180.693    82720931.012       -2040.245          42.000  
R20  18065840.995    96606499.193       -3697.937          43.000    18065837.578    75138461.656       -2876.148          42.000  
R10  17171871.211    91535749.865       -1991.020          46.000                                                                  
R21  16986636.673    90899370.239         331.982          52.000    16986629.649    70699333.335         258.048          47.000  
E24  21893916.394   115053319.860         664.466          47.000    21893915.381    88157777.440         509.065          52.000  
S31  36299716.322   190756384.966        -722.266          44.000  
G29  18290030.826    96115093.613       -1339.227          48.000    18290025.431    74895016.501       -1043.622          45.000  
G25  18129350.970    95270597.645       -1203.320          48.000    18129346.472    74236931.198        -937.746          42.000  
G31  20634429.814   108434667.112        1862.391          45.000    20634422.814    84494582.345        1451.357          41.000  
G20  21431895.915   112625347.198       -1015.900          31.000                                                                  
G18  19491598.534   102429252.206        2339.161          47.000    19491594.889    79815148.595        1822.755          47.000  
G05  21484814.147   112903522.469         785.840          44.000    21484809.730    87976763.839         612.305          43.000  
E33  22389775.105   117659339.017       -2383.497          47.000    22389773.485    90154750.780       -1826.292          50.000  
E11  23418445.795   123064915.840        2310.205          39.000    23418448.935    94296579.329        1769.807          44.000  
> 2024 04 09 04 04 30.4920000  0 22                     
S33  37258758.545   195796232.578        -722.703          44.000  
R11  17667587.230    94410367.904        1835.584          52.000    17667580.807    73430145.497        1427.693          50.000  
R22  20306116.900   108395699.594        3049.012          43.000    20306114.903    84307650.980        2371.529          43.000  
R09  20175450.345   107736057.457       -4271.620          49.000    20175448.314    83794791.914       -3322.231          46.000  
G28  18852608.346    99071226.021        -209.892          47.000    18852603.814    77198268.029        -163.420          48.000  
E12  21449457.176   112717867.125         550.965          45.000    21449453.161    86368398.723         422.143          49.000  
E10  22389349.489   117657052.099        1660.747          46.000    22389350.192    90152927.229        1272.454          52.000  
E31  21492013.734   112941643.455       -1377.094          46.000    21492014.766    86539774.879       -1055.293          51.000  
G12  20216158.100   106236965.162       -2626.451          47.000    20216152.238    82782234.301       -2046.688          43.000  
R20  18086623.168    96717632.518       -3710.722          44.000    18086619.608    75224898.697       -2886.322          42.000  
R10  17183135.078    91595786.637       -2011.499          46.000                                                                  
R21  16984838.208    90889747.032         309.561          52.000    16984831.834    70691848.609         240.755          47.000  
E24  21890131.887   115033432.965         661.251          47.000    21890130.921    88142539.418         506.857          52.000  
S31  36303837.587   190778044.496        -721.966          44.000  
G29  18297699.940    96155396.381       -1347.614          48.000    18297695.133    74926421.242       -1050.177          46.000  
G25  18136252.585    95306864.428       -1214.399          47.000    18136248.349    74265191.000        -946.111          43.000  
G31  20623833.707   108378989.938        1849.437          43.000    20623827.790    84451197.526        1441.369          41.000  
G20  21437745.131   112656086.370       -1032.910          32.000                                                                  
G18  19478278.162   102359255.322        2327.370          47.000    19478274.170    79760605.634        1813.502          46.000  
G05  21480362.164   112880119.470         774.500          45.000    21480357.634    87958527.755         603.497          44.000  
E33  22403413.487   117731007.251       -2394.386          47.000    22403411.546    90209665.393       -1834.631          50.000  
E11  23405269.509   122995673.486        2306.162          40.000    23405271.815    94243523.927        1767.245          43.000  
> 2024 04 09 04 05 00.4920000  0 22                     
S33  37262882.924   195817905.070        -722.545          44.000  
R11  17657318.078    94355493.578        1822.656          52.000    17657311.543    73387465.481        1417.555          50.000  
R22  20289007.870   108304370.304        3039.583          45.000    20289006.628    84236617.588        2363.752          44.000  
R09  20199475.682   107864350.743       -4281.415          46.000    20199473.667    83894575.411       -3330.112          47.000  
G28  18853861.392    99077807.282        -229.119          48.000    18853856.745    77203396.267        -178.591          49.000  
E12  21446348.025   112701528.950         538.140          45.000    21446344.284    86355879.876         412.354          49.000  
E10  22379893.911   117607365.141        1651.583          46.000    22379895.335    90114855.444        1265.536          52.000  
E31  21499893.408   112983051.281       -1383.479          46.000    21499894.445    86571502.947       -1060.057          51.000  
G12  20231174.455   106315875.743       -2634.423          48.000    20231169.211    82843723.023       -2052.701          44.000  
R20  18107476.631    96829147.655       -3723.536          43.000    18107472.916    75311632.653       -2896.089          41.000  
R10  17194513.138    91656438.332       -2032.156          47.000                                                                  
R21  16983163.479    90880789.231         287.469          52.000    16983157.851    70684881.442         223.606          47.000  
E24  21886364.518   115013632.647         658.497          48.000    21886363.265    88127367.754         504.638          52.000  
S31  36307958.004   190799695.186        -721.706          44.000  
G29  18305416.720    96195945.885       -1355.945          48.000    18305411.886    74958018.246       -1056.439          46.000  
G25  18143216.346    95343458.791       -1225.448          48.000    18143211.341    74293706.093        -954.854          42.000  
G31  20613311.084   108323694.351        1836.755          44.000    20613304.949    84408110.065        1431.409          41.000  
G20  21443692.591   112687340.618       -1050.067          32.000                                                                  
G18  19465025.056   102289610.569        2315.552          46.000    19465020.609    79706337.050        1804.318          46.000  
G05  21475971.039   112857049.520         763.477          44.000    21475966.636    87940551.203         594.922          42.000  
E33  22417111.823   117802996.803       -2404.996          46.000    22417110.604    90264826.212       -1842.817          50.000  
E11  23392112.921   122926534.925        2302.608          40.000    23392114.474    94190548.049        1764.396          42.000  
> 2024 04 09 04 05 30.4920000  0 22                     
S33  37267005.749   195839570.891        -722.058          44.000  
R11  17647122.177    94301012.137        1809.386          51.000    17647116.523    73345091.014        1407.382          51.000  
R22  20271953.161   108213328.079        3029.869          47.000    20271951.123    84165807.433        2356.696          43.000  
R09  20223554.739   107992940.108       -4291.172          44.000    20223553.181    83994589.102       -3337.579          46.000  
G28  18855224.934    99084970.508        -248.476          48.000    18855219.818    77208977.991        -193.728          49.000  
E12  21443312.219   112685577.514         525.127          45.000    21443308.721    86343657.367         402.513          49.000  
E10  22370491.618   117557953.232        1642.458          46.000    22370492.669    90076994.420        1258.465          52.000  
E31  21507809.523   113024650.801       -1389.860          46.000    21507810.492    86603377.900       -1064.895          51.000  
G12  20246236.524   106395026.756       -2642.464          48.000    20246230.392    82905399.115       -2059.165          43.000  
R20  18128401.656    96941043.194       -3736.269          44.000    18128397.216    75398662.496       -2905.867          40.000  
R10  17206006.389    91717707.067       -2052.572          45.000                                                                  
R21  16981614.357    90872498.601         265.178          52.000    16981608.199    70678433.197         206.361          47.000  
E24  21882614.179   114993921.886         655.516          48.000    21882612.565    88112264.699         502.318          52.000  
S31  36312076.950   190821340.048        -721.523          44.000  
G29  18313180.736    96236743.497       -1364.044          49.000    18313175.179    74989808.597       -1062.994          46.000  
G25  18150242.755    95380383.701       -1236.563          48.000    18150238.768    74322478.723        -963.565          43.000  
G31  20602861.942   108268785.060        1823.974          44.000    20602855.926    84365323.629        1421.259          41.000  
G20  21449734.423   112719111.997       -1067.822          34.000                                                                  
G18  19451840.627   102220322.387        2303.631          47.000    19451835.483    79652346.312        1794.974          46.000  
G05  21471644.882   112834316.029         751.892          44.000    21471640.094    87922836.788         586.230          43.000  
E33  22430872.799   117875308.112       -2415.758          46.000    22430870.816    90320233.562       -1851.052          50.000  
E11  23378977.030   122857503.676        2299.295          40.000    23378977.705    94137654.404        1761.643          42.000  
> 2024 04 09 04 06 00.4920000  0 22                     
S33  37271125.920   195861222.806        -721.533          44.000  
R11  17636999.605    94246919.018        1796.566          52.000    17636994.144    73303018.594        1397.236          51.000  
R22  20254949.938   108122567.250        3020.526          47.000    20254948.169    84095216.149        2349.207          44.000  
R09  20247690.485   108121815.144       -4300.661          47.000    20247687.948    84094825.018       -3344.918          47.000  
G28  18856697.001    99092708.151        -267.675          49.000    18856692.462    77215007.312        -208.567          49.000  
E12  21440349.065   112670005.466         512.768          45.000    21440345.638    86331725.566         392.802          49.000  
E10  22361139.317   117508809.632        1633.687          46.000    22361140.708    90039338.968        1251.735          52.000  
E31  21515761.007   113066434.653       -1395.995          46.000    21515761.603    86635394.091       -1069.602          51.000  
G12  20261343.697   106474410.003       -2650.084          49.000    20261337.223    82967256.147       -2064.924          43.000  
R20  18149395.905    97053307.140       -3748.360          44.000    18149392.083    75485978.932       -2915.346          42.000  
R10  17217615.144    91779584.567       -2072.849          46.000                                                                  
R21  16980188.822    90864866.575         243.407          52.000    16980181.161    70672497.209         189.223          46.000  
E24  21878879.306   114974293.605         652.815          48.000    21878877.432    88097224.858         500.231          52.000  
S31  36316193.037   190842970.623        -721.005          43.000  
G29  18320989.727    96277779.547       -1371.899          49.000    18320983.447    75021784.746       -1069.067          45.000  
G25  18157331.546    95417632.004       -1247.133          47.000    18157326.558    74351503.362        -971.835          42.000  
G31  20592485.783   108214256.643        1811.057          44.000    20592479.844    84322833.955        1411.196          42.000  
G20  21455880.548   112751393.294       -1084.766          34.000                                                                  
G18  19438722.156   102151385.186        2291.760          47.000    19438717.080    79598629.075        1785.922          46.000  
G05  21467382.493   112811913.626         740.936          43.000    21467377.018    87905380.387         577.435          42.000  
E33  22444692.043   117947931.486       -2426.077          46.000    22444690.397    90375880.031       -1858.939          50.000  
E11  23365859.977   122788573.407        2296.033          39.000    23365860.441    94084838.088        1759.205          43.000  
> 2024 04 09 04 06 30.4920000  0 23                     
S33  37275242.820   195882857.539        -721.203          44.000  
R11  17626949.372    94193215.666        1783.403          52.000    17626943.974    73261249.301        1387.146          51.000  
R22  20237999.225   108032087.937        3011.034          48.000    20237998.480    84024843.761        2341.799          44.000  
R09  20271878.326   108250971.397       -4310.083          48.000    20271875.601    84195279.645       -3352.206          48.000  
G28  18858278.973    99101018.562        -286.801          49.000    18858274.115    77221482.939        -223.488          49.000  
E12  21437457.405   112654811.125         500.068          44.000    21437454.184    86320083.171         383.090          50.000  
E10  22351838.908   117459933.518        1624.596          46.000    22351840.065    90001888.476        1244.724          52.000  
E31  21523746.841   113108401.318       -1402.014          47.000    21523747.363    86667550.364       -1074.281          50.000  
G12  20276492.758   106554024.296       -2657.886          47.000    20276487.090    83029293.227       -2071.075          43.000  
R20  18170456.737    97165932.999       -3760.348          42.000    18170454.445    75573576.779       -2924.519          43.000  
R10  17229337.742    91842069.168       -2093.223          47.000                                                                  
R21  16978885.539    90857890.758         221.401          52.000    16978877.573    70667071.586         172.242          46.000  
E24  21875159.717   114954746.684         650.106          48.000    21875157.964    88082247.350         498.104          52.000  
S31  36320305.916   190864583.931        -720.306          44.000  
G29  18328843.250    96319050.522       -1379.785          49.000    18328836.820    75053943.948       -1075.140          45.000  
G25  18164480.998    95455202.545       -1257.821          48.000    18164476.261    74380779.120        -980.128          42.000  
G31  20582182.268   108160109.072        1798.324          44.000    20582176.225    84280641.057        1401.256          42.000  
G20  21462119.111   112784182.150       -1101.611          35.000                                                                  
G18  19425670.382   102082799.265        2280.228          46.000    19425666.105    79545185.608        1776.751          47.000  
G05  21463181.371   112789842.808         730.054          42.000    21463176.605    87888182.382         568.860          42.000  
E33  22458570.877   118020863.206       -2436.347          46.000    22458568.832    90431762.767       -1866.834          49.000  
E11  23352760.653   122719743.473        2292.045          38.000    23352762.347    94032098.665        1756.499          43.000  
G11                                                                  22633920.239                3      -3232.952          19.000  
> 2024 04 09 04 07 00.4920000  0 23                     
S33  37279357.505   195904480.370        -720.618          44.000  
R11  17616974.218    94139910.945        1770.228          52.000    17616969.056    73219790.081        1376.776          50.000  
R22  20221102.289   107941897.889        3001.507          48.000    20221102.825    83954696.422        2334.402          45.000  
R09  20296119.353   108380412.587       -4319.322          50.000    20296116.654    84295955.890       -3359.302          48.000  
G28  18859970.707    99109907.336        -305.802          49.000    18859966.054    77228409.256        -238.290          49.000  
E12  21434638.909   112640000.286         487.184          44.000    21434635.613    86308734.624         373.349          49.000  
E10  22342589.612   117411331.391        1615.594          46.000    22342591.294    89964647.947        1237.863          53.000  
E31  21531768.416   113150556.703       -1408.280          46.000    21531769.222    86699851.230       -1079.154          50.000  
G12  20291687.348   106633874.182       -2665.532          46.000    20291682.438    83091513.900       -2077.220          43.000  
R20  18191586.122    97278922.569       -3772.353          42.000    18191583.175    75661457.545       -2933.669          42.000  
R10  17241173.920    91905166.008       -2113.368          44.000                                                                  
R21  16977705.611    90851576.001         199.566          52.000    16977697.615    70662160.120         155.167          47.000  
E24  21871457.070   114935287.378         647.216          47.000    21871455.004    88067336.974         495.937          52.000  
S31  36324416.693   190886186.053        -719.663          44.000  
G29  18336741.961    96360560.425       -1387.439          48.000    18336736.247    75086289.354       -1081.219          45.000  
G25  18171692.817    95493101.509       -1268.522          48.000    18171688.194    74410310.773        -988.531          43.000  
G31  20571952.978   108106349.982        1785.409          45.000    20571946.707    84238750.840        1391.511          43.000  
G20  21468456.440   112817484.451       -1118.341          35.000                                                                  
G18  19412687.088   102014572.332        2268.320          47.000    19412682.766    79492021.829        1767.434          46.000  
G05  21459045.062   112768110.726         718.860          41.000    21459040.677    87871248.305         560.120          41.000  
E33  22472508.729   118094106.828       -2446.579          47.000    22472506.444    90487884.491       -1874.650          49.000  
E11  23339682.966   122651020.588        2289.066          38.000    23339684.518    93979441.272        1753.963          43.000  
G11                                                                  22657579.649                3      -3237.525          15.000  
> 2024 04 09 04 07 30.4920000  0 23                     
S33  37283470.134   195926092.504        -720.389          44.000  
G26  22048572.745                1       2382.958          26.000                                                                  
R11  17607074.310    94087008.582        1756.560          51.000    17607068.888    73178643.786        1366.216          51.000  
R22  20204260.502   107851999.640        2991.613          47.000    20204260.824    83884775.968        2326.826          44.000  
R09  20320412.920   108510135.950       -4329.027          50.000    20320409.295    84396851.633       -3366.969          46.000  
G28  18861771.724    99119375.011        -325.491          48.000    18861767.396    77235786.644        -253.512          49.000  
E12  21431893.581   112625573.571         474.323          44.000    21431890.268    86297680.394         363.500          49.000  
E10  22333394.479   117363004.698        1606.154          47.000    22333394.833    89927618.430        1230.625          52.000  
E31  21539826.921   113192901.517       -1414.861          46.000    21539827.158    86732297.234       -1084.062          50.000  
G12  20306926.351   106713959.970       -2673.619          45.000    20306922.957    83153918.363       -2083.441          44.000  
R20  18212783.227    97392271.861       -3784.461          41.000    18212780.313    75749618.077       -2943.433          43.000  
R10  17253124.270    91968874.348       -2134.080          44.000                                                                  
R21  16976648.451    90845922.153         177.291          52.000    16976641.515    70657762.694         137.887          47.000  
E24  21867770.871   114915916.726         644.063          47.000    21867768.765    88052494.522         493.489          52.000  
S31  36328525.511   190907777.028        -719.775          44.000  
G29  18344686.351    96402307.751       -1395.550          48.000    18344680.922    75118819.734       -1087.604          45.000  
G25  18178967.171    95531329.893       -1279.938          48.000    18178963.155    74440099.110        -997.252          43.000  
G31  20561797.037   108052982.234        1772.296          44.000    20561791.208    84197165.582        1381.212          43.000  
G20  21474888.975   112851300.566       -1135.883          31.000                                                                  
G18  19399773.036   101946706.809        2256.015          47.000    19399767.946    79439139.650        1757.978          46.000  
G05  21454975.364   112746720.231         707.013          43.000    21454969.132    87854580.353         551.227          39.000  
E33  22486505.632   118167660.874       -2457.191          47.000    22486503.441    90544244.060       -1882.728          49.000  
E11  23326625.790   122582406.493        2285.364          37.000    23326627.237    93926867.193        1750.914          43.000  
> 2024 04 09 04 08 00.4920000  0 22                     
S33  37287581.127   195947694.814        -719.955          44.000  
R11  17597250.828    94034513.862        1742.904          51.000    17597245.288    73137814.577        1355.595          51.000  
R22  20187475.622   107762397.229        2981.803          48.000    20187474.816    83815085.595        2319.033          45.000  
R09  20344759.050   108640141.649       -4338.263          50.000    20344755.381    84497966.961       -3374.171          46.000  
G28  18863683.101    99129423.673        -344.642          47.000    18863679.138    77243616.766        -268.686          49.000  
E12  21429221.877   112611533.165         461.635          45.000    21429218.562    86286922.188         353.697          49.000  
E10  22324250.956   117314956.409        1596.948          47.000    22324251.217    89890802.242        1223.549          52.000  
E31  21547920.308   113235438.120       -1421.147          45.000    21547921.418    86764890.234       -1088.920          50.000  
G12  20322212.255   106794283.997       -2681.481          46.000    20322207.224    83216508.504       -2089.490          43.000  
R20  18234046.950    97505978.647       -3796.021          42.000    18234045.192    75838056.698       -2952.695          44.000  
R10  17265191.611    92033196.592       -2154.446          46.000                                                                  
R21  16975715.662    90840930.278         155.302          52.000    16975709.545    70653880.113         120.881          48.000  
E24  21864101.589   114896637.496         641.257          47.000    21864100.167    88037722.135         491.273          52.000  
S31  36332631.636   190929357.773        -719.171          44.000  
G29  18352675.591    96444292.987       -1403.448          48.000    18352670.231    75151535.483       -1093.622          45.000  
G25  18186304.455    95569890.340       -1291.050          48.000    18186300.965    74470146.199       -1006.002          43.000  
G31  20551715.934   108000009.595        1759.124          44.000    20551711.278    84155888.215        1370.847          43.000  
G20  21481422.896   112885632.342       -1153.033          34.000                                                                  
G18  19386927.850   101879206.882        2243.853          47.000    19386923.022    79386542.383        1748.394          46.000  
G05  21450971.238   112725675.808         695.728          43.000    21450965.915    87838182.137         542.218          41.000  
E33  22500562.097   118241525.374       -2467.323          47.000    22500559.533    90600841.527       -1890.491          49.000  
E11  23313589.714   122513904.411        2281.547          37.000    23313591.512    93874378.919        1748.003          43.000  
> 2024 04 09 04 08 30.4920000  0 22                     
S33  37291690.310   195969288.405        -719.889          44.000  
R11  17587503.941    93982430.882        1729.215          51.000    17587497.644    73097305.601        1344.927          50.000  
R22  20170745.071   107673093.630        2971.715          47.000    20170744.937    83745627.616        2311.437          45.000  
R09  20369157.493   108770428.078       -4347.553          50.000    20369153.906    84599300.610       -3381.466          45.000  
G28  18865706.559    99140054.248        -364.044          48.000    18865701.914    77251900.312        -283.690          49.000  
E12  21426624.133   112597880.194         448.503          45.000    21426620.429    86276460.847         343.675          49.000  
E10  22315161.096   117267188.322        1587.505          46.000    22315161.171    89854200.753        1216.396          52.000  
E31  21556051.652   113278167.674       -1427.588          45.000    21556052.753    86797631.058       -1093.872          50.000  
G12  20337541.447   106874846.585       -2689.581          44.000    20337537.450    83279284.552       -2095.653          43.000  
R20  18255376.776    97620039.435       -3807.757          42.000    18255375.325    75926770.640       -2961.762          43.000  
R10  17277374.980    92098132.766       -2174.936          46.000                                                                  
R21  16974905.779    90836600.601         133.237          52.000    16974900.547    70650512.586         103.601          48.000  
E24  21860450.695   114877451.317         637.882          46.000    21860448.979    88023021.028         488.838          52.000  
S31  36336736.965   190950929.357        -719.003          44.000  
G29  18360710.354    96486515.250       -1411.371          48.000    18360704.828    75184435.934       -1099.744          45.000  
G25  18193706.402    95608784.297       -1302.120          48.000    18193702.543    74500453.193       -1014.570          43.000  
G31  20541711.790   107947435.019        1745.804          44.000    20541706.011    84114921.014        1360.274          42.000  
G20  21488055.878   112920480.302       -1170.343          36.000                                                                  
G18  19374153.535   101812075.538        2231.427          47.000    19374148.918    79334232.290        1738.942          47.000  
G05  21447032.893   112704979.992         684.033          43.000    21447028.119    87822055.548         532.959          40.000  
E33  22514675.917   118315699.239       -2477.641          46.000    22514674.368    90657676.043       -1898.516          49.000  
E11  23300575.756   122445516.396        2277.807          36.000    23300577.217    93821978.032        1744.924          44.000  
> 2024 04 09 04 09 00.4920000  0 22                     
S33  37295797.492   195990873.086        -719.436          44.000  
R11  17577834.942    93930764.556        1715.266          51.000    17577828.587    73057120.696        1334.056          49.000  
R22  20154071.413   107584092.479        2961.495          46.000    20154072.156    83676404.866        2303.362          46.000  
R09  20393608.047   108900994.364       -4356.736          49.000    20393605.042    84700851.930       -3388.599          46.000  
G28  18867840.492    99151268.274        -383.559          47.000    18867835.967    77260638.482        -298.745          49.000  
E12  21424100.025   112584616.359         435.549          45.000    21424096.652    86266297.674         333.792          50.000  
E10  22306125.702   117219702.959        1578.122          47.000    22306125.001    89817815.895        1209.196          52.000  
E31  21564220.149   113321092.035       -1434.070          46.000    21564221.031    86830521.148       -1098.764          50.000  
G12  20352918.659   106955648.986       -2697.496          45.000    20352914.285    83342247.415       -2101.758          44.000  
R20  18276772.410    97734451.791       -3819.551          42.000    18276770.057    76015758.015       -2970.746          43.000  
R10  17289671.792    92163684.104       -2195.391          47.000                                                                  
R21  16974220.643    90832933.676         111.170          52.000    16974214.616    70647660.575          86.541          47.000  
E24  21856817.459   114858360.357         634.729          46.000    21856815.933    88008392.893         486.403          52.000  
S31  36340840.402   190972493.665        -718.718          44.000  
G29  18368790.571    96528974.330       -1419.171          49.000    18368784.408    75217520.917       -1105.878          45.000  
G25  18201170.836    95648013.873       -1313.257          47.000    18201168.053    74531021.677       -1023.353          44.000  
G31  20531784.070   107895262.158        1732.510          45.000    20531777.163    84074266.861        1349.901          41.000  
G20  21494785.308   112955845.999       -1187.427          35.000                                                                  
G18  19361449.586   101745316.347        2219.042          48.000    19361445.639    79282212.192        1729.239          47.000  
G05  21443161.215   112684636.594         672.290          43.000    21443156.189    87806203.595         523.743          40.000  
E33  22528849.416   118390182.065       -2487.859          46.000    22528848.026    90714747.300       -1906.333          49.000  
E11  23287583.126   122377245.195        2274.186          36.000    23287585.550    93769666.690        1742.284          44.000  
> 2024 04 09 04 09 30.4920000  0 22                     
S33  37299903.527   196012449.831        -719.245          44.000  
R11  17568244.886    93879517.812        1701.084          51.000    17568238.970    73017262.123        1323.045          49.000  
R22  20137454.925   107495395.637        2951.149          43.000    20137454.915    83607418.777        2295.577          45.000  
R09  20418110.579   109031837.657       -4366.075          48.000    20418108.705    84802618.667       -3395.996          47.000  
G28  18870085.275    99163065.593        -403.237          48.000    18870080.946    77269831.190        -314.101          48.000  
E12  21421650.487   112571741.672         422.586          45.000    21421646.815    86256432.675         323.733          50.000  
E10  22297142.366   117172501.148        1568.460          46.000    22297143.188    89781648.326        1201.820          52.000  
E31  21572425.823   113364211.466       -1440.678          46.000    21572426.204    86863560.687       -1103.827          50.000  
G12  20368340.781   107036690.896       -2705.367          46.000    20368336.586    83405396.942       -2108.267          44.000  
R20  18298233.429    97849210.995       -3831.232          44.000    18298230.210    76105015.126       -2979.675          42.000  
R10  17302083.919    92229850.196       -2215.859          45.000                                                                  
R21  16973658.768    90829928.663          89.001          51.000    16973652.994    70645323.365          69.201          47.000  
E24  21853203.061   114839365.263         631.306          46.000    21853201.118    87993838.209         483.817          52.000  
S31  36344942.348   190994049.024        -718.431          44.000  
G29  18376914.989    96571668.859       -1427.161          49.000    18376908.945    75250789.395       -1112.042          45.000  
G25  18208699.645    95687579.593       -1324.561          48.000    18208696.234    74561852.112       -1031.993          43.000  
G31  20521933.045   107843492.889        1718.725          44.000    20521926.071    84033927.187        1339.351          41.000  
G20  21501613.459   112991729.261       -1204.736          35.000                                                                  
G18  19348816.406   101678931.284        2206.627          47.000    19348812.876    79230483.636        1719.333          47.000  
G05  21439357.684   112664647.343         660.272          42.000    21439353.031    87790627.540         514.258          39.000  
E33  22543081.932   118464971.756       -2498.199          47.000    22543079.763    90772053.676       -1914.294          49.000  
E11  23274615.656   122309092.000        2269.811          37.000    23274616.206    93717445.723        1739.095          45.000  
> 2024 04 09 04 10 00.4920000  0 23                     
S33  37304008.153   196034019.938        -719.014          44.000  
R11  17558734.120    93828697.008        1686.843          50.000    17558728.962    72977734.847        1311.846          50.000  
R22  20120896.897   107407007.859        2941.138          43.000    20120895.824    83538673.072        2287.499          45.000  
R09  20442665.375   109162958.243       -4375.320          48.000    20442664.133    84904601.076       -3402.936          48.000  
G28  18872441.773    99175448.875        -422.584          48.000    18872437.761    77279480.500        -329.258          49.000  
E12  21419274.262   112559258.881         409.581          45.000    21419271.265    86246867.954         313.768          50.000  
E10  22288214.024   117125586.510        1559.011          46.000    22288215.482    89745700.797        1194.619          52.000  
E31  21580668.723   113407528.916       -1447.297          46.000    21580669.058    86896751.974       -1108.883          49.000  
G12  20383808.697   107117974.738       -2713.516          46.000    20383803.604    83468734.962       -2114.214          43.000  
R20  18319758.774    97964315.367       -3842.615          44.000    18319756.133    76194540.738       -2988.623          44.000  
R10  17314611.453    92296633.068       -2236.356          45.000                                                                  
R21  16973221.593    90827587.437          67.084          52.000    16973215.461    70643502.406          52.170          47.000  
E24  21849606.923   114820469.412         628.161          46.000    21849605.242    87979359.581         481.368          52.000  
S31  36349042.854   191015598.848        -718.300          44.000  
G29  18385084.782    96614599.716       -1435.034          49.000    18385078.378    75284241.986       -1117.938          44.000  
G25  18216293.376    95727484.681       -1335.828          48.000    18216290.251    74592946.986       -1040.752          43.000  
G31  20512158.874   107792132.472        1705.123          44.000    20512153.525    83993906.094        1328.752          41.000  
G20  21508538.636   113028132.616       -1222.205          35.000                                                                  
G18  19336256.018   101612925.078        2193.967          48.000    19336252.671    79179050.281        1709.557          47.000  
G05  21435622.348   112645017.388         648.254          44.000    21435617.818    87775331.495         505.438          39.000  
E33  22557373.206   118540069.038       -2508.345          47.000    22557370.492    90829595.736       -1921.975          49.000  
E11  23261669.202   122241060.696        2265.627          37.000    23261670.156    93665318.153        1736.005          45.000  
G26                                                                  21980422.514                3       1863.732          25.000  
> 2024 04 09 04 10 30.4920000  0 23                     
S33  37308111.733   196055584.128        -718.777          44.000  
R11  17549303.897    93778304.869        1672.347          51.000    17549299.102    72938540.955        1300.699          50.000  
R22  20104399.227   107318931.114        2930.432          46.000    20104395.897    83470169.263        2279.155          46.000  
R09  20467271.376   109294353.823       -4384.709          48.000    20467271.142    85006797.379       -3410.286          48.000  
G28  18874909.929    99188418.049        -442.273          47.000    18874905.949    77289586.342        -344.667          49.000  
E12  21416972.981   112547168.196         396.253          44.000    21416970.256    86237603.677         303.587          49.000  
E10  22279342.333   117078959.961        1549.149          46.000    22279342.562    89709973.993        1187.068          52.000  
E31  21588949.208   113451044.703       -1454.068          45.000    21588949.520    86930095.225       -1114.152          49.000  
G12  20399323.005   107199500.331       -2721.874          47.000    20399316.735    83532261.365       -2120.781          43.000  
R20  18341347.576    98079761.011       -3853.961          44.000    18341345.700    76284331.775       -2997.564          45.000  
R10  17327255.294    92364032.085       -2257.143          45.000                                                                  
R21  16972908.274    90825909.063          44.710          51.000    16972902.669    70642197.028          34.772          47.000  
E24  21846029.980   114801673.510         624.713          46.000    21846028.392    87964957.530         478.662          52.000  
S31  36353142.599   191037141.219        -718.179          44.000  
G29  18393298.996    96657765.113       -1442.938          49.000    18393291.963    75317877.363       -1124.530          43.000  
G25  18223952.144    95767729.712       -1347.432          48.000    18223949.545    74624306.742       -1049.767          44.000  
G31  20502463.377   107741182.126        1691.281          44.000    20502458.248    83954204.524        1317.711          41.000  
G20  21515566.846   113065055.455       -1239.728          38.000                                                                  
G18  19323768.876   101547299.754        2180.875          48.000    19323764.648    79127913.687        1699.445          47.000  
G05  21431955.569   112625748.226         635.870          44.000    21431949.993    87760316.609         495.435          39.000  
E33  22571721.135   118615471.842       -2518.680          47.000    22571718.899    90887371.924       -1929.950          48.000  
E11  23248747.599   122173152.446        2261.359          38.000    23248747.298    93613284.861        1732.853          45.000  
G26                                                                  21966755.094                        1864.649          26.000  
> 2024 04 09 04 11 00.4920000  0 24                     
S33  37312213.828   196077142.270        -718.870          44.000  
R11  17539955.464    93728346.210        1657.771          51.000    17539950.058    72899684.221        1289.390          50.000  
R22  20087957.517   107231168.612        2919.891          44.000    20087954.724    83401909.839        2270.979          46.000  
R09  20491929.523   109426022.827       -4393.777          49.000    20491928.057    85109206.337       -3417.246          47.000  
G28  18877489.570    99201974.169        -461.913          47.000    18877485.701    77300149.549        -360.000          50.000  
E12  21414747.268   112535470.834         382.974          44.000    21414744.310    86228640.781         293.457          49.000  
E10  22270524.549   117032623.543        1539.405          46.000    22270525.021    89674469.498        1179.529          52.000  
E31  21597268.395   113494760.227       -1460.841          46.000    21597268.457    86963591.534       -1119.292          49.000  
G12  20414883.339   107281268.626       -2729.984          47.000    20414876.895    83595976.894       -2127.458          43.000  
R20  18363000.231    98195545.361       -3865.265          44.000    18362997.208    76374386.282       -3006.226          43.000  
R10  17340015.399    92432047.923       -2277.843          46.000                                                                  
R21  16972718.525    90824893.552          22.479          51.000    16972712.071    70641407.205          17.319          46.000  
E24  21842472.754   114782979.432         621.060          47.000    21842471.166    87950633.513         475.918          52.000  
S31  36357240.840   191058678.763        -718.251          44.000  
G29  18401557.317    96701164.503       -1450.787          49.000    18401550.499    75351695.088       -1130.408          44.000  
G25  18231675.668    95808316.348       -1358.801          48.000    18231672.825    74655932.664       -1058.814          44.000  
G31  20492846.080   107690645.355        1677.405          43.000    20492841.465    83914825.217        1306.777          41.000  
G20  21522692.112   113102499.453       -1257.727          36.000                                                                  
G18  19311353.094   101482058.467        2167.958          48.000    19311349.321    79077076.379        1689.291          47.000  
G05  21428358.280   112606842.964         623.645          45.000    21428352.687    87745585.268         485.986          40.000  
E33  22586128.097   118691179.422       -2528.941          47.000    22586125.775    90945381.621       -1937.719          48.000  
E11  23235848.723   122105369.644        2256.984          37.000    23235848.138    93561347.674        1729.497          45.000  
G26                                                                  21953093.368                        1865.077          27.000  
R12                                                                  23645867.106                3       2793.465          14.000  
> 2024 04 09 04 11 30.4920000  0 23                     
S33  37316315.035   196098693.452        -718.766          44.000  
R11  17530688.825    93678824.230        1643.090          52.000    17530682.992    72861167.156        1277.921          50.000  
R22  20071575.619   107143722.151        2909.413          45.000    20071572.160    83333896.229        2262.692          45.000  
R09  20516638.252   109557962.803       -4402.797          50.000    20516635.261    85211826.066       -3424.233          45.000  
G28  18880180.934    99216116.974        -481.596          47.000    18880177.137    77311169.898        -375.282          49.000  
E12  21412596.158   112524166.831         369.933          44.000    21412593.379    86219979.286         283.428          50.000  
E10  22261762.728   116986578.063        1529.665          46.000    22261762.938    89639187.924        1172.080          52.000  
E31  21605625.536   113538675.701       -1467.518          47.000    21605625.293    86997241.051       -1124.473          49.000  
G12  20430489.416   107363279.117       -2737.980          47.000    20430482.534    83659881.133       -2133.323          42.000  
R20  18384715.365    98311663.091       -3876.447          45.000    18384711.662    76464700.046       -3015.216          43.000  
R10  17352891.914    92500679.934       -2298.250          47.000                                                                  
R21  16972652.702    90824539.700           0.409          51.000    16972645.597    70641132.021           0.408          47.000  
E24  21838935.464   114764387.761         617.615          48.000    21838933.427    87936387.948         473.244          52.000  
S31  36361338.223   191080210.260        -717.897          44.000  
G29  18409859.304    96744796.212       -1458.594          48.000    18409853.978    75385693.826       -1136.377          44.000  
G25  18239464.252    95849245.006       -1370.357          48.000    18239461.262    74687825.115       -1067.688          44.000  
G31  20483307.561   107640523.986        1663.454          42.000    20483303.156    83875769.595        1296.191          39.000  
G20  21529917.695   113140463.872       -1274.194          37.000                                                                  
G18  19299011.474   101417203.113        2155.058          48.000    19299007.929    79026539.791        1679.280          48.000  
G05  21424830.893   112588304.269         611.694          45.000    21424825.414    87731139.538         476.617          40.000  
E33  22600591.738   118767189.621       -2539.117          47.000    22600590.290    91003623.207       -1945.527          49.000  
E11  23222971.689   122037713.276        2252.348          36.000    23222973.328    93509507.396        1726.012          45.000  
G26                                                                  21939418.521                        1865.990          28.000  
> 2024 04 09 04 12 00.4920000  0 24                     
S33  37320415.156   196120237.461        -718.351          44.000  
R11  17521503.333    93629740.176        1628.476          52.000    17521498.085    72822990.656        1266.663          51.000  
R22  20055253.963   107056592.282        2898.595          46.000    20055250.000    83266128.805        2254.532          46.000  
R09  20541396.656   109690169.681       -4411.674          49.000    20541393.696    85314653.378       -3431.314          46.000  
G28  18882983.333    99230844.819        -501.241          46.000    18882979.384    77322646.123        -390.364          49.000  
E12  21410519.339   112513254.761         356.835          44.000    21410516.973    86211618.109         273.473          50.000  
E10  22253055.012   116940822.888        1519.895          46.000    22253056.059    89604128.824        1164.640          52.000  
E31  21614020.479   113582789.937       -1474.173          47.000    21614020.036    87031042.860       -1129.563          49.000  
G12  20446141.035   107445530.465       -2746.021          47.000    20446135.785    83723973.111       -2139.835          44.000  
R20  18406490.699    98428108.843       -3887.146          44.000    18406487.522    76555268.947       -3023.504          43.000  
R10  17365881.791    92569925.569       -2318.795          47.000                                                                  
R21  16972709.298    90824845.221         -21.541          52.000    16972703.104    70641369.671         -16.806          48.000  
E24  21835416.670   114745897.786         614.183          48.000    21835414.782    87922220.307         470.710          52.000  
S31  36365434.110   191101733.368        -717.609          44.000  
G29  18418206.106    96788657.002       -1466.205          48.000    18418201.057    75419871.061       -1142.554          45.000  
G25  18247316.624    95890514.764       -1381.839          47.000    18247315.381    74719983.349       -1076.643          45.000  
G31  20473847.855   107590818.669        1649.581          41.000    20473843.546    83837038.161        1285.460          39.000  
G20  21537240.168   113178946.956       -1291.766          37.000                                                                  
G18  19286743.585   101352734.236        2142.136          48.000    19286739.322    78976304.355        1669.305          47.000  
G05  21421373.143   112570132.212         599.316          45.000    21421367.660    87716979.528         467.169          41.000  
E33  22615113.280   118843498.965       -2548.881          47.000    22615111.437    91062093.996       -1953.042          49.000  
E11  23210120.688   121970183.125        2248.458          36.000    23210122.568    93457763.824        1722.955          45.000  
G26                                                                  21925744.125                        1866.635          29.000  
R12                                                                  22114097.539                3       2763.342          11.000  
> 2024 04 09 04 12 30.4920000  0 23                     
S33  37324514.569   196141781.119        -718.147          44.000  
R11  17512402.091    93581105.390        1613.664          52.000    17512396.469    72785163.604        1254.931          51.000  
R22  20038991.669   106969788.522        2887.815          47.000    20038988.888    83198615.058        2246.037          46.000  
R09  20566206.218   109822648.842       -4420.419          49.000    20566203.361    85417692.423       -3438.225          45.000  
G28  18885898.787    99246165.171        -520.745          46.000    18885895.113    77334584.035        -405.554          49.000  
E12  21408519.443   112502742.284         343.710          44.000    21408516.432    86203563.120         263.332          50.000  
E10  22244405.519   116895366.553        1510.213          47.000    22244405.764    89569298.681        1157.140          52.000  
E31  21622454.135   113627110.777       -1480.787          47.000    21622453.964    87065002.968       -1134.642          49.000  
G12  20461839.753   107528029.388       -2754.185          47.000    20461834.626    83788257.941       -2146.141          43.000  
R20  18428327.810    98544886.537       -3898.071          43.000    18428325.220    76646096.037       -3032.007          43.000  
R10  17378989.338    92639792.420       -2339.251          46.000                                                                  
R21  16972891.127    90825816.811         -43.592          52.000    16972885.371    70642125.370         -33.927          48.000  
E24  21831918.558   114727517.777         610.830          48.000    21831917.281    87908136.934         468.016          52.000  
S31  36369529.576   191123256.030        -717.366          44.000  
G29  18426596.854    96832752.902       -1473.859          48.000    18426591.859    75454231.500       -1148.413          44.000  
G25  18255237.019    95932133.730       -1393.172          48.000    18255235.059    74752413.699       -1085.615          45.000  
G31  20464471.126   107541539.018        1635.512          41.000    20464465.950    83798638.426        1274.307          39.000  
G20  21544664.229   113217955.854       -1308.936          38.000                                                                  
G18  19274550.662   101288661.396        2129.054          48.000    19274546.970    78926377.521        1658.955          48.000  
G05  21417986.362   112552336.279         586.816          44.000    21417981.582    87703112.580         457.446          42.000  
E33  22629692.359   118920113.041       -2558.833          47.000    22629690.731    91120798.282       -1960.768          49.000  
E11  23197296.253   121902788.052        2244.494          37.000    23197297.455    93406123.735        1719.683          45.000  
G26                                                                  21912058.051                        1867.818          29.000  
> 2024 04 09 04 13 00.4920000  0 24                     
S33  37328612.901   196163318.507        -718.125          44.000  
G26  21898389.583                1       2398.994          28.000    21898373.071                        1868.716          31.000  
R11  17503384.005    93532918.215        1598.410          51.000    17503378.697    72747684.696        1243.274          51.000  
R22  20022791.301   106883308.178        2876.955          48.000    20022787.829    83131352.866        2237.469          45.000  
R12  23571743.375                3       3064.877          11.000                                                                  
R09  20591065.336   109955392.150       -4429.472          50.000    20591061.481    85520936.845       -3445.150          45.000  
G28  18888926.787    99262073.134        -540.371          47.000    18888922.059    77346979.853        -421.075          49.000  
E12  21406593.434   112492624.752         330.379          44.000    21406591.139    86195810.744         253.105          50.000  
E10  22235811.693   116850205.292        1500.163          47.000    22235812.003    89534694.616        1149.449          52.000  
E31  21630926.782   113671633.910       -1487.775          47.000    21630926.365    87099118.077       -1140.029          49.000  
G12  20477584.939   107610771.258       -2762.323          47.000    20477579.458    83852732.116       -2152.499          43.000  
R20  18450226.693    98661986.721       -3909.058          43.000    18450223.351    76737173.935       -3040.411          42.000  
R10  17392210.483    92710274.833       -2360.069          46.000                                                                  
R21  16973196.117    90827448.376         -65.643          52.000    16973190.624    70643394.375         -51.221          49.000  
E24  21828440.769   114709243.833         607.137          47.000    21828439.977    87894134.827         465.156          52.000  
S31  36373624.251   191144772.650        -717.333          44.000  
G29  18435031.564    96877077.697       -1481.531          48.000    18435025.733    75488770.317       -1154.370          44.000  
G25  18263222.840    95974097.792       -1404.724          48.000    18263220.426    74785112.970       -1094.561          45.000  
G31  20455175.151   107492682.540        1621.138          43.000    20455169.014    83760568.442        1263.554          39.000  
G20  21552186.387   113257485.734       -1326.379          37.000                                                                  
G18  19262432.981   101224981.942        2115.789          48.000    19262428.791    78876757.222        1648.625          47.000  
G05  21414671.100   112534913.453         574.121          43.000    21414666.084    87689536.334         447.369          42.000  
E33  22644327.772   118997025.142       -2568.855          47.000    22644326.624    91179730.936       -1968.394          49.000  
E11  23184495.728   121835524.580        2239.173          36.000    23184497.207    93354584.437        1715.864          45.000  
> 2024 04 09 04 13 30.4920000  0 23                     
S33  37332710.124   196184849.652        -717.601          44.000  
R11  17494450.103    93485182.370        1583.697          51.000    17494445.903    72710556.790        1231.823          51.000  
R22  20006650.343   106797153.707        2866.424          47.000    20006647.768    83064344.101        2229.360          45.000  
R09  20615972.406   110088398.516       -4437.769          49.000    20615969.110    85624385.924       -3451.505          44.000  
G28  18892065.191    99278568.933        -559.692          47.000    18892060.851    77359833.717        -436.108          49.000  
E12  21404743.353   112482902.735         317.482          44.000    21404740.948    86188361.423         243.287          50.000  
E10  22227273.865   116805340.356        1490.625          46.000    22227274.456    89500317.626        1142.078          52.000  
E31  21639438.559   113716360.042       -1494.343          48.000    21639437.488    87133388.717       -1144.949          49.000  
G12  20493375.921   107693756.419       -2770.118          46.000    20493371.712    83917395.850       -2158.515          44.000  
R20  18472185.600    98779405.542       -3918.939          44.000    18472181.831    76828499.674       -3048.041          43.000  
R10  17405548.193    92781372.388       -2380.106          47.000                                                                  
R21  16973624.326    90829739.405         -87.286          51.000    16973618.743    70645176.294         -67.953          48.000  
E24  21824983.750   114691077.176         603.837          47.000    21824983.214    87880214.924         462.642          52.000  
S31  36377717.510   191166284.436        -716.859          44.000  
G29  18443509.479    96921629.965       -1488.757          47.000    18443503.704    75523486.366       -1160.211          44.000  
G25  18271274.289    96016407.923       -1416.089          47.000    18271271.494    74818081.875       -1103.548          45.000  
G31  20445959.010   107444251.413        1607.190          43.000    20445952.972    83722829.931        1252.371          40.000  
G20  21559807.015   113297536.649       -1344.037          37.000                                                                  
G18  19250390.310   101161698.290        2102.974          48.000    19250385.381    78827445.314        1638.660          47.000  
G05  21411426.229   112517866.621         561.975          43.000    21411421.095    87676253.093         437.872          40.000  
E33  22659020.102   119074233.767       -2578.508          47.000    22659018.880    91238890.775       -1975.806          49.000  
E11  23171721.188   121768394.244        2236.038          37.000    23171722.577    93303147.191        1712.750          45.000  
G26                                                                  21884676.044                        1870.015          32.000  
> 2024 04 09 04 14 00.4920000  0 24                     
S33  37336805.825   196206371.647        -717.425          44.000  
G26  21870973.533                        2400.371          31.000    21870971.489                        1871.026          32.000  
R11  17485601.190    93437897.050        1568.651          52.000    17485597.080    72673779.311        1220.002          51.000  
R22  19990570.845   106711322.794        2855.526          46.000    19990568.691    82997587.008        2220.920          45.000  
R12  22042832.661                3       3062.441          12.000                                                                  
R09  20640928.624   110221660.717       -4446.449          48.000    20640927.279    85728033.987       -3458.401          47.000  
G28  18895314.837    99295648.329        -579.103          47.000    18895310.615    77373142.337        -451.243          49.000  
E12  21402967.551   112473572.292         304.376          43.000    21402965.546    86181212.145         233.185          50.000  
E10  22218791.421   116760768.672        1480.718          46.000    22218792.625    89466165.314        1134.601          52.000  
E31  21647986.910   113761285.437       -1501.042          47.000    21647986.630    87167812.075       -1150.194          49.000  
G12  20509213.072   107776979.865       -2778.165          47.000    20509208.880    83982245.261       -2164.894          43.000  
R20  18494201.446    98897135.150       -3929.547          45.000    18494198.378    76920067.107       -3056.128          42.000  
R10  17418999.614    92853080.484       -2400.631          46.000                                                                  
R21  16974174.730    90832684.532        -109.077          52.000    16974169.044    70647466.984         -84.984          48.000  
E24  21821547.135   114673014.548         600.196          48.000    21821545.930    87866374.721         459.915          52.000  
S31  36381808.864   191187785.524        -716.525          44.000  
G29  18452030.097    96966404.293       -1496.234          47.000    18452024.608    75558375.438       -1165.875          45.000  
G25  18279390.347    96059060.534       -1427.384          47.000    18279388.387    74851317.683       -1112.477          45.000  
G31  20436823.322   107396243.589        1592.786          43.000    20436817.146    83685421.228        1241.327          39.000  
G20  21567527.370   113338104.713       -1361.206          37.000                                                                  
G18  19238421.916   101098808.379        2089.552          47.000    19238417.750    78778440.246        1628.236          47.000  
G05  21408253.578   112501193.973         549.652          44.000    21408247.750    87663261.455         427.869          39.000  
E33  22673768.735   119151732.881       -2588.170          48.000    22673766.632    91298273.203       -1983.233          49.000  
E11  23158971.041   121701394.335        2231.288          37.000    23158972.631    93251809.851        1709.586          45.000  
> 2024 04 09 04 14 30.4920000  0 23                     
S33  37340900.639   196227891.051        -717.292          44.000  
R11  17476839.186    93391073.326        1552.975          51.000    17476834.623    72637360.860        1207.802          52.000  
R22  19974554.060   106625825.016        2844.293          47.000    19974552.148    82931089.038        2212.295          44.000  
R09  20665933.692   110355183.915       -4455.178          48.000    20665931.889    85831885.029       -3465.187          47.000  
G28  18898677.627    99313318.543        -599.048          47.000    18898673.271    77386911.327        -466.797          49.000  
E12  21401268.869   112464640.822         291.098          44.000    21401265.969    86174368.567         222.968          50.000  
E10  22210367.735   116716498.539        1470.690          46.000    22210368.454    89432244.067        1126.871          52.000  
E31  21656575.329   113806417.836       -1507.837          47.000    21656574.914    87202394.026       -1155.442          49.000  
G12  20525097.721   107860449.801       -2786.594          48.000    20525091.694    84047286.772       -2171.461          42.000  
R20  18516275.979    99015178.412       -3940.204          43.000    18516272.775    77011878.505       -3064.459          42.000  
R10  17432567.552    92925405.213       -2421.260          45.000                                                                  
R21  16974848.222    90836290.354        -131.284          52.000    16974842.400    70650271.518        -102.078          47.000  
E24  21818131.312   114655064.117         596.409          47.000    21818130.160    87852620.499         456.992          52.000  
S31  36385900.143   191209284.238        -716.688          44.000  
G29  18460594.063    97011406.260       -1503.906          47.000    18460588.582    75593441.892       -1171.631          45.000  
G25  18287573.942    96102063.678       -1439.355          47.000    18287571.669    74884826.608       -1121.460          45.000  
G31  20427771.212   107348668.570        1578.438          44.000    20427764.075    83648349.797        1229.832          40.000  
G20  21575347.417   113379196.355       -1378.564          35.000                                                                  
G18  19226531.033   101036321.642        2076.102          47.000    19226527.169    78729749.333        1617.741          47.000  
G05  21405153.878   112484904.745         536.505          41.000    21405147.883    87650568.586         417.902          40.000  
E33  22688572.858   119229527.894       -2598.119          48.000    22688570.678    91357882.355       -1990.772          49.000  
E11  23146248.817   121634533.493        2226.394          39.000    23146249.081    93200579.055        1705.787          45.000  
G26                                                                  21857261.446                        1871.500          32.000  
