     3.00           OBSERVATION DATA    M: Mixed            RINEX VERSION / TYPE
CONVBIN 2.4.3                           20240409 021442 UTC PGM / RUN BY / DATE 
format: u-blox UBX                                          COMMENT             
log: data/2024-04-09/20240409020000.ubx                     COMMENT             
AQUI00CHL                                                   MARKER NAME         
                                                            MARKER NUMBER       
                                                            MARKER TYPE         
                                                            OBSERVER / AGENCY   
UNKNOWN             UBLOX-ZED-F9P                           REC # / TYPE / VERS 
UNKNOWN             TWIVSP6037L                             ANT # / TYPE        
  1713381.0000 -5047934.0000 -3490983.0000                  APPROX POSITION XYZ 
        0.0000        0.0000        0.0000                  ANTENNA: DELTA H/E/N
G    8 C1C L1C D1C S1C C2L L2L D2L S2L                      SYS / # / OBS TYPES 
R    8 C1C L1C D1C S1C C2C L2C D2C S2C                      SYS / # / OBS TYPES 
E    8 C1C L1C D1C S1C C7Q L7Q D7Q S7Q                      SYS / # / OBS TYPES 
S    4 C1C L1C D1C S1C                                      SYS / # / OBS TYPES 
  2024    04    09    02    00   00.0090000     GPS         TIME OF FIRST OBS   
  2024    04    09    02    14   30.0100000     GPS         TIME OF LAST OBS    
                                                            END OF HEADER       
> 2024 04 09 02 00 00.0090000  0 23                     
S33  42504240.731   223361404.2141       -750.046          44.000  
E26  28699341.030   150816137.9071      -1459.682          41.000    28699337.898   115560470.4981      -1118.520          44.000  
G24  23964444.239   125934106.4421      -2822.391          47.000    23964441.910    98130554.4061      -2199.294          47.000  
E09  28238125.508   148392288.3291      -2185.808          45.000    28238127.417   113703291.2081      -1674.844          51.000  
E05  28492888.447                         229.809          30.000    28492890.859   114729106.7901        176.232          34.000  
R08  25743504.123   137855331.7281      -2817.383          46.000    25743498.286   107220720.9951      -2191.393          46.000  
R16  25942907.686   138582829.4031      -3223.573          50.000    25942905.852   107786833.8391      -2507.296          48.000  
R09  22752423.176   121496989.5631      -1026.348          50.000    22752420.272    94497748.1581       -798.220          51.000  
R19  23558312.750   126021433.0611      -3010.883          43.000    23558307.547    98016826.1481      -2341.718          49.000  
G32  25930183.895   136263981.2981       -994.522          46.000    25930182.663   106179728.8701       -774.962          44.000  
E12  30200436.764   158704425.2701       2318.385          31.000    30200454.209   121604801.0201       1776.339          41.000  
E31  26627073.117   139926559.2171       -454.011          49.000    26627073.398   107216528.4361       -347.863          52.000  
G12  23987327.629   126054605.1721      -1099.004          48.000    23987322.099    98224552.8801       -856.262          44.000  
R20  22898756.893   122450264.9131       2003.373          40.000    22898755.126    95239164.5011       1558.198          45.000  
R10  23548234.977   125525353.8961       1348.981          46.000                                                                  
E24  29327553.191   154117323.2811        833.156          45.000    29327553.194   118089930.8011        638.410          50.000  
S31  41550604.877   218349977.8581       -749.039          44.000  
G29  24700311.443   129801317.8671       1696.670          49.000    24700308.450   101144016.2401       1322.067          45.000  
G25  24110602.791   126702285.1621        417.380          48.000    24110600.249    98729154.5761        325.125          45.000  
G06  26427487.675   138877378.0841      -2485.083          41.000    26427484.361   108216165.7051      -1936.389          39.000  
E33  27664868.891   145380131.7561        970.529          47.000    27664867.764   111395354.7961        743.564          48.000  
E04  29502243.105   155035240.1381      -3577.685          43.000    29502252.688   118793306.8931      -2741.243          48.000  
G11  25180142.696   132322778.3741       -423.946          45.000    25180137.899   103108887.9081       -330.540          43.000  
> 2024 04 09 02 00 30.0090000  0 23                     
S33  42508521.531   223383900.579        -749.956          44.000  
E26  28707712.429   150860131.953       -1473.385          40.000    28707709.434   115594180.215       -1129.109          44.000  
G24  23980598.334   126018998.649       -2837.326          47.000    23980596.541    98196704.143       -2210.951          47.000  
E09  28250634.933   148458021.361       -2196.713          46.000    28250635.728   113753658.048       -1683.242          51.000  
E05  28491614.335   149724513.596         217.717          32.000    28491614.371   114723964.293         166.583          35.000  
R08  25759334.688   137940102.955       -2834.205          46.000    25759329.608   107286654.077       -2204.362          47.000  
R16  25961031.376   138679641.627       -3230.763          50.000    25961029.224   107862132.185       -2512.836          48.000  
R09  22758218.061   121527933.410       -1036.888          50.000    22758215.213    94521815.603        -806.492          52.000  
R19  23575260.766   126112094.007       -3033.729          43.000    23575255.035    98087340.196       -2359.375          49.000  
G32  25935911.331   136294079.701       -1012.369          45.000    25935910.090   106203182.128        -788.914          44.000  
E12  30187196.971                        2319.999          31.000    30187216.441   121551501.312        1776.806          41.000  
E31  26629668.830   139940199.501        -455.718          49.000    26629669.171   107226980.095        -349.225          52.000  
G12  23993612.873   126087633.745       -1103.254          49.000    23993607.331    98250289.444        -859.678          44.000  
R20  22887576.593   122390481.419        1982.047          41.000    22887575.700    95192666.298        1541.562          45.000  
R10  23540653.455   125484940.540        1344.922          46.000                                                                  
E24  29322796.695   154092323.255         833.112          45.000    29322795.881   118070774.963         638.218          50.000  
S31  41554880.359   218372443.310        -748.848          44.000  
G29  24690659.331   129750599.555        1684.285          49.000    24690656.999   101104495.594        1312.477          45.000  
G25  24108227.139   126689802.800         414.471          48.000    24108224.965    98719428.061         322.860          46.000  
G06  26441720.919   138952175.769       -2501.648          41.000    26441717.856   108274449.607       -1949.475          40.000  
E33  27659360.435   145351181.634         959.225          47.000    27659358.230   111373172.287         734.938          47.000  
E04  29522668.661   155142575.059       -3578.247          43.000    29522678.403   118875550.034       -2741.687          48.000  
G11  25182615.991   132335771.271        -442.497          47.000    25182610.025   103119012.273        -344.983          43.000  
> 2024 04 09 02 01 00.0090000  0 23                     
S33  42512801.297   223406391.039        -749.663          44.000  
E26  28716162.530   150904545.140       -1487.683          40.000    28716161.279   115628211.083       -1139.889          44.000  
G24  23996837.800   126104338.146       -2852.392          47.000    23996836.131    98263202.394       -2222.603          47.000  
E09  28263205.586   148524084.483       -2207.894          45.000    28263207.146   113804277.795       -1691.684          51.000  
E05  28490407.038   149718184.932         203.898          32.000    28490411.064   114719115.017         156.776          37.000  
R08  25775256.799   138025375.822       -2851.202          41.000    25775253.306   107352977.311       -2217.524          45.000  
R16  25979195.393   138776671.496       -3238.170          51.000    25979193.216   107937599.769       -2518.575          47.000  
R09  22764074.075   121559198.156       -1047.711          50.000    22764069.784    94546132.611        -814.916          51.000  
R19  23592336.780   126203438.937       -3056.427          44.000    23592331.444    98158386.266       -2377.185          49.000  
G32  25941741.655   136324718.139       -1030.572          47.000    25941739.783   106227056.206        -802.971          43.000  
E12  30173958.289                        2318.743          31.000    30173974.895   121498187.455        1777.142          41.000  
E31  26632274.840   139953894.515        -457.579          49.000    26632275.205   107237473.682        -350.571          52.000  
G12  23999923.079   126120791.274       -1107.732          49.000    23999917.475    98276126.488        -863.040          44.000  
R20  22876518.197   122331340.923        1960.182          42.000    22876515.972    95146668.191        1524.528          45.000  
R10  23533095.619   125444648.121        1340.820          47.000                                                                  
E24  29318039.885   154067327.028         833.071          46.000    29318039.046   118051622.034         638.388          50.000  
S31  41559154.393   218394904.932        -748.778          44.000  
G29  24681078.611   129700253.759        1671.624          49.000    24681076.198   101065265.203        1302.593          44.000  
G25  24105870.212   126677414.843         411.031          49.000    24105867.442    98709775.124         320.254          46.000  
G06  26456050.066   139027476.393       -2518.445          40.000    26456047.435   108333125.403       -1962.634          41.000  
E33  27653916.222   145322572.324         947.720          47.000    27653913.831   111351250.905         726.143          47.000  
E04  29543097.493   155249928.163       -3578.726          42.000    29543107.451   118957807.110       -2742.210          48.000  
G11  25185195.059   132349326.072        -461.392          46.000    25185189.152   103129574.453        -359.552          43.000  
> 2024 04 09 02 01 30.0090000  0 23                     
S33  42517079.877   223428875.926        -749.566          44.000  
E26  28724694.993   150949376.221       -1501.300          43.000    28724692.564   115662562.202       -1150.514          44.000  
G24  24013161.734   126190122.902       -2867.107          47.000    24013160.587    98330047.645       -2234.021          47.000  
E09  28275838.900   148590475.358       -2218.606          45.000    28275840.617   113855148.680       -1699.980          51.000  
E05  28489275.810   149712238.767         191.847          32.000    28489280.053   114714558.835         147.151          37.000  
R08  25791275.336   138111146.423       -2867.346          42.000    25791269.505   107419687.683       -2230.265          42.000  
R16  25997400.931   138873918.142       -3245.366          51.000    25997398.072   108013235.946       -2524.150          47.000  
R09  22769989.641   121590784.371       -1058.429          51.000    22769984.481    94570699.672        -823.197          51.000  
R19  23609539.853   126295463.298       -3078.961          43.000    23609533.388    98229960.764       -2394.757          48.000  
G32  25947674.568   136355894.851       -1048.394          46.000    25947672.179   106251349.734        -817.048          42.000  
E12  30160718.505   158495686.239        2320.121          32.000    30160729.978   121444860.351        1777.615          40.000  
E31  26634890.725   139967643.559        -459.306          48.000    26634891.543   107248008.677        -351.888          52.000  
G12  24006257.335   126154076.938       -1111.844          49.000    24006251.750    98302063.382        -866.550          45.000  
R20  22865579.063   122272845.522        1938.936          41.000    22865577.041    95101171.827        1508.024          45.000  
R10  23525559.083   125404476.222        1336.761          46.000                                                                  
E24  29313283.436   154042333.573         832.885          45.000    29313282.889   118032471.249         638.226          50.000  
S31  41563427.514   218417359.832        -748.492          44.000  
G29  24671569.096   129650281.220        1659.278          48.000    24671566.593   101026325.644        1292.763          44.000  
G25  24103530.715   126665120.830         408.120          48.000    24103527.826    98700195.382         317.949          45.000  
G06  26470474.164   139103277.587       -2535.327          40.000    26470472.668   108392191.231       -1975.403          41.000  
E33  27648536.951   145294304.734         936.526          47.000    27648534.953   111329591.368         717.509          47.000  
E04  29563529.971   155357296.712       -3579.310          42.000    29563539.191   119040076.015       -2742.547          47.000  
G11  25187880.975   132363442.881        -480.168          47.000    25187876.160   103140574.561        -373.934          44.000  
> 2024 04 09 02 02 00.0090000  0 23                     
S33  42521357.686   223451354.936        -749.303          44.000  
E26  28733304.874   150994624.087       -1515.522          43.000    28733303.429   115697232.658       -1161.248          46.000  
G24  24029571.084   126276351.175       -2881.852          48.000    24029569.546    98397238.475       -2245.732          48.000  
E09  28288535.070   148657191.917       -2229.451          45.000    28288536.123   113906269.110       -1708.310          50.000  
E05  28488225.295   149706675.218         178.650          34.000    28488221.539   114710295.808         137.316          37.000  
R08  25807384.492   138197409.962       -2883.853          41.000    25807378.568   107486781.494       -2242.796          43.000  
R16  26015645.344   138971381.449       -3252.469          49.000    26015643.571   108089040.649       -2529.930          47.000  
R09  22775964.724   121622693.228       -1069.377          51.000    22775960.043    94595517.649        -831.661          51.000  
R19  23626869.043   126388163.765       -3101.404          43.000    23626863.116    98302061.111       -2412.189          48.000  
G32  25953709.664   136387608.207       -1066.207          47.000    25953707.037   106276061.420        -830.793          42.000  
E12  30147475.551   158426072.979        2320.446          33.000    30147481.877   121391521.044        1777.725          40.000  
E31  26637517.748   139981446.163        -461.138          49.000    26637518.036   107258584.706        -353.365          52.000  
G12  24012615.744   126187490.261       -1116.139          49.000    24012610.241    98328099.722        -869.719          45.000  
R20  22854760.398   122214998.170        1917.292          41.000    22854759.047    95056179.483        1491.278          44.000  
R10  23518045.720   125364427.411        1332.690          45.000                                                                  
E24  29308527.568   154017342.037         832.786          45.000    29308526.976   118013321.927         638.086          49.000  
S31  41567699.001   218439808.021        -748.362          44.000  
G29  24662130.347   129600682.059        1646.823          47.000    24662127.724   100987677.017        1283.380          44.000  
G25  24101209.321   126652920.488         404.950          48.000    24101206.218    98690688.654         315.568          46.000  
G06  26484993.162   139179577.119       -2551.758          41.000    26484991.100   108451645.432       -1988.550          40.000  
E33  27643223.016   145266379.831         924.899          47.000    27643221.013   111308194.419         708.708          47.000  
E04  29583963.602   155464678.131       -3579.843          41.000    29583973.530   119122354.814       -2742.961          47.000  
G11  25190674.514   132378122.017        -498.721          47.000    25190669.848   103152012.897        -388.772          44.000  
> 2024 04 09 02 02 30.0090000  0 23                     
S33  42525635.301   223473834.098        -749.506          44.000  
E26  28741996.423   151040294.721       -1529.449          43.000    28741994.040   115732227.046       -1171.903          46.000  
G24  24046065.023   126363028.261       -2896.758          47.000    24046063.334    98464779.009       -2257.109          47.000  
E09  28301293.630   148724239.110       -2240.520          46.000    28301294.999   113957642.904       -1716.723          51.000  
E05  28487238.271   149701501.285         166.701          33.000    28487236.880   114706331.425         127.117          37.000  
R08  25823586.516   138284169.225       -2900.279          36.000    25823580.879   107554260.844       -2255.824          42.000  
R16  26033932.187   139069067.981       -3260.078          49.000    26033931.385   108165019.006       -2535.501          46.000  
R09  22782002.469   121654932.576       -1080.269          51.000    22781997.720    94620592.696        -840.211          52.000  
R19  23644325.201   126481543.575       -3123.957          43.000    23644319.702    98374689.844       -2429.755          49.000  
G32  25959848.250   136419863.700       -1084.229          47.000    25959845.420   106301195.523        -844.879          42.000  
E12  30134226.311   158356452.403        2320.875          34.000    30134232.690   121338176.105        1778.062          40.000  
E31  26640156.270   139995308.914        -463.152          49.000    26640155.923   107269206.816        -354.870          52.000  
G12  24018999.424   126221038.106       -1120.612          49.000    24018993.722    98354240.894        -873.060          45.000  
R20  22844066.066   122157809.372        1895.315          41.000    22844064.481    95011699.365        1474.132          45.000  
R10  23510557.380   125324509.522        1328.308          45.000                                                                  
E24  29303773.998   153992358.719         832.639          45.000    29303772.874   117994178.899         637.964          49.000  
S31  41571971.283   218462257.502        -748.500          43.000  
G29  24652764.395   129551463.852        1634.208          47.000    24652761.273   100949325.246        1273.422          44.000  
G25  24098907.571   126640820.667         401.631          48.000    24098903.932    98681260.236         312.708          46.000  
G06  26499608.659   139256379.891       -2568.536          40.000    26499604.805   108511491.696       -2001.331          40.000  
E33  27637975.258   145238805.779         913.205          46.000    27637973.110   111287066.295         699.780          46.000  
E04  29604401.422   155572076.978       -3580.197          41.000    29604411.260   119204646.978       -2743.224          46.000  
G11  25193575.795   132393370.893        -517.966          47.000    25193571.145   103163895.152        -403.528          44.000  
> 2024 04 09 02 03 00.0090000  0 23                     
S33  42529912.141   223496308.205        -749.402          44.000  
E26  28750766.163   151086383.028       -1543.464          43.000    28750763.859   115767541.448       -1182.681          45.000  
G24  24062643.202   126450148.317       -2911.523          47.000    24062641.320    98532664.738       -2268.823          47.000  
E09  28314114.072   148791610.824       -2251.396          45.000    28314115.475   114009265.327       -1725.052          51.000  
E05  28486326.704                         153.060          30.000    28486324.519   114702662.590         117.085          37.000  
R08  25839880.136   138371415.880       -2917.194          33.000    25839873.738   107622119.207       -2268.492          38.000  
R16  26052260.726   139166973.378       -3267.362          47.000    26052258.659   108241167.595       -2541.112          44.000  
R09  22788101.158   121687499.509       -1091.270          51.000    22788097.033    94645922.536        -848.795          52.000  
R19  23661907.336   126575594.341       -3146.332          44.000    23661901.233    98447840.458       -2447.174          48.000  
G32  25966088.118   136452655.567       -1102.188          47.000    25966085.752   106326747.600        -858.796          43.000  
E12  30120972.560   158286821.760        2321.016          35.000    30120981.906   121284823.416        1778.330          40.000  
E31  26642805.011   140009227.369        -465.188          49.000    26642804.556   107279871.610        -356.384          52.000  
G12  24025408.039   126254716.015       -1124.967          48.000    24025401.716    98380483.404        -876.620          44.000  
R20  22833493.489   122101276.471        1873.130          41.000    22833492.409    94967729.397        1456.854          45.000  
R10  23503092.839   125284720.066        1323.761          45.000                                                                  
E24  29299019.942   153967378.799         832.459          45.000    29299019.537   117975038.474         637.838          49.000  
S31  41576242.209   218484701.824        -748.265          43.000  
G29  24643470.520   129502623.017        1621.538          47.000    24643467.234   100911267.525        1263.448          44.000  
G25  24096622.900   126628817.049         398.247          48.000    24096619.482    98671906.763         310.250          46.000  
G06  26514318.131   139333679.626       -2585.126          41.000    26514315.473   108571725.263       -2014.478          41.000  
E33  27632794.215   145211579.540         901.521          47.000    27632791.678   111266204.679         690.742          45.000  
E04  29624842.248   155679486.715       -3580.825          42.000    29624851.146   119286947.485       -2743.640          46.000  
G11  25196585.250   132409185.758        -536.895          48.000    25196580.130   103176218.458        -418.292          44.000  
> 2024 04 09 02 03 30.0090000  0 23                     
S33  42534187.781   223518777.894        -749.066          44.000  
E26  28759614.684   151132887.523       -1557.236          42.000    28759613.815   115803174.762       -1193.277          47.000  
G24  24079306.365   126537709.265       -2926.288          48.000    24079304.077    98600893.999       -2280.169          47.000  
E09  28326995.980   148859304.638       -2262.015          45.000    28326997.114   114061134.572       -1733.273          51.000  
E05  28485489.386                         140.650          31.000    28485487.326   114699289.084         107.477          38.000  
R08  25856263.757   138459144.781       -2932.692          37.000    25856257.342   107690352.686       -2280.935          37.000  
R16  26070629.497   139265096.913       -3274.691          47.000    26070626.650   108317485.825       -2546.998          44.000  
R09  22794260.079   121720394.638       -1102.260          51.000    22794256.913    94671507.628        -857.282          52.000  
R19  23679614.027   126670311.566       -3168.610          43.000    23679607.082    98521509.405       -2464.502          48.000  
G32  25972429.182   136485981.877       -1120.009          47.000    25972426.600   106352716.121        -872.610          42.000  
E12  30107719.785   158217182.271        2321.324          36.000    30107729.326   121231463.943        1778.691          40.000  
E31  26645463.668   140023200.749        -466.891          49.000    26645463.399   107290578.502        -357.726          52.000  
G12  24031841.420   126288523.062       -1129.294          48.000    24031835.102    98406826.555        -880.049          45.000  
R20  22823045.312   122045402.822        1851.081          41.000    22823043.784    94924272.208        1439.863          45.000  
R10  23495653.114   125245060.118        1319.653          46.000                                                                  
E24  29294266.415   153942401.176         832.396          44.000    29294266.347   117955899.818         637.834          49.000  
S31  41580512.322   218507140.542        -748.141          43.000  
G29  24634248.872   129454159.621        1609.000          49.000    24634244.913   100873503.913        1253.754          44.000  
G25  24094356.030   126616909.155         395.067          47.000    24094353.371    98662627.904         307.776          46.000  
G06  26529121.967   139411473.843       -2601.538          42.000    26529120.430   108632344.084       -2027.179          42.000  
E33  27627679.250   145184701.887         889.883          46.000    27627677.559   111245610.175         681.833          46.000  
E04  29645283.346   155786904.491       -3580.930          42.000    29645292.444   119369254.166       -2743.655          45.000  
G11  25199703.148   132425566.537        -555.736          48.000    25199697.652   103188982.711        -432.899          44.000  
> 2024 04 09 02 04 00.0090000  0 23                     
S33  42538462.738   223541243.721        -749.305          44.000  
E26  28768544.089   151179810.499       -1571.210          43.000    28768543.347   115839128.713       -1203.978          47.000  
G24  24096052.553   126625712.708       -2940.948          48.000    24096051.259    98669468.072       -2291.715          48.000  
E09  28339939.432   148927321.895       -2272.854          45.000    28339940.460   114113251.637       -1741.548          51.000  
E05  28484726.330   149688296.311         126.970          32.000    28484724.419   114696213.518          97.592          40.000  
R08  25872738.616   138547354.615       -2948.681          35.000    25872730.835   107758960.232       -2293.259          34.000  
R16  26089038.347   139363441.452       -3282.062          46.000    26089037.529   108393975.929       -2552.902          45.000  
R09  22800484.030   121753622.155       -1113.419          52.000    22800479.043    94697351.258        -865.987          51.000  
R19  23697444.579   126765695.214       -3190.812          43.000    23697438.524    98595696.687       -2481.612          48.000  
G32  25978872.970   136519844.451       -1138.019          47.000    25978870.191   106379102.486        -886.646          41.000  
E12  30094466.907   158147538.703        2321.260          37.000    30094475.934   121178101.304        1778.501          40.000  
E31  26648134.283   140037232.024        -468.905          49.000    26648133.464   107301329.736        -359.310          52.000  
G12  24038299.749   126322462.320       -1133.712          48.000    24038293.687    98433272.721        -883.350          44.000  
R20  22812721.628   121990194.406        1828.754          42.000    22812719.286    94881332.408        1422.508          44.000  
R10  23488239.536   125205534.677        1314.948          47.000                                                                  
E24  29289513.828   153917428.499         832.203          43.000    29289514.434   117936764.938         637.516          49.000  
S31  41584781.872   218529577.955        -747.845          44.000  
G29  24625099.445   129406078.214        1596.117          49.000    24625095.044   100836037.955        1243.714          43.000  
G25  24092108.591   126605100.245         391.478          47.000    24092106.601    98653426.164         305.132          46.000  
G06  26544020.418   139489763.707       -2618.109          43.000    26544017.344   108693349.164       -2040.302          40.000  
E33  27622631.380   145158177.259         878.029          46.000    27622630.203   111225286.180         672.814          46.000  
E04  29665725.871   155894331.302       -3581.560          41.000    29665735.736   119451567.754       -2744.216          45.000  
G11  25202928.218   132442516.897        -574.851          47.000    25202923.852   103202190.825        -447.863          44.000  
> 2024 04 09 02 04 30.0090000  0 23                     
S33  42542737.251   223563706.829        -748.942          44.000  
E26  28777552.446   151227149.799       -1585.082          44.000    28777551.654   115875401.678       -1214.543          47.000  
G24  24112882.481   126714155.769       -2955.536          47.000    24112881.248    98738384.712       -2303.101          48.000  
E09  28352943.082   148995659.379       -2283.336          44.000    28352944.708   114165614.080       -1749.609          51.000  
E05  28484031.805   149684670.288         114.327          33.000    28484034.968   114693435.133          87.348          41.000  
R08  25889299.584                       -2963.867          30.000    25889292.996   107827938.241       -2305.439          32.000  
R16  26107491.456   139462005.474       -3289.233          48.000    26107488.790   108470636.756       -2558.312          44.000  
R09  22806768.667   121787181.790       -1124.396          52.000    22806763.680    94723453.186        -874.537          52.000  
R19  23715399.029   126861739.857       -3212.601          43.000    23715393.432    98670398.084       -2498.661          47.000  
G32  25985417.991   136554240.477       -1155.548          47.000    25985415.508   106405904.552        -900.403          41.000  
E12  30081212.757   158077891.433        2321.730          37.000    30081222.148   121124735.842        1778.630          41.000  
E31  26650815.687   140051319.755        -470.802          49.000    26650814.377   107312124.222        -360.676          52.000  
G12  24044783.376   126356532.418       -1138.033          49.000    24044777.029    98459820.886        -886.704          44.000  
R20  22802522.488   121935653.055        1806.645          42.000    22802519.445    94838911.420        1405.093          45.000  
R10  23480848.981   125166144.118        1310.498          46.000                                                                  
E24  29284762.338   153892458.903         832.211          42.000    29284762.356   117917632.414         637.608          49.000  
S31  41589050.458   218552010.322        -747.744          43.000  
G29  24616022.134   129358377.343        1583.429          49.000    24616017.530   100798868.488        1233.945          43.000  
G25  24089880.311   126593388.993         388.719          47.000    24089878.445    98644300.519         302.739          47.000  
G06  26559012.091   139568545.856       -2634.583          43.000    26559009.003   108754737.828       -2052.716          41.000  
E33  27617651.529   145132005.615         866.165          47.000    27617650.023   111205232.631         663.838          47.000  
E04  29686169.732   156001763.507       -3581.439          41.000    29686179.962   119533885.476       -2744.052          45.000  
G11  25206261.859   132460035.990        -593.673          48.000    25206257.762   103215842.106        -462.704          45.000  
> 2024 04 09 02 05 00.0090000  0 23                     
S33  42547011.179   223586167.010        -748.410          44.000  
E26  28786640.708   151274905.973       -1598.675          44.000    28786639.867   115911994.063       -1225.235          48.000  
G24  24129796.228   126803038.324       -2970.194          48.000    24129795.426    98807643.814       -2314.309          48.000  
E09  28366008.554   149064316.706       -2293.861          46.000    28366009.830   114218221.589       -1757.699          50.000  
E05  28483410.893   149681433.829         101.765          32.000    28483419.076   114690955.211          77.760          41.000  
R08  25905948.944                       -2980.287          29.000    25905945.970                1      -2317.785          27.000  
R16  26125984.693   139560790.444       -3296.529          50.000    26125981.068   108547469.431       -2563.960          44.000  
R09  22813114.907   121821076.215       -1135.479          51.000    22813111.105    94749815.513        -883.195          51.000  
R19  23733476.354   126958443.130       -3234.251          42.000    23733470.975    98745611.774       -2515.663          47.000  
G32  25992065.248   136589169.956       -1173.053          47.000    25992062.614   106433122.284        -914.113          42.000  
E12  30067959.413   158008243.625        2321.379          38.000    30067968.653   121071369.914        1778.853          42.000  
E31  26653507.634   140065465.210        -472.482          49.000    26653506.313   107322962.947        -362.007          52.000  
G12  24051291.935   126390734.691       -1142.286          50.000    24051285.422    98486472.009        -890.211          44.000  
R20  22792448.387   121881783.422        1784.386          41.000    22792445.945    94797012.884        1387.968          44.000  
R10  23473484.933   125126890.826        1306.079          46.000                                                                  
E24  29280012.471   153867493.375         832.183          42.000    29280011.909   117898503.009         637.573          49.000  
S31  41593318.532   218574440.335        -747.885          43.000  
G29  24607017.505   129311059.684        1570.761          49.000    24607013.169   100761997.632        1224.020          43.000  
G25  24087671.136   126581777.014         385.381          47.000    24087668.881    98635252.246         300.258          47.000  
G06  26574097.007   139647819.723       -2650.635          42.000    26574095.337   108816509.691       -2065.326          41.000  
E33  27612739.438   145106189.732         854.608          47.000    27612738.240   111185451.688         654.803          48.000  
E04  29706614.074   156109200.340       -3581.376          41.000    29706624.288   119616206.756       -2744.219          44.000  
G11  25209704.920   132478125.758        -612.587          48.000    25209700.121   103229938.021        -477.261          45.000  
> 2024 04 09 02 05 30.0090000  0 24                     
S33  42551284.414   223608622.019        -748.453          44.000  
E26  28795806.244   151323076.215       -1612.941          43.000    28795805.774   115948903.704       -1235.653          47.000  
G24  24146793.607   126892356.838       -2984.730          48.000    24146792.277    98877242.618       -2325.697          47.000  
E09  28379134.363   149133290.079       -2304.544          47.000    28379134.753   114271071.274       -1765.750          50.000  
E05  28482874.507   149678585.241          88.367          33.000    28482876.612   114688772.515          67.512          41.000  
R08  25922686.324                       -2995.467          28.000    25922682.209                       -2329.871          29.000  
R16  26144518.802   139659794.001       -3303.961          49.000    26144515.645   108624472.116       -2569.751          46.000  
R09  22819525.322   121855304.526       -1146.799          52.000    22819521.415    94776437.507        -891.908          52.000  
R19  23751676.244   127055799.668       -3256.273          42.000    23751670.041    98821333.525       -2532.678          47.000  
G32  25998813.023   136624629.525       -1190.999          47.000    25998811.173   106460753.066        -928.191          42.000  
E12  30054706.137   157938595.036        2321.540          39.000    30054714.734   121018003.412        1778.819          43.000  
E31  26656209.061   140079666.318        -474.494          49.000    26656208.685   107333844.329        -363.496          52.000  
G12  24057825.156   126425067.029       -1146.738          51.000    24057818.621    98513224.488        -893.514          44.000  
R20  22782499.046   121828586.720        1761.807          41.000    22782497.851    94755637.741        1370.078          45.000  
R10  23466147.160   125087775.849        1301.385          46.000                                                                  
E24  29275261.753   153842529.458         831.977          42.000    29275261.494   117879374.840         637.499          49.000  
S31  41597585.804   218596865.652        -747.587          43.000  
G29  24598085.629   129264123.658        1557.839          48.000    24598081.397   100725424.173        1214.060          43.000  
G25  24085479.718   126570262.443         381.914          47.000    24085477.278    98626279.861         297.416          46.000  
G06  26589274.887   139727581.370       -2666.840          42.000    26589273.624   108878661.659       -2078.345          41.000  
E33  27607894.347   145080728.879         842.566          47.000    27607893.396   111165942.763         645.601          48.000  
E04  29727059.443   156216637.655       -3581.487          41.000    29727069.417   119698528.419       -2744.100          44.000  
G11  25213255.303   132496784.667        -631.627          48.000    25213250.455   103244477.452        -492.301          45.000  
G28                                                                  27303327.704                3       2078.578          25.000  
> 2024 04 09 02 06 00.0090000  0 24                     
S33  42555557.030   223631075.633        -748.490          44.000  
E26  28805053.369   151371664.224       -1626.642          44.000    28805050.728   115986133.505       -1246.466          45.000  
G24  24163873.848   126982114.301       -2999.023          48.000    24163871.782    98947183.456       -2337.118          47.000  
E09  28392319.740   149202582.232       -2315.066          47.000    28392320.493   114324165.225       -1773.854          50.000  
E05  28482410.123   149676129.420          75.197          32.000    28482408.387   114686890.760          57.956          39.000  
R08  25939512.764                1      -3010.927          26.000    25939505.738                       -2341.854          29.000  
R16  26163094.846   139759020.311       -3311.310          50.000    26163091.493   108701648.013       -2575.470          47.000  
R09  22825998.328   121889872.598       -1157.947          51.000    22825994.284    94803323.779        -900.548          51.000  
R19  23769998.014   127153810.293       -3277.879          43.000    23769991.559    98897564.000       -2549.429          46.000  
G32  26005662.360   136660622.207       -1208.638          48.000    26005660.622   106488799.293        -941.491          42.000  
E12  30041453.502   157868951.988        2321.300          40.000    30041461.766   120964641.148        1778.608          44.000  
E31  26658921.795   140093927.558        -476.365          48.000    26658922.469   107344771.791        -365.003          52.000  
G12  24064383.946   126459533.874       -1151.136          50.000    24064377.168    98540081.776        -897.000          44.000  
R20  22772678.387   121776069.700        1739.289          41.000    22772676.894    94714791.201        1352.658          45.000  
R10  23458835.462   125048804.540        1296.613          45.000                                                                  
E24  29270513.300   153817571.282         831.629          43.000    29270512.217   117860251.069         637.369          49.000  
S31  41601853.193   218619289.799        -747.452          43.000  
G29  24589227.792   129217574.512        1545.134          48.000    24589223.966   100689152.177        1204.083          45.000  
G25  24083307.734   126558849.935         378.779          46.000    24083305.300    98617387.001         295.093          46.000  
G06  26604547.011   139807833.429       -2683.490          42.000    26604545.092   108941195.722       -2090.869          41.000  
E33  27603117.770   145055628.964         830.509          47.000    27603117.062   111146710.406         636.562          49.000  
E04  29747504.622   156324077.839       -3581.196          41.000    29747515.133   119780852.280       -2744.077          45.000  
G11  25216915.740   132516017.777        -650.550          48.000    25216910.798   103259464.293        -506.989          45.000  
G28                                                                  27288106.510                        2077.073          27.000  
> 2024 04 09 02 06 30.0090000  0 24                     
S33  42559828.499   223653523.448        -748.356          44.000  
E26  28814376.574   151420663.526       -1640.299          43.000    28814375.555   116023678.442       -1256.914          46.000  
G24  24181037.085   127072303.623       -3013.649          49.000    24181033.572    99017460.812       -2348.344          46.000  
E09  28405565.302   149272185.784       -2325.396          47.000    28405565.696   114377497.775       -1781.931          50.000  
R08  25956426.570                3      -3025.189          25.000    25956397.704                1      -2353.442          27.000  
R16  26181710.162   139858464.086       -3318.568          49.000    26181707.571   108778993.053       -2581.098          45.000  
R09  22832534.864   121924776.093       -1169.240          51.000    22832530.984    94830470.941        -909.439          51.000  
R19  23788440.988   127252465.283       -3299.500          42.000    23788433.962    98974295.672       -2566.317          45.000  
G28  27272910.635                3       2662.396          26.000    27272912.121                        2074.319          28.000  
G32  26012611.766   136697141.039       -1226.217          47.000    26012609.213   106517255.515        -955.615          41.000  
E12  30028200.853   157799310.677        2321.220          41.000    30028208.558   120911280.185        1778.555          44.000  
E31  26661646.112   140108243.305        -478.284          48.000    26661646.688   107355741.000        -366.513          52.000  
G12  24070967.207   126494129.777       -1155.559          50.000    24070960.616    98567039.615        -900.527          44.000  
R20  22762983.207   121724230.263        1716.671          40.000    22762982.279    94674471.679        1335.004          44.000  
R10  23451550.858   125009973.413        1291.748          45.000                                                                  
E24  29265762.571   153792612.816         831.814          43.000    29265762.790   117841127.101         637.317          50.000  
S31  41606119.271   218641707.597        -747.388          44.000  
G29  24580442.147   129171407.891        1532.419          47.000    24580439.144   100653178.270        1193.969          45.000  
G25  24081154.304   126547534.138         375.514          47.000    24081152.178    98608569.503         292.670          46.000  
G06  26619910.128   139888568.232       -2699.396          41.000    26619908.193   109004105.963       -2103.558          40.000  
E33  27598409.219   145030885.708         818.606          47.000    27598409.013   111127751.330         627.285          50.000  
E04  29767949.150   156431513.173       -3581.217          42.000    29767959.643   119863172.413       -2744.069          45.000  
G11  25220683.894   132535819.967        -669.757          48.000    25220678.324   103274894.548        -521.766          45.000  
E05                                                                  28482014.056   114685305.915          47.672          38.000  
> 2024 04 09 02 07 00.0090000  0 24                     
S33  42564099.641   223675967.292        -748.112          44.000  
E26  28823778.901   151470075.092       -1654.120          43.000    28823777.230   116061539.237       -1267.432          44.000  
G24  24198281.095   127162924.956       -3028.088          48.000    24198278.431    99088074.803       -2359.520          46.000  
E09  28418869.657   149342100.670       -2335.868          47.000    28418870.056   114431068.867       -1789.777          50.000  
R08  25973423.665                3      -3043.844          22.000    25973434.041                3      -2365.528          23.000  
R16  26200367.431   139958126.957       -3325.879          50.000    26200366.175   108856508.519       -2586.675          46.000  
R09  22839134.970   121960018.183       -1180.580          51.000    22839130.434    94857881.441        -918.140          51.000  
R19  23807004.137   127351762.062       -3320.857          43.000    23806996.477    99051526.508       -2582.907          44.000  
G28  27257714.525                1       2659.371          27.000    27257727.991                        2073.028          26.000  
G32  26019662.000   136734186.296       -1243.776          47.000    26019658.816   106546121.933        -969.249          43.000  
E12  30014948.823   157729674.701        2320.829          40.000    30014956.311   120857923.299        1778.213          43.000  
E31  26664381.177   140122615.250        -480.233          48.000    26664381.607   107366753.270        -367.985          52.000  
G12  24077574.942   126528856.582       -1159.894          49.000    24077568.855    98594099.472        -903.784          45.000  
R20  22753417.233   121673073.068        1693.527          41.000    22753415.767    94634682.814        1317.136          45.000  
R10  23444293.929   124971286.260        1286.877          45.000                                                                  
E24  29261013.404   153767655.518         831.727          43.000    29261013.239   117822004.016         637.252          49.000  
S31  41610384.368   218664120.689        -747.200          44.000  
G29  24571729.760   129125625.985        1519.391          47.000    24571727.151   100617504.134        1184.002          45.000  
G25  24079019.627   126536317.025         371.979          47.000    24079017.788    98599828.902         289.869          46.000  
G06  26635364.951   139969785.562       -2715.546          40.000    26635363.627   109067392.224       -2115.906          40.000  
E33  27593769.432   145006502.204         806.682          48.000    27593769.152   111109067.925         618.069          50.000  
E04  29788393.674   156538943.240       -3581.086          43.000    29788403.057   119945488.541       -2743.835          45.000  
G11  25224560.865   132556193.360        -688.809          47.000    25224555.550   103290769.951        -536.783          45.000  
E05                                                                  28481694.764   114684019.482          37.774          38.000  
> 2024 04 09 02 07 30.0090000  0 24                     
S33  42568368.848   223698402.411        -747.623          44.000  
E26  28833260.837   151519895.451       -1667.656          44.000    28833257.667   116099713.326       -1277.681          43.000  
G24  24215607.278   127253974.181       -3042.147          48.000    24215604.926    99159022.189       -2370.540          46.000  
E09  28432231.660   149412322.505       -2345.826          46.000    28432233.060   114484875.161       -1797.441          50.000  
R08  25990558.740                3      -3057.861          21.000    25990524.140                3      -2375.595          17.000  
R16  26219065.906   140058005.841       -3333.139          49.000    26219064.058   108934192.039       -2592.168          46.000  
R09  22845797.870   121995597.468       -1191.634          51.000    22845793.271    94885554.219        -926.814          51.000  
R19  23825685.665   127451695.172       -3341.864          42.000    23825677.549    99129252.260       -2599.178          46.000  
G28  27242530.204   143160524.6181       2657.135          28.000    27242550.456                        2070.279          29.000  
G32  26026810.681   136771753.882       -1260.813          47.000    26026808.456   106575395.345        -982.696          43.000  
E12  30001698.286   157660043.253        2321.061          40.000    30001705.040   120804569.876        1778.375          43.000  
E31  26667125.756   140137040.795        -481.819          47.000    26667126.760   107377806.611        -369.120          52.000  
G12  24084207.811   126563711.453       -1164.049          49.000    24084201.578    98621259.123        -907.083          44.000  
R20  22743978.531   121622598.188        1671.184          42.000    22743976.146    94595424.634        1299.816          45.000  
R10  23437062.655   124932742.557        1282.330          46.000                                                                  
E24  29256263.918   153742696.283         831.868          43.000    29256263.649   117802879.431         637.436          49.000  
S31  41614647.947   218686525.842        -746.685          44.000  
G29  24563090.947   129080226.903        1506.831          48.000    24563088.310   100582128.285        1174.202          46.000  
G25  24076904.192   126525196.208         368.966          47.000    24076901.412    98591163.332         287.494          46.000  
G06  26650909.495   140051480.864       -2731.012          40.000    26650908.906   109131050.906       -2128.168          40.000  
E33  27589197.516   144982477.199         794.743          47.000    27589196.594   111090659.195         609.070          49.000  
E04  29808835.003   156646363.365       -3580.408          43.000    29808844.939   120027797.050       -2743.476          45.000  
G11  25228545.042   132577135.839        -707.673          47.000    25228540.511   103307088.810        -551.535          45.000  
E05                                                                  28481449.975   114683029.765          27.892          38.000  
> 2024 04 09 02 08 00.0090000  0 24                     
S33  42572636.736   223720829.501        -747.700          44.000  
E26  28842817.520   151570123.379       -1681.062          42.000    28842817.044   116138199.666       -1288.174          45.000  
G24  24233014.367   127345449.367       -3056.351          48.000    24233012.452    99230301.539       -2381.482          46.000  
E09  28445652.450   149482849.115       -2356.073          46.000    28445653.845   114538914.993       -1805.409          50.000  
E05  28481285.835                1         24.097          29.000    28481279.052   114682336.691          17.933          39.000  
R08  26007716.425                3      -3060.112          15.000    26007680.417                3      -2386.008          22.000  
R16  26237802.893   140158100.235       -3340.253          48.000    26237801.483   109012043.139       -2598.018          44.000  
R09  22852524.261   122031514.629       -1203.064          51.000    22852519.110    94913489.764        -935.712          51.000  
R19  23844484.895   127552259.975       -3362.897          41.000    23844476.642    99207469.337       -2615.531          45.000  
G28  27227350.230                        2654.824          27.000    27227387.941                        2068.602          29.000  
G32  26034058.514   136809842.023       -1278.457          46.000    26034056.951   106605074.364        -996.111          44.000  
E12  29988449.013   157590417.881        2320.606          40.000    29988454.972   120751221.081        1778.021          43.000  
E31  26669881.122   140151519.599        -483.768          47.000    26669882.001   107388900.751        -370.603          52.000  
G12  24090864.931   126598694.179       -1168.412          49.000    24090859.066    98648518.377        -910.546          45.000  
R20  22734668.186   121572808.158        1648.089          43.000    22734666.033    94556699.126        1281.777          46.000  
R10  23429859.469   124894343.115        1277.307          47.000                                                                  
E24  29251513.528   153717734.467         831.893          43.000    29251513.285   117783752.888         637.435          49.000  
S31  41618909.900   218708923.881        -746.724          44.000  
G29  24554524.933   129035210.917        1493.957          48.000    24554521.657   100547050.972        1163.941          45.000  
G25  24074806.023   126514171.545         365.812          47.000    24074803.219    98582572.709         284.938          46.000  
G06  26666547.150   140133651.767       -2747.144          42.000    26666544.707   109195080.181       -2140.826          39.000  
E33  27584693.628   144958811.598         782.602          47.000    27584692.473   111072525.860         599.722          48.000  
E04  29829274.265   156753771.082       -3580.463          42.000    29829284.414   120110096.027       -2743.320          46.000  
G11  25232638.403   132598647.503        -726.744          46.000    25232634.005   103323851.147        -566.177          45.000  
> 2024 04 09 02 08 30.0090000  0 24                     
S33  42576904.224   223743257.298        -747.710          44.000  
E26  28852456.882   151620765.817       -1695.255          44.000    28852452.307   116177003.581       -1298.709          42.000  
G24  24250503.679   127437356.663       -3071.063          48.000    24250502.466    99301917.587       -2393.061          47.000  
E09  28459131.935   149553686.436       -2366.673          46.000    28459133.967   114593192.890       -1813.380          50.000  
E05  28481188.461   149669709.6141          9.964          32.000    28481181.487   114681946.467           7.698          38.000  
R16  26256582.943   140258417.888       -3348.003          49.000    26256580.116   109090067.884       -2603.835          43.000  
R09  22859315.401   122067778.974       -1214.845          51.000    22859310.396    94941695.358        -944.916          51.000  
R19  23863403.016   127653460.566       -3384.104          39.000    23863395.508    99286180.859       -2631.857          45.000  
G28  27212205.666   143001256.165        2651.254          28.000    27212239.116                        2066.075          30.000  
G32  26041406.401   136848456.858       -1296.006          46.000    26041405.083   106635163.834       -1009.916          43.000  
E12  29975201.858   157520808.105        2319.775          41.000    29975208.417   120697884.242        1777.478          43.000  
E31  26672648.568   140166059.355        -485.910          47.000    26672648.762   107400041.600        -372.215          52.000  
G12  24097547.586   126633812.652       -1173.137          49.000    24097541.769    98675883.413        -913.922          45.000  
R20  22725486.854   121523713.509        1624.571          42.000    22725485.183    94518514.445        1263.568          45.000  
R10  23422685.372   124856098.447        1271.948          47.000                                                                  
E24  29246764.447   153692777.375         831.712          43.000    29246763.705   117764629.971         637.148          49.000  
S31  41623171.769   218731320.597        -746.798          44.000  
G29  24546032.215   128990586.523        1480.762          46.000    24546029.720   100512278.780        1153.780          45.000  
G25  24072727.418   126503251.015         362.102          47.000    24072724.569    98574063.200         282.141          45.000  
G06  26682275.940   140216303.948       -2763.275          44.000    26682273.066   109259484.523       -2153.054          38.000  
E33  27580260.114   144935514.494         770.291          47.000    27580258.285   111054674.875         590.291          47.000  
E04  29849712.375   156861171.966       -3579.994          43.000    29849722.631   120192389.794       -2743.160          47.000  
G11  25236841.597   132620736.417        -746.245          46.000    25236837.725   103341063.301        -581.427          45.000  
R08                                                                  26024924.779                3      -2394.225          23.000  
> 2024 04 09 02 09 00.0090000  0 24                     
S33  42581171.579   223765682.206        -747.285          44.000  
E26  28862170.655   151671821.608       -1708.530          42.000    28862168.182   116216124.341       -1309.311          42.000  
G24  24268075.253   127529694.320       -3085.017          48.000    24268073.873    99373868.957       -2403.787          47.000  
E09  28472671.758   149624832.475       -2376.615          47.000    28472672.755   114647707.336       -1821.075          50.000  
E05  28481163.597   149669595.638          -3.506          33.000    28481159.288   114681859.123          -1.858          38.000  
R08  26042223.005                3      -3107.357          21.000    26042226.597                3      -2406.786          17.000  
R16  26275403.599   140358958.608       -3355.038          47.000    26275401.337   109168266.112       -2609.475          43.000  
R09  22866170.669   122104391.289       -1226.120          50.000    22866166.424    94970171.586        -953.610          50.000  
R19  23882439.537   127755292.626       -3404.746          41.000    23882432.482    99365383.595       -2648.228          46.000  
G28  27197080.413                        2649.157          26.000    27197106.491                        2063.772          30.000  
G32  26048854.375   136887596.783       -1313.290          45.000    26048852.044   106665662.447       -1023.254          41.000  
E12  29961958.886   157451215.632        2319.519          41.000    29961964.946   120644560.656        1777.361          43.000  
E31  26675426.903   140180659.886        -487.593          48.000    26675427.072   107411229.027        -373.582          52.000  
G12  24104256.292   126669066.502       -1177.428          49.000    24104250.048    98703353.955        -917.456          45.000  
R20  22716435.977   121475317.352        1601.581          42.000    22716433.992    94480873.029        1245.765          45.000  
R10  23415540.111   124818009.787        1267.096          47.000                                                                  
E24  29242016.279   153667824.504         831.870          43.000    29242015.144   117745510.280         637.385          48.000  
S31  41627433.854   218753716.793        -746.359          44.000  
G29  24537615.074   128946354.315        1468.047          46.000    24537611.979   100477812.189        1143.814          45.000  
G25  24070669.228   126492434.724         359.016          47.000    24070666.261    98565634.922         279.745          45.000  
G06  26698095.551   140299435.256       -2778.931          43.000    26698092.310   109324262.194       -2165.618          37.000  
E33  27575898.448   144912587.020         758.173          48.000    27575894.727   111037107.115         580.982          46.000  
E04  29870148.941   156968563.782       -3579.412          44.000    29870158.789   120274676.615       -2742.683          47.000  
G11  25241155.867   132643402.801        -765.098          46.000    25241151.290   103358725.432        -596.238          45.000  
> 2024 04 09 02 09 30.0090000  0 24                     
S33  42585437.480   223788101.148        -747.623          44.000  
E26  28871963.771   151723283.758       -1722.457          42.000    28871962.243   116255556.346       -1319.807          44.000  
G24  24285726.979   127622454.462       -3099.375          49.000    24285725.225    99446149.552       -2414.973          47.000  
E09  28486267.756   149696279.210       -2386.817          47.000    28486268.616   114702452.188       -1828.839          50.000  
E05  28481207.589   149669870.998         -15.864          34.000    28481211.829   114682070.137         -12.077          38.000  
R08  26059628.490                3      -3115.473          22.000    26059652.917                3      -2431.213          21.000  
R16  26294266.101   140459715.571       -3362.454          48.000    26294261.655   109246632.561       -2615.107          41.000  
R09  22873091.528   122141346.586       -1237.877          51.000    22873086.784    94998914.614        -962.816          50.000  
R19  23901592.096   127857746.239       -3425.713          40.000    23901585.254    99445069.758       -2664.456          46.000  
G28  27181973.655                1       2645.438          28.000    27181987.700                        2060.875          30.000  
G32  26056401.159   136927253.975       -1330.792          46.000    26056399.059   106696564.111       -1036.880          42.000  
E12  29948717.934   157381636.030        2318.719          41.000    29948724.049   120591246.921        1776.721          43.000  
E31  26678215.427   140195315.009        -489.694          48.000    26678216.023   107422458.293        -375.178          52.000  
G12  24110989.051   126704449.524       -1181.860          48.000    24110983.172    98730925.156        -920.811          44.000  
R20  22707515.709   121427615.776        1578.015          42.000    22707513.593    94443771.855        1227.434          45.000  
R10  23408423.490   124780072.539        1261.670          47.000                                                                  
E24  29237267.664   153642869.313         831.625          43.000    29237266.477   117726388.803         637.183          48.000  
S31  41631694.380   218776105.664        -746.281          44.000  
G29  24529272.350   128902508.606        1454.826          46.000    24529268.098   100443646.768        1133.556          44.000  
G25  24068629.793   126481716.712         355.333          47.000    24068626.832    98557283.243         276.924          46.000  
G06  26714004.380   140383037.373       -2794.710          42.000    26714001.454   109389406.704       -2178.292          39.000  
E33  27571604.151   144890024.234         745.661          48.000    27571600.694   111019818.782         571.595          46.000  
E04  29890582.367   157075938.280       -3579.199          44.000    29890592.126   120356950.153       -2742.453          48.000  
G11  25245577.420   132666640.750        -784.467          46.000    25245572.850   103376832.956        -611.253          45.000  
> 2024 04 09 02 10 00.0090000  0 25                     
S33  42589703.452   223810517.452        -747.158          44.000  
E26  28881834.924   151775156.240       -1736.003          43.000    28881832.028   116295302.802       -1330.234          42.000  
G24  24303459.637   127715640.491       -3113.351          49.000    24303457.725    99518762.004       -2425.862          46.000  
E09  28499921.142   149768029.781       -2396.840          47.000    28499922.294   114757429.862       -1836.553          49.000  
E05  28481339.898   149670541.005         -29.281          36.000    28481340.508   114682583.519         -22.295          38.000  
R08  26077115.617                3      -3122.364          22.000    26077133.233                3      -2434.263          18.000  
R16  26313170.302   140560694.039       -3369.615          50.000    26313165.405   109325171.281       -2620.750          42.000  
R09  22880077.512   122178651.210       -1249.369          51.000    22880072.629    95027929.320        -971.840          50.000  
R19  23920860.578   127960822.575       -3446.345          39.000    23920853.657    99525240.197       -2680.404          46.000  
G28  27166891.988   142762897.0531       2642.015          29.000    27166893.351   111243861.0841       2058.214          32.000  
G32  26064046.798   136967431.881       -1347.972          46.000    26064044.811   106727871.552       -1050.353          42.000  
E12  29935480.632   157312076.161        2318.365          42.000    29935486.649   120537948.309        1776.344          44.000  
E31  26681015.281   140210029.753        -491.591          48.000    26681015.969   107433733.238        -376.701          52.000  
G12  24117747.908   126739966.920       -1186.173          48.000    24117742.354    98758601.029        -924.185          45.000  
R20  22698726.942   121380617.020        1554.693          42.000    22698724.410    94407217.302        1209.189          45.000  
R10  23401335.631   124742294.325        1256.519          46.000                                                                  
R21  26413235.279   141342680.2663       3778.149          36.000    26413226.578                1       2939.026          29.000  
E24  29232518.947   153617916.403         831.581          42.000    29232517.822   117707269.077         637.235          48.000  
S31  41635954.255   218798491.992        -746.365          44.000  
G29  24521003.703   128859055.316        1441.878          47.000    24520999.634   100409787.116        1123.524          44.000  
G25  24066609.583   126471102.247         352.129          47.000    24066607.118    98549012.249         274.396          45.000  
G06  26730004.109   140467113.266       -2810.287          42.000    26730001.394   109454920.375       -2189.990          39.000  
E33  27567380.834   144867832.406         733.367          48.000    27567377.880   111002814.707         562.006          46.000  
E04  29911012.374   157183298.282       -3578.536          44.000    29911022.689   120439212.595       -2741.908          48.000  
G11  25250109.806   132690455.614        -803.516          46.000    25250104.496   103395390.007        -626.097          46.000  
> 2024 04 09 02 10 30.0090000  0 25                     
S33  42593968.872   223832931.969        -747.294          44.000  
E26  28891782.575   151827439.099       -1749.550          42.000    28891780.397   116335363.717       -1340.567          42.000  
G24  24321273.172   127809251.625       -3127.511          49.000    24321271.604    99591705.700       -2436.944          46.000  
E09  28513631.637   149840083.201       -2406.696          46.000    28513633.384   114812639.600       -1844.273          48.000  
E05  28481541.728   149671606.623         -41.751          35.000    28481543.050   114683400.062         -32.351          38.000  
R08  26094687.813                3      -3144.060          17.000    26094694.897                3      -2447.857          22.000  
R16  26332114.177   140661894.753       -3377.114          49.000    26332111.453   109403882.842       -2626.791          43.000  
R09  22887129.284   122216307.295       -1261.162          51.000    22887124.939    95057217.373        -980.845          50.000  
R19  23940246.059   128064518.403       -3467.180          40.000    23940239.275    99605892.498       -2696.342          47.000  
G28  27151814.322                        2639.583          30.000    27151816.843                        2056.022          31.000  
G32  26071790.961   137008129.785       -1365.193          45.000    26071789.534   106759584.178       -1063.672          42.000  
E12  29922247.622   157242538.718        2317.538          41.000    29922253.906   120484666.898        1775.652          44.000  
E31  26683827.096   140224804.955        -493.550          48.000    26683827.559   107445054.515        -378.186          52.000  
G12  24124532.388   126775619.419       -1190.728          48.000    24124527.282    98786382.223        -927.997          46.000  
R20  22690069.456   121334324.684        1531.290          41.000    22690067.875    94371212.205        1190.973          45.000  
R10  23394279.188   124704677.921        1251.086          46.000                                                                  
R21  26392053.420   141229375.8061       3775.354          39.000    26392058.470   109844826.8181       2936.383          32.000  
E24  29227770.328   153592966.308         831.829          41.000    29227770.096   117688151.507         637.171          48.000  
S31  41640213.837   218820876.917        -746.340          44.000  
G29  24512809.752   128815995.614        1428.729          48.000    24512805.732   100376234.166        1113.073          45.000  
G25  24064609.909   126460592.451         348.590          47.000    24064606.756    98540822.809         271.643          45.000  
G06  26746093.204   140551661.680       -2826.228          41.000    26746091.383   109520802.238       -2202.355          39.000  
E33  27563229.581   144846013.686         721.147          49.000    27563226.684   110986096.514         552.533          47.000  
E04  29931439.224   157290642.565       -3577.694          44.000    29931450.117   120521462.998       -2741.367          49.000  
G11  25254751.608   132714848.494        -822.840          44.000    25254746.185   103414397.452        -640.981          46.000  
> 2024 04 09 02 11 00.0100000  0 25                     
S33  42598234.572   223855349.026        -747.339          44.000  
E26  28901812.256   151880135.661       -1763.460          44.000    28901809.711   116375741.582       -1351.120          44.000  
G24  24339167.932   127903291.878       -3141.678          48.000    24339166.196    99664983.788       -2448.008          46.000  
E09  28527401.089   149912442.612       -2416.970          46.000    28527402.856   114868083.790       -1851.995          48.000  
E05  28481818.967   149673070.857         -55.611          33.000    28481821.083   114684521.976         -42.900          37.000  
R08  26112351.154                3      -3170.817          14.000    26112330.770                3      -2451.927          17.000  
R16  26351101.828   140763322.994       -3384.626          49.000    26351100.818   109482771.306       -2632.422          46.000  
R09  22894248.639   122254319.745       -1272.963          51.000    22894243.279    95086782.637        -990.001          50.000  
R19  23959747.361   128168836.041       -3487.921          39.000    23959740.821    99687028.428       -2712.469          47.000  
G28  27136761.521                1       2635.276          30.000    27136760.659                        2052.958          30.000  
G32  26079634.146   137049349.955       -1382.634          45.000    26079633.498   106791703.799       -1077.512          42.000  
E12  29909019.198   157173025.771        2316.513          41.000    29909025.583   120431404.253        1774.936          44.000  
E31  26686651.832   140239643.720        -495.686          48.000    26686651.199   107456424.480        -379.758          52.000  
G12  24131342.900   126811411.099       -1195.311          48.000    24131338.446    98814271.861        -931.390          45.000  
R20  22681545.335   121288742.663        1507.392          41.000    22681542.958    94335759.560        1172.671          44.000  
R10  23387253.332   124667226.690        1245.476          46.000                                                                  
R21  26370894.462   141116160.224        3771.994          42.000    26370902.796   109756770.887        2934.057          36.000  
E24  29223022.457   153568020.386         831.360          41.000    29223023.363   117669037.130         637.057          49.000  
S31  41644473.693   218843262.885        -746.063          44.000  
G29  24504690.502   128773331.498        1415.437          48.000    24504687.137   100342989.446        1102.990          45.000  
G25  24062630.067   126450189.815         344.888          47.000    24062627.274    98532716.856         268.651          45.000  
G06  26762272.441   140636685.856       -2842.090          40.000    26762271.035   109587054.829       -2214.581          40.000  
E33  27559149.366   144824571.153         708.420          48.000    27559146.664   110969666.551         542.930          48.000  
E04  29951864.364   157397975.236       -3577.645          44.000    29951875.103   120603704.494       -2741.105          49.000  
G11  25259503.875   132739823.037        -842.090          45.000    25259499.786   103433858.164        -656.217          47.000  
> 2024 04 09 02 11 30.0100000  0 25                     
S33  42602500.344   223877766.427        -747.213          44.000  
E26  28911918.828   151933243.342       -1777.171          45.000    28911915.436   116416434.458       -1361.740          44.000  
G24  24357144.221   127997755.148       -3155.656          49.000    24357141.769    99738591.508       -2458.885          45.000  
E09  28541228.449   149985103.175       -2426.989          45.000    28541229.728   114923758.733       -1859.600          48.000  
E05  28482172.791   149674935.595         -68.853          32.000    28482174.222   114685950.746         -52.670          36.000  
R08  26130076.558                3      -3166.339          20.000    26130077.725                3      -2475.837          17.000  
R16  26370132.142   140864974.115       -3392.099          50.000    26370130.238   109561833.196       -2638.314          47.000  
R09  22901433.827   122292689.316       -1284.879          52.000    22901429.438    95116625.650        -999.445          51.000  
R19  23979362.859   128273766.681       -3507.715          40.000    23979356.824    99768641.163       -2728.327          48.000  
G28  27121729.678   142525639.5441       2631.906          30.000    27121728.478   111058936.946        2049.931          32.000  
G32  26087576.961   137091089.881       -1399.967          46.000    26087576.070   106824228.385       -1091.095          41.000  
E12  29895796.871   157103545.713        2315.549          40.000    29895803.597   120378166.829        1774.130          45.000  
E31  26689487.690   140254546.907        -497.728          49.000    26689487.128   107467843.822        -381.364          52.000  
G12  24138180.534   126847341.801       -1199.943          48.000    24138175.764    98842269.836        -934.996          46.000  
R20  22673155.340   121243878.735        1483.528          41.000    22673152.939    94300865.466        1153.891          44.000  
R10  23380259.369   124629946.721        1239.805          46.000                                                                  
R21  26349754.753   141003045.906        3768.791          46.000    26349765.220   109668793.815        2931.203          39.000  
E24  29218277.812   153543081.882         831.385          41.000    29218278.008   117649928.433         636.977          49.000  
S31  41648733.926   218865651.104        -746.349          44.000  
G29  24496648.172   128731068.474        1402.148          48.000    24496644.800   100310057.274        1092.565          45.000  
G25  24060671.323   126439897.194         341.352          46.000    24060669.357    98524696.651         265.926          45.000  
G06  26778541.791   140722179.961       -2857.495          39.000    26778539.483   109653673.568       -2226.575          39.000  
E33  27555140.492   144803509.329         695.741          48.000    27555138.995   110953528.316         533.172          48.000  
E04  29972285.551   157505288.834       -3576.615          43.000    29972296.648   120685931.395       -2740.599          49.000  
G11  25264367.261   132765379.708        -861.530          44.000    25264362.991   103453772.464        -671.272          47.000  
> 2024 04 09 02 12 00.0100000  0 24                     
S33  42606766.837   223900186.956        -747.074          44.000  
E26  28922103.453   151986763.399       -1790.445          45.000    28922099.141   116457443.359       -1372.004          43.000  
G24  24375200.760   128092643.375       -3169.698          48.000    24375198.769    99812530.336       -2469.929          45.000  
E09  28555112.694   150058065.879       -2436.832          45.000    28555114.614   114979665.178       -1867.129          49.000  
E05  28482605.749   149677201.528         -82.042          32.000    28482604.926   114687686.941         -62.607          36.000  
R16  26389203.571   140966851.610       -3399.446          49.000    26389201.132   109641071.142       -2643.872          44.000  
R09  22908686.277   122331418.988       -1296.758          50.000    22908682.332    95146748.716       -1008.674          51.000  
R19  23999092.545   128379310.377       -3527.914          40.000    23999086.849    99850730.682       -2744.209          47.000  
G28  27106720.114   142446751.248        2628.456          28.000    27106714.543   110997465.516        2047.943          32.000  
G32  26095619.276   137133349.722       -1416.963          47.000    26095617.743   106857158.093       -1104.316          41.000  
E12  29882580.855   157034098.443        2314.768          40.000    29882587.766   120324954.545        1773.516          45.000  
E31  26692335.512   140269515.543        -499.744          48.000    26692335.657   107479313.295        -382.923          52.000  
G12  24145044.846   126883412.807       -1204.418          49.000    24145040.079    98870377.111        -938.606          46.000  
R20  22664899.908   121199733.762        1459.996          42.000    22664897.299    94266530.513        1135.585          44.000  
R10  23373298.653   124592839.119        1234.330          46.000                                                                  
R21  26328634.669   140890032.985        3765.548          48.000    26328645.482   109580895.582        2928.832          42.000  
E24  29213534.445   153518149.982         831.242          42.000    29213533.902   117630824.812         636.922          49.000  
S31  41652994.799   218888041.655        -745.976          44.000  
G29  24488682.453   128689206.048        1389.095          48.000    24488678.684   100277437.255        1082.245          45.000  
G25  24058733.770   126429715.028         337.835          46.000    24058732.066    98516762.494         263.300          45.000  
G06  26794899.124   140808145.059       -2873.370          36.000    26794897.130   109720659.330       -2238.666          40.000  
E33  27551205.731   144782829.257         683.204          48.000    27551203.595   110937682.576         523.391          48.000  
E04  29992704.051   157612585.380       -3575.996          44.000    29992715.016   120768145.204       -2740.002          49.000  
G11  25269341.181   132791519.945        -880.788          45.000    25269336.785   103474141.502        -686.361          46.000  
> 2024 04 09 02 12 30.0100000  0 25                     
S33  42611032.711   223922603.921        -747.013          44.000  
E26  28932364.029   152040688.167       -1804.473          44.000    28932362.361   116498762.311       -1382.558          45.000  
G24  24393336.682   128187948.100       -3183.864          49.000    24393334.372    99886793.723       -2480.940          45.000  
E09  28569052.569   150131322.165       -2446.980          45.000    28569054.799   115035796.575       -1874.900          49.000  
E05  28483111.988                         -95.376          31.000    28483111.807   114689725.554         -72.904          37.000  
R08  26165747.209                3      -3201.296          15.000                                                                  
R16  26408316.579   141068948.262       -3406.983          48.000    26408314.222   109720479.614       -2649.787          45.000  
R09  22916005.128   122370503.117       -1308.848          51.000    22916001.159    95177147.494       -1017.946          51.000  
R19  24018935.345   128485455.733       -3548.288          40.000    24018929.815    99933288.155       -2759.800          47.000  
G32  26103758.320   137176121.120       -1434.247          46.000    26103757.155   106890486.392       -1117.585          43.000  
E12  29869370.130   156964679.167        2313.454          40.000    29869377.323   120271763.739        1772.438          45.000  
E31  26695194.552   140284542.941        -502.033          48.000    26695195.367   107490827.795        -384.683          52.000  
G12  24151934.692   126919617.057       -1209.097          48.000    24151928.903    98898588.210        -942.152          45.000  
R20  22656778.998   121156303.516        1435.630          42.000    22656776.164    94232751.474        1116.604          44.000  
R10  23366368.670   124555899.381        1228.473          47.000                                                                  
R21  26307532.911   140777118.508        3762.085          49.000    26307543.263   109493073.918        2926.124          44.000  
E24  29208790.868   153493217.678         830.940          43.000    29208789.306   117611720.874         636.659          49.000  
S31  41657254.734   218910427.817        -746.257          44.000  
G29  24480790.561   128647737.988        1375.586          47.000    24480787.216   100245124.551        1071.790          45.000  
G25  24056816.561   126419636.862         334.156          47.000    24056813.317    98508909.388         260.409          44.000  
G06  26811344.807   140894572.311       -2888.837          36.000    26811343.769   109788005.187       -2250.928          41.000  
E33  27547341.707   144762525.343         670.460          48.000    27547339.733   110922125.071         513.648          48.000  
E04  30013116.599   157719855.987       -3575.338          43.000    30013128.206   120850339.166       -2739.472          48.000  
G11  25274425.019   132818237.220        -900.441          44.000    25274420.336   103494960.166        -701.570          46.000  
G28                                                                  27091722.253                        2044.419          30.000  
> 2024 04 09 02 13 00.0100000  0 24                     
S33  42615298.025   223945019.520        -747.044          44.000  
E26  28942703.517   152095020.407       -1817.723          44.000    28942700.587   116540393.486       -1392.913          44.000  
G24  24411552.391   128283671.358       -3197.736          49.000    24411550.088    99961383.239       -2491.829          45.000  
E09  28583050.186   150204873.870       -2456.527          46.000    28583051.364   115092154.345       -1882.234          50.000  
E05  28483692.653   149682921.237        -107.855          32.000    28483694.115   114692069.611         -83.133          38.000  
R16  26427469.110   141171267.841       -3414.266          45.000    26427468.173   109800061.446       -2655.445          44.000  
R09  22923391.542   122409946.412       -1320.616          51.000    22923387.746    95207825.596       -1027.165          51.000  
R19  24038890.395   128592203.143       -3568.287          41.000    24038884.676   100016313.936       -2775.321          47.000  
G32  26111995.783   137219406.122       -1451.280          47.000    26111993.793   106924214.908       -1130.875          42.000  
E12  29856166.073   156895293.439        2312.347          40.000    29856173.145   120218598.640        1771.653          45.000  
E31  26698065.802   140299632.877        -503.930          48.000    26698066.814   107502390.212        -386.115          52.000  
G12  24158850.240   126955959.122       -1213.562          48.000    24158844.036    98926906.686        -945.487          45.000  
R20  22648791.654   121113594.722        1411.746          42.000    22648788.689    94199533.539        1098.066          44.000  
R10  23359470.883   124519133.290        1222.751          46.000                                                                  
R21  26286451.234   140664309.420        3758.591          48.000    26286460.895   109405334.264        2923.303          42.000  
E24  29204046.551   153468288.359         831.041          44.000    29204045.388   117592619.238         636.836          49.000  
S31  41661514.595   218932814.163        -746.150          44.000  
G29  24472975.148   128606668.651        1362.397          48.000    24472971.295   100213122.542        1061.584          44.000  
G25  24054919.462   126409666.749         330.723          48.000    24054916.034    98501140.492         257.659          45.000  
G06  26827879.443   140981463.268       -2903.754          33.000    26827878.294   109855712.443       -2262.665          41.000  
E33  27543550.649   144742602.585         657.855          48.000    27543548.798   110906859.628         503.996          48.000  
E04  30033525.682   157827102.397       -3574.485          43.000    30033536.966   120932514.581       -2738.734          48.000  
G11  25279619.675   132845535.473        -919.627          44.000    25279614.997   103516231.531        -716.420          46.000  
G28                                                                  27076747.041   110874775.558        2041.766          27.000  
> 2024 04 09 02 13 30.0100000  0 24                     
S33  42619562.820   223967430.916        -746.699          44.000  
E26  28953118.334   152149755.554       -1830.828          43.000    28953116.444   116582333.428       -1402.881          44.000  
G24  24429846.250   128379807.912       -3211.055          48.000    24429844.812   100036294.797       -2502.076          46.000  
E09  28597101.316   150278715.604       -2465.857          45.000    28597103.066   115148734.334       -1889.473          50.000  
E05  28484347.930   149686375.645        -121.351          33.000    28484351.023   114694716.500         -92.929          38.000  
R16  26446666.080   141273806.567       -3421.302          48.000    26446663.888   109879813.661       -2661.091          45.000  
R09  22930845.159   122449746.842       -1332.352          51.000    22930841.481    95238781.476       -1036.301          52.000  
R19  24058956.650   128699544.193       -3587.523          41.000    24058951.214   100099801.419       -2790.440          47.000  
G32  26120329.473   137263199.415       -1468.014          47.000    26120327.395   106958339.534       -1143.966          43.000  
E12  29842968.316   156825939.592        2311.482          40.000    29842974.565   120165457.998        1771.126          45.000  
E31  26700948.052   140314781.914        -505.666          47.000    26700949.548   107513997.926        -387.539          52.000  
G12  24165790.593   126992435.375       -1217.889          47.000    24165785.621    98955329.757        -949.056          45.000  
R20  22640939.897   121071606.450        1387.826          42.000    22640937.524    94166876.066        1079.214          44.000  
R10  23352606.067   124482539.178        1217.217          47.000                                                                  
R21  26265389.888   140551605.922        3755.154          49.000    26265398.114   109317676.690        2920.836          41.000  
E24  29199301.462   153443358.231         831.268          43.000    29199301.289   117573516.972         637.012          49.000  
S31  41665773.623   218955195.988        -745.798          44.000  
G29  24465235.341   128565995.030        1349.353          48.000    24465230.479   100181428.859        1051.588          43.000  
G25  24053042.139   126399801.516         327.340          48.000    24053039.650    98493453.330         255.089          45.000  
G06  26844502.128   141068812.230       -2919.116          32.000    26844500.663   109923776.614       -2274.597          42.000  
E33  27539831.356   144723058.695         645.436          47.000    27539829.154   110891884.466         494.582          47.000  
E04  30053928.381   157934318.997       -3573.138          44.000    30053940.095   121014667.170       -2737.807          48.000  
G11  25284924.397   132873411.271        -938.576          45.000    25284919.391   103537952.957        -731.474          46.000  
G28                                                                  27061796.460                        2039.126          28.000  
> 2024 04 09 02 14 00.0100000  0 24                     
S33  42623826.806   223989837.572        -746.812          45.000  
E26  28963611.416   152204891.288       -1844.704          44.000    28963609.818   116624580.271       -1413.482          46.000  
G24  24448218.346   128476354.562       -3225.172          48.000    24448217.373   100111525.904       -2513.087          45.000  
E09  28611207.435   150352844.065       -2475.798          45.000    28611209.457   115205534.016       -1897.013          50.000  
E05  28485080.039   149690224.098        -134.900          35.000    28485082.657   114697665.318        -103.427          37.000  
R16  26465903.120   141376562.495       -3429.075          49.000    26465900.227   109959734.837       -2666.884          45.000  
R09  22938365.825   122489903.892       -1344.642          51.000    22938361.400    95270014.736       -1045.825          51.000  
R19  24079132.956   128807474.184       -3608.065          42.000    24079128.084   100183746.892       -2805.769          47.000  
G32  26128759.044   137307497.902       -1485.162          47.000    26128757.112   106992857.828       -1157.158          42.000  
E12  29829777.199   156756618.115        2310.306          41.000    29829782.391   120112342.168        1770.077          45.000  
E31  26703842.072   140329988.730        -507.815          48.000    26703843.242   107525649.906        -389.188          52.000  
G12  24172757.063   127029044.414       -1222.663          48.000    24172752.794    98983856.285        -952.687          46.000  
R20  22633223.073   121030339.544        1363.353          42.000    22633220.386    94134779.610        1060.447          45.000  
R10  23345773.254   124446117.372        1211.205          46.000                                                                  
R21  26244348.008   140439010.156        3751.216          48.000    26244355.282   109230102.960        2917.759          41.000  
E24  29194555.749   153418425.560         831.094          42.000    29194556.393   117554412.744         636.726          48.000  
S31  41670031.693   218977571.986        -745.938          44.000  
G29  24457569.979   128525716.202        1335.964          48.000    24457566.253   100150042.824        1041.086          44.000  
G25  24051184.560   126390040.096         323.538          47.000    24051182.227    98485847.026         252.180          45.000  
G06  26861213.975                       -2934.509          26.000    26861208.259   109992194.862       -2286.249          41.000  
E33  27536184.004   144703893.392         632.428          47.000    27536182.027   110877199.398         484.663          47.000  
E04  30074325.592   158041502.309       -3572.383          44.000    30074336.862   121096794.208       -2737.087          48.000  
G11  25290338.448   132901863.366        -958.135          44.000    25290333.568   103560123.431        -746.553          45.000  
G28                                                                  27046871.062                        2036.140          28.000  
> 2024 04 09 02 14 30.0100000  0 25                     
S33  42628089.107   224012237.303        -746.185          44.000  
E26  28974178.686   152260426.837       -1857.547          43.000    28974177.230   116667133.460       -1423.305          45.000  
G24  24466668.339   128573309.891       -3238.230          48.000    24466666.734   100187075.459       -2523.279          44.000  
E09  28625367.182   150427257.621       -2484.912          45.000    28625369.952   115262552.164       -1903.970          50.000  
E05  28485891.054   149694467.009        -147.658          36.000    28485890.423   114700916.329        -113.226          38.000  
R16  26485179.480   141479535.726       -3435.811          50.000    26485177.247   110039824.973       -2672.316          45.000  
R09  22945952.588   122530419.342       -1356.237          51.000    22945948.770    95301526.739       -1054.806          51.000  
R19  24099418.829   128915989.236       -3626.624          42.000    24099414.248   100268147.503       -2820.702          46.000  
G32  26137283.810   137352300.066       -1501.554          46.000    26137282.929   107027768.587       -1169.776          42.000  
E12  29816592.483   156687331.108        2309.272          41.000    29816596.685   120059252.759        1769.403          45.000  
E31  26706747.723   140345253.655        -509.512          48.000    26706748.062   107537346.399        -390.402          52.000  
G12  24179749.288   127065786.745       -1226.697          49.000    24179744.570    99012486.669        -955.864          46.000  
R20  22625641.138   120989796.912        1339.771          42.000    22625639.266    94103246.520        1041.958          45.000  
R10  23338972.761   124409870.364        1205.527          45.000                                                                  
R21  26223326.193   140326525.906        3747.843          48.000    26223333.880   109142615.953        2914.887          41.000  
E24  29189810.143   153393490.312         831.428          42.000    29189811.241   117535306.546         637.122          48.000  
S31  41674288.749   218999942.458        -745.207          44.000  
G29  24449980.978   128485833.267        1323.175          48.000    24449977.434   100118965.259        1031.039          45.000  
G25  24049346.600   126380383.112         320.497          47.000    24049344.414    98478322.117         249.781          45.000  
G06  26878007.847                       -2949.103          28.000    26878003.137   110060965.775       -2298.010          42.000  
E33  27532610.022   144685108.207         620.203          48.000    27532607.505   110862805.598         475.162          47.000  
E04  30094715.920   158148650.550       -3570.701          45.000    30094726.724   121178894.416       -2736.122          48.000  
G11  25295862.128   132930892.058        -976.937          44.000    25295857.535   103582743.203        -761.213          46.000  
G28                                                                  27031961.839                        2033.369          27.000  
R08                                                                  26238009.639                3      -2530.288          15.000  
