     3.00           OBSERVATION DATA    M: Mixed            RINEX VERSION / TYPE
CONVBIN 2.4.3                           20240409 132942 UTC PGM / RUN BY / DATE 
format: u-blox UBX                                          COMMENT             
log: data/2024-04-09/20240409131500.ubx                     COMMENT             
AQUI00CHL                                                   MARKER NAME         
                                                            MARKER NUMBER       
                                                            MARKER TYPE         
                                                            OBSERVER / AGENCY   
UNKNOWN             UBLOX-ZED-F9P                           REC # / TYPE / VERS 
UNKNOWN             TWIVSP6037L                             ANT # / TYPE        
  1713381.0000 -5047934.0000 -3490983.0000                  APPROX POSITION XYZ 
        0.0000        0.0000        0.0000                  ANTENNA: DELTA H/E/N
G    8 C1C L1C D1C S1C C2L L2L D2L S2L                      SYS / # / OBS TYPES 
R    8 C1C L1C D1C S1C C2C L2C D2C S2C                      SYS / # / OBS TYPES 
E    8 C1C L1C D1C S1C C7Q L7Q D7Q S7Q                      SYS / # / OBS TYPES 
S    4 C1C L1C D1C S1C                                      SYS / # / OBS TYPES 
  2024    04    09    13    15   00.0060000     GPS         TIME OF FIRST OBS   
  2024    04    09    13    29   30.0060000     GPS         TIME OF LAST OBS    
                                                            END OF HEADER       
> 2024 04 09 13 15 00.0060000  0 23                     
S33  41538236.844   218285009.9941       -852.500          43.000  
G28  25438890.684   133682165.1771      -1648.203          31.000    25438874.741                1      -1283.315          30.000  
G04  22628776.427   118915074.7991       1206.525          46.000    22628771.759    92661041.9661        940.076          44.000  
G17  23892747.655   125557264.6921        286.128          46.000    23892744.390    97836846.7381        222.983          44.000  
G19  26164584.227                3       1492.943          25.000                                                                  
R01  24481546.043   130867732.7701      -4291.772          40.000    24481545.474   101786068.2561      -3338.039          42.000  
R17  20940490.824   112056908.1181       -599.457          51.000    20940486.464    87155349.7211       -466.193          50.000  
R03  22463743.277   120250222.0041       1014.824          51.000    22463739.295    93527913.2491        789.349          50.000  
R24  23010024.365   123044922.7821      -4372.269          51.000    23010021.535    95701651.7501      -3400.757          49.000  
R18  23256516.920   124144915.2341       2738.241          49.000    23256515.465    96557113.8081       2129.651          46.000  
E15  28512614.113   149834824.4391       1681.670          32.000    28512619.811   114808514.2051       1288.682          39.000  
G21  22024688.825   115740532.9091      -2834.936          46.000                                                                  
G02  21941567.935   115303706.0311      -1865.987          50.000                                                                  
G09  25807092.755   135617168.9791       2521.029          39.000    25807094.024   105675743.9161       1963.926          33.000  
R02  21473195.964   114584870.9411      -2397.097          53.000    21473192.658    89121742.9891      -1864.432          48.000  
E05  23631684.865   124185261.9761      -1021.153          46.000    23631686.713    95154977.9341       -782.405          53.000  
S31  40585240.462   213276855.3061       -852.679          43.000  
G03  22795574.521   119791535.8451       -380.485          48.000    22795573.431    93344073.4431       -296.561          46.000  
E34  25307460.541   132991613.9061         65.966          48.000    25307462.404   101902658.2041         50.562          53.000  
E36  26400040.646   138733171.9751      -2369.217          48.000    26400042.896   106302083.8941      -1815.318          51.000  
G31  24940565.761   131063577.2371         44.150          47.000    24940563.277   102127484.1601         34.515          44.000  
E03  26915199.206   141440307.3511       1364.539          46.000    26915201.000   108376390.0601       1045.542          50.000  
E09  27934842.886   146798551.8291      -3272.984          46.000    27934844.637   112481978.9311      -2507.935          47.000  
> 2024 04 09 13 15 30.0060000  0 24                     
S33  41543106.280   218310598.690        -853.285          43.000  
G28  25448347.859   133731887.461       -1666.568          32.000    25448337.119                       -1298.449          31.000  
G04  22621933.230   118879119.227        1190.314          45.000    22621930.212    92633024.629         927.582          45.000  
G17  23891174.773   125549002.181         264.783          46.000    23891172.955    97830408.411         206.143          44.000  
G19  26156100.671   137451221.2861       1479.800          29.000                                                                  
R01  24505632.945   130996491.335       -4292.448          37.000    24505632.646   101886213.553       -3338.242          41.000  
R17  20943924.383   112075282.329        -625.507          51.000    20943920.430    87169640.752        -486.617          50.000  
R11  26280982.592                3        578.321          11.000                                                                  
R03  22458099.942   120220018.288         998.667          51.000    22458097.249    93504421.480         776.750          51.000  
R24  23034595.923   123176326.062       -4387.943          50.000    23034594.906    95803854.187       -3412.850          49.000  
R18  23241160.283   124062943.275        2726.365          50.000    23241159.233    96493357.864        2120.625          46.000  
E15  28503012.780   149784387.861        1680.242          31.000    28503021.954   114769867.964        1287.719          39.000  
G21  22040928.506   115825871.205       -2854.352          46.000                                                                  
G02  21952274.778   115359971.539       -1885.087          49.000                                                                  
G09  25792721.384   135541642.779        2514.082          41.000    25792718.132                        1958.379          29.000  
R02  21486711.108   114656993.322       -2411.163          52.000    21486708.761    89177838.131       -1875.335          49.000  
E05  23637549.113   124216081.245       -1033.600          46.000    23637551.332    95178592.696        -791.958          53.000  
S31  40590110.270   213302445.891        -853.317          43.000  
G03  22797763.454   119803036.065        -386.183          49.000    22797761.794    93353034.624        -300.870          46.000  
E34  25307109.343   132989769.335          56.961          47.000    25307111.219   101901244.814          43.613          52.000  
E36  26413593.048   138804393.572       -2378.964          48.000    26413596.171   106356656.234       -1822.819          51.000  
G31  24940357.215   131062479.692          28.761          46.000    24940355.088   102126628.888          22.614          44.000  
E03  26907434.407   141399505.747        1355.539          45.000    26907436.743   108345126.509        1038.615          50.000  
E09  27953542.667   146896821.297       -3278.204          46.000    27953546.009   112557276.173       -2511.813          49.000  
> 2024 04 09 13 16 00.0060000  0 23                     
S33  41547978.676   218336204.692        -853.716          44.000  
G04  22615183.591   118843646.003        1174.347          46.000    22615180.210    92605383.165         915.088          45.000  
G17  23889724.706   125541375.747         243.549          47.000    23889721.729    97824465.669         189.847          44.000  
G19  26147691.988   137407016.191        1466.663          30.000                                                                  
R01  24529719.809   131125245.868       -4291.746          39.000    24529718.711   101986355.758       -3337.948          42.000  
R17  20947504.163   112094436.190        -651.492          51.000    20947499.846    87184538.171        -506.796          50.000  
R03  22452548.427   120190295.982         982.622          52.000    22452544.651    93481304.149         764.300          50.000  
R24  23059256.637   123308194.455       -4403.433          51.000    23059254.739    95906418.340       -3424.814          49.000  
R18  23225871.169   123981328.630        2714.461          49.000    23225870.084    96429879.824        2111.205          47.000  
E15  28493426.662   149733982.672        1679.385          32.000    28493429.770   114731245.811        1287.047          40.000  
G21  22057276.572   115911782.807       -2873.379          45.000                                                                  
G02  21963090.092   115416805.501       -1903.967          49.000                                                                  
G09  25778387.182   135466318.079        2507.465          40.000    25778385.302   105558197.849        1954.657          33.000  
R02  21500304.520   114729532.834       -2424.964          51.000    21500303.199    89234257.698       -1886.111          49.000  
E05  23643484.713   124247270.044       -1045.807          46.000    23643486.472    95202490.583        -801.353          53.000  
S31  40594983.301   213328055.223        -853.757          43.000  
G03  22799983.077   119814701.257        -391.640          49.000    22799981.712    93362124.354        -305.153          46.000  
E34  25306809.156   132988192.776          47.815          47.000    25306811.054   101900036.769          36.762          52.000  
E36  26427201.108   138875906.546       -2388.694          48.000    26427204.153   106411451.832       -1830.328          50.000  
G31  24940234.965   131061841.520          13.405          45.000    24940234.103   102126131.615          10.373          44.000  
E03  26899719.631   141358970.059        1346.642          44.000    26899722.896   108314066.708        1031.837          50.000  
E09  27972271.171   146995238.829       -3283.146          46.000    27972273.316   112632686.878       -2515.570          48.000  
G28                                                                  25457903.152   104245857.3741      -1312.160          33.000  
> 2024 04 09 13 16 30.0060000  0 23                     
S33  41552855.679   218361832.177        -854.823          44.000  
G04  22608525.724   118808658.932        1157.935          46.000    22608522.674    92578120.527         902.332          46.000  
G17  23888395.774   125534389.339         222.198          47.000    23888392.419    97819021.683         173.312          43.000  
G19  26139353.248   137363207.427        1453.000          31.000                                                                  
R01  24553806.165   131253997.101       -4292.027          37.000    24553804.732   102086495.394       -3338.064          41.000  
R17  20951229.803   112114373.739        -677.686          51.000    20951224.941    87200045.121        -527.052          50.000  
R03  22447086.992   120161058.224         966.489          52.000    22447082.560    93458563.684         751.700          49.000  
R24  23084004.423   123440527.966       -4418.807          51.000    23084001.501    96009344.298       -3436.835          48.000  
R18  23210650.248   123900078.290        2702.184          49.000    23210649.506    96366685.148        2101.741          47.000  
E15  28483839.421   149683612.927        1678.671          32.000    28483844.851   114692650.798        1286.039          40.000  
G21  22073733.384   115998269.051       -2892.605          44.000                                                                  
G02  21974013.703   115474210.273       -1923.028          49.000                                                                  
G09  25764091.520   135391199.251        2500.586          39.000    25764096.037   105499663.790        1947.937          33.000  
R02  21513976.945   114802489.176       -2438.798          52.000    21513975.736    89291001.474       -1896.892          50.000  
E05  23649490.060   124278830.273       -1058.084          46.000    23649492.374    95226673.074        -810.749          53.000  
S31  40599860.864   213353686.133        -854.709          43.000  
G03  22802234.762   119826533.952        -397.195          49.000    22802233.433    93371344.626        -309.505          46.000  
E34  25306560.983   132986888.282          39.111          47.000    25306563.040   101899037.204          29.869          52.000  
E36  26440866.389   138947713.625       -2398.380          48.000    26440868.220   106466472.761       -1837.741          50.000  
G31  24940202.921   131061667.014          -2.065          46.000    24940200.571   102125995.633          -1.525          43.000  
E03  26892057.227   141318703.763        1337.767          44.000    26892060.491   108283213.325        1025.098          50.000  
E09  27991027.646   147093805.508       -3287.906          46.000    27991030.629   112708211.860       -2519.340          49.000  
G28                                                                  25467579.142   104285465.012       -1327.173          33.000  
> 2024 04 09 13 17 00.0060000  0 23                     
S33  41557734.718   218387471.947        -854.801          43.000  
G04  22601958.632   118774148.831        1142.322          47.000    22601955.956    92551229.514         890.033          46.000  
G17  23887185.797   125528033.766         201.193          47.000    23887182.507    97814069.260         156.958          43.000  
G19  26131085.158                        1439.763          27.000                                                                  
R01  24577888.939   131382732.671       -4291.141          32.000    24577887.803   102186622.814       -3337.375          43.000  
R17  20955100.166   112135086.230        -703.505          51.000    20955095.429    87216154.826        -547.176          50.000  
R03  22441713.447   120132294.015         950.775          52.000    22441709.204    93436191.530         739.490          50.000  
R24  23108836.196   123573313.137       -4433.790          51.000    23108833.235    96112621.528       -3448.493          48.000  
R18  23195495.789   123819185.887        2690.093          47.000    23195495.930    96303768.829        2092.523          47.000  
E15  28474260.353   149633269.605        1676.982          33.000    28474264.318   114654076.007        1285.334          40.000  
G21  22090297.240   116085318.514       -2911.138          43.000                                                                  
G02  21985043.764   115532175.592       -1941.613          49.000                                                                  
G09  25749834.191   135316277.857        2493.781          40.000    25749833.084                        1943.170          33.000  
R02  21527725.216   114875848.972       -2452.106          52.000    21527722.558    89348059.066       -1907.299          49.000  
E05  23655564.014   124310750.804       -1070.100          45.000    23655566.645    95251131.647        -819.959          53.000  
S31  40604740.506   213379328.045        -855.029          43.000  
G03  22804516.091   119838523.576        -402.445          49.000    22804514.850    93380687.172        -313.390          46.000  
E34  25306363.073   132985846.987          30.081          47.000    25306365.079   101898239.301          23.004          52.000  
E36  26454584.578   139019804.521       -2407.959          48.000    26454586.394   106521711.164       -1844.927          49.000  
G31  24940255.185   131061947.615         -17.052          45.000    24940252.630   102126214.256         -13.475          42.000  
E03  26884444.759   141278697.354        1329.087          44.000    26884447.386   108252559.077        1018.346          50.000  
E09  28009811.266   147192509.505       -3292.610          47.000    28009813.306   112783842.065       -2522.872          49.000  
G28                                                                  25477357.359   104325496.870       -1341.157          33.000  
> 2024 04 09 13 17 30.0060000  0 22                     
S33  41562616.165   218413122.324        -854.995          43.000  
G28  25487247.121                1      -1738.727          31.000    25487235.082   104365953.014       -1356.140          33.000  
G04  22595482.684   118740117.191        1126.550          46.000    22595479.734    92524711.335         877.905          46.000  
G17  23886095.952   125522309.658         180.430          46.000    23886092.979    97809608.906         140.365          43.000  
R01  24601969.511   131511450.945       -4290.375          36.000    24601967.417   102286736.702       -3336.905          41.000  
R17  20959116.337   112156575.092        -729.180          52.000    20959110.563    87232868.356        -567.120          49.000  
R03  22436428.459   120104004.043         935.286          52.000    22436424.359    93414188.234         727.387          50.000  
R24  23133751.113   123706547.322       -4448.507          51.000    23133748.520    96216248.017       -3460.050          48.000  
R18  23180409.111   123738656.131        2678.388          47.000    23180409.711    96241134.618        2083.014          47.000  
E15  28464689.479   149582954.247        1677.034          34.000    28464689.643   114615522.697        1284.811          41.000  
G21  22106969.458   116172930.953       -2929.924          43.000                                                                  
G02  21996180.667   115590701.636       -1960.087          48.000                                                                  
G09  25735615.653   135241555.933        2487.653          39.000    25735615.898   105383058.699        1938.440          35.000  
R02  21541547.922   114949609.782       -2465.204          52.000    21541544.764    89405428.539       -1917.328          48.000  
E05  23661707.670   124343031.279       -1082.080          46.000    23661709.375    95275866.011        -829.042          53.000  
S31  40609622.099   213404981.221        -855.334          43.000  
G03  22806827.494   119850670.357        -407.470          49.000    22806826.001    93390152.182        -317.369          45.000  
E34  25306215.343   132985070.644          21.475          47.000    25306217.455   101897644.417          16.450          53.000  
E36  26468356.278   139092179.672       -2417.270          47.000    26468358.787   106577167.378       -1852.122          49.000  
G31  24940395.074   131062685.226         -32.159          44.000    24940394.274   102126789.021         -25.023          44.000  
E03  26876880.386   141238952.025        1320.644          44.000    26876883.975   108222104.869        1011.977          50.000  
E09  28028619.554   147291349.656       -3296.943          47.000    28028622.105   112859576.597       -2526.103          49.000  
> 2024 04 09 13 18 00.0060000  0 23                     
S33  41567498.211   218438777.087        -855.290          44.000  
G28  25497225.683                       -1757.495          29.000    25497214.409   104406827.049       -1369.189          33.000  
G04  22589095.886   118706557.525        1110.638          45.000    22589094.104    92498560.951         865.625          45.000  
G17  23885125.479   125517211.293         159.393          46.000    23885122.826    97805636.113         124.165          43.000  
G19  26114792.154                3       1413.385          25.000                                                                  
R01  24626040.834   131640142.165       -4289.246          32.000    24626042.298   102386829.674       -3335.978          41.000  
R17  20963275.972   112178834.158        -755.001          51.000    20963269.998    87250180.932        -587.173          49.000  
R03  22431229.855   120076180.176         919.622          51.000    22431226.792    93392547.439         715.288          51.000  
R24  23158749.155   123840219.835       -4463.180          51.000    23158747.019    96320215.405       -3471.210          49.000  
R18  23165390.168   123658485.463        2666.289          47.000    23165391.103    96178779.662        2073.729          47.000  
E15  28455117.185   149532660.670        1676.093          35.000    28455118.996   114576986.063        1284.402          41.000  
G21  22123747.563   116261097.332       -2947.990          44.000                                                                  
G02  22007423.191   115649780.833       -1978.691          48.000                                                                  
G09  25721433.516   135167027.682        2481.030          39.000    25721435.798   105324984.795        1933.423          37.000  
R02  21555443.721   115023760.904       -2478.284          52.000    21555440.904    89463101.599       -1927.556          49.000  
E05  23667917.940   124375663.253       -1093.656          46.000    23667919.062    95300869.701        -837.879          53.000  
S31  40614504.555   213430638.816        -855.353          43.000  
G03  22809167.244   119862966.434        -412.413          48.000    22809165.795    93399733.540        -321.394          45.000  
E34  25306117.010   132984553.052          12.759          47.000    25306118.968   101897247.795           9.925          53.000  
E36  26482182.773   139164831.497       -2426.260          48.000    26482184.275   106632835.581       -1859.114          49.000  
G31  24940621.281   131063874.015         -47.332          44.000    24940619.660   102127715.305         -36.715          43.000  
E03  26869365.845   141199460.987        1312.120          44.000    26869369.394   108191845.505        1005.413          50.000  
E09  28047452.453   147390316.800       -3301.046          47.000    28047455.214   112935408.434       -2529.391          49.000  
> 2024 04 09 13 18 30.0060000  0 23                     
S33  41572379.406   218464430.436        -855.304          44.000  
G04  22582799.302   118673465.822        1094.843          46.000    22582796.574    92472775.188         853.247          46.000  
G17  23884273.863   125512733.994         138.665          47.000    23884271.395    97802147.263         107.987          44.000  
R01  24650103.739                       -4288.147          28.000    24650110.249   102486896.224       -3335.252          41.000  
R17  20967578.438   112201859.196        -780.667          51.000    20967572.781    87268089.256        -607.191          49.000  
R03  22426117.979   120048817.269         904.087          51.000    22426114.838    93371265.199         703.227          50.000  
R24  23183828.142   123974322.602       -4477.554          52.000    23183823.956    96424517.450       -3482.542          47.000  
R18  23150439.334   123578672.905        2653.927          48.000    23150439.567    96116703.263        2064.257          47.000  
E15  28445546.970   149482385.022        1675.020          35.000    28445551.793   114538463.161        1283.560          42.000  
G21  22140629.731   116349811.346       -2966.657          44.000                                                                  
G02  22018769.746   115709407.914       -1997.096          47.000                                                                  
G09  25707287.465   135092689.695        2474.658          39.000    25707289.795   105267059.151        1928.217          38.000  
R02  21569411.993   115098294.308       -2491.041          52.000    21569409.991    89521071.989       -1937.521          49.000  
E05  23674192.481   124408640.822       -1105.374          46.000    23674194.673    95326138.205        -846.915          53.000  
S31  40619386.787   213456295.253        -855.571          43.000  
G03  22811534.708   119875406.529        -417.408          49.000    22811533.484    93409427.093        -325.113          45.000  
E34  25306066.915   132984290.480           4.127          47.000    25306069.264   101897046.588           3.242          53.000  
E36  26496059.643   139237754.915       -2435.622          48.000    26496061.302   106688711.895       -1866.090          49.000  
G31  24940933.417   131065510.382         -62.260          45.000    24940931.023   102128990.375         -48.395          43.000  
E03  26861898.508   141160219.899        1303.380          44.000    26861901.938   108161777.643         998.899          50.000  
E09  28066307.788   147489404.308       -3305.141          47.000    28066311.204   113011332.501       -2532.515          50.000  
R11                                                                  26263313.607                3        364.895          17.000  
G28                                                                  25507300.902   104448114.787       -1383.459          37.000  
> 2024 04 09 13 19 00.0060000  0 22                     
S33  41577261.419   218490085.502        -854.917          44.000  
G28  25517481.743   134095248.1981      -1792.346          31.000    25517487.103   104489817.082       -1396.619          37.000  
G04  22576592.005   118640844.978        1079.822          46.000    22576589.240    92447356.343         841.284          46.000  
G17  23883540.792   125508880.592         118.311          47.000    23883537.946    97799144.557          92.381          44.000  
R01  24674167.401   131897422.858       -4286.421          36.000    24674171.259   102586936.338       -3333.988          40.000  
R17  20972024.210   112225653.595        -805.685          51.000    20972020.233    87286595.969        -626.652          49.000  
R03  22421094.400   120021916.925         889.313          52.000    22421089.880    93350342.750         691.613          50.000  
R24  23208985.408   124108854.395       -4491.271          52.000    23208981.916    96529153.148       -3493.000          47.000  
R18  23135556.277   123499224.602        2642.482          47.000    23135556.366    96054910.175        2055.154          47.000  
E15  28435983.146   149432130.465        1674.941          35.000    28435988.517   114499956.424        1283.392          42.000  
G21  22157615.558   116439073.975       -2984.270          44.000                                                                  
G02  22030220.318   115769584.714       -2014.932          47.000                                                                  
G09  25693179.163   135018545.618        2468.329          38.000    25693180.596   105209284.611        1923.297          39.000  
R02  21583450.176   115173209.022       -2503.254          52.000    21583448.342    89579338.936       -1946.905          49.000  
E05  23680533.073   124441965.036       -1116.369          45.000    23680536.096    95351672.312        -855.390          53.000  
S31  40624269.188   213481952.314        -854.670          43.000  
G03  22813929.945   119887992.316        -421.627          49.000    22813928.215    93419234.193        -328.628          45.000  
E34  25306065.977   132984286.206          -3.925          47.000    25306068.510   101897043.299          -3.085          53.000  
E36  26509987.725   139310951.801       -2444.252          48.000    26509990.210   106744797.760       -1872.873          49.000  
G31  24941330.844   131067597.594         -76.825          43.000    24941328.140   102130616.762         -60.083          43.000  
E03  26854479.454   141121231.370        1295.740          44.000    26854482.951   108131903.321         992.832          50.000  
E09  28085187.040   147588612.503       -3308.759          47.000    28085190.252   113087349.007       -2535.314          50.000  
> 2024 04 09 13 19 30.0060000  0 22                     
S33  41582143.145   218515738.902        -855.151          44.000  
G28  25527771.048   134149296.020       -1810.370          37.000    25527772.373   104531932.243       -1411.139          38.000  
G04  22570474.217   118608694.009        1063.788          46.000    22570471.203    92422303.613         828.912          46.000  
G17  23882925.852   125505649.614          97.274          47.000    23882923.052    97796626.891          75.771          44.000  
R01  24698224.158   132026008.024       -4285.600          36.000    24698225.903   102686946.805       -3333.056          39.000  
R17  20976614.459   112250216.236        -831.621          51.000    20976610.217    87305700.214        -646.899          50.000  
R03  22416154.591   119995476.816         873.558          52.000    22416150.371    93329778.219         679.503          50.000  
R24  23234222.677   124243810.110       -4505.692          52.000    23234220.071    96634118.586       -3504.402          48.000  
R18  23120741.883   123420142.648        2629.925          48.000    23120741.578    95993402.010        2045.375          48.000  
E15  28426422.862   149381896.204        1674.531          34.000    28426429.004   114461465.246        1282.784          42.000  
G21  22174706.008   116528881.948       -3002.805          45.000                                                                  
G02  22041775.876   115830308.760       -2033.365          47.000                                                                  
G09  25679107.077   134944595.007        2461.761          37.000    25679108.473   105151660.838        1918.140          40.000  
R02  21597559.801   115248499.863       -2516.092          52.000    21597556.734    89637898.430       -1957.001          48.000  
E05  23686939.449   124475632.969       -1128.104          45.000    23686942.967    95377469.780        -864.276          53.000  
S31  40629151.335   213507608.090        -855.063          43.000  
G03  22816351.929   119900721.487        -426.744          49.000    22816350.476    93429153.003        -332.663          45.000  
E34  25306114.801   132984539.502         -12.845          47.000    25306116.768   101897237.351          -9.792          53.000  
E36  26523968.682   139384420.057       -2453.455          48.000    26523971.419   106801091.545       -1879.977          50.000  
G31  24941813.489   131070135.494         -92.171          43.000    24941809.932   102132594.309         -71.766          42.000  
E03  26847108.848   141082494.093        1286.972          45.000    26847111.609   108102221.508         986.161          50.000  
E09  28104088.188   147687937.727       -3312.821          47.000    28104090.795   113163455.207       -2538.371          50.000  
> 2024 04 09 13 20 00.0060000  0 23                     
S33  41587027.086   218541403.121        -855.761          44.000  
G28  25538157.673   134203885.092       -1828.680          37.000    25538159.881   104574469.178       -1425.043          37.000  
G04  22564447.753   118577026.009        1047.479          46.000    22564445.072    92397627.251         816.187          46.000  
G17  23882431.912   125503054.225          75.799          46.000    23882429.684    97794604.481          59.089          44.000  
G19  26083053.891                3       1363.880          25.000                                                                  
R01  24722275.624   132154565.962       -4285.458          35.000    24722275.308   102786936.042       -3332.914          39.000  
R17  20981351.080   112275561.109        -858.002          51.000    20981346.199    87325412.872        -667.371          49.000  
R03  22411304.115   119969509.401         857.597          52.000    22411299.737    93309581.369         666.984          50.000  
R24  23259541.581   124379199.024       -4520.235          52.000    23259538.368    96739420.948       -3515.880          48.000  
R18  23105998.632   123341443.630        2616.764          48.000    23105998.728    95932191.684        2035.181          48.000  
E15  28416870.411   149331695.771        1672.392          35.000    28416876.223   114422999.951        1281.699          43.000  
G21  22191902.275   116619246.167       -3021.622          47.000                                                                  
G02  22053438.351   115891592.060       -2052.089          47.000                                                                  
G09  25665073.939   134870851.792        2454.504          37.000    25665075.595   105094198.631        1912.665          41.000  
R02  21611740.571   115324176.327       -2529.115          52.000    21611738.341    89696757.842       -1966.996          48.000  
E05  23693414.224   124509655.933       -1140.076          45.000    23693417.244    95403539.292        -873.595          53.000  
S31  40634035.950   213533274.837        -855.829          43.000  
G03  22818804.190   119913606.012        -432.104          49.000    22818802.504    93439192.862        -336.659          45.000  
E34  25306214.864   132985063.869         -22.043          47.000    25306216.563   101897639.130         -16.999          53.000  
E36  26538004.265   139458171.836       -2463.260          49.000    26538006.212   106857602.574       -1887.486          50.000  
G31  24942384.341   131073137.564        -107.956          43.000    24942380.805   102134933.534         -83.873          43.000  
E03  26839787.156   141044020.969        1277.951          45.000    26839790.538   108072742.110         979.264          50.000  
E09  28123013.155   147787390.605       -3317.316          46.000    28123016.397   113239659.218       -2541.898          50.000  
> 2024 04 09 13 20 30.0060000  0 22                     
S33  41591912.349   218567075.507        -855.868          43.000  
G28  25548650.016   134259011.984       -1846.240          38.000    25548648.166   104617425.038       -1438.525          37.000  
G04  22558513.398   118545838.934        1031.763          47.000    22558510.548    92373325.616         803.912          46.000  
G17  23882058.853   125501091.698          55.226          46.000    23882055.873    97793075.215          42.996          44.000  
R01  24746319.207   132283090.956       -4283.307          41.000    24746319.235   102886899.687       -3331.588          40.000  
R17  20986232.219   112301685.598        -883.628          50.000    20986228.402    87345731.912        -687.219          49.000  
R03  22406540.180   119944011.158         842.296          51.000    22406536.419    93289749.407         655.107          50.000  
R24  23284940.242   124515015.234       -4534.092          52.000    23284936.518    96845055.650       -3526.544          48.000  
R18  23091327.144   123263128.657        2604.225          48.000    23091327.521    95871280.044        2025.612          47.000  
E15  28407324.888   149281527.315        1671.541          36.000    28407329.364   114384559.151        1281.196          43.000  
G21  22209203.916   116710162.062       -3039.442          47.000                                                                  
G02  22065206.152   115953431.570       -2070.457          47.000                                                                  
G09  25651080.488   134797314.541        2447.998          38.000    25651081.284   105036896.882        1907.782          40.000  
R02  21625993.210   115400232.426       -2541.344          52.000    21625991.870    89755912.551       -1976.560          48.000  
E05  23699955.263   124544029.935       -1151.384          45.000    23699958.334    95429877.787        -882.212          53.000  
S31  40638921.514   213558949.343        -855.905          43.000  
G03  22821284.624   119926642.577        -436.796          49.000    22821283.656    93449351.203        -340.266          46.000  
E34  25306365.595   132985857.603         -30.750          47.000    25306367.425   101898247.290         -23.590          53.000  
E36  26552092.118   139532203.947       -2472.123          49.000    26552094.348   106914328.397       -1894.199          50.000  
G31  24943044.496   131076602.591        -123.038          45.000    24943041.959   102137633.543         -95.615          44.000  
E03  26832516.501   141005809.680        1269.675          45.000    26832518.796   108043463.319         972.849          50.000  
E09  28141962.444   147886966.484       -3321.006          46.000    28141964.964   113315957.486       -2544.636          50.000  
> 2024 04 09 13 21 00.0060000  0 22                     
S33  41596799.823   218592758.563        -856.164          44.000  
G28  25559242.640   134314679.287       -1864.801          37.000    25559241.813   104660801.990       -1452.539          37.000  
G04  22552671.486   118515137.057        1015.350          47.000    22552667.370    92349402.066         791.174          45.000  
G17  23881806.660   125499766.672          33.585          46.000    23881803.210    97792042.669          26.061          43.000  
R01  24770356.136   132411585.112       -4282.896          40.000    24770357.456   102986839.322       -3330.925          39.000  
R17  20991261.059   112328594.320        -910.078          50.000    20991256.960    87366660.884        -707.740          49.000  
R03  22401865.707   119918985.020         826.452          51.000    22401861.467    93270284.627         642.748          50.000  
R24  23310418.228   124651258.846       -4548.525          52.000    23310415.135    96951022.756       -3537.655          48.000  
R18  23076730.561   123185205.236        2590.887          50.000    23076729.721    95810672.941        2015.271          47.000  
E15  28397786.634   149231395.403        1670.286          37.000    28397789.554   114346146.390        1279.877          43.000  
G21  22226609.636   116801632.008       -3058.390          45.000                                                                  
G02  22077080.015   116015829.903       -2089.218          48.000                                                                  
G09  25637127.221   134723988.278        2440.588          36.000    25637127.974   104979759.564        1901.611          41.000  
R02  21640317.896   115476668.664       -2554.146          52.000    21640316.506    89815362.922       -1986.568          49.000  
E05  23706564.036   124578757.434       -1163.590          45.000    23706566.846    95456487.131        -891.438          53.000  
S31  40643809.034   213584635.375        -856.399          43.000  
G03  22823795.723   119939834.392        -442.357          49.000    22823793.389    93459630.506        -344.682          45.000  
E34  25306568.957   132986925.345         -40.188          47.000    25306570.465   101899065.407         -30.805          53.000  
E36  26566233.265   139606519.695       -2482.023          48.000    26566235.812   106971271.544       -1901.727          50.000  
G31  24943792.679   131080535.247        -138.851          44.000    24943790.796   102140697.944        -108.179          44.000  
E03  26825295.562   140967864.191        1260.707          46.000    26825298.186   108014388.215         965.790          50.000  
E09  28160935.399   147986667.158       -3325.534          46.000    28160937.884   113392351.346       -2548.028          50.000  
> 2024 04 09 13 21 30.0060000  0 23                     
S33  41601689.219   218618452.555        -856.759          43.000  
G28  25569938.348   134370886.102       -1882.867          39.000    25569937.084   104704599.494       -1466.992          37.000  
G04  22546920.911   118484920.984         999.097          47.000    22546917.580    92325857.090         778.534          46.000  
G17  23881675.664   125499079.388          12.082          47.000    23881673.138    97791507.091           9.418          44.000  
G19  26060079.869                1       1322.272          27.000                                                                  
R01  24794388.230   132540046.157       -4281.552          43.000    24794389.620   103086753.272       -3330.102          41.000  
R17  20996437.205   112356288.037        -936.427          51.000    20996432.452    87388200.406        -728.288          49.000  
R03  22397277.455   119894430.876         810.472          50.000    22397274.063    93251186.955         630.382          50.000  
R24  23335975.762   124787926.317       -4562.715          52.000    23335973.485    97057319.529       -3548.812          48.000  
R18  23062207.947   123107677.205        2577.478          50.000    23062206.439    95750373.384        2004.688          48.000  
E15  28388254.097   149181301.069        1669.123          38.000    28388256.703   114307762.423        1278.887          44.000  
G21  22244121.629   116893654.231       -3076.822          46.000                                                                  
G02  22089060.284   116078786.803       -2108.080          47.000                                                                  
G09  25623213.919   134650874.312        2433.228          37.000    25623214.120   104922787.688        1895.990          40.000  
R02  21654712.355   115553481.661       -2566.740          52.000    21654711.119    89875106.332       -1996.422          48.000  
E05  23713240.270   124613837.205       -1175.235          46.000    23713242.627    95483366.414        -900.560          54.000  
S31  40648699.337   213610331.854        -856.838          43.000  
G03  22826335.918   119953180.867        -447.489          49.000    22826333.021    93470030.352        -348.847          45.000  
E34  25306824.736   132988268.125         -49.438          48.000    25306825.983   101900094.274         -37.887          53.000  
E36  26580429.878   139681118.718       -2491.399          49.000    26580431.241   107028431.757       -1908.981          49.000  
G31  24944630.360   131084936.318        -154.561          46.000    24944628.368   102144127.311        -120.485          45.000  
E03  26818125.861   140930184.966        1251.440          46.000    26818128.175   107985517.112         959.011          51.000  
E09  28179930.154   148086490.730       -3329.474          45.000    28179933.727   113468839.421       -2551.221          50.000  
> 2024 04 09 13 22 00.0060000  0 22                     
S33  41606580.452   218644156.801        -856.693          43.000  
G28  25580736.336   134427630.691       -1900.201          38.000    25580736.324   104748815.962       -1480.817          40.000  
G04  22541263.461   118455190.490         983.337          46.000    22541260.182    92302690.486         766.071          46.000  
G17  23881665.997   125499028.810          -8.708          47.000    23881663.475    97791467.658          -6.887          45.000  
R01  24818412.648   132668470.847       -4279.938          42.000    24818414.628   103186638.917       -3328.933          42.000  
R17  21001759.493   112384766.498        -962.142          51.000    21001753.793    87410350.279        -748.366          48.000  
R03  22392779.422   119870346.759         795.319          51.000    22392774.192    93232454.885         618.554          49.000  
R24  23361612.431   124925013.488       -4576.292          52.000    23361609.970    97163942.753       -3559.412          48.000  
R18  23047758.905   123030547.553        2564.522          50.000    23047757.139    95690383.685        1994.622          47.000  
E15  28378728.628   149131244.417        1668.386          38.000    28378731.154   114269407.327        1278.176          44.000  
G21  22261737.454   116986226.299       -3094.426          46.000                                                                  
G02  22101146.433   116142300.591       -2126.142          47.000                                                                  
G09  25609341.464   134577973.100        2426.526          39.000    25609341.304   104865981.601        1890.961          40.000  
R02  21669177.507   115630667.600       -2578.679          52.000    21669175.105    89935139.786       -2005.720          48.000  
E05  23719982.859   124649267.163       -1186.714          46.000    23719984.625    95510514.008        -909.231          53.000  
S31  40653591.355   213636038.186        -856.968          43.000  
G03  22828904.532   119966680.632        -452.428          49.000    22828902.180    93480549.621        -352.501          45.000  
E34  25307132.714   132989886.083         -58.460          48.000    25307133.847   101901333.992         -44.764          52.000  
E36  26594678.755   139755999.708       -2500.429          49.000    26594680.867   107085808.050       -1915.990          49.000  
G31  24945557.514   131089806.456        -169.873          44.000    24945555.392   102147922.172        -132.555          46.000  
E03  26811006.004   140892771.437        1242.951          46.000    26811008.478   107956849.599         952.513          50.000  
E09  28198948.807   148186434.443       -3333.226          45.000    28198952.879   113545419.529       -2554.002          50.000  
> 2024 04 09 13 22 30.0060000  0 23                     
S33  41611473.938   218669871.982        -857.393          43.000  
G28  25591634.197   134484914.325       -1918.744          37.000    25591636.344   104793452.470       -1495.294          40.000  
G04  22535698.484   118425948.440         966.510          46.000    22535695.380    92279904.499         753.076          46.000  
G17  23881778.183   125499617.998         -30.537          48.000    23881776.049    97791926.730         -23.760          45.000  
R01  24842430.573   132796859.346       -4279.206          43.000    24842432.794   103286496.383       -3328.309          41.000  
R17  21007228.234   112414032.454        -988.896          51.000    21007222.704    87433112.649        -769.097          49.000  
R03  22388368.771   119846734.409         779.118          52.000    22388363.279    93214089.721         605.961          49.000  
R24  23387326.390   125062519.146       -4590.544          51.000    23387324.658    97270891.433       -3570.435          48.000  
R18  23033384.702   122953822.628        2550.414          49.000    23033383.829    95630708.747        1983.705          47.000  
E15  28369210.363   149081228.796        1666.125          39.000    28369213.565   114231083.662        1276.895          44.000  
G21  22279459.144   117079349.669       -3113.479          48.000                                                                  
G02  22113339.463   116206372.985       -2145.125          47.000                                                                  
G09  25595508.877   134505288.312        2419.104          40.000    25595509.354   104809344.172        1885.028          39.000  
R04  25339407.953                3       2345.191          10.000                                                                  
R02  21683711.664   115708224.975       -2591.590          52.000    21683710.676    89995462.126       -2015.723          49.000  
E05  23726791.873   124685048.385       -1198.615          46.000    23726793.501    95537930.770        -918.524          53.000  
S31  40658485.233   213661756.508        -857.568          43.000  
G03  22831502.088   119980335.526        -458.077          48.000    22831500.225    93491189.788        -357.043          44.000  
E34  25307493.596   132991782.563         -68.095          48.000    25307494.791   101902787.125         -52.076          53.000  
E36  26608981.928   139831164.623       -2510.427          48.000    26608984.379   107143401.862       -1923.593          49.000  
G31  24946573.711   131095149.207        -186.110          44.000    24946572.549   102152085.325        -145.109          46.000  
E03  26803937.224   140855626.299        1233.621          45.000    26803939.898   107928387.748         945.181          50.000  
E09  28217989.997   148286498.752       -3337.613          44.000    28217994.169   113622092.055       -2557.349          50.000  
> 2024 04 09 13 23 00.0060000  0 23                     
S33  41616371.918   218695608.866        -858.117          44.000  
G28  25602640.627   134542745.648       -1936.664          41.000    25602641.298   104838515.679       -1509.052          39.000  
G04  22530229.272   118397204.932         949.884          46.000    22530225.622    92257506.961         740.241          46.000  
G17  23882014.366   125500856.666         -52.120          47.000    23882011.531    97792891.910         -40.608          45.000  
G19  26037768.795                3       1280.844          24.000                                                                  
R01  24866443.236   132925219.637       -4277.939          43.000    24866445.869   103386331.914       -3327.527          42.000  
R17  21012845.668   112444096.526       -1015.455          50.000    21012841.400    87456495.786        -789.832          49.000  
R03  22384046.980   119823602.877         763.096          52.000    22384042.516    93196098.549         593.596          49.000  
R24  23413119.148   125200449.469       -4604.729          50.000    23413117.965    97378170.421       -3581.423          48.000  
R18  23019088.673   122877515.954        2536.538          48.000    23019088.782    95571359.118        1972.804          47.000  
E15  28359702.535   149031264.694        1664.331          39.000    28359705.540   114192799.470        1275.712          44.000  
G21  22297285.670   117173030.727       -3131.973          47.000                                                                  
G02  22125640.227   116271012.658       -2163.962          47.000                                                                  
G09  25581720.249   134432830.797        2411.499          42.000    25581720.984   104752883.841        1878.864          39.000  
R02  21698317.398   115786160.503       -2604.045          52.000    21698315.597    90056078.607       -2025.343          49.000  
E05  23733669.455   124721189.144       -1210.503          47.000    23733670.773    95565623.019        -927.624          53.000  
S31  40663382.999   213687494.874        -858.114          43.000  
G03  22834131.474   119994154.526        -463.359          48.000    22834130.017    93501957.838        -361.184          44.000  
E34  25307909.275   132993968.080         -77.667          48.000    25307910.753   101904461.734         -59.502          52.000  
E36  26623340.826   139906622.537       -2520.000          48.000    26623343.497   107201220.178       -1930.947          49.000  
G31  24947682.536   131100975.005        -202.114          42.000    24947681.203   102156624.851        -157.640          46.000  
E03  26796921.995   140818759.449        1224.517          46.000    26796924.420   107900139.125         938.213          50.000  
E09  28237057.086   148386691.300       -3341.744          45.000    28237060.489   113698862.835       -2560.596          50.000  
> 2024 04 09 13 23 30.0060000  0 23                     
S33  41621273.378   218721367.289        -858.673          43.000  
G28  25613750.079   134601124.584       -1954.791          41.000    25613750.102   104884005.640       -1523.352          39.000  
G04  22524853.784   118368961.510         933.356          45.000    22524851.237    92235499.109         727.417          46.000  
G17  23882373.982   125502746.165         -73.516          48.000    23882371.228    97794364.248         -57.371          45.000  
G19  26030511.295   136791180.6551       1267.191          27.000                                                                  
R01  24890450.517   133053550.433       -4276.861          44.000    24890452.930   103486144.459       -3326.528          41.000  
R17  21018613.385   112474959.968       -1041.740          51.000    21018608.892    87480500.657        -810.309          48.000  
R03  22379815.609   119800952.765         747.295          52.000    22379810.951    93178481.787         581.212          49.000  
R24  23438992.064   125338802.111       -4618.452          50.000    23438990.242    97485777.885       -3592.049          47.000  
R18  23004873.688   122801632.449        2522.682          49.000    23004873.235    95512338.630        1962.141          48.000  
E15  28350204.807   148981354.086        1663.083          40.000    28350207.695   114154556.310        1274.288          44.000  
G21  22315218.866   117267269.213       -3150.276          47.000                                                                  
G02  22138049.464   116336220.505       -2182.810          48.000                                                                  
G09  25567976.280   134360602.875        2403.986          42.000    25567976.528   104696602.428        1873.450          39.000  
R02  21712993.022   115864471.963       -2616.274          52.000    21712990.415    90116987.482       -2034.806          48.000  
E05  23740614.658   124757689.209       -1222.344          46.000    23740616.438    95593590.563        -936.561          53.000  
S31  40668285.140   213713255.748        -858.732          43.000  
G03  22836792.877   120008138.224        -468.575          48.000    22836791.080    93512854.190        -365.073          45.000  
E34  25308380.792   132996444.635         -87.073          48.000    25308381.956   101906359.338         -66.723          53.000  
E36  26637756.233   139982374.054       -2529.625          48.000    26637758.739   107259263.468       -1938.287          49.000  
G31  24948881.452   131107285.782        -218.073          42.000    24948881.599   102161542.351        -169.947          45.000  
E03  26789959.816   140782172.220        1215.384          46.000    26789961.963   107872104.762         931.189          50.000  
E09  28256146.738   148487011.267       -3345.716          44.000    28256150.668   113775731.264       -2563.659          50.000  
> 2024 04 09 13 24 00.0060000  0 22                     
S33  41626177.293   218747138.021        -859.100          43.000  
G28  25624961.384   134660041.876       -1973.022          43.000    25624961.950   104929915.084       -1537.256          39.000  
G04  22519572.852   118341210.384         916.956          45.000    22519569.700    92213874.859         714.471          46.000  
G17  23882855.399   125505278.578         -95.256          47.000    23882853.435    97796337.533         -74.171          45.000  
R01  24914450.011   133181841.303       -4275.678          44.000    24914452.302   103585925.957       -3325.427          41.000  
R17  21024528.792   112506614.948       -1068.365          51.000    21024524.117    87505121.142        -831.008          48.000  
R03  22375672.319   119778774.493         731.469          51.000    22375667.674    93161231.993         569.020          49.000  
R24  23464942.361   125477565.240       -4632.185          51.000    23464939.420    97593704.584       -3602.840          46.000  
R18  22990736.535   122726167.593        2508.473          49.000    22990736.378    95453643.740        1951.001          48.000  
E15  28340716.294   148931489.748        1661.375          40.000    28340718.764   114116348.567        1273.175          44.000  
G21  22333255.622   117362055.457       -3168.542          45.000                                                                  
G02  22150564.075   116401987.266       -2201.416          48.000                                                                  
G09  25554274.193   134288597.562        2396.466          42.000    25554275.041   104640494.458        1867.493          39.000  
R02  21727737.261   115943147.747       -2628.542          53.000    21727734.486    90178179.683       -2044.434          49.000  
E05  23747626.606   124794539.030       -1234.070          46.000    23747628.727    95621826.106        -945.650          53.000  
S31  40673189.788   213739029.049        -859.267          43.000  
G03  22839483.106   120022277.781        -473.930          48.000    22839482.332    93523871.994        -369.276          45.000  
E34  25308906.019   132999204.972         -96.770          48.000    25308907.397   101908474.363         -74.066          52.000  
E36  26652226.004   140058410.435       -2539.321          49.000    26652228.310   107317525.021       -1945.691          49.000  
G31  24950173.528   131114074.458        -234.254          43.000    24950172.839   102166832.216        -182.302          44.000  
E03  26783049.539   140745856.713        1206.001          46.000    26783051.666   107844278.567         924.142          51.000  
E09  28275259.436   148587448.512       -3349.596          43.000    28275263.107   113852689.517       -2566.677          50.000  
> 2024 04 09 13 24 30.0060000  0 22                     
S33  41631084.467   218772925.199        -859.669          43.000  
G28  25636277.294   134719499.937       -1990.857          41.000    25636276.943   104976245.881       -1551.373          39.000  
G04  22514386.818   118313955.591         900.415          46.000    22514383.487    92192637.352         701.703          46.000  
G17  23883460.455   125508457.466        -116.428          47.000    23883458.153    97798814.579         -90.916          44.000  
R01  24938441.968   133310093.521       -4274.008          44.000    24938444.771   103685677.400       -3324.324          39.000  
R17  21030593.581   112539065.554       -1094.756          51.000    21030588.407    87530360.469        -851.568          48.000  
R03  22371618.826   119757071.335         715.752          52.000    22371613.263    93144351.755         556.670          49.000  
R24  23490969.116   125616738.825       -4645.666          51.000    23490966.348    97701950.519       -3613.349          47.000  
R18  22976679.777   122651128.678        2494.327          49.000    22976679.166    95395280.189        1939.998          48.000  
E15  28331236.458   148881676.147        1659.800          40.000    28331239.527   114078179.719        1271.655          45.000  
G21  22351398.387   117457391.564       -3186.738          44.000                                                                  
G02  22163185.477   116468315.299       -2220.101          47.000                                                                  
G09  25540615.321   134216819.599        2388.916          41.000    25540616.810   104584563.617        1861.713          40.000  
R02  21742548.844   116022188.042       -2640.424          52.000    21742547.151    90239655.416       -2053.731          49.000  
E05  23754705.869   124831740.784       -1245.656          47.000    23754708.121    95650331.307        -954.439          53.000  
S31  40678097.625   213764818.510        -859.689          43.000  
G03  22842204.424   120036576.213        -479.091          48.000    22842203.660    93535013.577        -373.309          46.000  
E34  25309484.994   133002253.497        -106.268          47.000    25309487.473   101910810.224         -81.332          52.000  
E36  26666750.110   140134734.676       -2548.746          49.000    26666752.450   107376007.148       -1952.966          49.000  
G31  24951558.082   131121346.064        -250.159          45.000    24951556.254   102172498.382        -195.003          43.000  
E03  26776190.963   140709816.633        1197.064          46.000    26776193.550   107816663.452         917.222          51.000  
E09  28294394.197   148688004.599       -3353.455          42.000    28294398.826   113929738.862       -2569.662          50.000  
> 2024 04 09 13 25 00.0060000  0 22                     
S33  41635995.487   218798732.723        -861.009          43.000  
G28  25647695.013   134779502.594       -2009.192          43.000    25647694.554   105023001.003       -1565.417          39.000  
G04  22509296.905   118287202.523         883.411          47.000    22509292.621    92171790.817         688.318          46.000  
G17  23884190.038   125512287.670        -138.654          48.000    23884186.458    97801799.083        -108.010          43.000  
R01  24962428.366   133438309.876       -4273.283          46.000    24962429.771   103785401.007       -3323.589          38.000  
R17  21036807.755   112572317.018       -1121.776          51.000    21036802.527    87556222.676        -872.443          49.000  
R03  22367654.746   119735847.624         699.567          52.000    22367649.268    93127844.419         543.938          49.000  
R24  23517071.985   125756324.366       -4659.745          52.000    23517069.338    97810516.889       -3624.183          47.000  
R18  22962704.524   122576524.740        2479.469          49.000    22962703.559    95337254.948        1928.436          49.000  
E15  28321767.913   148831919.233        1657.484          40.000    28321771.335   114040054.300        1270.082          45.000  
G21  22369643.427   117553280.234       -3205.289          44.000                                                                  
G02  22175914.699   116535209.006       -2239.184          46.000                                                                  
G09  25527000.119   134145275.257        2380.994          40.000    25527002.753   104528814.877        1855.048          40.000  
R02  21757429.630   116101594.663       -2653.065          52.000    21757428.110    90301416.072       -2063.459          49.000  
E05  23761853.361   124869298.182       -1257.921          46.000    23761854.977    95679109.010        -963.879          53.000  
S31  40683009.236   213790628.751        -860.756          43.000  
G03  22844956.441   120051037.996        -484.775          48.000    22844955.892    93546282.489        -377.895          46.000  
E34  25310121.379   133005596.207        -116.476          47.000    25310123.660   101913371.488         -89.143          52.000  
E36  26681329.986   140211351.312       -2558.851          49.000    26681331.968   107434713.317       -1960.700          49.000  
G31  24953035.774   131129105.894        -267.014          45.000    24953032.805   102178544.970        -207.903          43.000  
E03  26769385.660   140674057.334        1187.208          46.000    26769389.007   107789263.469         909.714          51.000  
E09  28313551.175   148788682.654       -3357.859          40.000    28313557.456   114006881.625       -2573.030          50.000  
> 2024 04 09 13 25 30.0060000  0 23                     
S33  41640911.728   218824568.702        -861.523          43.000  
G28  25659218.701   134840056.603       -2027.453          43.000    25659219.550   105070185.775       -1580.048          40.000  
G04  22504303.027   118260959.399         866.467          48.000    22504298.240    92151341.627         675.256          46.000  
G17  23885044.229   125516777.132        -160.429          48.000    23885040.709    97805297.324        -124.996          43.000  
G19  26002210.768                3       1211.502          25.000                                                                  
R01  24986408.353   133566496.444       -4272.203          45.000    24986410.104   103885101.423       -3323.095          39.000  
R17  21043172.003   112606377.439       -1148.578          50.000    21043167.465    87582714.085        -893.388          48.000  
R03  22363780.953   119715110.101         683.343          53.000    22363775.245    93111715.244         531.525          50.000  
R24  23543253.034   125896326.049       -4673.467          51.000    23543250.944    97919406.935       -3634.829          47.000  
R18  22948812.428   122502367.499        2464.574          50.000    22948811.797    95279577.111        1916.928          50.000  
E15  28312312.237   148782227.786        1655.492          40.000    28312315.470   114001979.054        1268.436          46.000  
G21  22387997.328   117649727.559       -3223.956          46.000                                                                  
G02  22188753.413   116602675.245       -2258.389          47.000                                                                  
G09  25513431.353   134073973.549        2372.809          40.000    25513434.473   104473255.173        1848.639          40.000  
R02  21772380.166   116181372.148       -2665.159          53.000    21772377.948    90363465.175       -2072.962          48.000  
E05  23769068.520   124907217.640       -1269.891          46.000    23769070.697    95708164.135        -973.021          53.000  
S31  40687926.322   213816466.971        -861.455          43.000  
G03  22847741.232   120065670.417        -490.508          48.000    22847740.023    93557684.355        -382.126          45.000  
E34  25310815.119   133009241.789        -126.434          47.000    25310817.433   101916164.828         -96.886          52.000  
E36  26695966.319   140288267.620       -2568.738          49.000    26695968.913   107493649.108       -1968.252          49.000  
G31  24954607.147   131137362.730        -283.195          44.000    24954603.604   102184978.831        -220.627          42.000  
E03  26762637.028   140638586.853        1177.678          47.000    26762638.978   107762084.774         902.383          51.000  
E09  28332734.469   148889488.545       -3362.084          40.000    28332739.873   114084122.372       -2576.192          50.000  
> 2024 04 09 13 26 00.0060000  0 22                     
S33  41645833.650   218850431.630        -862.287          43.000  
G28  25670846.037   134901160.439       -2045.905          43.000    25670845.978   105117798.990       -1594.196          39.000  
G04  22499405.676   118235226.372         849.231          46.000    22499401.474    92131289.921         661.853          46.000  
G17  23886023.395   125521925.872        -182.551          48.000    23886020.431    97809309.289        -142.194          43.000  
R01  25010381.728   133694650.966       -4271.258          43.000    25010383.999   103984776.856       -3321.882          39.000  
R17  21049688.240   112641247.122       -1175.704          50.000    21049683.978    87609834.939        -914.616          49.000  
R03  22359997.161   119694858.163         666.954          53.000    22359992.378    93095963.740         518.743          51.000  
R24  23569512.127   126036740.444       -4687.351          52.000    23569508.935    98028617.958       -3645.687          47.000  
R18  22935004.594   122428660.511        2449.349          50.000    22935004.325    95222249.476        1905.017          50.000  
E15  28302869.252   148732602.536        1653.057          40.000    28302872.216   113963954.516        1266.610          46.000  
G21  22406456.013   117746731.204       -3242.552          46.000                                                                  
G02  22201700.581   116670713.169       -2277.455          47.000                                                                  
G09  25499909.075   134002915.452        2364.709          41.000    25499912.206   104417885.247        1842.236          41.000  
R02  21787399.682   116261516.877       -2677.527          53.000    21787396.896    90425799.889       -2082.685          48.000  
E05  23776353.069   124945497.543       -1282.000          46.000    23776355.016    95737495.450        -982.270          52.000  
S31  40692848.142   213842333.237        -862.537          43.000  
G03  22850557.985   120080472.668        -496.310          48.000    22850556.693    93569218.576        -386.632          45.000  
E34  25311566.500   133013190.927        -136.644          47.000    25311568.943   101919190.766        -104.700          53.000  
E36  26710659.632   140365482.824       -2578.791          49.000    26710662.487   107552813.905       -1975.826          49.000  
G31  24956272.394   131146117.302        -300.138          45.000    24956269.860   102191800.565        -233.845          43.000  
E03  26755942.248   140603405.169        1167.958          47.000    26755944.043   107735127.372         894.886          50.000  
E09  28351938.994   148990420.149       -3366.750          38.000    28351947.301   114161459.408       -2579.524          50.000  
> 2024 04 09 13 26 30.0060000  0 22                     
S33  41650760.533   218876321.559        -863.361          43.000  
G28  25682578.337   134962813.092       -2064.069          44.000    25682577.332   105165839.907       -1608.282          38.000  
G04  22494605.757   118210003.940         832.416          45.000    22494601.940    92111636.071         648.651          46.000  
G17  23887128.996   125527734.022        -204.500          47.000    23887125.864    97813835.098        -159.520          43.000  
R01  25034349.639   133822771.422       -4269.941          45.000    25034352.946   104084425.845       -3321.238          40.000  
R17  21056355.294   112676926.258       -1202.693          49.000    21056351.656    87637585.330        -935.451          49.000  
R03  22356304.322   119675090.673         650.994          52.000    22356299.475    93080588.991         506.273          50.000  
R24  23595847.403   126177563.695       -4700.716          52.000    23595844.432    98138147.001       -3656.051          48.000  
R18  22921281.241   122355407.788        2434.265          49.000    22921281.249    95165275.161        1893.329          49.000  
E15  28293438.919   148683044.597        1650.949          40.000    28293441.763   113925981.547        1265.022          46.000  
G21  22425021.378   117844289.842       -3261.178          47.000                                                                  
G02  22214756.373   116739321.864       -2296.339          47.000                                                                  
G09  25486434.356   133932102.393        2356.268          41.000    25486436.890   104362706.246        1835.980          40.000  
R02  21802486.456   116342026.042       -2689.515          52.000    21802484.470    90488418.084       -2091.892          48.000  
E05  23783706.122   124984136.705       -1293.778          47.000    23783708.007    95767102.048        -991.345          52.000  
S31  40697775.623   213868226.407        -863.289          43.000  
G03  22853407.242   120095444.391        -501.715          49.000    22853406.090    93580884.810        -390.869          46.000  
E34  25312376.106   133017444.702        -146.697          47.000    25312378.646   101922450.126        -112.476          53.000  
E36  26725410.225   140442996.545       -2588.651          48.000    26725412.699   107612207.450       -1983.552          49.000  
G31  24958034.136   131155370.831        -316.609          45.000    24958031.587   102199011.081        -247.010          43.000  
E03  26749302.332   140568512.699        1158.431          47.000    26749304.083   107708391.560         887.586          50.000  
E09  28371171.853   149091475.637       -3370.354          41.000    28371177.187   114238891.414       -2582.533          50.000  
> 2024 04 09 13 27 00.0060000  0 24                     
S33  41655694.517   218902250.333        -865.143          43.000  
G28  25694416.864   135025024.425       -2083.020          45.000    25694415.718   105214316.089       -1623.199          39.000  
G04  22489905.052   118185303.549         814.508          45.000    22489902.339    92092389.010         634.735          47.000  
G17  23888361.378   125534212.390        -227.177          47.000    23888358.778    97818883.151        -177.102          44.000  
G19  25981881.594                1       1164.879          28.000                                                                  
R01  25058312.982   133950866.988       -4269.391          46.000    25058316.557   104184055.504       -3320.609          39.000  
R17  21063176.446   112713426.450       -1230.436          50.000    21063172.745    87665974.327        -956.921          48.000  
R03  22352703.490   119655818.214         634.117          52.000    22352699.656    93065599.273         493.119          50.000  
R24  23622259.376   126318803.439       -4715.019          51.000    23622257.767    98247999.986       -3667.177          48.000  
R18  22907646.058   122282624.323        2418.147          49.000    22907646.425    95108665.829        1880.744          49.000  
E15  28284023.615   148633566.017        1648.025          41.000    28284026.708   113888069.397        1262.575          47.000  
G21  22443694.085   117942412.471       -3280.183          47.000                                                                  
G02  22227922.450   116808511.630       -2316.048          46.000                                                                  
G09  25473008.846   133861546.539        2347.582          41.000    25473010.491   104307727.702        1829.513          40.000  
R04  25222433.771                3       2140.619          11.000                                                                  
R02  21817643.437   116422907.350       -2702.250          52.000    21817641.919    90551325.711       -2101.831          48.000  
E05  23791129.734   125023144.811       -1306.493          47.000    23791131.141    95796991.327       -1001.071          53.000  
S31  40702710.211   213894157.929        -865.174          43.000  
G03  22856290.821   120110596.139        -508.182          49.000    22856288.930    93592691.346        -395.910          45.000  
E34  25313246.065   133022015.071        -157.745          47.000    25313248.425   101925952.062        -120.847          53.000  
E36  26740218.822   140520819.262       -2599.318          48.000    26740222.329   107671837.754       -1991.656          49.000  
G31  24959892.044   131165135.347        -334.172          45.000    24959890.678   102206619.740        -260.243          44.000  
E03  26742719.458   140533920.683        1147.895          47.000    26742721.289   107681885.993         879.544          50.000  
E09  28390429.165   149192664.289       -3375.393          41.000    28390433.383   114316425.405       -2586.222          50.000  
> 2024 04 09 13 27 30.0060000  0 22                     
S33  41660635.347   218928214.162        -866.070          43.000  
G28  25706360.899   135087791.850       -2101.733          44.000    25706360.219   105263225.599       -1637.677          40.000  
G04  22485303.896   118161124.190         797.095          46.000    22485301.110    92073547.945         621.100          47.000  
G17  23889721.241   125541359.903        -249.542          47.000    23889718.990    97824452.595        -194.244          43.000  
R01  25082270.840   134078934.279       -4268.454          46.000    25082274.987   104283663.148       -3319.947          40.000  
R17  21070151.523   112750746.380       -1257.751          50.000    21070146.779    87695000.918        -978.342          48.000  
R03  22349195.055   119637038.277         617.661          52.000    22349190.481    93050992.617         480.412          49.000  
R24  23648748.346   126460454.799       -4728.613          51.000    23648748.060    98358173.098       -3677.855          48.000  
R18  22894099.417   122210312.800        2402.380          49.000    22894099.615    95052423.559        1868.544          48.000  
E15  28274623.313   148584166.455        1645.197          41.000    28274626.436   113850217.789        1260.729          47.000  
G21  22462473.603   118041095.739       -3298.738          48.000                                                                  
G02  22241199.017   116878280.136       -2335.237          46.000                                                                  
G09  25459631.016   133791247.804        2339.050          40.000    25459632.775   104252949.562        1822.378          41.000  
R02  21832869.466   116504156.064       -2714.442          52.000    21832867.871    90614519.091       -2111.243          48.000  
E05  23798621.881   125062519.178       -1318.678          47.000    23798624.203    95827161.249       -1010.419          53.000  
S31  40707651.589   213920125.341        -866.389          43.000  
G03  22859207.504   120125926.117        -514.119          48.000    22859205.746    93604636.752        -400.588          45.000  
E34  25314175.777   133026901.624        -168.318          47.000    25314178.299   101929696.273        -128.863          53.000  
E36  26755086.244   140598949.121       -2609.538          48.000    26755090.118   107731703.396       -1999.541          49.000  
G31  24961846.930   131175410.149        -351.221          44.000    24961845.168   102214626.032        -273.527          43.000  
E03  26736194.381   140499628.045        1137.883          48.000    26736195.564   107655609.816         872.023          50.000  
E09  28409709.347   149293982.735       -3379.323          40.000    28409713.556   114394058.880       -2589.463          50.000  
> 2024 04 09 13 28 00.0060000  0 23                     
S33  41665582.654   218954210.650        -866.756          43.000  
G28  25718410.102   135151109.983       -2119.537          44.000    25718409.269   105312564.307       -1651.801          41.000  
G04  22480801.564   118137462.113         780.205          46.000    22480798.795    92055109.962         607.982          48.000  
G17  23891208.628   125549172.034        -271.459          47.000    23891205.323    97830539.931        -211.363          43.000  
G19  25968742.206                3       1134.377          28.000                                                                  
R01  25106222.731   134206967.259       -4267.030          46.000    25106226.069   104383244.069       -3319.024          40.000  
R17  21077277.785   112788881.916       -1284.782          50.000    21077272.957    87724661.827        -999.310          48.000  
R03  22345778.779   119618746.248         601.695          52.000    22345773.742    93036765.469         468.060          50.000  
R24  23675313.116   126602510.187       -4741.783          50.000    23675312.192    98468660.467       -3688.110          47.000  
R18  22880641.464   122138472.625        2386.844          49.000    22880641.892    94996547.868        1856.496          49.000  
E15  28265236.684   148534842.820        1642.890          41.000    28265240.435   113812424.360        1258.963          47.000  
G21  22481357.975   118140333.610       -3316.975          48.000                                                                  
G02  22254584.494   116948622.223       -2354.232          46.000                                                                  
G09  25446302.268   133721203.307        2330.651          41.000    25446302.890   104198369.499        1815.866          40.000  
R02  21848162.417   116585764.690       -2726.119          52.000    21848161.474    90677992.412       -2120.307          48.000  
E05  23806182.562   125102254.288       -1330.418          46.000    23806185.626    95857607.588       -1019.386          53.000  
S31  40712599.304   213946124.687        -867.110          43.000  
G03  22862157.718   120141429.710        -519.674          48.000    22862156.555    93616717.436        -404.832          46.000  
E34  25315165.146   133032101.145        -178.435          47.000    25315167.671   101933680.306        -136.757          53.000  
E36  26770012.614   140677381.453       -2619.322          48.000    26770015.345   107791800.792       -2007.018          49.000  
G31  24963898.379   131186191.954        -367.827          44.000    24963896.126   102223027.404        -286.629          42.000  
E03  26729724.984   140465630.897        1128.480          48.000    26729726.203   107629560.049         864.671          50.000  
E09  28429014.238   149395425.138       -3383.167          40.000    28429017.211   114471787.306       -2592.465          49.000  
> 2024 04 09 13 28 30.0060000  0 23                     
S33  41670534.426   218980232.761        -868.014          43.000  
G28  25730562.650   135214972.348       -2137.769          43.000    25730562.473   105362327.066       -1665.802          42.000  
G04  22476396.965   118114312.352         763.177          46.000    22476393.967    92037071.176         594.584          47.000  
G17  23892820.793   125557643.884        -293.381          47.000    23892817.178    97837141.321        -228.764          42.000  
G19  25962308.617   136432837.8661       1118.899          30.000                                                                  
R01  25130166.825   134334958.569       -4265.640          46.000    25130169.903   104482792.558       -3317.583          39.000  
R17  21084555.747   112827827.682       -1311.702          50.000    21084550.995    87754952.936       -1020.068          48.000  
R03  22342451.074   119600935.483         585.723          52.000    22342446.124    93022912.675         455.381          50.000  
R24  23701952.634   126744960.361       -4754.884          51.000    23701950.102    98579454.884       -3698.173          46.000  
R18  22867271.757   122067102.403        2371.150          50.000    22867271.760    94941037.706        1844.213          49.000  
E15  28255863.579   148485590.863        1640.486          41.000    28255868.032   113774685.868        1256.936          47.000  
G21  22500346.397   118240118.950       -3335.205          47.000                                                                  
G02  22268078.956   117019531.787       -2373.091          47.000                                                                  
G09  25433021.183   133651408.980        2322.320          42.000    25433021.306   104143984.326        1809.600          40.000  
R02  21863521.594   116667725.238       -2737.845          51.000    21863520.871    90741739.420       -2129.427          49.000  
E05  23813812.048   125142343.528       -1342.120          47.000    23813814.475    95888325.279       -1028.456          53.000  
S31  40717551.746   213972150.465        -867.858          43.000  
G03  22865140.238   120157101.189        -524.849          48.000    22865139.207    93628928.959        -409.122          45.000  
E34  25316213.945   133037609.340        -188.686          47.000    25316216.171   101937900.842        -144.668          53.000  
E36  26784994.204   140756110.451       -2629.215          49.000    26784996.661   107852125.526       -2014.582          49.000  
G31  24966046.494   131197476.582        -384.449          46.000    24966044.160   102231820.572        -299.942          43.000  
E03  26723310.975   140431924.206        1118.651          48.000    26723312.363   107603732.852         857.216          50.000  
E09  28448338.223   149496984.297       -3387.200          37.000    28448344.019   114549605.188       -2595.451          49.000  
> 2024 04 09 13 29 00.0060000  0 23                     
S33  41675491.172   219006281.106        -868.540          43.000  
G28  25742818.988   135279378.101       -2155.701          44.000    25742819.224   105412513.259       -1679.968          44.000  
G04  22472088.928   118091675.675         746.209          47.000    22472085.862    92019432.192         581.550          47.000  
G17  23894558.142   125566775.558        -315.195          47.000    23894555.349    97844256.862        -245.770          43.000  
G19  25955958.753                        1105.841          27.000                                                                  
R01  25154102.109   134462906.374       -4264.226          47.000    25154104.456   104582307.202       -3316.281          38.000  
R17  21091985.302   112867584.260       -1338.638          50.000    21091980.809    87785874.690       -1041.001          48.000  
R03  22339213.931   119583606.032         569.750          52.000    22339209.167    93009434.189         443.089          50.000  
R24  23728665.106   126887802.387       -4767.795          50.000    23728662.800    98690554.056       -3708.139          47.000  
R18  22853990.676   121996206.477        2355.349          51.000    22853990.236    94885896.441        1831.980          48.000  
E15  28246505.177   148436412.097        1638.296          41.000    28246509.503   113737003.435        1255.273          47.000  
G21  22519438.114   118340450.512       -3353.369          47.000                                                                  
G02  22281680.742   117091008.359       -2391.859          48.000                                                                  
G09  25419788.123   133581866.501        2314.093          41.000    25419788.074   104089795.423        1803.063          41.000  
R02  21878946.464   116750034.324       -2749.319          51.000    21878945.380    90805757.532       -2138.426          49.000  
E05  23821508.436   125182786.023       -1353.825          48.000    23821510.421    95919313.637       -1037.291          53.000  
S31  40722509.406   213998202.475        -868.669          43.000  
G03  22868154.438   120172940.625        -530.663          48.000    22868153.062    93641271.340        -413.334          46.000  
E34  25317321.400   133043427.586        -198.959          48.000    25317323.201   101942358.951        -152.453          53.000  
E36  26800032.943   140835136.049       -2639.111          49.000    26800034.696   107912677.512       -2022.133          48.000  
G31  24968289.938   131209265.099        -401.222          45.000    24968287.841   102241006.364        -312.616          43.000  
E03  26716951.703   140398508.664        1109.103          47.000    26716953.647   107578128.744         849.730          50.000  
E09  28467687.826   149598658.804       -3390.698          38.000    28467691.892   114627511.491       -2598.317          49.000  
> 2024 04 09 13 29 30.0060000  0 24                     
S33  41680453.288   219032355.962        -869.532          43.000  
G28  25755178.665   135344326.336       -2174.109          42.000    25755179.577   105463122.168       -1693.988          45.000  
G04  22467878.545   118069552.799         728.667          47.000    22467875.741    92002193.576         567.882          46.000  
G17  23896421.934   125576567.300        -337.539          47.000    23896418.529    97851886.738        -262.841          43.000  
G19  25949688.858                        1090.317          26.000                                                                  
R01  25178029.204   134590809.333       -4262.676          47.000    25178031.066   104681786.961       -3314.763          37.000  
R17  21099566.322   112908152.162       -1365.862          50.000    21099561.407    87817427.479       -1062.345          49.000  
R03  22336066.071   119566757.102         553.558          52.000    22336062.140    92996329.478         430.529          50.000  
R24  23755448.902   127031032.704       -4780.885          49.000    23755447.717    98801955.194       -3718.500          46.000  
R18  22840799.572   121925789.064        2339.130          51.000    22840798.410    94831127.374        1819.320          48.000  
E15  28237160.538   148387307.939        1635.582          40.000    28237165.300   113699378.172        1253.099          47.000  
G21  22538634.311   118441326.231       -3371.582          47.000                                                                  
G02  22295390.030   117163051.310       -2410.981          48.000                                                                  
G09  25406602.825   133512577.435        2305.495          40.000    25406602.749   104035803.967        1796.208          41.000  
R11  26231808.652                3         35.141          18.000                                                                  
R02  21894435.832   116832688.996       -2760.957          51.000    21894434.833    90870044.450       -2147.407          48.000  
E05  23829271.670   125223580.731       -1365.756          48.000    23829273.139    95950571.888       -1046.519          53.000  
S31  40727471.937   214024280.385        -869.693          43.000  
G03  22871199.828   120188947.855        -536.576          48.000    22871199.827    93653744.496        -418.124          46.000  
E34  25318487.303   133049557.172        -209.624          47.000    25318489.727   101947055.624        -160.637          53.000  
E36  26815126.913   140914458.008       -2649.056          49.000    26815129.156   107973456.575       -2029.943          48.000  
G31  24970627.452   131221559.012        -418.366          44.000    24970627.476   102250586.009        -325.835          42.000  
E03  26710647.086   140365384.846        1099.052          46.000    26710650.033   107552748.166         842.238          50.000  
E09  28487056.873   149700447.310       -3394.705          37.000    28487061.690   114705505.077       -2601.263          49.000  
