     3.00           OBSERVATION DATA    M: Mixed            RINEX VERSION / TYPE
CONVBIN 2.4.3                           20240415 062942 UTC PGM / RUN BY / DATE 
format: u-blox UBX                                          COMMENT             
log: /home/regis/git/gnsspwv/obsdata/VERT00CHL/2024-04-15/VECOMMENT             
{self.marker}                                               MARKER NAME         
                                                            MARKER NUMBER       
GEODETIC                                                    MARKER TYPE         
{self.observer}     {self.institution}                      OBSERVER / AGENCY   
UNKNOWN             UBLOX-ZED-F9P                           REC # / TYPE / VERS 
UNKNOWN             TWIVSP6037L                             ANT # / TYPE        
  1713381.0000 -5047934.0000 -3490983.0000                  APPROX POSITION XYZ 
        0.0000        0.0000        0.0000                  ANTENNA: DELTA H/E/N
G    8 C1C L1C D1C S1C C2L L2L D2L S2L                      SYS / # / OBS TYPES 
R    8 C1C L1C D1C S1C C2C L2C D2C S2C                      SYS / # / OBS TYPES 
E    8 C1C L1C D1C S1C C7Q L7Q D7Q S7Q                      SYS / # / OBS TYPES 
S    4 C1C L1C D1C S1C                                      SYS / # / OBS TYPES 
  2024    04    15    06    15   00.0160000     GPS         TIME OF FIRST OBS   
  2024    04    15    06    29   30.0160000     GPS         TIME OF LAST OBS    
                                                            END OF HEADER       
> 2024 04 15 06 15 00.0160000  0 26                     
S33  44543320.264   234076896.5961       -669.697          43.000  
E02  28034968.600   147324777.4401       -865.276          47.000    28034969.104   112885252.5781       -663.035          53.000  
G28  29463920.708   154833925.0391      -3647.781          39.000    29463922.505   120649721.6091      -2842.440          41.000  
E36  28558285.001   150075156.8231      -1830.508          48.000    28558286.197   114992867.2501      -1402.602          53.000  
G26  25160940.429   132221665.4481       -122.213          50.000    25160937.412   103029828.0021        -95.143          45.000  
R20  24911618.625   133213687.2611      -1287.892          41.000    24911615.268   103610734.8481      -1001.527          43.000  
R10  24459760.084   130384360.0561      -1079.557          46.000                                                                  
R09  25723471.650   137361889.9971      -4267.206          51.000    25723467.836   106837285.5411      -3318.908          50.000  
R05  28011109.160   149735456.4851       2657.094          47.000    28011106.298   116460864.2661       2066.634          46.000  
R04  27533679.732   147441558.6231        495.232          44.000    27533673.234   114676841.8481        385.055          42.000  
G16  27196736.290   142919826.8781       2149.718          44.000                                                                  
E11  30904952.490   162407029.6161      -3139.828          40.000    30904948.709   124441978.9811      -2405.935          41.000  
G18  25799428.405   135577285.0691      -2477.384          48.000    25799424.017   105644753.0261      -1930.362          49.000  
G29  28145026.002   147903513.3231      -2684.233          42.000    28145022.148   115249762.1621      -2091.667          34.000  
S31  43588883.160   229061259.2341       -669.496          44.000  
E30  30474927.546   160146937.3561       1574.677          46.000    30474926.717   122709885.9411       1206.686          46.000  
R11  27040984.931   144498839.4391       2651.581          46.000    27040979.193   112388087.4261       2062.257          47.000  
R21  27114686.758   145096450.6931       1342.953          48.000    27114683.832   112852625.5951       1044.712          48.000  
R19  27785736.997   148635326.7301      -3532.217          40.000    27785732.940   115604858.2981      -2747.233          38.000  
G23  25925122.378   136237582.8491       1303.826          44.000    25925119.232   106159185.8831       1016.253          48.000  
E34  29140503.275   153134588.9031        513.297          47.000    29140505.501   117337041.1791        393.201          52.000  
G27  28682506.504   150727534.0851       1691.199          42.000    28682504.738   117450115.5151       1317.731          40.000  
G10  27806470.047   146124083.7961       3054.369          47.000    27806468.413   113862882.1891       2380.042          42.000  
E25  30236499.801   158894174.2751      -3147.214          46.000    30236500.333   121750234.2991      -2411.687          47.000  
G31  28007941.548   147182648.8121      -3063.535          42.000    28007940.773   114687845.8381      -2387.174          41.000  
E14  35224130.531   185104203.6631       -834.350          35.000    35224131.927   141833146.0011       -639.033          44.000  
> 2024 04 15 06 15 30.0160000  0 26                     
S33  44547141.520   234096978.125        -669.237          42.000  
E02  28039943.036   147350917.639        -877.485          47.000    28039943.325   112905282.060        -672.366          53.000  
G28  29484736.082   154943308.751       -3644.665          39.000    29484737.227   120734955.422       -2839.767          40.000  
E36  28568751.382   150130157.463       -1836.317          49.000    28568752.507   115035010.599       -1407.111          53.000  
G26  25161690.822   132225607.637        -140.577          50.000    25161687.755   103032899.836        -109.374          45.000  
R20  24918864.815   133252438.229       -1295.579          40.000    24918861.911   103640874.494       -1007.844          43.000  
R10  24465911.475   130417149.601       -1106.508          46.000                                                                  
R09  25747483.598   137490111.933       -4280.908          52.000    25747479.937   106937013.683       -3329.638          50.000  
R05  27996211.326   149655819.533        2651.954          49.000    27996208.379   116398924.457        2062.734          47.000  
R04  27530964.693   147427017.690         474.158          45.000    27530959.371   114665532.274         368.754          43.000  
G16  27184487.832   142855458.300        2141.482          45.000                                                                  
E11  30922872.144   162501195.490       -3138.297          40.000    30922867.965   124514132.054       -2404.634          41.000  
G18  25813597.775   135651742.591       -2486.544          48.000    25813592.411   105702771.878       -1937.632          49.000  
G29  28160359.288   147984092.208       -2687.642          43.000    28160355.206   115312550.910       -2094.111          32.000  
S31  43592703.731   229081336.006        -669.335          44.000  
E30  30465954.299   160099783.226        1568.732          46.000    30465953.649   122673754.859        1202.149          46.000  
R11  27026141.413   144419524.427        2635.965          46.000    27026135.811   112326397.949        2050.265          47.000  
R21  27107178.028   145056270.880        1335.619          47.000    27107175.793   112821374.737        1038.704          49.000  
R19  27805540.368   148741254.487       -3529.611          41.000    27805535.248   115687246.602       -2745.138          38.000  
G23  25917725.646   136198711.589        1287.537          46.000    25917722.219   106128896.626        1003.174          47.000  
E34  29137596.574   153119313.730         504.962          47.000    29137598.735   117325336.842         386.967          52.000  
G27  28672847.218   150676776.876        1692.737          41.000    28672845.559   117410564.454        1319.171          41.000  
G10  27789046.686   146032523.546        3049.652          48.000    27789044.288   113791536.638        2376.140          42.000  
E25  30254486.705   158988694.380       -3154.258          46.000    30254487.071   121822658.749       -2416.878          47.000  
G31  28025451.621   147274662.323       -3070.889          41.000    28025449.851   114759544.595       -2392.778          40.000  
E14  35228872.543   185129109.448        -826.650          37.000    35228871.265   141852229.692        -633.376          44.000  
> 2024 04 15 06 16 00.0160000  0 26                     
S33  44550959.813   234117043.828        -668.533          43.000  
E02  28044987.251   147377422.152        -889.580          47.000    28044986.801   112925590.702        -681.598          53.000  
G28  29505532.276   155052589.930       -3640.898          40.000    29505532.976   120820109.372       -2837.385          39.000  
E36  28579251.708   150185334.733       -1842.123          49.000    28579252.432   115077289.289       -1411.582          53.000  
G26  25162545.019   132230099.300        -158.970          50.000    25162543.109   103036399.843        -123.831          46.000  
R20  24926156.099   133291427.771       -1303.631          40.000    24926153.887   103671199.675       -1013.681          43.000  
R10  24472215.110   130450748.013       -1133.390          47.000                                                                  
R09  25771572.418   137618745.026       -4294.672          51.000    25771569.461   107037061.556       -3340.240          51.000  
R05  27981344.094   149576342.730        2646.537          49.000    27981340.483   116337109.190        2058.302          46.000  
R04  27528368.218   147413111.852         452.973          47.000    27528362.968   114654716.678         352.352          46.000  
G16  27172286.825   142791338.647        2133.158          46.000                                                                  
E11  30940783.516   162595324.025       -3136.955          40.000    30940780.653   124586256.531       -2403.727          41.000  
G18  25827819.739   135726479.283       -2495.889          48.000    25827814.486   105761008.253       -1944.831          49.000  
G29  28175710.903   148064765.039       -2690.533          42.000    28175706.911   115375412.806       -2096.171          34.000  
S31  43596521.397   229101397.528        -668.663          44.000  
E30  30457014.389   160052804.619        1563.075          46.000    30457013.958   122637758.298        1197.558          46.000  
R11  27011384.510   144340673.504        2620.621          46.000    27011380.454   112265069.475        2038.245          48.000  
R21  27099711.890   145016320.174        1327.950          45.000    27099709.295   112790302.055        1032.986          47.000  
R19  27825326.688   148847098.045       -3526.660          40.000    27825321.692   115769569.364       -2742.434          38.000  
G23  25910423.189   136160336.712        1270.818          45.000    25910419.588   106098994.162         990.340          48.000  
E34  29134736.557   153104282.791         497.029          47.000    29134738.295   117313819.670         380.760          52.000  
G27  28663179.851   150625976.490        1693.982          40.000    28663178.358   117370979.778        1319.934          41.000  
G10  27771650.127   145941105.423        3044.908          48.000    27771648.131   113720301.850        2372.592          42.000  
E25  30272512.170   159083421.693       -3161.001          46.000    30272513.261   121895242.005       -2422.020          48.000  
G31  28043002.268   147366893.421       -3078.031          39.000    28042999.741   114831412.885       -2398.199          38.000  
E14  35233567.347   185153790.889        -818.723          35.000    35233567.820   141871141.450        -627.525          43.000  
> 2024 04 15 06 16 30.0160000  0 26                     
S33  44554776.790   234137101.519        -668.449          43.000  
E02  28050101.994   147404298.703        -902.087          47.000    28050101.213   112946184.433        -691.185          53.000  
G28  29526309.625   155161773.250       -3638.025          41.000    29526310.231   120905186.990       -2834.522          41.000  
E36  28589786.841   150240694.528       -1848.335          49.000    28589787.002   115119707.833       -1416.223          53.000  
G26  25163505.986   132235148.783        -177.480          50.000    25163504.171   103040334.505        -138.395          46.000  
R20  24933493.099   133330660.640       -1311.968          41.000    24933490.688   103701714.148       -1020.570          43.000  
R10  24478670.744   130485163.123       -1160.759          46.000                                                                  
R09  25795739.620   137747792.609       -4308.458          52.000    25795735.848   107137431.868       -3351.016          51.000  
R05  27966508.288   149497037.993        2640.455          49.000    27966504.982   116275427.772        2053.768          48.000  
R04  27525893.330   147399850.862         431.393          47.000    27525886.963   114644402.620         335.403          44.000  
G16  27160134.689   142727478.062        2124.293          47.000                                                                  
E11  30958689.149   162689421.465       -3135.995          40.000    30958686.973   124658357.163       -2402.896          42.000  
G18  25842094.934   135801500.223       -2505.533          47.000    25842090.760   105819466.135       -1952.340          49.000  
G29  28191081.730   148145539.468       -2694.209          42.000    28191077.844   115438353.849       -2099.448          34.000  
S31  43600337.482   229121451.253        -668.857          44.000  
E30  30448109.912   160006010.556        1556.705          46.000    30448109.522   122601903.112        1192.759          46.000  
R11  26996717.841   144262298.169        2604.612          47.000    26996714.140   112204110.925        2025.723          48.000  
R21  27092291.177   144976605.235        1319.925          48.000    27092286.073   112759412.738        1026.579          46.000  
R19  27845098.127   148952863.700       -3524.306          40.000    27845093.191   115851831.509       -2740.883          39.000  
G23  25903217.071   136122467.791        1253.845          46.000    25903213.145   106069485.933         977.076          48.000  
E34  29131923.462   153089503.004         488.510          46.000    29131925.596   117302494.919         374.306          52.000  
G27  28653506.003   150575140.425        1695.081          41.000    28653504.624   117331367.273        1320.978          41.000  
G10  27754283.003   145849839.887        3039.588          48.000    27754280.198   113649185.956        2368.194          42.000  
E25  30290579.308   159178362.445       -3168.159          46.000    30290580.614   121967988.770       -2427.439          49.000  
G31  28060595.948   147459346.049       -3085.555          38.000    28060592.958   114903453.860       -2404.365          37.000  
E14  35238222.713   185178256.082        -812.154          37.000    35238223.298   141889887.493        -622.210          42.000  
> 2024 04 15 06 17 00.0160000  0 26                     
S33  44558592.709   234157154.991        -668.109          43.000  
E02  28055287.621   147431550.352        -914.402          48.000    28055287.161   112967065.577        -700.772          53.000  
G28  29547067.602   155270858.604       -3634.291          39.000    29547068.488   120990188.362       -2832.093          41.000  
E36  28600356.518   150296238.078       -1854.378          49.000    28600356.759   115162267.194       -1420.928          53.000  
G26  25164573.492   132240759.739        -196.313          50.000    25164571.826   103044706.675        -153.020          46.000  
R20  24940875.531   133370138.718       -1319.974          40.000    24940873.457   103732419.318       -1026.697          43.000  
R10  24485280.637   130520396.485       -1187.991          47.000                                                                  
R09  25819983.051   137877253.203       -4322.083          52.000    25819979.596   107238123.402       -3361.687          51.000  
R05  27951706.616   149417912.327        2634.604          49.000    27951703.127   116213885.634        2049.163          48.000  
R04  27523538.821   147387240.406         409.466          48.000    27523531.221   114634594.488         318.541          45.000  
G16  27148032.919   142663881.819        2115.524          47.000                                                                  
E11  30976590.538   162783489.493       -3134.990          41.000    30976586.959   124730435.273       -2402.255          40.000  
G18  25856425.315   135876805.855       -2514.841          48.000    25856421.664   105878145.871       -1959.568          50.000  
G29  28206472.628   148226418.449       -2697.615          40.000    28206469.510   115501376.374       -2102.225          35.000  
S31  43604152.692   229141500.072        -668.055          44.000  
E30  30439241.080   159959405.244        1550.625          46.000    30439241.176   122566192.553        1188.087          47.000  
R11  26982142.307   144184405.108        2588.564          48.000    26982137.729   112143527.455        2013.298          48.000  
R21  27084912.560   144937127.981        1311.987          46.000    27084909.381   112728708.305        1020.564          47.000  
R19  27864855.595   149058553.138       -3521.745          41.000    27864851.067   115934034.407       -2739.178          37.000  
G23  25896108.061   136085109.780        1236.786          45.000    25896104.549   106040375.826         963.830          48.000  
E34  29129159.104   153074976.597         480.148          46.000    29129161.252   117291364.321         367.873          52.000  
G27  28643826.224   150524271.569        1696.313          43.000    28643824.214   117291729.275        1321.704          41.000  
G10  27736945.564   145758732.824        3034.347          47.000    27736943.353   113578193.517        2364.337          42.000  
E25  30308686.888   159273518.115       -3175.301          46.000    30308688.154   122040900.237       -2433.048          49.000  
G31  28078230.976   147552019.591       -3092.270          38.000    28078227.733   114975666.921       -2409.956          37.000  
E14  35242836.582   185202508.433        -804.624          37.000    35242838.872   141908470.509        -616.770          43.000  
> 2024 04 15 06 17 30.0160000  0 26                     
S33  44562407.618   234177202.394        -668.230          43.000  
E02  28060544.378   147459177.696        -927.144          48.000    28060544.313   112988234.572        -710.416          53.000  
G28  29567806.954   155379843.457       -3631.124          39.000    29567807.811   121075111.343       -2829.162          40.000  
E36  28610959.647   150351964.154       -1860.486          48.000    28610961.248   115204966.397       -1425.566          53.000  
G26  25165748.678   132246933.298        -215.272          50.000    25165746.456   103049517.248        -167.829          46.000  
R20  24948303.316   133409859.941       -1328.021          40.000    24948301.053   103763313.644       -1032.857          43.000  
R10  24492043.572   130556447.753       -1215.363          47.000                                                                  
R09  25844302.576   138007122.899       -4335.765          51.000    25844300.209   107339133.109       -3372.218          50.000  
R05  27936938.869   149338970.659        2628.274          50.000    27936935.216   116152486.599        2044.106          47.000  
R04  27521305.255   147375282.908         387.727          46.000    27521297.893   114625294.202         301.601          46.000  
G16  27135981.413   142600552.508        2106.557          47.000                                                                  
E11  30994485.883   162877527.169       -3134.255          42.000    30994481.868   124802490.156       -2401.647          39.000  
G18  25870809.617   135952394.165       -2524.312          47.000    25870805.483   105937045.822       -1966.925          50.000  
G29  28221882.876   148307402.186       -2701.333          40.000    28221879.521   115564480.560       -2104.825          34.000  
S31  43607966.872   229161543.716        -668.121          44.000  
E30  30430408.523   159912990.515        1544.031          46.000    30430408.937   122530628.032        1183.026          47.000  
R11  26967656.701   144106998.578        2572.018          47.000    26967651.985   112083322.390        2000.618          48.000  
R21  27077579.680   144897888.192        1304.186          48.000    27077576.312   112698188.529        1014.293          46.000  
R19  27884599.430   149164165.895       -3519.356          41.000    27884594.437   116016177.642       -2736.971          39.000  
G23  25889096.457   136048265.101        1219.520          45.000    25889092.911   106011665.735         950.208          47.000  
E34  29126443.879   153060703.305         471.616          47.000    29126445.186   117280427.687         361.371          52.000  
G27  28634140.823   150473370.325        1697.235          45.000    28634137.994   117252065.971        1322.675          40.000  
G10  27719638.503   145667787.502        3028.719          46.000    27719637.233   113507327.151        2359.977          42.000  
E25  30326835.013   159368887.772       -3182.411          46.000    30326836.278   122113975.668       -2438.503          49.000  
G31  28095908.354   147644911.318       -3100.155          35.000    28095905.916   115048049.885       -2415.337          39.000  
E14  35247413.523   185226549.078        -797.854          39.000    35247413.837   141926891.232        -611.216          43.000  
> 2024 04 15 06 18 00.0160000  0 26                     
S33  44566222.143   234197247.978        -668.006          43.000  
E02  28065873.669   147487183.404        -939.531          47.000    28065873.442   113009693.475        -719.962          53.000  
G28  29588527.483   155488727.396       -3627.762          40.000    29588527.889   121159955.768       -2826.684          41.000  
E36  28621599.152   150407873.617       -1866.362          48.000    28621600.347   115247806.117       -1430.098          53.000  
G26  25167031.372   132253672.689        -233.907          50.000    25167029.407   103054768.717        -182.234          46.000  
R20  24955777.144   133449824.486       -1336.026          40.000    24955774.649   103794397.188       -1039.232          43.000  
R10  24498960.015   130593318.567       -1242.423          47.000                                                                  
R09  25868699.764   138137399.935       -4349.104          51.000    25868696.674   107440459.654       -3382.588          50.000  
R05  27922206.708   149260219.734        2621.978          50.000    27922202.080   116091235.880        2039.356          45.000  
R04  27519194.862   147363983.301         365.986          45.000    27519188.633   114616505.671         284.522          47.000  
G16  27123981.994   142537495.058        2097.471          47.000                                                                  
E11  31012374.132   162971535.857       -3132.823          41.000    31012371.667   124874522.792       -2400.541          40.000  
G18  25885247.293   136028265.184       -2533.596          46.000    25885242.954   105996166.106       -1974.105          50.000  
G29  28237314.264   148388492.815       -2704.733          40.000    28237308.706                       -2108.078          30.000  
S31  43611780.225   229181584.918        -667.629          44.000  
E30  30421612.920   159866770.235        1537.546          46.000    30421613.638   122495212.486        1178.181          48.000  
R11  26953262.478   144030084.643        2555.802          47.000    26953258.558   112023500.487        1987.686          49.000  
R21  27070291.173   144858887.179        1296.359          48.000    27070288.203   112667854.499        1008.283          47.000  
R19  27904328.662   149269703.465       -3516.475          40.000    27904322.686   116098262.420       -2735.017          37.000  
G23  25882183.645   136011938.284        1202.490          46.000    25882180.228   105983359.154         936.882          48.000  
E34  29123776.379   153046685.044         463.333          47.000    29123777.630   117269686.464         354.979          52.000  
G27  28624449.702   150422439.232        1698.364          45.000    28624445.850   117212379.417        1323.676          40.000  
G10  27702364.660   145577009.485        3023.340          47.000    27702362.388   113436591.091        2356.082          42.000  
E25  30345023.924   159464472.566       -3189.457          46.000    30345025.055   122187215.929       -2443.984          49.000  
G31  28113627.674   147738020.375       -3106.856          37.000    28113624.243   115120602.297       -2420.730          38.000  
E14  35251949.947   185250380.966        -790.646          39.000    35251948.481   141945152.056        -605.998          43.000  
> 2024 04 15 06 18 30.0160000  0 26                     
S33  44570035.915   234217289.264        -667.741          43.000  
E02  28071274.831   147515566.842        -952.052          47.000    28071274.659   113031441.825        -729.645          53.000  
G28  29609227.584   155597506.811       -3624.116          40.000    29609228.150   121244718.725       -2823.816          40.000  
E36  28632272.401   150463964.108       -1872.563          48.000    28632273.920   115290784.549       -1434.764          53.000  
G26  25168421.741   132260977.872        -252.717          51.000    25168419.781   103060461.057        -196.856          46.000  
R20  24963296.137   133490029.556       -1343.760          40.000    24963293.332   103825667.820       -1045.564          43.000  
R10  24506030.024   130631006.898       -1269.716          47.000                                                                  
R09  25893172.089   138268078.974       -4362.436          52.000    25893169.085   107542098.865       -3392.978          51.000  
R05  27907511.862   149181663.229        2615.541          50.000    27907506.347   116030136.437        2034.253          45.000  
R04  27517210.010   147353342.943         343.920          47.000    27517200.310   114608229.780         267.459          46.000  
G16  27112033.989   142474711.061        2088.392          47.000                                                                  
E11  31030258.488   163065513.644       -3131.560          41.000    31030254.520   124946531.736       -2399.582          40.000  
G18  25899737.955   136104415.738       -2542.749          47.000    25899734.176   106055504.215       -1981.502          50.000  
G29  28252765.990   148469690.060       -2708.180          41.000    28252757.674   115690938.649       -2110.392          32.000  
S31  43615593.262   229201621.858        -667.598          44.000  
E30  30412854.785   159820745.086        1531.096          46.000    30412855.282   122459946.467        1173.205          48.000  
R11  26938961.926   143953666.267        2539.307          48.000    26938957.406   111964064.007        1975.004          48.000  
R21  27063048.456   144820123.550        1288.347          50.000    27063044.297   112637705.087        1002.068          46.000  
R19  27924043.039   149375164.007       -3513.619          41.000    27924038.030   116180287.278       -2733.176          39.000  
G23  25875370.358   135976130.677        1185.064          46.000    25875366.603   105955457.106         923.517          48.000  
E34  29121156.804   153032920.405         454.851          48.000    29121158.290   117259139.597         348.464          52.000  
G27  28614752.085   150371477.501        1699.518          44.000    28614748.401   117172669.037        1324.225          41.000  
G10  27685122.505   145486400.955        3017.797          47.000    27685120.704   113365987.139        2351.503          43.000  
E25  30363254.888   159560270.363       -3196.558          46.000    30363255.000   122260619.403       -2449.309          49.000  
G31  28131386.743   147831342.512       -3114.002          36.000    28131382.665   115193320.788       -2426.364          38.000  
E14  35256444.823   185274004.131        -783.856          38.000    35256443.541   141963252.912        -600.768          42.000  
> 2024 04 15 06 19 00.0160000  0 26                     
S33  44573848.113   234237324.239        -667.719          42.000  
E02  28076747.360   147544325.274        -964.938          47.000    28076747.098   113053477.503        -739.434          53.000  
G28  29629907.340   155706175.801       -3620.579          42.000    29629907.313   121329395.678       -2821.002          40.000  
E36  28642980.054   150520231.080       -1878.602          48.000    28642981.195   115333898.196       -1439.456          53.000  
G26  25169918.767   132268846.630        -271.955          50.000    25169916.724   103066592.555        -211.801          46.000  
R20  24970858.359   133530470.193       -1351.581          39.000    24970855.408   103857121.675       -1051.780          43.000  
R10  24513253.122   130669509.417       -1297.185          47.000                                                                  
R09  25917717.865   138399153.339       -4375.806          51.000    25917714.959   107644045.538       -3403.453          51.000  
R05  27892852.177   149103302.603        2608.490          49.000    27892847.608   115969189.297        2028.860          47.000  
R04  27515345.877   147343360.982         321.497          47.000    27515336.962   114600466.042         250.007          46.000  
G16  27100138.326   142412199.960        2078.878          47.000                                                                  
E11  31048135.855   163159456.360       -3130.875          42.000    31048130.583   125018513.824       -2398.884          38.000  
G18  25914281.846   136180840.529       -2552.150          49.000    25914277.300   106115055.988       -1988.695          49.000  
G29  28268236.308   148550990.944       -2711.852          39.000    28268231.252   115754289.931       -2112.868          33.000  
S31  43619405.295   229221652.557        -667.760          44.000  
E30  30404133.386   159774913.591        1524.379          45.000    30404133.867   122424828.826        1167.930          49.000  
R11  26924753.711   143877744.004        2522.246          47.000    26924748.506   111905013.351        1961.792          47.000  
R21  27055846.996   144781593.248        1280.442          47.000    27055843.396   112607737.157         995.820          45.000  
R19  27943742.515   149480543.412       -3511.136          40.000    27943737.512   116262249.119       -2731.314          38.000  
G23  25868654.811   135940841.226        1167.582          45.000    25868651.131   105927958.858         909.812          48.000  
E34  29118585.053   153019405.841         446.106          48.000    29118586.440   117248784.320         341.841          52.000  
G27  28605047.189   150320482.274        1700.165          44.000    28605044.746   117132932.529        1324.939          40.000  
G10  27667912.363   145395961.955        3011.617          46.000    27667910.368   113295515.303        2346.626          43.000  
E25  30381524.386   159656276.883       -3203.934          45.000    30381524.672   122334182.797       -2454.874          49.000  
G31  28149187.169   147924871.430       -3121.223          35.000    28149181.426   115266200.362       -2432.057          39.000  
E14  35260898.519   185297416.215        -777.019          38.000    35260898.557   141981191.975        -595.399          42.000  
> 2024 04 15 06 19 30.0160000  0 26                     
S33  44577658.704   234257348.439        -667.167          43.000  
E02  28082291.305   147573456.422        -977.110          48.000    28082290.205   113075798.769        -748.760          52.000  
G28  29650564.722   155814729.110       -3616.437          40.000    29650564.412   121413982.548       -2818.039          39.000  
E36  28653719.798   150576670.478       -1884.081          48.000    28653721.119   115377143.976       -1443.712          53.000  
G26  25171522.785   132277277.183        -290.270          50.000    25171520.958   103073161.815        -226.165          46.000  
R20  24978463.969   133571141.438       -1359.376          40.000    24978461.026   103888754.895       -1057.299          43.000  
R10  24520628.080   130708822.424       -1323.907          47.000                                                                  
R09  25942337.653   138530615.599       -4388.371          52.000    25942333.001   107746293.897       -3413.136          51.000  
R05  27878230.133   149025139.605        2602.149          50.000    27878227.156   115908395.921        2023.889          48.000  
R04  27513601.957   147334037.577         299.700          42.000    27513596.391   114593214.518         233.109          46.000  
G16  27088294.756   142349961.853        2070.132          47.000                                                                  
E11  31066004.810   163253360.439       -3129.619          42.000    31065999.953   125090466.323       -2398.132          38.000  
G18  25928876.052   136257534.701       -2560.820          46.000    25928871.767   106174817.693       -1995.405          49.000  
G29  28283726.556   148632392.890       -2714.903          39.000    28283722.008   115817720.139       -2115.436          35.000  
S31  43623214.842   229241673.539        -667.103          44.000  
E30  30395448.350   159729274.697        1518.257          45.000    30395449.016   122389858.759        1163.358          49.000  
R11  26910638.306   143802319.367        2505.862          46.000    26910634.110   111846349.793        1949.020          48.000  
R21  27048689.840   144743293.043        1272.954          46.000    27048684.986   112577948.185         990.253          44.000  
R19  27963425.733   149585838.612       -3508.260          40.000    27963421.265   116344145.342       -2728.489          41.000  
G23  25862038.382   135906069.568        1150.352          46.000    25862034.129   105900864.073         896.511          48.000  
E34  29116059.942   153006138.246         438.287          47.000    29116061.158   117238618.262         335.804          51.000  
G27  28595335.897   150269451.302        1701.568          44.000    28595333.409   117093168.159        1325.977          40.000  
G10  27650735.137   145305693.060        3006.114          46.000    27650732.825   113225175.985        2342.524          42.000  
E25  30399832.754   159752488.333       -3210.367          45.000    30399833.718   122407903.224       -2459.867          50.000  
G31  28167021.245   148018601.158       -3127.416          34.000    28167017.953   115339236.426       -2437.101          37.000  
E14  35265314.326   185320615.413        -769.872          40.000    35265312.548   141998967.940        -589.827          41.000  
> 2024 04 15 06 20 00.0160000  0 26                     
S33  44581468.609   234277369.451        -667.435          42.000  
E02  28087906.459   147602966.051        -989.965          48.000    28087905.896   113098410.036        -758.603          52.000  
G28  29671200.593   155923169.525       -3612.375          40.000    29671200.494   121498481.391       -2814.973          38.000  
E36  28664493.155   150633286.338       -1890.249          48.000    28664494.823   115420524.968       -1448.276          53.000  
G26  25173234.825   132286275.893        -309.489          50.000    25173233.592   103080173.787        -241.191          46.000  
R20  24986114.063   133612047.457       -1367.428          41.000    24986110.691   103920570.678       -1063.481          43.000  
R10  24528156.961   130748950.522       -1351.190          48.000                                                                  
R09  25967028.457   138662467.764       -4401.565          52.000    25967024.763   107848845.517       -3423.406          50.000  
R05  27863646.721   148947183.967        2594.934          49.000    27863643.844   115847763.804        2018.336          48.000  
R04  27511985.568   147325380.383         277.374          45.000    27511979.449   114586481.144         215.689          45.000  
G16  27076504.551   142288005.039        2060.528          48.000                                                                  
E11  31083867.696   163347230.389       -3128.656          42.000    31083862.719   125162392.642       -2397.350          39.000  
G18  25943522.194   136334501.516       -2570.160          47.000    25943517.715   106234791.827       -2002.543          49.000  
G29  28299237.715   148713902.020       -2718.719          39.000    28299234.008   115881233.721       -2118.421          38.000  
S31  43627023.717   229261690.430        -667.065          44.000  
E30  30386802.044   159683835.504        1511.287          45.000    30386802.182   122355041.723        1158.125          49.000  
R11  26896619.150   143727401.530        2488.624          46.000    26896614.734   111788080.421        1935.692          48.000  
R21  27041576.429   144705227.777        1264.843          47.000    27041570.501   112548341.962         983.847          43.000  
R19  27983094.742   149691053.838       -3505.843          39.000    27983089.932   116425979.424       -2726.757          39.000  
G23  25855521.674   135871823.302        1132.623          46.000    25855517.615   105874178.709         882.613          48.000  
E34  29113582.152   152993122.645         429.699          47.000    29113584.459   117228645.295         329.235          51.000  
G27  28585619.060   150218390.079        1702.307          44.000    28585617.005   117053380.225        1326.514          40.000  
G10  27633591.457   145215602.928        3000.023          46.000    27633589.999   113154975.994        2337.499          44.000  
E25  30418179.598   159848908.972       -3217.454          44.000    30418181.736   122481783.937       -2465.261          49.000  
G31  28184898.909   148112533.949       -3134.751          38.000    28184891.030   115412430.802       -2442.209          34.000  
E14  35269688.368   185343607.969        -763.058          39.000    35269688.368   142016585.593        -584.619          41.000  
> 2024 04 15 06 20 30.0160000  0 26                     
S33  44585277.994   234297388.618        -667.302          43.000  
E02  28093594.633   147632856.574       -1002.882          47.000    28093593.967   113121313.137        -768.341          52.000  
G28  29691814.809   156031496.536       -3609.249          39.000    29691814.899   121582891.942       -2812.490          36.000  
E36  28675300.669   150690079.371       -1895.958          48.000    28675302.244   115464041.724       -1452.775          53.000  
G26  25175056.149   132295845.678        -328.543          50.000    25175054.289   103087630.746        -255.978          46.000  
R20  24993807.462   133653188.056       -1375.127          41.000    24993805.200   103952568.927       -1069.630          45.000  
R10  24535837.959   130789894.851       -1378.391          47.000                                                                  
R09  25991791.292   138794707.636       -4414.518          50.000    25991789.604   107951698.694       -3433.392          51.000  
R05  27849103.445   148869443.069        2587.672          49.000    27849101.034   115787298.711        2012.655          48.000  
R04  27510494.993   147317393.825         254.926          47.000    27510486.807   114580269.374         198.131          45.000  
G16  27064769.262   142226333.967        2050.866          48.000                                                                  
E11  31101724.372   163441067.261       -3127.261          42.000    31101719.190   125234293.594       -2396.480          39.000  
G18  25958220.041   136411740.819       -2579.154          48.000    25958215.366   106294978.326       -2009.708          48.000  
G29  28314769.834   148795520.444       -2722.411          41.000    28314765.041   115944832.496       -2121.376          37.000  
S31  43630832.524   229281705.524        -667.066          44.000  
E30  30378193.836   159638599.743        1504.423          44.000    30378194.138   122320380.562        1152.718          49.000  
R11  26882696.929   143652996.470        2471.448          47.000    26882690.594   111730209.842        1922.308          48.000  
R21  27034507.144   144667398.915        1257.011          47.000    27034502.201   112518919.595         977.611          46.000  
R19  28002749.365   149796190.244       -3503.236          39.000    28002743.855   116507752.203       -2724.795          38.000  
G23  25849105.242   135838106.633        1114.907          47.000    25849100.856   105847906.017         868.767          48.000  
E34  29111153.975   152980360.670         421.085          47.000    29111156.142   117218866.650         322.705          51.000  
G27  28575896.090   150167301.079        1703.241          43.000    28575895.437   117013570.671        1327.167          40.000  
G10  27616482.307   145125696.839        2993.558          47.000    27616480.886   113084919.393        2332.799          43.000  
E25  30436567.837   159945539.726       -3224.628          45.000    30436569.777   122555825.669       -2470.704          49.000  
G31  28202812.463   148206668.857       -3141.176          40.000    28202805.273   115485782.672       -2447.763          36.000  
E14  35274025.437   185366396.852        -756.333          41.000    35274024.422   142034047.197        -579.447          41.000  
> 2024 04 15 06 21 00.0160000  0 26                     
S33  44589088.100   234317409.821        -667.480          42.000  
E02  28099355.302   147663133.053       -1015.983          47.000    28099355.374   113144511.989        -778.446          52.000  
G28  29712408.382   156139712.184       -3605.637          37.000    29712408.036   121667215.672       -2809.949          35.000  
E36  28686142.405   150747052.952       -1902.368          48.000    28686144.148   115507696.811       -1457.740          53.000  
G26  25176987.154   132305992.126        -347.966          50.000    25176984.454   103095537.067        -271.042          45.000  
R20  25001544.863   133694566.472       -1383.646          40.000    25001543.384   103984752.169       -1076.019          45.000  
R10  24543672.570   130831659.364       -1406.135          47.000                                                                  
R09  26016627.972   138927335.918       -4427.624          50.000    26016627.050   108054853.972       -3443.796          51.000  
R05  27834602.594   148791926.252        2579.951          49.000    27834599.902   115727007.863        2006.553          47.000  
R04  27509130.599   147310084.983         231.994          47.000    27509122.055   114574584.714         180.567          46.000  
G16  27053089.722   142164955.991        2040.851          48.000                                                                  
E11  31119574.506   163534874.911       -3126.341          40.000    31119569.685   125306172.175       -2395.557          38.000  
G18  25972970.906   136489255.264       -2588.707          47.000    25972965.723   106355379.180       -2017.122          49.000  
G29  28330323.982   148877252.651       -2726.458          42.000    28330316.107   116008519.950       -2124.690          35.000  
S31  43634641.700   229301722.786        -667.670          44.000  
E30  30369625.665   159593573.767        1497.010          44.000    30369625.845   122285880.147        1147.070          49.000  
R11  26868870.326   143579112.840        2453.891          46.000    26868863.894   111672744.828        1908.512          47.000  
R21  27027482.882   144629810.511        1248.775          48.000    27027478.840   112489684.219         971.188          47.000  
R19  28022389.705   149901252.284       -3501.190          40.000    28022384.087   116589467.092       -2723.073          40.000  
G23  25842792.238   135804926.556        1096.724          48.000    25842786.569   105822051.410         854.635          47.000  
E34  29108775.274   152967856.607         412.257          47.000    29108776.641   117209285.642         315.894          52.000  
G27  28566170.318   150116189.350        1703.796          43.000    28566168.741   116973743.382        1327.716          40.000  
G10  27599410.780   145035982.795        2986.935          47.000    27599408.334   113015012.413        2327.265          43.000  
E25  30454997.262   160042384.212       -3231.790          45.000    30454998.624   122630031.167       -2476.373          49.000  
G31  28220764.536   148301007.369       -3148.003          36.000    28220757.825   115559293.037       -2453.340          36.000  
E14  35278323.942   185388987.698        -749.875          40.000    35278323.805   142051357.040        -574.738          42.000  
> 2024 04 15 06 21 30.0160000  0 26                     
S33  44592899.552   234337439.506        -667.682          43.000  
E02  28105191.523   147693801.672       -1028.547          47.000    28105191.510   113168011.320        -788.204          53.000  
G28  29732980.794   156247819.735       -3601.365          34.000    29732981.131                       -2806.858          31.000  
E36  28697018.919   150804211.503       -1908.251          47.000    28697021.062   115551493.629       -1462.109          53.000  
G26  25179028.931   132316721.820        -367.226          50.000    25179025.729   103103897.874        -286.203          45.000  
R20  25009327.502   133736186.865       -1391.332          40.000    25009326.497   104017123.596       -1081.926          45.000  
R10  24551662.967   130874249.505       -1433.248          47.000                                                                  
R09  26041538.792   139060354.082       -4440.320          51.000    26041537.045   108158312.471       -3453.497          51.000  
R05  27820144.172   148714643.338        2572.388          46.000    27820142.487   115666898.971        2000.631          47.000  
R04  27507894.371   147303462.233         209.438          46.000    27507885.610   114569433.734         162.881          45.000  
G16  27041467.384   142103879.564        2030.991          48.000                                                                  
E11  31137420.474   163628658.357       -3125.633          40.000    31137416.079   125378032.228       -2394.676          38.000  
G18  25987774.703   136567048.453       -2597.673          48.000    25987769.694   106415997.251       -2024.172          49.000  
G29  28345898.926   148959105.448       -2730.223          40.000    28345891.994   116072301.384       -2127.310          35.000  
S31  43638452.516   229321748.602        -667.832          44.000  
E30  30361098.155   159548765.071        1490.086          43.000    30361098.929   122251546.218        1141.857          50.000  
R11  26855143.004   143505760.550        2436.293          45.000    26855137.675   111615693.072        1895.088          48.000  
R21  27020504.657   144592467.868        1240.801          49.000    27020500.304   112460640.008         965.092          47.000  
R19  28042017.509   150006245.351       -3498.513          41.000    28042011.877   116671128.349       -2720.989          41.000  
G23  25836581.087   135772290.908        1078.810          46.000    25836576.794   105796621.071         840.670          48.000  
E34  29106446.170   152955615.864         403.768          48.000    29106447.471   117199906.397         309.438          52.000  
G27  28556441.574   150065061.020        1704.596          44.000    28556438.587   116933903.146        1328.241          39.000  
G10  27582376.987   144946469.797        2980.617          46.000    27582374.488   112945262.113        2322.377          43.000  
E25  30473467.575   160139447.058       -3238.855          46.000    30473468.842   122704403.986       -2481.735          48.000  
G31  28238755.638   148395552.312       -3154.811          35.000    28238749.393   115632964.326       -2458.574          35.000  
E14  35282586.803   185411387.210        -743.372          41.000    35282586.026   142068520.246        -569.627          42.000  
> 2024 04 15 06 22 00.0160000  0 26                     
S33  44596710.981   234357470.173        -667.774          42.000  
E02  28111100.529   147724855.610       -1041.348          46.000    28111101.160   113191805.885        -798.060          53.000  
G28  29753533.721                       -3597.312          29.000    29753533.805                       -2803.614          28.000  
E36  28707929.405   150861546.536       -1913.936          47.000    28707931.643   115595425.672       -1466.560          53.000  
G26  25181180.499   132328028.462        -386.424          50.000    25181177.904   103112708.253        -301.082          46.000  
R20  25017154.512   133778040.277       -1399.216          40.000    25017152.324   104049676.286       -1088.194          43.000  
R10  24559804.988   130917656.541       -1460.311          46.000                                                                  
R09  26066520.544   139193751.211       -4452.716          51.000    26066518.411   108262065.756       -3463.224          51.000  
R05  27805730.613   148637592.454        2564.540          48.000    27805727.761   115606970.568        1994.499          46.000  
R04  27506783.405   147297520.667         186.928          44.000    27506777.909   114564812.505         145.283          47.000  
G16  27029901.632   142043100.250        2021.094          48.000                                                                  
E11  31155260.920   163722409.403       -3124.263          40.000    31155256.762   125449867.476       -2394.192          39.000  
G18  26002629.065   136645111.092       -2606.344          47.000    26002624.409   106476825.266       -2030.937          49.000  
G29  28361495.476   149041071.731       -2734.195          40.000    28361489.609   116136171.198       -2130.142          35.000  
S31  43642263.560   229341775.496        -667.454          44.000  
E30  30352610.901   159504168.172        1483.159          43.000    30352612.569   122217374.597        1136.373          50.000  
R11  26841513.514   143432936.233        2418.838          44.000    26841509.994   111559051.955        1881.198          48.000  
R21  27013570.739   144555362.937        1233.030          49.000    27013566.452   112431780.679         959.013          47.000  
R19  28061630.166   150111160.962       -3495.810          42.000    28061624.414   116752729.396       -2719.284          40.000  
G23  25830473.256   135740194.730        1060.998          47.000    25830469.024   105771611.101         826.711          47.000  
E34  29104165.595   152943630.849         395.334          48.000    29104166.877   117190723.108         302.889          52.000  
G27  28546707.964   150013909.253        1705.585          44.000    28546704.457   116894044.683        1328.815          39.000  
G10  27565381.154   144857153.972        2974.122          47.000    27565377.854   112875665.441        2317.389          43.000  
E25  30491978.367   160236719.973       -3245.843          46.000    30491979.417   122778937.754       -2487.018          49.000  
G31  28256779.346   148490293.339       -3161.082          33.000    28256778.520   115706788.509       -2463.678          36.000  
E14  35286810.704   185433589.065        -736.649          40.000    35286811.377   142085532.059        -564.514          43.000  
> 2024 04 15 06 22 30.0160000  0 26                     
S33  44600523.407   234377504.862        -667.802          42.000  
E02  28117083.496   147756297.577       -1054.455          46.000    28117084.134   113215897.774        -808.018          53.000  
E36  28718873.761   150919059.103       -1919.951          47.000    28718876.021   115639493.737       -1471.189          53.000  
G26  25183442.614   132339915.255        -405.892          50.000    25183440.337   103121970.685        -316.267          46.000  
R20  25025024.800   133820126.952       -1406.833          40.000    25025022.932   104082410.397       -1094.168          44.000  
R10  24568100.524   130961881.453       -1487.717          46.000                                                                  
R09  26091572.300   139327525.294       -4465.444          51.000    26091570.160   108366112.194       -3473.205          51.000  
R05  27791361.749   148560780.055        2556.488          49.000    27791357.386   115547227.595        1988.453          45.000  
R04  27505801.135   147292264.808         163.970          45.000    27505796.035   114560724.620         127.380          45.000  
G16  27018393.003   141982623.058        2010.853          48.000                                                                  
E11  31173095.075   163816129.654       -3123.662          40.000    31173091.312   125521679.077       -2393.193          40.000  
G18  26017535.269   136723443.451       -2615.602          47.000    26017530.646   106537863.444       -2038.079          49.000  
G29  28377115.403   149123154.053       -2737.878          42.000    28377109.314   116200131.429       -2133.441          34.000  
S31  43646075.270   229361805.982        -667.784          44.000  
E30  30344165.243   159459787.199        1475.550          43.000    30344167.186   122183368.408        1130.738          50.000  
R11  26827986.214   143360646.387        2400.747          45.000    26827982.053   111502826.538        1867.263          49.000  
R21  27006681.490   144518497.372        1224.851          49.000    27006677.278   112403107.547         952.626          47.000  
R19  28081228.625   150216001.319       -3493.493          42.000    28081223.703   116834271.886       -2717.017          41.000  
G23  25824469.680   135708642.550        1042.566          47.000    25824464.406   105747025.006         812.483          47.000  
E34  29101933.334   152931903.555         386.510          48.000    29101935.290   117181737.287         296.196          52.000  
G27  28536969.770   149962736.840        1706.122          45.000    28536967.182   116854170.091        1329.584          40.000  
G10  27548423.180   144768040.956        2967.144          47.000    27548420.216   112806226.835        2312.111          43.000  
E25  30510528.639   160334204.224       -3253.014          45.000    30510529.914   122853633.441       -2492.474          48.000  
G31  28274844.712   148585229.680       -3167.631          32.000    28274845.243   115780764.738       -2468.377          35.000  
E14  35290999.965   185455596.639        -730.546          40.000    35290999.835   142102394.963        -559.639          44.000  
G28                                                                  29774052.376                3      -2800.727          25.000  
> 2024 04 15 06 23 00.0160000  0 26                     
S33  44604335.191   234397535.153        -667.633          42.000  
E02  28123139.410   147788119.960       -1067.234          46.000    28123139.951   113240281.149        -817.756          53.000  
E36  28729850.103   150976739.897       -1925.435          47.000    28729852.113   115683690.713       -1475.446          53.000  
G26  25185813.795   132352375.003        -424.915          50.000    25185811.006   103131679.560        -331.018          46.000  
R20  25032936.927   133862437.138       -1414.120          40.000    25032935.025   104115318.345       -1099.936          43.000  
R10  24576550.145   131006915.355       -1514.803          47.000                                                                  
R09  26116691.986   139461664.506       -4477.494          50.000    26116690.191   108470442.629       -3482.506          50.000  
R05  27777036.041   148484203.550        2548.510          50.000    27777032.304   115487668.093        1982.119          47.000  
R04  27504946.478   147287688.685         141.128          48.000    27504940.880   114557165.433         109.636          43.000  
G16  27006941.233   141922443.036        2000.841          48.000                                                                  
E11  31190921.139   163909810.201       -3121.957          39.000    31190918.740   125593460.295       -2392.267          41.000  
G18  26032490.868   136802035.447       -2624.150          48.000    26032486.555   106599103.966       -2044.708          49.000  
G29  28392757.162   149205344.999       -2741.615          43.000    28392750.496   116264176.307       -2136.478          35.000  
S31  43649886.357   229381833.425        -667.554          44.000  
E30  30335759.523   159415615.809        1468.703          42.000    30335761.511   122149522.816        1125.450          50.000  
R11  26814557.878   143288886.312        2383.082          46.000    26814553.344   111447013.189        1853.478          49.000  
R21  26999835.780   144481862.742        1217.282          49.000    26999831.315   112374613.975         946.788          46.000  
R19  28100811.014   150320757.281       -3490.536          42.000    28100806.922   116915748.720       -2714.807          42.000  
G23  25818567.869   135677628.488        1024.613          48.000    25818562.091   105722858.226         798.606          47.000  
E34  29099749.020   152920425.584         378.368          47.000    29099750.985   117172942.503         289.935          51.000  
G27  28527226.502   149911536.169        1707.013          45.000    28527224.512   116814273.528        1330.200          41.000  
G10  27531502.757   144679126.059        2960.467          48.000    27531500.678   112736942.614        2306.688          44.000  
E25  30529118.159   160431890.699       -3259.694          46.000    30529118.902   122928484.083       -2497.633          48.000  
G31  28292947.248   148680350.240       -3173.539          34.000    28292947.231   115854884.471       -2472.716          34.000  
E14  35295149.944   185477402.822        -723.512          41.000    35295149.351   142119103.597        -554.544          44.000  
G28                                                                  29794553.482                3      -2796.521          22.000  
> 2024 04 15 06 23 30.0160000  0 26                     
S33  44608144.617   234417553.788        -667.444          42.000  
E02  28129266.106   147820316.053       -1079.700          46.000    28129266.525   113264950.874        -827.297          53.000  
E36  28740857.464   151034580.585       -1930.918          48.000    28740858.766   115728010.183       -1479.557          53.000  
G26  25188292.586   132365401.447        -443.820          50.000    25188289.831   103141830.021        -345.746          46.000  
R20  25040890.345   133904961.861       -1421.075          41.000    25040886.907   104148393.149       -1105.509          44.000  
R10  24585148.937   131052750.623       -1541.502          47.000                                                                  
R09  26141879.005   139596157.380       -4489.137          51.000    26141875.880   108575048.128       -3491.583          50.000  
R05  27762754.299   148407859.457        2540.577          50.000    27762751.052   115428289.365        1975.996          47.000  
R04  27504219.467   147283787.725         118.570          48.000    27504212.621   114554131.351          92.228          43.000  
G16  26995544.974   141862555.512        1991.157          48.000                                                                  
E11  31208739.370   164003443.282       -3120.396          39.000    31208736.371   125665205.110       -2391.050          41.000  
G18  26047494.609   136880877.962       -2632.502          47.000    26047489.555   106660539.686       -2051.213          49.000  
G29  28408417.456   149287637.622       -2744.867          44.000    28408411.883   116328300.374       -2138.972          36.000  
S31  43653694.972   229401848.308        -667.183          44.000  
E30  30327392.755   159371648.678        1461.963          42.000    30327394.838   122115833.742        1120.149          50.000  
R11  26801226.708   143217652.722        2365.444          47.000    26801223.232   111391609.297        1839.736          49.000  
R21  26993030.640   144445451.174        1209.775          50.000    26993027.882   112346293.918         940.903          47.000  
R19  28120377.569   150425421.547       -3487.411          44.000    28120372.680   116997154.238       -2712.883          39.000  
G23  25812767.723   135647147.607        1006.954          48.000    25812761.921   105699106.919         784.583          46.000  
E34  29097609.678   152909189.471         370.281          46.000    29097612.432   117164333.052         283.653          51.000  
G27  28517477.385   149860300.636        1708.130          44.000    28517475.063   116774349.777        1330.994          42.000  
G10  27514619.839   144590405.528        2953.832          47.000    27514617.937   112667809.829        2301.732          44.000  
E25  30547744.327   160529771.223       -3266.288          46.000    30547744.721   123003483.396       -2502.649          48.000  
G31  28311083.651   148775644.905       -3179.703          34.000    28311081.619   115929139.978       -2478.225          33.000  
E14  35299260.771   185499001.583        -716.730          41.000    35299259.697   142135653.293        -549.186          44.000  
G28                                                                  29815030.086                3      -2782.233          19.000  
> 2024 04 15 06 24 00.0160000  0 26                     
S33  44611953.245   234437568.348        -667.101          42.000  
E02  28135465.310   147852892.999       -1092.232          46.000    28135465.606   113289912.423        -836.941          53.000  
E36  28751895.594   151092586.626       -1936.299          48.000    28751896.856   115772456.367       -1483.653          53.000  
G26  25190881.096   132379002.172        -462.823          50.000    25190877.934   103152427.974        -360.786          46.000  
R20  25048883.618   133947706.865       -1428.435          41.000    25048880.827   104181639.248       -1111.078          44.000  
R10  24593898.829   131099392.180       -1568.256          46.000                                                                  
R09  26167132.380   139731006.839       -4500.878          51.000    26167128.634   108679930.979       -3500.602          49.000  
R05  27748517.927   148331759.927        2532.494          49.000    27748515.604   115369100.864        1969.822          48.000  
R04  27503618.545   147280570.642          95.696          47.000    27503610.939   114551629.264          74.351          41.000  
G16  26984206.351   141802969.888        1980.864          48.000                                                                  
E11  31226549.576   164097034.856       -3118.803          39.000    31226546.518   125736918.126       -2389.774          42.000  
G18  26062545.948   136959975.681       -2640.822          47.000    26062541.258   106722174.291       -2057.682          48.000  
G29  28424096.048   149370039.023       -2748.671          43.000    28424092.426   116392509.166       -2141.805          36.000  
S31  43657502.927   229421860.071        -667.003          44.000  
E30  30319066.898   159327894.344        1454.861          43.000    30319068.535   122082307.713        1114.784          50.000  
R11  26787998.285   143146957.019        2347.424          48.000    26787992.559   111336623.791        1825.840          49.000  
R21  26986269.350   144409268.710        1202.243          48.000    26986265.591   112318152.041         935.145          45.000  
R19  28139927.438   150530000.108       -3484.553          44.000    28139921.131   117078493.068       -2710.487          33.000  
G23  25807069.956   135617208.815         988.895          48.000    25807064.894   105675778.023         770.447          47.000  
E34  29095519.120   152898201.671         362.060          46.000    29095521.121   117155913.856         277.487          51.000  
G27  28507721.789   149809037.518        1709.180          44.000    28507719.791   116734404.545        1331.781          41.000  
G10  27497775.467   144501889.538        2947.036          48.000    27497772.811   112598836.388        2296.519          43.000  
E25  30566408.749   160627851.469       -3272.688          46.000    30566408.953   123078635.764       -2507.633          48.000  
G31  28329251.458   148871117.500       -3185.186          35.000    28329250.914   116003534.084       -2482.278          33.000  
E14  35303332.837   185520400.609        -709.842          41.000    35303332.084   142152049.932        -543.993          44.000  
G28                                                                  29835503.971                3      -2787.082          21.000  
> 2024 04 15 06 24 30.0160000  0 26                     
S33  44615762.100   234457584.865        -667.771          42.000  
E02  28141738.486   147885857.142       -1105.610          46.000    28141738.615   113315170.645        -847.067          53.000  
E36  28762966.668   151150762.769       -1942.293          48.000    28762967.146   115817032.896       -1488.168          52.000  
G26  25193579.405   132393183.928        -482.847          50.000    25193576.726   103163478.667        -376.157          45.000  
R20  25056918.848   133990676.629       -1436.667          40.000    25056916.277   104215060.171       -1117.203          43.000  
R10  24602799.834   131146845.413       -1595.625          46.000                                                                  
R09  26192452.487   139866214.785       -4513.171          51.000    26192448.553   108785092.666       -3510.280          48.000  
R05  27734329.503   148255915.381        2523.479          49.000    27734326.511   115310110.748        1962.919          47.000  
R04  27503146.724   147278045.683          72.305          47.000    27503138.506   114549665.431          56.571          39.000  
G16  26972926.570   141743695.164        1970.194          48.000                                                                  
E11  31244352.857   164190590.149       -3118.212          39.000    31244349.799   125808603.370       -2389.256          43.000  
G18  26077647.353   137039332.567       -2649.715          48.000    26077642.221   106784010.822       -2064.812          48.000  
G29  28439798.815   149452555.211       -2752.557          43.000    28439793.527   116456807.526       -2144.991          34.000  
S31  43661311.310   229441872.779        -667.231          44.000  
E30  30310783.684   159284360.532        1447.340          44.000    30310784.289   122048950.669        1108.917          50.000  
R11  26774869.669   143076808.592        2328.800          47.000    26774864.924   111282063.886        1811.146          48.000  
R21  26979551.022   144373321.012        1194.122          48.000    26979547.503   112290192.791         928.707          46.000  
R19  28159462.141   150634498.604       -3482.162          45.000    28159454.977   117159769.681       -2708.956          36.000  
G23  25801478.236   135587820.186         970.190          48.000    25801472.835   105652877.820         755.932          48.000  
E34  29093476.947   152887467.754         353.259          47.000    29093478.737   117147689.189         270.799          51.000  
G27  28497962.537   149757753.147        1709.540          43.000    28497960.392   116694442.734        1332.269          41.000  
G10  27480971.822   144413587.348        2939.466          47.000    27480969.254   112530029.534        2290.459          43.000  
E25  30585111.716   160726136.311       -3279.744          46.000    30585112.232   123153944.895       -2513.095          48.000  
G31  28347449.405   148966770.619       -3191.665          32.000    28347454.293                       -2487.143          31.000  
E14  35307367.468   185541606.869        -703.918          40.000    35307367.316   142168298.885        -539.431          45.000  
G28                                                                  29855918.644                3      -2790.676          15.000  
> 2024 04 15 06 25 00.0160000  0 25                     
S33  44619571.223   234477601.540        -667.338          42.000  
E02  28148084.905   147919207.643       -1118.309          46.000    28148085.211   113340724.912        -856.838          53.000  
E36  28774068.895   151209106.598       -1947.718          49.000    28774069.239   115861737.920       -1492.341          51.000  
G26  25196388.683   132407946.311        -501.949          50.000    25196386.313   103174981.807        -390.955          46.000  
R20  25064996.325   134033867.129       -1443.030          41.000    25064993.227   104248652.828       -1122.701          44.000  
R10  24611853.719   131195108.049       -1622.183          45.000                                                                  
R09  26217838.398   140001775.939       -4524.646          50.000    26217834.451   108890529.045       -3519.186          48.000  
R05  27720191.012   148180329.847        2515.084          51.000    27720186.485   115251322.031        1956.267          48.000  
R04  27502803.422   147276214.148          49.447          46.000    27502796.250   114548240.952          38.111          39.000  
G16  26961706.553   141684732.792        1960.076          48.000                                                                  
E11  31262148.974   164284107.217       -3116.780          40.000    31262145.512   125880259.293       -2388.035          43.000  
G18  26092797.593   137118945.406       -2657.985          48.000    26092791.998   106846046.801       -2071.163          47.000  
G29  28455523.448   149535186.258       -2756.360          44.000    28455518.747   116521195.264       -2147.470          34.000  
S31  43665119.598   229461885.950        -667.144          44.000  
E30  30302541.976   159241047.867        1440.064          44.000    30302542.009   122015763.060        1103.320          50.000  
R11  26761845.023   143007210.445        2310.687          48.000    26761840.746   111227931.958        1797.304          48.000  
R21  26972878.273   144337605.902        1186.417          50.000    26972874.187   112262414.461         922.982          47.000  
R19  28178981.792   150738915.452       -3479.426          44.000    28178975.112   117240982.754       -2706.412          35.000  
G23  25795990.105   135558982.659         951.926          48.000    25795985.327   105630407.060         741.802          47.000  
E34  29091482.995   152876986.132         345.151          47.000    29091484.208   117139657.861         264.435          51.000  
G27  28488199.823   149706446.850        1710.260          43.000    28488197.559   116654463.844        1332.776          42.000  
G10  27464209.399   144325501.114        2932.389          47.000    27464207.265   112461390.984        2285.051          43.000  
E25  30603852.214   160824623.535       -3286.342          45.000    30603853.644   123229409.095       -2518.068          48.000  
G31  28365685.342                       -3197.102          30.000    28365694.493                       -2490.301          30.000  
E14  35311365.785   185562620.220        -697.367          40.000    35311366.289   142184400.001        -534.157          45.000  
> 2024 04 15 06 25 30.0160000  0 25                     
S33  44623378.788   234497611.500        -666.843          42.000  
E02  28154503.859   147952936.772       -1130.532          47.000    28154503.744   113366569.298        -866.326          53.000  
E36  28785201.297   151267608.760       -1952.674          48.000    28785201.378   115906564.262       -1496.161          51.000  
G26  25199307.253   132423281.991        -520.826          50.000    25199304.642   103186931.682        -405.836          46.000  
R20  25073112.726   134077269.311       -1450.474          41.000    25073109.764   104282410.078       -1128.084          44.000  
R10  24621058.220   131244170.287       -1648.854          46.000                                                                  
R09  26243288.186   140137678.353       -4535.793          50.000    26243285.041   108996230.869       -3527.845          49.000  
R05  27706097.433   148104999.637        2506.684          49.000    27706094.421   115192731.903        1949.672          47.000  
R04  27502590.550   147275069.841          26.665          48.000    27502581.708   114547350.948          20.798          38.000  
G16  26950544.953   141626077.555        1949.996          48.000                                                                  
E11  31279935.901   164377577.152       -3114.764          41.000    31279931.978   125951879.103       -2386.562          44.000  
G18  26107993.479   137198804.061       -2666.016          47.000    26107988.332   106908274.342       -2077.637          47.000  
G29  28471268.533   149617923.914       -2759.864          44.000    28471263.090   116585666.193       -2150.964          35.000  
S31  43668927.020   229481892.450        -667.008          44.000  
E30  30294340.453   159197950.006        1433.078          44.000    30294340.737   121982740.031        1098.066          50.000  
R11  26748923.139   142938157.848        2292.542          48.000    26748918.952   111174224.395        1783.064          48.000  
R21  26966245.711   144302114.878        1179.218          50.000    26966241.464   112234810.383         917.302          47.000  
R19  28198484.850   150843241.582       -3476.185          45.000    28198478.241   117322125.285       -2703.157          38.000  
G23  25790605.447   135530690.197         933.848          47.000    25790601.343   105608361.019         727.669          48.000  
E34  29089534.390   152866748.386         337.065          47.000    29089536.188   117131813.375         258.346          51.000  
G27  28478430.808   149655111.075        1711.559          43.000    28478428.956   116614461.971        1333.857          43.000  
G10  27447487.688   144237626.067        2925.432          48.000    27447484.551   112392916.990        2279.614          42.000  
E25  30622630.161   160923303.918       -3292.571          45.000    30622631.436   123305021.318       -2522.927          48.000  
G31  28383956.179   149158594.958       -3202.386          35.000    28383957.725                       -2495.637          30.000  
E14  35315326.867   185583433.553        -690.435          40.000    35315326.618   142200347.892        -529.212          44.000  
> 2024 04 15 06 26 00.0160000  0 25                     
S33  44627185.855   234517617.162        -667.107          42.000  
E02  28160996.245   147987048.749       -1143.672          47.000    28160994.998   113392707.033        -876.311          53.000  
E36  28796364.834   151326271.894       -1958.308          48.000    28796364.700   115951513.947       -1500.484          51.000  
G26  25202335.300   132439195.490        -540.272          50.000    25202333.803   103199331.812        -421.077          47.000  
R20  25081268.876   134120885.594       -1457.272          39.000    25081266.413   104316333.854       -1133.567          43.000  
R10  24630412.996   131294035.367       -1675.677          46.000                                                                  
R09  26268802.343   140273921.513       -4547.319          50.000    26268799.105   109102197.700       -3536.864          49.000  
R05  27692054.933   148029933.134        2497.646          50.000    27692051.233   115134346.916        1942.541          47.000  
R04  27502506.514   147274618.685           3.224          47.000    27502499.332   114547000.048           2.072          39.000  
G16  26939442.715   141567736.065        1939.243          48.000                                                                  
E11  31297713.473   164471003.152       -3113.800          41.000    31297710.674   126023465.254       -2385.754          44.000  
G18  26123237.029   137278910.405       -2674.543          47.000    26123232.157   106970694.892       -2084.170          47.000  
G29  28487033.249   149700772.431       -2763.659          41.000    28487027.284   116650223.494       -2154.016          34.000  
S31  43672733.241   229501895.500        -666.891          44.000  
E30  30286180.889   159155072.568        1425.369          43.000    30286181.509   121949885.911        1092.103          50.000  
R11  26736104.208   142869658.994        2273.864          48.000    26736100.011   111120947.548        1768.444          48.000  
R21  26959655.344   144266851.001        1171.500          50.000    26959651.879   112207382.954         911.142          47.000  
R19  28217970.969   150947480.784       -3473.303          44.000    28217965.360   117403200.266       -2701.545          41.000  
G23  25785326.212   135502948.775         915.050          46.000    25785322.614   105586744.334         713.221          48.000  
E34  29087632.653   152856757.951         328.708          47.000    29087635.242   117124158.405         251.845          52.000  
G27  28468656.715   149603750.175        1712.336          42.000    28468654.669   116574440.510        1334.432          42.000  
G10  27430807.401   144149969.478        2918.152          48.000    27430804.012   112324613.228        2273.928          43.000  
E25  30641446.128   161022180.263       -3299.374          45.000    30641446.993   123380783.699       -2528.071          48.000  
G31  28402249.018                       -3208.447          30.000    28402256.163                       -2499.927          27.000  
E14  35319250.408   185604051.820        -684.281          40.000    35319249.820   142216146.273        -524.164          44.000  
> 2024 04 15 06 26 30.0160000  0 25                     
S33  44630992.278   234537620.743        -666.749          42.000  
E02  28167559.887   148021544.408       -1156.307          47.000    28167559.403   113419138.762        -885.920          53.000  
E36  28807558.601   151385095.312       -1963.451          49.000    28807558.609   115996586.453       -1504.453          51.000  
G26  25205473.546   132455688.130        -559.418          50.000    25205472.233   103212183.203        -435.944          47.000  
R20  25089464.546   134164714.694       -1464.594          39.000    25089462.158   104350423.125       -1138.951          43.000  
R10  24639918.732   131344702.172       -1702.253          46.000                                                                  
R09  26294379.870   140410502.398       -4558.209          51.000    26294376.624   109208427.187       -3545.256          50.000  
R05  27678061.594   147955136.030        2488.801          48.000    27678058.709   115076171.399        1935.711          46.000  
R04  27502552.386   147274863.460         -19.829          48.000    27502546.769   114547190.417         -15.520          40.000  
G16  26928400.719   141509711.588        1928.991          48.000                                                                  
E11  31315483.511   164564384.997       -3111.768          40.000    31315480.382   126095017.582       -2384.440          44.000  
G18  26138527.171   137359262.972       -2682.427          47.000    26138522.553   107033307.287       -2090.344          47.000  
G29  28502819.396   149783732.804       -2767.072          42.000    28502814.131   116714867.840       -2156.067          34.000  
S31  43676538.901   229521895.302        -666.489          44.000  
E30  30278064.686   159112417.884        1418.050          44.000    30278064.643   121917202.448        1086.648          50.000  
R11  26723388.958   142801718.017        2255.235          46.000    26723385.427   111068104.587        1754.165          47.000  
R21  26953107.738   144231814.544        1164.155          50.000    26953103.839   112180132.431         905.418          48.000  
R19  28237441.060   151051633.042       -3470.183          44.000    28237436.043   117484207.559       -2698.781          43.000  
G23  25780152.190   135475760.905         897.150          46.000    25780149.102   105565559.013         699.036          48.000  
E34  29085778.485   152847015.042         320.657          47.000    29085781.275   117116693.100         245.605          52.000  
G27  28458877.910   149552365.209        1713.330          42.000    28458875.325   116534400.326        1334.942          40.000  
G10  27414169.195   144062535.254        2910.691          48.000    27414166.105   112256482.714        2268.279          43.000  
E25  30660299.207   161121252.003       -3305.601          46.000    30660300.346   123456695.782       -2532.818          49.000  
G31  28420585.143   149351080.169       -3213.429          36.000    28420580.217                1      -2503.864          26.000  
E14  35323137.534   185624476.486        -677.829          40.000    35323136.402   142231796.337        -519.267          44.000  
> 2024 04 15 06 27 00.0160000  0 25                     
S33  44634799.010   234557626.086        -666.747          42.000  
E02  28174197.617   148056429.145       -1169.254          47.000    28174197.441   113445868.623        -895.924          53.000  
E36  28818783.437   151444082.863       -1969.083          48.000    28818783.780   116041784.697       -1508.656          52.000  
G26  25208722.759   132472765.608        -578.992          49.000    25208721.790   103225490.324        -451.105          46.000  
R20  25097700.960   134208760.178       -1471.820          39.000    25097698.707   104384680.751       -1144.647          43.000  
R10  24649574.882   131396174.598       -1729.078          47.000                                                                  
R09  26320020.762   140547421.836       -4569.557          51.000    26320017.270   109314920.024       -3553.953          50.000  
R05  27664121.976   147880617.745        2479.299          48.000    27664119.055   115018212.758        1928.388          47.000  
R04  27502730.268   147275811.155         -43.288          47.000    27502723.348   114547927.570         -33.874          37.000  
G16  26917420.495   141452011.809        1917.914          48.000                                                                  
E11  31333245.516   164657727.123       -3110.771          40.000    31333242.492   126166539.452       -2383.484          43.000  
G18  26153865.312   137439864.862       -2690.919          47.000    26153860.623   107096113.907       -2096.733          48.000  
G29  28518629.931   149866810.613       -2771.332          43.000    28518622.669   116779603.752       -2159.393          35.000  
S31  43680345.238   229541897.861        -666.885          44.000  
E30  30269991.193   159069992.758        1410.170          44.000    30269991.610   121884694.904        1080.661          50.000  
R11  26710781.419   142734344.077        2236.357          47.000    26710777.102   111015702.641        1739.377          48.000  
R21  26946603.673   144197009.539        1156.131          50.000    26946599.233   112153061.913         899.334          46.000  
R19  28256896.208   151155702.958       -3467.732          44.000    28256890.835   117565150.799       -2697.003          42.000  
G23  25775085.417   135449133.736         878.186          47.000    25775081.582   105544810.575         684.454          47.000  
E34  29083973.191   152837524.286         312.162          47.000    29083974.916   117109420.984         239.165          52.000  
G27  28449096.217   149500961.849        1713.331          41.000    28449093.012   116494345.779        1335.271          40.000  
G10  27397574.702   143975331.804        2902.912          47.000    27397572.099   112188532.060        2262.034          43.000  
E25  30679189.936   161220523.106       -3312.303          46.000    30679191.133   123532760.613       -2537.980          49.000  
G31  28438943.639   149447570.165       -3219.185          34.000    28438942.097                       -2508.955          31.000  
E14  35326988.228   185644713.721        -671.496          40.000    35326987.745   142247302.743        -514.367          44.000  
> 2024 04 15 06 27 30.0160000  0 25                     
S33  44638605.415   234577626.426        -666.503          42.000  
E02  28180908.427   148091695.258       -1181.852          47.000    28180908.270   113472890.700        -905.575          52.000  
E36  28830037.470   151503225.253       -1973.914          48.000    28830038.316   116087101.584       -1512.514          52.000  
G26  25212082.405   132490420.563        -598.134          49.000    25212080.520   103239247.432        -466.127          45.000  
R20  25105975.559   134253011.918       -1478.294          38.000    25105974.335   104419098.812       -1149.761          44.000  
R10  24659380.582   131448442.885       -1755.496          48.000                                                                  
R09  26345722.134   140684667.865       -4580.149          50.000    26345718.880   109421666.851       -3562.434          49.000  
R05  27650234.566   147806375.129        2470.229          49.000    27650229.625   114960468.532        1921.209          46.000  
R04  27503037.820   147277455.927         -66.398          43.000    27503028.016   114549206.773         -51.494          38.000  
G16  26906501.269   141394631.668        1907.493          48.000                                                                  
E11  31350999.431   164751020.662       -3108.841          40.000    31350995.617   126238024.090       -2382.124          44.000  
G18  26169249.558   137520705.952       -2698.569          48.000    26169244.182   107159106.959       -2102.803          48.000  
G29  28534459.424   149949997.893       -2774.701          42.000    28534453.325   116844424.996       -2162.195          37.000  
S31  43684150.795   229561894.949        -666.293          44.000  
E30  30261959.240   159027790.952        1402.991          43.000    30261960.675   121852358.479        1075.055          50.000  
R11  26698278.540   142667532.845        2217.607          48.000    26698275.071   110963738.358        1724.914          48.000  
R21  26940141.404   144162427.467        1149.141          49.000    26940136.333   112126164.793         893.723          46.000  
R19  28276333.788   151259681.920       -3464.196          43.000    28276328.492   117646023.376       -2694.611          42.000  
G23  25770124.582   135423061.181         859.827          47.000    25770120.209   105524494.314         669.958          47.000  
E34  29082214.204   152828277.269         304.269          48.000    29082215.265   117102335.625         233.209          52.000  
G27  28439309.811   149449532.491        1714.813          41.000    28439306.960   116454270.989        1336.255          41.000  
G10  27381023.141   143888354.407        2895.572          47.000    27381020.876   112120757.526        2256.271          44.000  
E25  30698117.259   161319984.403       -3318.471          46.000    30698118.444   123608971.169       -2542.718          50.000  
G31  28457334.545   149544214.877       -3223.907          38.000    28457334.010   116528007.7961      -2512.223          34.000  
E14  35330801.974   185664756.392        -664.900          40.000    35330802.151   142262660.104        -509.327          44.000  
> 2024 04 15 06 28 00.0160000  0 25                     
S33  44642407.604   234597610.875        -666.199          42.000  
E02  28187690.233   148127332.195       -1194.319          47.000    28187689.640   113500196.914        -915.114          52.000  
E36  28841318.626   151562510.429       -1978.606          48.000    28841320.015   116132527.884       -1516.159          52.000  
G26  25215549.974   132508642.784        -617.097          49.000    25215547.882   103253446.566        -480.693          45.000  
R20  25114288.000   134297457.239       -1485.029          39.000    25114286.267   104453667.403       -1154.902          44.000  
R10  24669332.675   131501494.663       -1781.558          47.000                                                                  
R09  26371481.926   140822224.936       -4590.651          49.000    26371478.934   109528655.595       -3570.420          49.000  
R05  27636396.866   147732402.188        2461.009          50.000    27636392.766   114902934.037        1914.076          48.000  
R04  27503472.126   147279788.301         -89.473          42.000    27503464.465   114551020.898         -69.530          40.000  
G16  26895641.141   141337563.014        1896.941          47.000                                                                  
E11  31368740.320   164844254.174       -3106.830          41.000    31368737.326   126309462.751       -2380.452          44.000  
G18  26184676.407   137601773.473       -2706.204          48.000    26184671.293   107222276.464       -2108.672          49.000  
G29  28550309.510   150033284.340       -2777.899          44.000    28550303.299   116909323.474       -2164.630          38.000  
S31  43687953.049   229581875.624        -666.113          44.000  
E30  30253968.341   158985803.369        1395.719          42.000    30253970.583   121820186.188        1069.589          50.000  
R11  26685879.868   142601277.196        2198.899          48.000    26685876.425   110912206.201        1710.377          48.000  
R21  26933716.919   144128056.551        1141.930          48.000    26933713.290   112099431.897         888.464          46.000  
R19  28295752.514   151363558.657       -3461.294          42.000    28295747.400   117726816.390       -2691.647          43.000  
G23  25765266.884   135397534.398         841.608          47.000    25765262.393   105504603.337         655.859          47.000  
E34  29080499.404   152819262.795         296.397          49.000    29080499.876   117095428.457         227.141          52.000  
G27  28429516.822   149398066.928        1715.899          41.000    28429514.026   116414167.999        1337.067          42.000  
G10  27364513.041   143801595.627        2888.077          47.000    27364511.403   112053153.387        2250.359          44.000  
E25  30717077.968   161419623.975       -3324.532          46.000    30717079.818   123685318.316       -2547.310          51.000  
G31  28475752.243   149641000.287       -3228.533          40.000    28475750.471   116603424.887       -2515.882          35.000  
E14  35334576.932   185684594.805        -658.102          40.000    35334577.097   142277860.949        -504.233          44.000  
> 2024 04 15 06 28 30.0160000  0 25                     
S33  44646208.927   234617584.867        -665.771          42.000  
E02  28194543.179   148163346.477       -1207.080          47.000    28194543.005   113527792.267        -924.846          52.000  
E36  28852628.212   151621943.413       -1983.724          47.000    28852629.706   116178067.455       -1520.053          52.000  
G26  25219126.758   132527439.123        -636.366          50.000    25219124.802   103268093.054        -495.776          45.000  
R20  25122637.557   134342101.107       -1491.994          40.000    25122635.268   104488390.422       -1160.256          45.000  
R10  24679432.407   131555335.159       -1808.142          47.000                                                                  
R09  26397300.594   140960095.901       -4601.157          50.000    26397297.243   109635888.506       -3578.630          48.000  
R05  27622609.476   147658709.443        2451.346          48.000    27622606.931   114845617.464        1906.639          46.000  
R04  27504037.546   147282816.575        -112.971          41.000    27504030.799   114553376.191         -87.762          41.000  
G16  26884842.456   141280815.066        1885.933          47.000                                                                  
E11  31386471.682   164937433.206       -3105.504          41.000    31386468.751   126380859.674       -2379.526          43.000  
G18  26200147.365   137683071.653       -2714.058          48.000    26200142.239   107285625.701       -2114.836          50.000  
G29  28566177.031   150116676.614       -2781.604          42.000    28566172.076   116974304.476       -2167.468          39.000  
S31  43691753.682   229601847.402        -665.938          44.000  
E30  30246020.547   158944038.038        1388.116          41.000    30246022.913   121788184.207        1063.498          50.000  
R11  26673587.841   142535587.036        2179.928          49.000    26673583.726   110861113.863        1695.499          48.000  
R21  26927335.515   144093902.709        1134.547          50.000    26927330.627   112072867.858         882.350          45.000  
R19  28315153.402   151467339.018       -3458.002          42.000    28315147.757   117807534.487       -2689.526          43.000  
G23  25760514.835   135372561.544         822.955          47.000    25760509.692   105485144.004         641.071          46.000  
E34  29078829.160   152810486.670         288.234          48.000    29078829.874   117088703.925         220.885          52.000  
G27  28419718.075   149346571.876        1716.433          42.000    28419715.095   116374042.024        1337.615          42.000  
G10  27348047.685   143715065.110        2880.130          48.000    27348044.759   111985727.058        2244.271          44.000  
E25  30736073.241   161519446.908       -3330.713          45.000    30736075.456   123761805.965       -2552.161          51.000  
G31  28494199.686   149737929.476       -3233.435          42.000    28494196.787   116678954.030       -2519.879          36.000  
E14  35338313.981   185704236.143        -651.827          38.000    35338314.256   142292910.841        -499.308          43.000  
> 2024 04 15 06 29 00.0160000  0 25                     
S33  44650008.279   234637551.312        -665.650          42.000  
E02  28201469.408   148199741.016       -1219.647          47.000    28201468.626   113555678.993        -934.552          52.000  
E36  28863966.902   151681525.625       -1988.710          48.000    28863967.854   116223721.361       -1523.869          52.000  
G26  25222813.143   132546812.797        -655.629          49.000    25222810.752   103283189.425        -510.958          44.000  
R20  25131022.623   134386944.692       -1498.163          40.000    25131021.191   104523268.775       -1165.278          45.000  
R10  24689680.995   131609965.504       -1834.356          48.000                                                                  
R09  26423178.491   141098279.042       -4611.349          51.000    26423174.982   109743364.189       -3586.564          48.000  
R05  27608877.190   147585304.888        2441.902          47.000    27608873.617   114788525.011        1899.080          44.000  
R04  27504731.470   147286545.321        -135.858          38.000    27504729.255   114556276.359        -106.118          39.000  
G16  26874106.288   141224392.827        1875.154          48.000                                                                  
E11  31404192.851   165030559.659       -3103.666          41.000    31404190.289   126452216.312       -2378.179          44.000  
G18  26215661.997   137764601.140       -2721.521          48.000    26215656.871   107349155.165       -2120.762          49.000  
G29  28582067.237   150200177.518       -2785.138          42.000    28582061.366   117039370.098       -2170.123          38.000  
S31  43695552.356   229621811.074        -665.392          44.000  
E30  30238116.117   158902499.365        1380.740          42.000    30238118.446   121756355.899        1057.879          50.000  
R11  26661402.422   142470469.026        2160.818          49.000    26661397.107   110810466.528        1680.716          48.000  
R21  26920993.420   144059967.846        1127.369          51.000    26920989.817   112046474.092         876.923          46.000  
R19  28334536.942   151571025.105       -3454.737          41.000    28334530.365   117888179.235       -2687.048          44.000  
G23  25755869.266   135348147.195         804.315          48.000    25755864.314   105466119.858         626.788          47.000  
E34  29077205.007   152801951.115         280.434          48.000    29077205.633   117082163.725         214.920          52.000  
G27  28409913.238   149295050.590        1717.478          42.000    28409911.328   116333895.578        1338.372          43.000  
G10  27331625.991   143628768.741        2872.420          49.000    27331623.195   111918483.195        2238.266          45.000  
E25  30755104.632   161619454.732       -3336.868          45.000    30755105.820   123838435.306       -2556.767          50.000  
G31  28512671.806   149835002.187       -3238.147          41.000    28512669.966   116754594.979       -2523.260          36.000  
E14  35342014.562   185723684.153        -645.426          37.000    35342014.886   142307812.513        -494.447          43.000  
> 2024 04 15 06 29 30.0160000  0 25                     
S33  44653807.632   234657516.296        -665.898          42.000  
E02  28208468.425   148236521.396       -1232.868          47.000    28208467.722   113583861.356        -944.657          52.000  
E36  28875334.146   151741261.172       -1994.172          48.000    28875335.105   116269492.743       -1527.922          52.000  
G26  25226611.114   132566769.708        -675.529          49.000    25226608.345   103298740.235        -526.130          44.000  
R20  25139447.332   134431991.876       -1505.269          41.000    25139444.755   104558305.483       -1170.760          44.000  
R10  24700077.718   131665389.080       -1861.149          47.000                                                                  
R09  26449114.679   141236775.593       -4622.148          51.000    26449110.975   109851083.654       -3594.916          47.000  
R05  27595200.339   147512198.109        2431.381          46.000    27595198.122   114731664.249        1891.075          46.000  
R04  27505564.181   147290982.071        -160.247          41.000    27505557.244   114559727.076        -124.382          40.000  
G16  26863433.324   141168304.528        1863.768          48.000                                                                  
E11  31421905.857   165123638.157       -3102.212          41.000    31421902.410   126523536.213       -2377.091          44.000  
G18  26231221.044   137846365.266       -2729.762          48.000    26231216.221   107412867.461       -2127.130          49.000  
G29  28597978.714   150283792.977       -2789.587          41.000    28597972.815   117104525.004       -2173.535          39.000  
S31  43699350.974   229641773.213        -665.947          44.000  
E30  30230256.782   158861194.418        1372.616          42.000    30230258.399   121724706.671        1051.685          50.000  
R11  26649323.851   142405932.304        2141.093          49.000    26649319.589   110760271.300        1665.234          48.000  
R21  26914693.748   144026256.634        1119.469          50.000    26914690.212   112020254.310         870.642          46.000  
R19  28353903.008   151674622.200       -3451.972          40.000    28353896.424   117968754.781       -2685.153          45.000  
G23  25751331.557   135324298.621         785.089          48.000    25751326.183   105447536.575         611.731          47.000  
E34  29075626.817   152793661.018         271.846          48.000    29075628.052   117075811.596         208.347          52.000  
G27  28400104.939   149243508.970        1717.684          42.000    28400103.529   116293733.298        1338.788          43.000  
G10  27315250.531   143542715.287        2863.886          49.000    27315247.979   111851428.640        2231.537          45.000  
E25  30774170.998   161719651.636       -3343.435          45.000    30774172.569   123915209.535       -2561.807          50.000  
G31  28531172.233   149932220.769       -3243.494          43.000    28531169.060   116830349.622       -2527.545          35.000  
E14  35345679.800   185742945.077        -639.444          38.000    35345679.825   142322570.868        -489.726          42.000  
