     3.00           OBSERVATION DATA    M: Mixed            RINEX VERSION / TYPE
CONVBIN 2.4.3                           20240415 114442 UTC PGM / RUN BY / DATE 
format: u-blox UBX                                          COMMENT             
log: /home/regis/git/gnsspwv/obsdata/VERT00CHL/2024-04-15/VECOMMENT             
{self.marker}                                               MARKER NAME         
                                                            MARKER NUMBER       
GEODETIC                                                    MARKER TYPE         
{self.observer}     {self.institution}                      OBSERVER / AGENCY   
UNKNOWN             UBLOX-ZED-F9P                           REC # / TYPE / VERS 
UNKNOWN             TWIVSP6037L                             ANT # / TYPE        
  1713381.0000 -5047934.0000 -3490983.0000                  APPROX POSITION XYZ 
        0.0000        0.0000        0.0000                  ANTENNA: DELTA H/E/N
G    8 C1C L1C D1C S1C C2L L2L D2L S2L                      SYS / # / OBS TYPES 
R    8 C1C L1C D1C S1C C2C L2C D2C S2C                      SYS / # / OBS TYPES 
E    8 C1C L1C D1C S1C C7Q L7Q D7Q S7Q                      SYS / # / OBS TYPES 
S    4 C1C L1C D1C S1C                                      SYS / # / OBS TYPES 
  2024    04    15    11    30   00.0030000     GPS         TIME OF FIRST OBS   
  2024    04    15    11    44   30.0030000     GPS         TIME OF LAST OBS    
                                                            END OF HEADER       
> 2024 04 15 11 30 00.0030000  0 23                     
S33  40595120.731   213329000.0811       -646.355          42.000  
E05  25784050.899   135496096.2231      -2886.410          46.000    25784052.938   103821692.3681      -2211.618          49.000  
G04  24509108.243   128796190.6251       3090.196          43.000    24509104.875   100360692.7651       2407.926          42.000  
G02  21328067.467   112079776.9941        886.754          48.000                                                                  
R08  20395868.846   109218964.0031        787.639          51.000    20395861.559    84948225.3721        612.728          49.000  
R01  24482253.542                3       3215.996          27.000                                                                  
R22  20255348.758   108124388.7971      -1049.257          52.000    20255344.532    84096820.7081       -816.089          50.000  
G28  25006182.975   131408372.8071       1033.282          43.000    25006181.213   102396108.3451        805.199          43.000  
G08  22061175.018   115932403.1441      -3202.601          48.000    22061173.375    90336873.0601      -2495.473          46.000  
E08  25967648.500   136460891.0581       1892.707          46.000    25967649.269   104560931.6551       1450.242          50.000  
S31  39642097.976   208320776.8851       -647.570          44.000  
R21  23255830.162   124446912.2431      -3893.540          48.000    23255825.831    96791869.4611      -3028.298          46.000  
R23  21653512.374   115831588.0921       2355.316          50.000                                                                  
E15  24504883.398   128774103.6811        -42.996          48.000    24504884.957    98671116.0851        -32.968          51.000  
G03  22717768.239   119382665.4891        825.325          47.000    22717766.921    93025451.5581        643.123          47.000  
E34  26168012.519   137514025.6651      -1993.476          47.000    26168013.799   105368035.3391      -1527.496          51.000  
G27  24292063.399   127655570.5401      -4366.908          41.000    24292061.401    99471955.9451      -3402.741          41.000  
G31  25612195.235   134593006.0981       1599.321          41.000    25612193.874   104877646.7941       1246.286          41.000  
E03  24520251.690   128854817.4261       -493.484          46.000    24520253.973    98732930.3411       -378.078          55.000  
G21  20646056.089   108495767.2741        277.806          48.000                                                                  
E18  27608000.460   145081052.8351      -1309.535          45.000                                                                  
G32  23868583.793   125430254.0091      -3559.499          46.000    23868582.280    97737861.5861      -2773.820          41.000  
E13  27113651.581   142483237.6911       1444.981          41.000    27113652.717   109175435.0161       1107.204          46.000  
> 2024 04 15 11 30 30.0030000  0 23                     
S33  40598809.943   213348388.032        -646.289          42.000  
E05  25800549.838   135582795.110       -2893.735          47.000    25800551.802   103888123.841       -2217.326          49.000  
G04  24491477.038   128703537.808        3086.615          43.000    24491474.403   100288495.705        2405.109          42.000  
G02  21323036.277   112053336.175         875.755          48.000                                                                  
R07  20690516.101                3      -2732.000          12.000                                                                  
R08  20391516.460   109195660.858         765.694          51.000    20391510.113    84930100.694         595.544          49.000  
R22  20261299.412   108156151.201       -1068.498          52.000    20261295.158    84121524.751        -831.128          51.000  
G28  25000310.081   131377517.284        1023.395          43.000    25000308.801   102372065.042         797.388          42.000  
G08  22079499.179   116028694.114       -3216.970          49.000    22079498.027    90411904.873       -2506.696          47.000  
E08  25956864.001   136404218.665        1885.417          46.000    25956865.276   104517507.318        1444.557          51.000  
S31  39645793.365   208340195.323        -647.196          44.000  
R21  23277688.897   124563891.598       -3905.254          47.000    23277687.136    96882853.253       -3037.442          47.000  
R23  21640326.237   115761051.054        2346.930          50.000                                                                  
E15  24505141.767   128775459.378         -47.480          48.000    24505142.918    98672154.818         -36.401          51.000  
G03  22713076.488   119358010.877         818.063          47.000    22713074.916    93006240.172         637.392          47.000  
E34  26179407.236   137573909.376       -1998.838          46.000    26179409.454   105413920.167       -1531.656          51.000  
G27  24317005.645   127786643.627       -4371.253          41.000    24317003.569    99574090.625       -3406.116          40.000  
G31  25603066.515   134545033.302        1598.586          43.000    25603064.767   104840265.427        1245.507          40.000  
E03  24523105.119   128869817.077        -506.740          45.000    24523108.244    98744423.534        -388.228          55.000  
G21  20644510.664   108487642.733         263.541          48.000                                                                  
E18  27615471.594   145120312.556       -1307.775          45.000                                                                  
G32  23888937.390   125537215.283       -3571.247          45.000    23888935.929    97821207.869       -2782.899          40.000  
E13  27105397.601   142439867.037        1446.185          40.000    27105399.203   109142202.894        1108.131          45.000  
> 2024 04 15 11 31 00.0030000  0 24                     
S33  40602497.016   213367761.842        -645.849          42.000  
E05  25817090.357   135669716.153       -2901.320          46.000    25817091.791   103954725.547       -2223.058          49.000  
G04  24473866.714   128610997.171        3082.693          41.000    24473864.427   100216386.061        2401.997          42.000  
G02  21318067.807   112027224.968         864.582          49.000                                                                  
R07  20701585.928                3      -2750.836          14.000                                                                  
R08  20387287.488   109173014.571         743.688          51.000    20387281.283    84912486.871         578.567          50.000  
R01  24446057.220                        3201.435          27.000                                                                  
R22  20267358.195   108188491.315       -1087.923          52.000    20267353.770    84146678.132        -846.210          51.000  
G28  24994495.269   131346959.497        1013.329          43.000    24994494.205   102348253.728         789.638          42.000  
G08  22097903.767   116125410.120       -3231.154          48.000    22097902.463    90487267.880       -2517.779          47.000  
E08  25946122.477   136347767.336        1877.529          47.000    25946123.122   104474252.359        1438.760          51.000  
S31  39649486.113   208359601.358        -646.737          44.000  
R21  23299614.651   124681219.423       -3917.007          47.000    23299613.423    96974108.049       -3046.559          47.000  
R23  21627187.518   115690765.844        2338.513          50.000                                                                  
E15  24505425.254   128776948.802         -52.252          48.000    24505426.378    98673296.014         -40.003          51.000  
G03  22708426.293   119333573.131         810.752          47.000    22708424.490    92987197.752         631.836          46.000  
E34  26190832.498   137633957.196       -2004.693          45.000    26190836.686   105459930.721       -1535.954          52.000  
G27  24341972.315   127917843.066       -4375.714          42.000    24341970.291    99676323.761       -3409.676          41.000  
G31  25593942.236   134497086.958        1597.484          44.000    25593942.119   104802904.638        1244.971          41.000  
E03  24526035.184   128885215.602        -520.312          45.000    24526038.217    98756222.360        -398.646          54.000  
G21  20643046.712   108479947.251         249.141          49.000                                                                  
E18  27622931.941   145159516.483       -1306.049          45.000                                                                  
G32  23909357.664   125644522.601       -3582.895          46.000    23909356.438    97904823.854       -2792.043          41.000  
E13  27097136.141   142396459.845        1447.116          39.000    27097138.936   109108942.757        1108.985          45.000  
> 2024 04 15 11 31 30.0030000  0 24                     
S33  40606182.979   213387132.238        -646.260          42.000  
E05  25833674.854   135756866.372       -2909.233          46.000    25833676.293   104021502.874       -2229.105          49.000  
G04  24456279.484   128518579.984        3077.809          41.000    24456278.171   100144372.621        2398.453          42.000  
G02  21313163.453   112001454.133         852.970          48.000                                                                  
R08  20383182.150   109151033.910         721.122          50.000    20383177.023    84895390.786         560.855          50.000  
R22  20273526.832   108221419.146       -1107.845          52.000    20273522.890    84172288.620        -861.688          51.000  
G28  24988738.272   131316710.768        1002.660          41.000    24988738.175   102324683.305         781.117          42.000  
G08  22116390.960   116222557.145       -3245.760          49.000    22116388.652    90562913.7851      -2528.951          46.000  
E08  25935424.158   136291547.132        1869.635          47.000    25935424.897   104431174.511        1432.704          51.000  
S31  39653178.381   208379004.105        -647.308          44.000  
R21  23321608.053   124798902.933       -3929.013          49.000    23321605.788    97065639.461       -3055.891          46.000  
R23  21614097.872   115620744.664        2329.315          51.000                                                                  
E15  24505735.812   128778581.662         -57.255          48.000    24505737.307    98674547.129         -43.901          51.000  
G03  22703818.500   119309360.351         803.050          48.000    22703816.143    92968330.665         625.808          45.000  
E34  26202293.019   137694178.225       -2010.698          45.000    26202296.711   105506073.994       -1540.609          52.000  
G27  24366963.882   128049174.629       -4380.233          42.000    24366962.857    99778659.851       -3413.408          42.000  
G31  25584825.541   134449178.547        1595.877          44.000    25584826.168   104765573.384        1243.677          43.000  
E03  24529042.339   128901021.421        -534.021          45.000    24529046.019    98768333.266        -409.191          54.000  
G21  20641666.225   108472691.585         234.045          48.000                                                                  
E18  27630383.297   145198673.128       -1304.918          45.000                                                                  
G32  23929844.165   125752181.818       -3594.791          46.000    23929842.794    97988714.015       -2801.128          40.000  
E13  27088870.266   142353025.431        1447.987          38.000    27088873.294   109075661.788        1109.425          45.000  
R07                                                                  20718634.793                3      -1944.000          13.000  
R01                                                                  24428105.407                3       2483.539          26.000  
> 2024 04 15 11 32 00.0030000  0 22                     
S33  40609869.600   213406504.463        -645.891          41.000  
E05  25850302.798   135844249.708       -2916.590          44.000    25850304.722   104088458.794       -2234.830          49.000  
G04  24438718.686   128426294.438        3073.840          41.000    24438716.645   100072461.744        2395.392          41.000  
G02  21308325.989   111976031.421         841.497          49.000                                                                  
R08  20379203.210   109129725.076         699.003          51.000    20379197.148    84878817.217         543.698          49.000  
R22  20279806.181   108254941.759       -1127.497          52.000    20279802.489    84198361.696        -876.958          51.000  
G28  24983042.468   131286779.467         992.214          42.000    24983041.767   102301360.199         773.017          41.000  
G08  22134959.371   116320138.322       -3260.047          48.000    22134957.966    90638951.001       -2540.361          46.000  
E08  25924771.444   136235565.159        1862.046          47.000    25924771.672   104388279.199        1426.730          51.000  
S31  39656870.836   208398408.080        -647.058          44.000  
R21  23343667.942   124916946.146       -3940.798          49.000    23343664.439    97157450.642       -3065.147          44.000  
R23  21601059.498   115550996.781        2320.130          50.000                                                                  
E15  24506075.338   128780364.696         -61.911          48.000    24506076.526    98675913.298         -47.517          51.000  
G03  22699254.987   119285377.773         795.496          49.000    22699252.596    92949642.917         619.893          45.000  
E34  26213786.600   137754578.563       -2016.463          46.000    26213790.280   105552354.663       -1545.116          52.000  
G27  24391980.861   128180641.189       -4384.590          42.000    24391980.092    99881101.089       -3416.856          42.000  
G31  25575717.996   134401316.292        1594.528          44.000    25575717.753   104728278.216        1242.576          42.000  
E03  24532128.474   128917239.966        -547.589          45.000    24532132.167    98780760.411        -419.560          54.000  
G21  20640370.770   108465883.179         219.375          49.000                                                                  
E18  27637826.517   145237787.985       -1303.085          46.000                                                                  
G32  23950399.143   125860195.769       -3606.446          47.000    23950398.107    98072880.606       -2810.157          42.000  
E13  27080601.132   142309570.060        1448.885          38.000    27080604.051   109042364.747        1110.111          45.000  
> 2024 04 15 11 32 30.0030000  0 23                     
S33  40613556.834   213425880.455        -646.052          41.000  
E05  25866975.818   135931866.378       -2924.668          43.000    25866977.166   104155593.524       -2240.834          48.000  
G04  24421183.662   128334144.952        3069.545          41.000    24421180.491   100000656.938        2391.472          40.000  
G02  21303555.126   111950960.771         829.594          49.000                                                                  
R08  20375349.742   109109090.757         676.425          50.000    20375343.285    84862768.271         526.083          49.000  
R22  20286198.138   108289062.206       -1147.520          52.000    20286194.210    84224899.756        -892.520          51.000  
G28  24977408.668   131257170.184         981.511          42.000    24977407.090   102278288.038         765.023          41.000  
G08  22153611.089   116418152.857       -3274.462          47.000    22153610.520    90715325.871       -2551.583          47.000  
E08  25914164.285   136179824.752        1853.924          47.000    25914164.352   104345568.971        1420.491          50.000  
S31  39660564.281   208417816.009        -647.397          44.000  
R21  23365794.625   125035349.294       -3952.990          49.000    23365790.885    97249541.812       -3074.452          45.000  
R23  21588072.822   115481527.829        2310.785          50.000                                                                  
E15  24506443.963   128782300.828         -67.106          48.000    24506445.020    98677396.784         -51.558          51.000  
G03  22694735.622   119261626.773         787.630          48.000    22694733.380    92931135.607         613.701          46.000  
E34  26225316.352   137815160.553       -2022.458          47.000    26225318.776   105598774.520       -1549.715          52.000  
G27  24417023.470   128312241.722       -4388.953          42.000    24417023.036    99983646.729       -3420.040          41.000  
G31  25566620.008   134353505.089        1592.735          44.000    25566620.207   104691022.771        1241.065          43.000  
E03  24535294.343   128933872.843        -561.360          45.000    24535297.493    98793505.044        -430.162          54.000  
G21  20639160.975   108459525.864         204.301          48.000                                                                  
E18  27645262.148   145276862.848       -1301.985          46.000                                                                  
G32  23971021.232   125968563.496       -3618.461          47.000    23971019.492    98157322.858       -2819.702          41.000  
E13  27072329.747   142266096.340        1449.302          39.000    27072331.395   109009053.647        1110.531          45.000  
R01                                                                  24392331.973                1       2472.200          29.000  
> 2024 04 15 11 33 00.0030000  0 23                     
S33  40617244.436   213445258.812        -646.044          42.000  
E05  25883692.720   136019714.134       -2932.167          42.000    25883694.689   104222905.348       -2246.823          49.000  
G04  24403674.523   128242133.643        3064.617          41.000    24403671.146    99928959.734        2387.697          39.000  
G02  21298851.212   111926243.547         817.925          48.000                                                                  
R08  20371621.951   109089130.291         654.066          51.000    20371615.494    84847243.441         508.646          49.000  
R01  24374496.990   130295646.5711       3170.335          32.000    24374492.522                3       2465.975          23.000  
R22  20292701.465   108323781.144       -1167.486          51.000    20292698.105    84251903.330        -908.028          51.000  
G28  24971835.877   131227885.090         970.540          44.000    24971835.226   102255468.502         756.472          43.000  
G08  22172344.235   116516597.535       -3288.603          47.000    22172343.513    90792035.934       -2562.480          47.000  
E08  25903603.016   136124326.770        1845.859          47.000    25903603.414   104303044.500        1414.310          50.000  
S31  39664258.283   208437227.682        -647.190          43.000  
R21  23387987.285   125154110.176       -3964.654          47.000    23387985.578    97341911.222       -3083.754          46.000  
R23  21575139.131   115412340.702        2301.483          50.000                                                                  
E15  24506841.718   128784390.605         -72.297          48.000    24506842.681    98678997.982         -55.436          51.000  
G03  22690259.609   119238106.244         779.936          48.000    22690257.851    92912807.853         607.722          46.000  
E34  26236879.785   137875924.129       -2028.580          48.000    26236881.950   105645333.504       -1554.371          52.000  
G27  24442091.119   128443972.918       -4393.485          42.000    24442090.276   100086294.200       -3423.064          40.000  
G31  25557532.767   134305747.253        1590.968          44.000    25557532.219   104653808.895        1239.506          43.000  
E03  24538539.704   128950919.301        -575.078          47.000    24538541.432    98806566.575        -440.693          54.000  
G21  20638036.954   108453621.440         189.067          48.000                                                                  
E18  27652690.172   145315896.997       -1300.500          46.000                                                                  
G32  23991710.228   126077281.619       -3629.663          47.000    23991708.374    98242038.115       -2828.480          42.000  
E13  27064053.574   142222604.322        1449.862          38.000    27064055.656   108975728.530        1111.031          46.000  
> 2024 04 15 11 33 30.0030000  0 23                     
S33  40620933.228   213464643.438        -646.265          41.000  
E05  25900453.150   136107794.337       -2939.972          41.000    25900456.185   104290395.216       -2252.763          49.000  
G04  24386192.950   128150266.053        3059.862          41.000    24386190.002    99857374.542        2384.190          40.000  
G02  21294215.490   111901884.808         805.956          48.000                                                                  
R08  20368021.291   109069846.921         631.344          50.000    20368014.982    84832245.237         491.138          49.000  
R01  24356734.215   130200655.024        3162.411          37.000    24356733.309                        2459.318          29.000  
R22  20299318.963   108359102.859       -1187.581          51.000    20299314.968    84279375.732        -923.700          51.000  
G28  24966326.905   131198929.789         959.534          46.000    24966325.039   102232905.933         747.683          43.000  
G08  22191160.134   116615472.741       -3303.027          48.000    22191158.909    90869081.456       -2573.850          47.000  
E08  25893089.437   136069075.697        1837.375          46.000    25893089.424   104260709.210        1407.955          50.000  
S31  39667953.394   208456645.018        -647.605          43.000  
R21  23410248.816   125273230.040       -3976.722          50.000    23410245.544    97434559.767       -3093.000          46.000  
R23  21562259.343   115343442.282        2291.655          50.000                                                                  
E15  24507269.352   128786638.098         -77.714          48.000    24507270.325    98680720.030         -59.531          51.000  
G03  22685828.116   119214818.709         772.243          47.000    22685826.931    92894661.715         601.665          46.000  
E34  26248477.662   137936872.697       -2034.897          47.000    26248479.860   105692034.225       -1559.147          51.000  
G27  24467183.236   128575834.899       -4397.596          41.000    24467182.824   100189043.598       -3426.495          39.000  
G31  25548455.521   134258048.211        1589.124          43.000    25548454.633   104616640.874        1238.092          41.000  
E03  24541863.698   128968382.055        -589.131          48.000    24541864.588    98819947.085        -451.414          54.000  
G21  20637000.287   108448174.426         173.838          48.000                                                                  
E18  27660111.046   145354893.328       -1299.524          46.000                                                                  
G32  24012465.796   126186350.325       -3641.506          48.000    24012463.545    98327026.598       -2837.664          43.000  
E13  27055773.845   142179097.629        1450.593          38.000    27055776.862   108942392.211        1111.362          46.000  
> 2024 04 15 11 34 00.0030000  0 23                     
S33  40624622.551   213484030.181        -646.608          42.000  
E05  25917257.566   136196100.421       -2947.512          41.000    25917259.487   104358058.196       -2258.364          48.000  
G04  24368737.715   128058539.885        3055.041          41.000    24368735.868    99785899.603        2380.381          42.000  
G02  21289647.945   111877881.748         794.005          48.000                                                                  
R08  20364545.951   109051236.049         609.034          51.000    20364539.611    84817770.113         473.740          49.000  
R01  24339011.570   130105903.043        3154.107          40.000    24339011.525                        2453.112          28.000  
R22  20306048.704   108395023.504       -1207.521          51.000    20306043.777    84307313.968        -939.267          51.000  
G28  24960878.667   131170302.150         948.606          45.000    24960876.283   102210598.687         739.199          43.000  
G08  22210055.868   116714770.975       -3317.111          48.000    22210054.607    90946456.600       -2584.788          47.000  
E08  25882621.898   136014068.085        1829.284          46.000    25882621.929   104218560.481        1401.735          50.000  
S31  39671648.613   208476063.958        -647.383          44.000  
R21  23432575.601   125392702.259       -3988.419          51.000    23432571.948    97527482.392       -3102.054          45.000  
R23  21549432.735   115274831.158        2282.154          50.000                                                                  
E15  24507726.524   128789039.547         -82.765          48.000    24507727.294    98682560.048         -63.387          51.000  
G03  22681439.864   119191758.862         764.669          47.000    22681438.807    92876693.002         595.988          46.000  
E34  26260110.557   137998001.870       -2040.834          47.000    26260112.029   105738873.359       -1563.840          51.000  
G27  24492298.862   128707820.059       -4401.616          41.000    24492298.903   100291888.966       -3429.816          39.000  
G31  25539388.822   134210406.061        1586.858          43.000    25539388.627   104579517.107        1236.500          42.000  
E03  24545263.799   128986255.966        -602.702          47.000    24545265.928    98833642.653        -461.845          54.000  
G21  20636049.984   108443182.325         158.597          48.000                                                                  
E18  27667524.033   145393846.862       -1297.843          46.000                                                                  
G32  24033286.479   126295761.917       -3652.813          48.000    24033284.166    98412282.233       -2846.462          43.000  
E13  27047491.080   142135572.190        1450.925          39.000    27047494.394   108909041.484        1111.820          46.000  
> 2024 04 15 11 34 30.0030000  0 24                     
S33  40628312.062   213503418.531        -646.582          41.000  
E05  25934103.086   136284631.956       -2955.181          38.000    25934107.618   104425893.951       -2264.264          49.000  
G04  24351310.401   127966959.015        3050.078          42.000    24351308.442    99714537.843        2376.524          42.000  
G02  21285148.965   111854238.034         781.936          48.000                                                                  
R08  20361197.278   109033298.707         586.456          51.000    20361189.574    84803818.850         456.022          49.000  
R01  24321332.513   130011394.190        3146.241          42.000    24321332.325                        2446.923          29.000  
R22  20312889.708   108431545.520       -1227.671          51.000    20312885.597    84335719.929        -954.911          51.000  
G28  24955494.448   131142006.067         937.308          47.000    24955492.843   102188549.791         730.367          45.000  
G08  22229032.165   116814490.756       -3331.117          48.000    22229030.357    91024160.221       -2595.487          46.000  
E08  25872200.948   135959306.573        1821.090          46.000    25872201.032   104176600.339        1395.316          50.000  
S31  39675344.571   208495485.704        -647.562          43.000  
R21  23454967.106   125512526.506       -4000.247          49.000    23454963.398    97620678.878       -3111.151          44.000  
R23  21536660.512   115206512.185        2272.135          49.000                                                                  
E15  24508213.085   128791597.232         -87.968          47.000    24508214.043    98684519.791         -67.573          51.000  
G03  22677095.093   119168927.399         756.950          48.000    22677093.859    92858902.225         589.814          46.000  
E34  26271776.909   138059313.313       -2047.009          46.000    26271779.450   105785852.146       -1568.467          51.000  
G27  24517438.517   128839926.774       -4406.009          42.000    24517438.838   100394829.016       -3433.310          40.000  
G31  25530334.155   134162824.803        1584.797          44.000    25530334.211   104542440.791        1234.744          41.000  
E03  24548742.828   129004542.013        -616.589          46.000    24548745.974    98847653.995        -472.414          54.000  
G21  20635187.059   108438648.408         143.112          47.000                                                                  
E18  27674928.738   145432758.724       -1296.618          46.000                                                                  
G32  24054171.411   126405514.811       -3664.468          49.000    24054170.746    98497803.824       -2855.357          45.000  
E13  27039205.730   142092029.859        1451.429          39.000    27039208.419   108875677.828        1112.186          46.000  
R07                                                                  20821236.928                3      -2037.016          10.000  
> 2024 04 15 11 35 00.0030000  0 23                     
S33  40632003.451   213522815.755        -646.698          41.000  
E05  25950994.654   136373393.106       -2962.337          39.000    25950998.377   104493905.573       -2269.955          49.000  
G04  24333912.238   127875531.768        3045.031          41.000    24333910.131    99643295.761        2372.568          42.000  
G02  21280719.994   111830960.809         769.736          48.000                                                                  
R08  20357974.515   109016041.379         564.181          52.000    20357966.408    84790396.428         438.737          49.000  
R01  24303698.989   129917136.678        3137.743          39.000    24303701.100                        2440.372          27.000  
R22  20319846.476   108468675.847       -1247.809          52.000    20319840.984    84364599.040        -970.535          50.000  
G28  24950174.633   131114050.038         926.307          46.000    24950173.727   102166765.856         721.897          46.000  
G08  22248088.504   116914635.204       -3345.210          48.000    22248087.060    91102194.762       -2606.726          46.000  
E08  25861829.188   135904798.387        1812.741          47.000    25861828.548   104134834.292        1388.931          50.000  
S31  39679042.242   208514915.967        -647.854          43.000  
R21  23477424.875   125632706.857       -4011.792          49.000    23477422.566    97714152.300       -3120.270          46.000  
R23  21523944.559   115138494.358        2262.316          48.000                                                                  
E15  24508730.599   128794318.057         -93.462          48.000    24508731.709    98686604.532         -71.539          51.000  
G03  22672795.234   119146329.580         749.426          48.000    22672793.333    92841293.503         584.073          46.000  
E34  26283480.051   138120813.244       -2053.116          46.000    26283482.707   105832975.362       -1573.189          51.000  
G27  24542601.698   128972157.961       -4409.710          43.000    24542601.948   100497866.069       -3435.941          40.000  
G31  25521293.306   134115312.844        1582.674          43.000    25521293.030   104505418.474        1233.089          42.000  
E03  24552302.771   129023245.637        -630.330          47.000    24552305.171    98861985.305        -482.962          54.000  
G21  20634412.638   108434580.351         127.864          46.000                                                                  
E18  27682326.453   145471634.558       -1295.024          46.000                                                                  
G32  24075121.803   126515611.925       -3675.587          48.000    24075121.129    98583593.658       -2864.194          45.000  
E13  27030918.437   142048477.144        1452.063          40.000    27030920.403   108842306.188        1112.536          45.000  
> 2024 04 15 11 35 30.0030000  0 24                     
S33  40635696.184   213542221.689        -647.307          41.000  
E05  25967929.126   136462382.824       -2970.357          38.000    25967932.667   104562092.353       -2275.811          49.000  
G04  24316543.390   127784261.362        3039.690          41.000    24316542.443    99572175.923        2368.671          43.000  
G02  21276361.192   111808053.062         757.352          49.000                                                                  
R07  20862071.852                3      -2949.186          11.000                                                                  
R08  20354877.880   108999464.363         541.093          51.000    20354870.648    84777503.173         420.902          48.000  
R01  24286114.216   129823133.672        3128.855          40.000    24286114.126                        2434.181          29.000  
R22  20326916.575   108506416.325       -1268.484          52.000    20326912.091    84393952.696        -986.446          51.000  
G28  24944919.730   131086437.295         914.607          45.000    24944918.653   102145249.438         712.731          46.000  
G08  22267225.811   117015202.275       -3359.348          48.000    22267224.515    91180558.615       -2617.474          46.000  
E08  25851505.058   135850545.603        1804.043          47.000    25851504.297   104093263.952        1382.414          50.000  
S31  39682741.203   208534354.839        -648.055          43.000  
R21  23499949.612   125753242.361       -4023.818          49.000    23499948.912    97807901.900       -3129.632          48.000  
R23  21511286.449   115070782.540        2251.787          49.000                                                                  
E15  24509279.079   128797203.789         -99.045          47.000    24509280.855    98688815.646         -75.861          51.000  
G03  22668539.478   119123965.572         741.352          48.000    22668537.153    92823866.985         577.675          45.000  
E34  26295218.397   138182502.786       -2059.505          46.000    26295222.146   105880243.873       -1578.027          51.000  
G27  24567788.448   129104511.507       -4413.868          44.000    24567788.212   100600998.508       -3439.504          39.000  
G31  25512266.772   134067873.897        1579.921          44.000    25512264.972   104468453.031        1231.270          41.000  
E03  24555942.327   129042367.248        -644.291          48.000    24555943.988    98876636.897        -493.738          54.000  
G21  20633727.478   108430980.974         111.943          46.000                                                                  
E18  27689717.340   145510474.950       -1294.091          46.000                                                                  
G32  24096138.040   126626051.134       -3687.014          49.000    24096137.843    98669650.074       -2873.155          46.000  
E13  27022628.464   142004915.474        1452.076          40.000    27022630.981   108808927.691        1112.794          45.000  
> 2024 04 15 11 36 00.0030000  0 23                     
S33  40639391.105   213561638.333        -647.209          41.000  
E05  25984906.438   136551601.341       -2977.878          37.000    25984910.513   104630454.434       -2281.577          49.000  
G04  24299205.898   127693152.427        3034.388          42.000    24299205.146    99501181.909        2364.515          43.000  
G02  21272072.897   111785518.721         744.965          49.000                                                                  
R08  20351910.392   108983569.961         518.548          51.000    20351903.091    84765140.834         403.366          48.000  
R01  24268577.953   129729389.284        3120.227          39.000    24268579.402   100900629.4871       2427.289          34.000  
R22  20334101.366   108544769.894       -1288.573          51.000    20334096.580    84423783.198       -1002.221          50.000  
G28  24939732.050   131059172.503         903.122          45.000    24939730.455   102124004.099         703.782          45.000  
G08  22286443.609   117116191.241       -3373.269          48.000    22286442.867    91259251.239       -2628.546          47.000  
E08  25841229.511   135796551.616        1795.455          46.000    25841229.769   104051891.888        1375.876          50.000  
S31  39686442.705   208553805.351        -648.569          43.000  
R21  23522541.802   125874133.131       -4035.432          49.000    23522540.329    97901927.860       -3138.694          47.000  
R23  21498687.509   115003382.154        2241.708          49.000                                                                  
E15  24509860.060   128800257.480        -104.590          47.000    24509861.912    98691155.439         -80.167          51.000  
G03  22664328.273   119101836.838         733.839          48.000    22664325.613    92806623.786         571.831          45.000  
E34  26306995.102   138244384.334       -2066.017          46.000    26306997.926   105927659.493       -1582.962          51.000  
G27  24592997.553   129236986.545       -4417.658          43.000    24592997.082   100704225.610       -3442.358          38.000  
G31  25503253.933   134020512.505        1577.578          44.000    25503252.461   104431548.069        1228.927          41.000  
E03  24559660.445   129061908.431        -658.113          47.000    24559662.358    98891609.976        -504.372          54.000  
G21  20633132.913   108427854.041          96.419          46.000                                                                  
E18  27697102.277   145549281.699       -1292.908          45.000                                                                  
G32  24117218.702   126736831.514       -3698.085          49.000    24117218.224    98755972.295       -2881.688          45.000  
E13  27014339.070   141961347.516        1452.543          40.000    27014340.187   108775544.381        1112.849          45.000  
> 2024 04 15 11 36 30.0030000  0 23                     
S33  40643087.492   213581062.568        -647.735          41.000  
E05  26001928.492   136641042.389       -2985.238          40.000    26001930.625   104698987.013       -2287.308          49.000  
G04  24281899.183   127602202.847        3028.936          42.000    24281898.380    99430312.067        2360.277          43.000  
G02  21267855.128   111763355.307         732.485          49.000                                                                  
R08  20349068.008   108968353.216         495.835          51.000    20349061.176    84753305.571         385.577          49.000  
R01  24251088.719   129635900.960        3112.117          37.000    24251092.973   100827916.248        2420.425          34.000  
R22  20341400.471   108583732.962       -1309.068          52.000    20341395.969    84454087.738       -1018.142          51.000  
G28  24934609.198   131032253.599         891.284          43.000    24934608.516   102103028.336         694.739          46.000  
G08  22305740.080   117217594.705       -3387.252          48.000    22305739.859    91338266.841       -2639.296          47.000  
E08  25831003.539   135742813.103        1786.853          46.000    25831003.704   104010715.600        1369.252          50.000  
S31  39690145.067   208573261.941        -648.869          44.000  
R21  23545197.708   125995372.674       -4047.041          47.000    23545196.328    97996225.085       -3147.699          45.000  
R23  21486146.186   114936291.741        2231.103          50.000                                                                  
E15  24510472.384   128803475.561        -110.109          47.000    24510474.530    98693621.193         -84.370          51.000  
G03  22660160.774   119079938.132         726.168          48.000    22660158.635    92789559.847         565.805          45.000  
E34  26318805.910   138306453.616       -2072.151          46.000    26318809.618   105975218.980       -1587.764          51.000  
G27  24618228.410   129369575.663       -4421.344          44.000    24618227.922   100807541.581       -3445.307          39.000  
G31  25494256.145   133973227.074        1574.676          44.000    25494254.221   104394702.297        1226.855          41.000  
E03  24563457.700   129081864.224        -672.053          47.000    24563459.858    98906900.743        -514.942          54.000  
G21  20632627.454   108425196.717          80.658          47.000                                                                  
E18  27704480.306   145588050.036       -1291.669          46.000                                                                  
G32  24138362.705   126847945.612       -3709.385          49.000    24138362.837    98842554.589       -2890.340          46.000  
E13  27006046.190   141917769.254        1452.586          41.000    27006047.222   108742153.182        1113.045          45.000  
> 2024 04 15 11 37 00.0030000  0 24                     
S33  40646785.599   213600494.957        -648.082          41.000  
E05  26018989.824   136730707.994       -2992.457          39.000    26018993.733   104767691.690       -2292.960          50.000  
G04  24264622.796   127511419.009        3023.422          42.000    24264622.126    99359571.384        2355.949          42.000  
G02  21263709.351   111741568.616         720.159          49.000                                                                  
R07  20910212.610                3      -3021.898          15.000                                                                  
R08  20346354.770   108953818.373         473.283          51.000    20346347.203    84742000.674         368.108          49.000  
R01  24233647.993   129542674.997        3103.594          39.000    24233652.948   100755407.045        2413.708          35.000  
R22  20348815.062   108623310.288       -1329.291          52.000    20348810.366    84484870.062       -1033.944          51.000  
G28  24929553.591   131005686.982         879.970          43.000    24929552.672   102082327.107         685.599          45.000  
G08  22325115.295   117319413.765       -3400.774          47.000    22325115.316    91417606.269       -2649.989          47.000  
E08  25820827.341   135689335.292        1778.466          46.000    25820826.790   103969739.069        1362.669          49.000  
S31  39693849.748   208592729.074        -648.835          44.000  
R21  23567920.017   126116963.277       -4058.526          47.000    23567917.964    98090795.391       -3156.819          45.000  
R23  21473664.345   114869519.447        2220.580          51.000                                                                  
E15  24511117.089   128806862.947        -115.561          47.000    24511119.117    98696216.681         -88.566          51.000  
G03  22656037.677   119058272.827         718.411          47.000    22656036.431    92772677.790         559.716          45.000  
E34  26330653.579   138368714.933       -2078.593          45.000    26330657.564   106022925.574       -1592.579          51.000  
G27  24643482.075   129502279.794       -4424.981          44.000    24643481.722   100910947.151       -3448.334          41.000  
G31  25485273.501   133926023.758        1572.266          44.000    25485271.901   104357920.502        1225.111          41.000  
E03  24567334.284   129102238.084        -685.963          47.000    24567336.566    98922511.849        -525.563          53.000  
G21  20632212.362   108423014.922          65.058          46.000                                                                  
E18  27711850.719   145626783.654       -1290.413          46.000                                                                  
G32  24159571.444   126959394.427       -3720.289          49.000    24159569.047    98929397.666       -2898.993          43.000  
E13  26997752.707   141874185.271        1452.831          41.000    26997753.629   108708757.629        1113.405          45.000  
> 2024 04 15 11 37 30.0030000  0 24                     
S33  40650485.027   213619935.612        -648.365          42.000  
E05  26036095.332   136820593.689       -2999.692          40.000    26036098.489   104836564.974       -2298.403          50.000  
G04  24247378.593   127420800.579        3017.713          43.000    24247377.444    99288959.566        2351.510          41.000  
G02  21259634.729   111720157.766         707.537          49.000                                                                  
R07  20932470.313                3      -3038.453          12.000                                                                  
R08  20343766.801   108939962.082         450.613          52.000    20343760.182    84731223.531         350.454          49.000  
R01  24216256.869   129449710.916        3094.136          37.000    24216261.638   100683101.493        2406.397          35.000  
R22  20356343.558   108663499.977       -1349.775          52.000    20356339.746    84516128.653       -1049.822          51.000  
G28  24924564.744   130979472.420         868.049          43.000    24924563.996   102061900.139         676.530          45.000  
G08  22344568.754   117421642.741       -3414.392          47.000    22344568.781    91497265.115       -2660.414          47.000  
E08  25810700.444   135636116.703        1769.800          46.000    25810699.651   103928961.159        1356.011          49.000  
S31  39697555.591   208612203.247        -649.061          44.000  
R21  23590707.458   126238899.914       -4070.391          47.000    23590705.355    98185634.775       -3165.728          47.000  
R23  21461241.220   114803065.308        2209.837          50.000                                                                  
E15  24511793.869   128810417.822        -121.080          47.000    24511795.806    98698940.497         -92.871          52.000  
G03  22651959.085   119036837.427         710.822          48.000    22651957.498    92755974.847         553.784          45.000  
E34  26342538.760   138431165.718       -2084.755          46.000    26342541.597   106070777.361       -1597.447          52.000  
G27  24668756.195   129635093.260       -4429.034          44.000    24668755.260   101014437.894       -3451.184          40.000  
G31  25476306.621   133878902.659        1569.470          44.000    25476305.078   104321202.806        1222.994          41.000  
E03  24571290.854   129123026.727        -699.610          47.000    24571292.549    98938440.769        -536.098          53.000  
G21  20631887.395   108421307.646          49.074          47.000                                                                  
E18  27719213.343   145665479.485       -1288.983          45.000                                                                  
G32  24180842.403   127071172.143       -3731.352          48.000    24180840.311    99016497.046       -2907.568          45.000  
E13  26989457.258   141830593.358        1453.360          41.000    26989458.464   108675355.989        1113.528          45.000  
> 2024 04 15 11 38 00.0030000  0 23                     
S33  40654183.693   213639371.258        -647.418          41.000  
E05  26053239.506   136910684.844       -3006.359          41.000    26053242.373   104905595.715       -2303.462          49.000  
G04  24230164.653   127330337.310        3013.110          43.000    24230163.203    99218468.640        2347.800          42.000  
G02  21255629.869   111699112.074         695.628          49.000                                                                  
R08  20341302.783   108926771.269         428.780          51.000    20341297.115    84720963.968         333.501          49.000  
R01  24198912.757   129356997.550        3086.649          35.000    24198917.453   100610990.938        2400.342          36.000  
R22  20363984.752   108704289.864       -1369.452          51.000    20363981.459    84547854.048       -1065.177          51.000  
G28  24919642.300   130953599.613         856.782          44.000    24919639.922   102041739.513         667.588          44.000  
G08  22364097.261   117524266.069       -3427.184          46.000    22364098.094    91577231.240       -2670.686          47.000  
E08  25800619.595   135583145.822        1761.688          46.000    25800619.802   103888373.039        1349.899          50.000  
S31  39701260.402   208631672.183        -648.625          44.000  
R21  23613557.140   126361167.723       -4080.805          48.000    23613554.514    98280731.770       -3173.939          47.000  
R23  21448875.500   114736920.488        2199.846          50.000                                                                  
E15  24512500.493   128814128.427        -126.171          47.000    24512501.987    98701783.635         -96.638          52.000  
G03  22647922.054   119015618.648         703.957          48.000    22647919.727    92739440.698         548.513          45.000  
E34  26354456.739   138493793.559       -2090.440          46.000    26354459.157   106118764.818       -1601.785          51.000  
G27  24694047.714   129768000.374       -4431.665          43.000    24694047.010   101118001.617       -3453.125          40.000  
G31  25467353.177   133831853.805        1567.321          44.000    25467351.551   104284541.379        1221.244          41.000  
E03  24575323.931   129144216.920        -712.831          47.000    24575324.948    98954677.359        -546.142          53.000  
G21  20631650.905   108420064.000          33.930          46.000                                                                  
E18  27726567.214   145704124.606       -1287.080          46.000                                                                  
G32  24202172.826   127183263.091       -3741.397          48.000    24202170.096    99103840.512       -2915.347          44.000  
E13  26981158.315   141786981.429        1454.328          41.000    26981159.715   108641938.984        1114.364          45.000  
> 2024 04 15 11 38 30.0030000  0 24                     
S33  40657881.045   213658800.947        -647.571          42.000  
E05  26070422.927   137000980.043       -3012.989          40.000    26070425.274   104974782.783       -2308.788          50.000  
G04  24212980.312   127240031.987        3007.659          42.000    24212978.515    99148100.807        2343.498          42.000  
G02  21251695.205   111678433.427         683.151          49.000                                                                  
R08  20338963.829   108914245.947         406.525          51.000    20338957.554    84711222.025         316.105          48.000  
R01  24181614.051   129264537.770        3078.031          35.000    24181620.886   100539077.630        2393.481          34.000  
R22  20371738.011   108745681.138       -1389.747          51.000    20371735.035    84580047.203       -1080.778          51.000  
G28  24914783.453   130928071.335         845.307          42.000    24914782.672   102021847.340         658.534          43.000  
G08  22383700.547   117627281.134       -3440.298          47.000    22383701.151    91657502.612       -2680.664          47.000  
E08  25790586.782   135530424.226        1753.220          46.000    25790587.584   103847975.955        1343.464          50.000  
S31  39704964.311   208651136.643        -648.526          44.000  
R21  23636468.236   126483765.187       -4092.026          49.000    23636465.536    98376085.115       -3182.707          47.000  
R23  21436569.093   114671088.577        2189.251          49.000                                                                  
E15  24513236.625   128817996.066        -131.504          47.000    24513238.133    98704747.115        -100.739          52.000  
G03  22643925.238   118994616.106         696.613          48.000    22643923.248    92723075.064         542.825          45.000  
E34  26366407.957   138556599.074       -2096.307          46.000    26366410.749   106166888.435       -1606.369          51.000  
G27  24719356.770   129900998.545       -4434.705          43.000    24719355.550   101221636.304       -3455.688          39.000  
G31  25458413.651   133784880.296        1564.706          44.000    25458412.696   104247938.668        1219.231          40.000  
E03  24579432.192   129165808.492        -726.208          47.000    24579433.720    98971221.511        -556.551          53.000  
G21  20631503.012   108419286.004          18.163          47.000                                                                  
E18  27733912.143   145742719.110       -1285.626          46.000                                                                  
G32  24223562.374   127295664.653       -3751.723          47.000    24223560.317    99191425.997       -2923.427          45.000  
E13  26972855.221   141743350.475        1454.895          41.000    26972857.169   108608507.421        1114.644          45.000  
R07                                                                  20964425.166                3      -2699.914          11.000  
> 2024 04 15 11 39 00.0030000  0 24                     
S33  40661579.135   213678233.179        -647.958          42.000  
E05  26087644.576   137091484.983       -3020.491          40.000    26087647.849   105044130.553       -2314.244          49.000  
G04  24195827.976   127149894.550        3002.162          43.000    24195826.619    99077863.823        2338.988          43.000  
G02  21247832.061   111658131.390         670.533          50.000                                                                  
R08  20336750.998   108902393.508         383.961          51.000    20336744.003    84702003.475         298.529          48.000  
R01  24164369.030                        3068.365          31.000    24164371.620                        2387.145          30.000  
R22  20379606.906   108787682.187       -1410.119          51.000    20379603.085    84612714.649       -1096.861          51.000  
G28  24909991.640   130902897.548         833.240          42.000    24909992.854   102002231.391         649.157          43.000  
G08  22403379.576   117730692.594       -3453.715          48.000    22403379.214    91738082.874       -2691.173          47.000  
E08  25780603.963   135477960.692        1744.432          47.000    25780604.110   103807776.607        1336.696          51.000  
S31  39708668.810   208670602.169        -648.719          44.000  
R21  23659440.646   126606697.980       -4103.276          49.000    23659438.870    98471699.279       -3191.442          46.000  
R23  21424323.428   114605580.644        2178.303          50.000                                                                  
E15  24514003.778   128822029.243        -137.236          47.000    24514005.814    98707837.434        -105.105          52.000  
G03  22639970.625   118973836.641         688.994          47.000    22639968.724    92706883.258         536.887          46.000  
E34  26378394.719   138619590.045       -2102.884          46.000    26378397.817   106215154.147       -1611.195          52.000  
G27  24744683.387   130034092.356       -4438.196          42.000    24744682.407   101325345.520       -3458.240          39.000  
G31  25449490.874   133737992.180        1561.523          44.000    25449490.518   104211402.458        1216.772          41.000  
E03  24583618.778   129187808.445        -740.074          48.000    24583620.056    98988078.574        -567.096          52.000  
G21  20631445.797   108418983.110           2.070          47.000                                                                  
E18  27741248.462   145781270.222       -1284.343          46.000                                                                  
G32  24245011.244   127408381.344       -3762.116          46.000    24245009.825    99279257.046       -2931.775          45.000  
E13  26964549.877   141699708.632        1454.620          41.000    26964552.448   108575067.495        1114.714          45.000  
R06                                                                  25114328.610                3      -3592.790          11.000  
> 2024 04 15 11 39 30.0030000  0 23                     
S33  40665278.852   213697675.944        -648.191          42.000  
E05  26104909.426   137182206.524       -3027.440          40.000    26104912.005   105113644.295       -2319.613          49.000  
G04  24178710.269   127059936.174        2995.741          44.000    24178708.253    99007766.350        2334.464          43.000  
G02  21244041.722   111638216.518         657.659          49.000                                                                  
R08  20334665.446   108891222.524         361.254          51.000    20334657.154    84693314.912         281.052          47.000  
R01  24147175.235   129080418.370        3059.508          34.000    24147175.584   100395873.253        2379.595          34.000  
R22  20387589.921   108830302.608       -1430.825          51.000    20387587.844    84645863.804       -1112.829          51.000  
G28  24905271.632   130878089.412         821.138          44.000    24905272.681   101982900.385         639.562          43.000  
G08  22423134.548   117834506.166       -3466.810          48.000    22423134.696    91818976.491       -2701.354          47.000  
E08  25770672.273   135425765.116        1735.727          47.000    25770671.978   103767782.563        1330.017          51.000  
S31  39712375.209   208690078.877        -649.254          44.000  
R21  23682477.154   126729972.882       -4114.540          49.000    23682475.888    98567579.536       -3200.203          46.000  
R23  21412140.431   114540409.271        2167.034          49.000                                                                  
E15  24514804.286   128826237.607        -142.876          47.000    24514806.744    98711061.987        -109.501          52.000  
G03  22636059.626   118953288.323         681.454          47.000    22636058.851    92690871.560         530.994          45.000  
E34  26390417.718   138682775.420       -2109.090          45.000    26390421.504   106263568.831       -1616.101          52.000  
G27  24770030.094   130167287.533       -4441.132          43.000    24770028.670   101429133.744       -3460.724          39.000  
G31  25440587.618   133691200.656        1558.445          45.000    25440586.040   104174941.543        1214.276          40.000  
E03  24587884.296   129210224.879        -753.808          48.000    24587885.786    99005254.761        -577.612          52.000  
G21  20631479.762   108419165.543         -13.902          47.000                                                                  
E18  27748577.903   145819786.398       -1283.049          46.000                                                                  
G32  24266521.721   127521418.960       -3772.912          45.000    24266520.554    99367338.159       -2940.073          45.000  
E13  26956244.779   141656065.195        1455.274          41.000    26956247.203   108541626.370        1114.936          45.000  
> 2024 04 15 11 40 00.0030000  0 24                     
S33  40668980.749   213717128.019        -648.316          42.000  
E05  26122213.404   137273141.184       -3034.320          39.000    26122216.308   105183321.310       -2325.020          49.000  
G04  24161625.971   126970157.518        2989.832          44.000    24161623.901    98937808.930        2329.891          43.000  
G02  21240325.733   111618689.210         644.671          48.000                                                                  
R08  20332705.757   108880730.804         338.771          51.000    20332698.621    84685154.654         263.446          48.000  
R01  24130034.122   128988770.125        3050.890          33.000    24130030.777   100324591.157        2373.230          35.000  
R22  20395690.963   108873541.302       -1451.264          51.000    20395687.764    84679493.870       -1128.727          51.000  
G28  24900620.847   130853647.584         808.962          45.000    24900620.241   101963854.835         630.155          41.000  
G08  22442965.637   117938717.257       -3480.070          47.000    22442965.082    91900179.846       -2711.784          46.000  
E08  25760790.756   135373837.000        1726.838          47.000    25760790.510   103727993.461        1323.129          51.000  
S31  39716082.856   208709564.329        -649.239          44.000  
R21  23705578.128   126853586.202       -4125.760          50.000    23705576.685    98663723.036       -3208.972          47.000  
R23  21400020.609   114475576.046        2155.799          49.000                                                                  
E15  24515638.227   128830620.434        -148.709          47.000    24515641.001    98714420.214        -113.932          52.000  
G03  22632193.152   118932968.703         673.929          46.000    22632192.288    92675038.025         525.200          46.000  
E34  26402478.150   138746153.762       -2115.469          45.000    26402482.438   106312131.362       -1620.994          52.000  
G27  24795394.789   130300579.424       -4444.226          43.000    24795393.940   101532997.321       -3463.220          40.000  
G31  25431702.665   133644506.715        1555.206          45.000    25431700.879   104138556.664        1211.588          42.000  
E03  24592229.353   129233055.548        -767.565          48.000    24592230.412    99022748.341        -588.152          52.000  
G21  20631607.275   108419833.448         -30.021          48.000                                                                  
E18  27755900.093   145858265.653       -1281.775          46.000                                                                  
G32  24288092.245   127634772.696       -3783.534          43.000    24288091.265    99455665.573       -2948.287          45.000  
E13  26947939.834   141612419.117        1455.193          41.000    26947941.525   108508183.181        1115.110          45.000  
R06                                                                  25165797.135                3      -3614.010          12.000  
> 2024 04 15 11 40 30.0030000  0 23                     
S33  40672684.280   213736589.252        -648.744          42.000  
E05  26139557.590   137364286.874       -3041.900          39.000    26139560.946   105253160.040       -2330.574          48.000  
G04  24144575.779   126880560.814        2983.518          44.000    24144573.978    98867993.274        2325.158          42.000  
G02  21236683.999   111599550.918         631.604          49.000                                                                  
R08  20330873.152   108870917.609         315.869          50.000    20330866.420    84677522.129         245.627          49.000  
R01  24112939.323   128897398.077        3041.333          38.000    24112937.891   100253523.988        2365.319          33.000  
R22  20403907.441   108917398.759       -1472.233          52.000    20403903.978    84713605.143       -1145.018          51.000  
G28  24896040.053   130829574.322         796.351          46.000    24896038.642   101945096.463         620.469          41.000  
G08  22462871.721   118043322.699       -3493.419          48.000    22462870.130    91981690.471       -2722.189          46.000  
E08  25750960.350   135322177.344        1717.642          48.000    25750960.320   103688410.071        1316.052          52.000  
S31  39719792.852   208729058.036        -649.844          44.000  
R21  23728741.193   126977535.615       -4137.268          49.000    23728739.589    98760127.919       -3217.781          46.000  
R23  21387964.591   114411084.361        2144.128          50.000                                                                  
E15  24516505.968   128835178.465        -154.669          47.000    24516508.618    98717912.687        -118.575          53.000  
G03  22628370.066   118912876.901         666.125          47.000    22628369.428    92659382.030         519.020          46.000  
E34  26414576.048   138809725.127       -2122.260          45.000    26414579.870   106360841.768       -1626.028          52.000  
G27  24820776.990   130433964.919       -4447.602          43.000    24820776.596   101636933.814       -3465.833          40.000  
G31  25422835.387   133597913.086        1551.630          44.000    25422834.630   104102249.948        1209.067          42.000  
E03  24596652.959   129256299.648        -781.675          48.000    24596653.772    99040558.715        -598.860          52.000  
G21  20631827.018   108420988.256         -46.438          48.000                                                                  
E18  27763215.009   145896707.515       -1280.710          46.000                                                                  
G32  24309722.532   127748439.422       -3793.984          43.000    24309720.906    99544236.912       -2956.214          45.000  
E13  26939634.102   141568770.739        1455.078          42.000    26939635.362   108474738.247        1115.110          45.000  
> 2024 04 15 11 41 00.0030000  0 24                     
S33  40676387.763   213756051.875        -648.971          42.000  
E05  26156941.002   137455636.040       -3048.409          39.000    26156944.148   105323154.716       -2335.832          48.000  
G04  24127560.036   126791142.837        2977.704          45.000    24127558.717    98798316.906        2320.052          42.000  
G02  21233115.537   111580797.606         618.743          49.000                                                                  
R08  20329165.727   108861777.389         293.476          50.000    20329159.834    84670413.050         228.216          49.000  
R01  24095895.989   128806298.783        3032.165          39.000    24095895.577   100182668.817        2358.457          33.000  
R22  20412238.532   108961869.807       -1492.587          52.000    20412235.094    84748193.657       -1160.917          51.000  
G28  24891528.817   130805866.286         784.228          45.000    24891528.500   101926622.684         611.045          42.000  
G08  22482850.503   118148313.791       -3506.154          47.000    22482850.391    92063501.629       -2732.031          47.000  
E08  25741179.822   135270781.636        1708.739          48.000    25741179.962   103649028.921        1309.352          51.000  
S31  39723502.919   208748554.965        -649.791          44.000  
R21  23751963.747   127101813.244       -4148.031          48.000    23751963.721    98856788.053       -3226.323          46.000  
R23  21375971.802   114346932.068        2132.831          49.000                                                                  
E15  24517405.954   128839906.976        -160.338          47.000    24517408.421    98721535.789        -122.969          53.000  
G03  22624589.106   118893006.594         658.596          47.000    22624588.394    92643898.628         513.273          46.000  
E34  26426709.203   138873484.035       -2128.383          46.000    26426712.604   106409695.898       -1630.911          52.000  
G27  24846175.124   130567435.395       -4450.293          41.000    24846175.429   101740936.521       -3467.578          40.000  
G31  25413986.245   133551416.592        1548.188          42.000    25413986.487   104066018.932        1206.608          42.000  
E03  24601152.296   129279950.887        -795.017          48.000    24601154.673    99058681.070        -609.251          52.000  
G21  20632138.792   108422626.420         -62.633          48.000                                                                  
E18  27770522.519   145935106.064       -1279.243          46.000                                                                  
G32  24331410.513   127862410.454       -3803.776          39.000    24331410.177    99633045.340       -2964.247          46.000  
E13  26931326.904   141525115.112        1455.216          42.000    26931328.079   108441287.771        1115.068          45.000  
R07                                                                  21061786.898                3      -2262.406          11.000  
> 2024 04 15 11 41 30.0030000  0 24                     
S33  40680092.315   213775517.961        -649.019          42.000  
E05  26174362.666   137547187.281       -3055.094          39.000    26174365.446   105393304.199       -2341.040          47.000  
G04  24110579.258   126701906.359        2971.496          45.000    24110577.239    98728781.929        2315.391          41.000  
G02  21229620.540   111562431.646         605.685          48.000                                                                  
R08  20327584.191   108853309.117         271.203          50.000    20327577.707    84663826.561         210.824          48.000  
R01  24078905.087   128715474.204        3022.850          42.000    24078905.235   100112027.417        2350.161          33.000  
R22  20420684.376   109006955.486       -1513.058          52.000    20420681.245    84783260.245       -1176.865          51.000  
G28  24887087.251   130782526.176         771.934          44.000    24887086.727   101908435.603         601.363          42.000  
G08  22502902.643   118253687.958       -3518.728          47.000    22502902.322    92145611.289       -2741.948          46.000  
E08  25731450.495   135219651.411        1699.929          48.000    25731450.158   103609851.195        1302.482          51.000  
S31  39727213.578   208768054.216        -650.042          44.000  
R21  23775249.813   127226417.358       -4158.879          47.000    23775248.407    98953702.167       -3234.667          45.000  
R23  21364042.916   114283123.116        2121.327          49.000                                                                  
E15  24518338.638   128844807.275        -166.231          47.000    24518340.894    98725290.516        -127.395          52.000  
G03  22620850.138   118873357.412         651.193          47.000    22620849.256    92628587.575         507.380          45.000  
E34  26438876.690   138937431.056       -2134.743          45.000    26438881.541   106458694.174       -1635.705          52.000  
G27  24871589.682   130700988.203       -4453.003          42.000    24871589.931   101845003.418       -3469.849          39.000  
G31  25405157.674   133505020.190        1544.677          43.000    25405158.033   104029865.887        1203.662          41.000  
E03  24605730.735   129304009.039        -808.717          48.000    24605732.610    99077115.198        -619.734          52.000  
G21  20632543.238   108424749.734         -78.848          48.000                                                                  
E18  27777821.260   145973461.325       -1277.795          46.000                                                                  
G32  24353155.344   127976683.169       -3814.062          42.000    24353155.632    99722088.857       -2971.929          46.000  
E13  26923017.749   141481453.168        1455.442          42.000    26923019.593   108407832.438        1115.293          45.000  
R07                                                                  21078979.701                3      -2384.666          10.000  
> 2024 04 15 11 42 00.0030000  0 23                     
S33  40683797.042   213794986.452        -648.904          42.000  
E05  26191822.725   137638937.568       -3061.387          41.000    26191825.580   105463606.241       -2345.798          47.000  
G04  24093633.049   126612852.633        2965.553          45.000    24093631.524    98659389.374        2310.847          43.000  
G02  21226199.667   111544453.952         592.940          48.000                                                                  
R08  20326127.672   108845511.537         248.782          50.000    20326121.241    84657761.765         193.507          48.000  
R01  24061964.943   128624925.537        3013.592          41.000    24061964.352                        2344.040          31.000  
R22  20429245.237   109052655.205       -1533.500          51.000    20429242.282    84818804.423       -1192.728          50.000  
G28  24882715.711   130759555.273         759.747          45.000    24882716.042   101890536.190         591.791          43.000  
G08  22523026.969   118359441.104       -3531.371          47.000    22523026.763    92228016.238       -2751.755          46.000  
E08  25721770.742   135168786.744        1691.125          48.000    25721770.904   103570876.940        1295.801          51.000  
S31  39730924.678   208787556.005        -649.980          44.000  
R21  23798595.056   127351345.000       -4169.489          46.000    23798594.585    99050867.906       -3242.880          45.000  
R23  21352179.452   114219659.764        2109.771          50.000                                                                  
E15  24519304.562   128849879.218        -171.797          48.000    24519305.845    98729176.766        -131.592          52.000  
G03  22617153.136   118853927.523         644.062          48.000    22617151.328    92613447.375         501.963          45.000  
E34  26451082.034   139001565.323       -2140.844          46.000    26451085.720   106507835.902       -1640.348          52.000  
G27  24897019.121   130834619.305       -4455.672          43.000    24897020.228   101949131.322       -3471.790          40.000  
G31  25396348.227   133458725.566        1541.466          44.000    25396348.647   103993792.133        1201.517          41.000  
E03  24610385.814   129328472.325        -822.167          48.000    24610387.575    99095859.747        -629.915          52.000  
G21  20633039.713   108427358.728         -95.060          48.000                                                                  
E18  27785111.050   146011771.939       -1276.070          45.000                                                                  
G32  24374957.896   128091253.409       -3823.816          42.000    24374957.637    99811364.225       -2979.788          46.000  
E13  26914709.312   141437784.458        1455.531          42.000    26914709.833   108374371.918        1115.523          45.000  
> 2024 04 15 11 42 30.0030000  0 24                     
S33  40687501.459   213814453.343        -648.562          42.000  
E05  26209317.961   137730883.192       -3068.077          39.000    26209322.136   105534057.922       -2350.821          47.000  
G04  24076721.207   126523982.167        2959.439          44.000    24076720.763    98590139.634        2306.276          44.000  
G02  21222852.449   111526864.171         579.864          48.000                                                                  
R08  20324797.455   108838382.089         226.712          50.000    20324790.470    84652216.631         176.376          48.000  
R01  24045077.701   128534652.814        3004.504          43.000    24045079.396    99971388.389        2337.581          32.000  
R22  20437921.110   109098967.513       -1553.828          51.000    20437917.716    84854825.072       -1208.446          50.000  
G28  24878415.128   130736953.941         747.284          46.000    24878414.211   101872924.731         582.349          43.000  
G08  22543222.820   118465568.243       -3543.544          48.000    22543221.644    92310712.602       -2761.143          46.000  
E08  25712141.991   135118186.852        1682.486          47.000    25712142.150   103532105.558        1289.186          51.000  
S31  39734635.508   208807056.209        -649.754          44.000  
R21  23821999.797   127476591.693       -4179.998          45.000    23822000.560    99148281.789       -3251.145          46.000  
R23  21340380.378   114156543.624        2098.247          50.000                                                                  
E15  24520301.329   128855121.806        -177.456          47.000    24520303.368    98733193.776        -135.915          52.000  
G03  22613496.798   118834714.299         637.064          48.000    22613495.736    92598476.004         496.550          45.000  
E34  26463322.106   139065885.078       -2146.845          46.000    26463325.583   106557119.763       -1644.996          51.000  
G27  24922462.419   130968323.840       -4457.880          43.000    24922463.894   102053316.391       -3473.402          40.000  
G31  25387558.867   133412533.396        1538.224          44.000    25387558.942   103957798.260        1198.623          42.000  
E03  24615117.546   129353338.169        -835.379          48.000    24615119.158    99114912.752        -640.039          51.000  
G21  20633628.913   108430453.106        -111.123          48.000                                                                  
E18  27792392.327   146050035.671       -1274.379          45.000                                                                  
G32  24396815.720   128206116.257       -3833.159          44.000    24396815.416    99900867.590       -2987.062          46.000  
E13  26906397.349   141394107.667        1456.120          43.000    26906398.818   108340905.236        1115.957          45.000  
R06                                                                  26496265.307                3      -3707.764          13.000  
> 2024 04 15 11 43 00.0030000  0 23                     
S33  40691206.986   213833924.776        -649.115          42.000  
E05  26226851.922   137823026.029       -3074.549          39.000    26226856.607   105604660.722       -2355.846          46.000  
G04  24059845.964   126435301.094        2952.821          44.000    24059845.477    98521037.490        2300.962          44.000  
G02  21219579.852   111509667.910         566.746          48.000                                                                  
R08  20323590.918   108831924.491         204.238          50.000    20323584.599    84647194.039         158.834          48.000  
R01  24028242.914   128444661.985        2994.929          44.000    24028245.842                        2329.590          29.000  
R22  20446713.513   109145896.710       -1574.562          52.000    20446708.258    84891325.502       -1224.659          50.000  
G28  24874186.759   130714728.244         734.747          45.000    24874183.837   101855605.980         572.430          42.000  
G08  22563489.206   118572070.136       -3556.188          47.000    22563488.378    92393700.988       -2771.023          45.000  
E08  25702564.336   135067856.619        1673.216          47.000    25702564.631   103493540.809        1282.128          51.000  
S31  39738347.323   208826560.438        -650.147          44.000  
R21  23845466.594   127602159.314       -4190.635          48.000    23845465.451    99245945.260       -3259.430          45.000  
R23  21328647.713   114093782.257        2086.223          50.000                                                                  
E15  24521331.657   128860539.745        -183.375          47.000    24521334.337    98737345.139        -140.517          51.000  
G03  22609882.093   118815720.792         629.584          47.000    22609881.156    92583675.860         490.636          45.000  
E34  26475597.893   139130394.312       -2153.505          46.000    26475601.167   106606548.806       -1650.021          51.000  
G27  24947919.794   131102102.607       -4460.287          42.000    24947921.643   102157559.311       -3475.573          41.000  
G31  25378789.758   133366449.935        1534.155          43.000    25378789.189   103921889.082        1195.616          41.000  
E03  24619927.377   129378609.668        -849.024          48.000    24619927.902    99134276.582        -650.572          51.000  
G21  20634311.104   108434038.296        -127.509          48.000                                                                  
E18  27799665.732   146088256.006       -1273.093          45.000                                                                  
G32  24418730.353   128321272.475       -3843.287          44.000    24418729.256    99990599.557       -2994.844          46.000  
E13  26898085.469   141350427.204        1456.169          43.000    26898087.016   108307435.733        1115.734          46.000  
> 2024 04 15 11 43 30.0030000  0 23                     
S33  40694913.950   213853404.163        -649.339          42.000  
E05  26244425.246   137915369.478       -3081.092          40.000    26244429.134   105675417.254       -2360.935          46.000  
G04  24043008.089   126346817.098        2946.288          44.000    24043007.495    98452088.873        2295.916          45.000  
G02  21216383.660   111492872.345         553.412          47.000                                                                  
R08  20322511.901   108826143.136         181.707          51.000    20322505.474    84642697.408         141.393          48.000  
R01  24011461.881   128354960.100        2985.349          42.000    24011464.442                        2322.015          29.000  
R22  20455621.533   109193448.768       -1595.197          52.000    20455616.685    84928310.393       -1240.736          50.000  
G28  24870029.674   130692885.773         721.930          45.000    24870027.326   101838585.892         562.622          42.000  
G08  22583828.114   118678949.030       -3568.580          47.000    22583826.844    92476983.121       -2780.729          46.000  
E08  25693038.767   135017802.443        1664.130          47.000    25693039.692   103455187.592        1275.059          51.000  
S31  39742060.330   208846072.143        -650.153          44.000  
R21  23868993.752   127728051.366       -4201.376          49.000    23868991.240    99343861.072       -3267.867          45.000  
R23  21316983.644   114031383.981        2074.121          51.000                                                                  
E15  24522397.317   128866139.251        -189.403          47.000    24522399.785    98741635.629        -145.253          51.000  
G03  22606310.485   118796951.571         622.193          46.000    22606309.229    92569050.482         484.942          44.000  
E34  26487911.171   139195098.487       -2159.757          47.000    26487914.347   106656127.230       -1654.952          51.000  
G27  24973392.017   131235957.951       -4463.046          43.000    24973394.069   102261861.888       -3477.802          40.000  
G31  25370042.272   133320482.958        1530.538          45.000    25370041.756   103886070.702        1192.390          42.000  
E03  24624814.090   129404291.427        -862.728          48.000    24624814.881    99153954.771        -660.967          51.000  
G21  20635087.897   108438121.197        -144.210          48.000                                                                  
E18  27806931.429   146126437.957       -1271.772          45.000                                                                  
G32  24440700.288   128436724.264       -3852.947          44.000    24440698.697   100080561.858       -3002.238          46.000  
E13  26889773.451   141306749.000        1456.238          43.000    26889775.440   108273967.968        1115.682          46.000  
> 2024 04 15 11 44 00.0030000  0 23                     
S33  40698622.617   213872893.620        -649.554          42.000  
E05  26262035.735   138007913.982       -3087.935          40.000    26262040.119   105746327.820       -2366.084          46.000  
G04  24026208.402   126258534.752        2939.642          42.000    24026207.816    98383297.420        2290.711          44.000  
G02  21213264.791   111476481.653         539.912          48.000                                                                  
R08  20321558.430   108821039.402         159.122          50.000    20321552.845    84638727.810         123.798          48.000  
R01  23994735.125   128265551.502        2975.450          39.000    23994740.438    99762087.106        2314.536          33.000  
R22  20464646.649   109241626.333       -1616.066          53.000    20464643.029    84965781.748       -1256.884          51.000  
G28  24865946.425   130671431.085         708.899          44.000    24865944.851   101821867.937         552.448          43.000  
G08  22604237.730   118786204.116       -3581.160          47.000    22604236.730    92560558.405       -2790.494          45.000  
E08  25683568.135   134968027.714        1654.719          47.000    25683567.869   103417048.476        1267.896          51.000  
S31  39745775.432   208865594.501        -650.571          44.000  
R21  23892580.817   127854267.648       -4212.325          50.000    23892578.366    99442029.055       -3276.278          44.000  
R23  21305388.456   113969355.280        2061.688          50.000                                                                  
E15  24523498.055   128871923.520        -195.665          47.000    24523500.529    98746067.675        -149.921          51.000  
G03  22602781.760   118778408.112         614.691          46.000    22602779.932    92554601.009         479.059          44.000  
E34  26500261.646   139260000.034       -2166.459          47.000    26500264.600   106705856.870       -1659.953          51.000  
G27  24998879.095   131369889.139       -4465.365          43.000    24998880.269   102366223.570       -3479.510          39.000  
G31  25361317.625   133274637.587        1526.416          45.000    25361317.088   103850347.060        1189.628          42.000  
E03  24629779.739   129430384.969        -876.512          48.000    24629780.574    99173948.480        -671.555          51.000  
G21  20635960.141   108442705.625        -160.908          48.000                                                                  
E18  27814190.326   146164583.418       -1270.737          45.000                                                                  
G32  24462725.526   128552470.966       -3862.812          43.000    24462724.724   100170753.936       -3010.010          46.000  
E13  26881463.175   141263075.987        1456.069          43.000    26881464.723   108240504.171        1115.578          45.000  
> 2024 04 15 11 44 30.0030000  0 23                     
S33  40702332.206   213892387.705        -649.922          42.000  
E05  26279683.485   138100651.438       -3094.102          42.000    26279687.244   105817386.260       -2370.613          45.000  
G04  24009446.164   126170450.309        2933.328          43.000    24009445.233    98314660.189        2285.391          44.000  
G02  21210222.367   111460491.263         526.607          48.000                                                                  
R08  20320729.861   108816606.691         136.925          50.000    20320724.504    84635280.150         106.428          47.000  
R01  23978062.948   128176431.944        2965.945          40.000    23978070.467    99692771.854        2306.256          34.000  
R22  20473788.612   109290423.538       -1636.662          53.000    20473784.007    85003735.053       -1272.851          50.000  
G28  24861936.977   130650360.216         696.167          45.000    24861935.669   101805449.112         542.535          44.000  
G08  22624717.820   118893826.162       -3593.368          47.000    22624716.958    92644419.638       -2800.072          45.000  
E08  25674147.735   134918527.327        1645.719          47.000    25674148.153   103379119.588        1261.013          51.000  
S31  39749491.252   208885121.303        -650.770          44.000  
R21  23916225.463   127980799.790       -4222.697          48.000    23916224.234    99540442.714       -3284.370          45.000  
R23  21293861.455   113907692.869        2049.499          51.000                                                                  
E15  24524633.216   128877887.324        -201.560          47.000    24524635.556    98750637.299        -154.446          51.000  
G03  22599295.123   118760083.521         607.362          46.000    22599293.070    92540322.080         473.283          44.000  
E34  26512648.131   139325092.916       -2172.795          47.000    26512651.439   106755733.126       -1664.855          51.000  
G27  25024377.967   131503887.006       -4467.092          43.000    25024378.603   102470637.241       -3481.086          38.000  
G31  25352616.936   133228910.242        1522.585          46.000    25352615.458   103814715.381        1186.372          43.000  
E03  24634822.429   129456883.407        -889.855          48.000    24634823.365    99194252.435        -681.785          51.000  
G21  20636927.372   108447786.999        -177.470          48.000                                                                  
E18  27821441.260   146202685.937       -1269.062          46.000                                                                  
G32  24484805.331   128668503.328       -3872.284          41.000    24484805.523   100261168.580       -3017.255          46.000  
E13  26873152.793   141219402.611        1455.986          44.000    26873153.730   108207040.107        1115.626          45.000  
