     3.00           OBSERVATION DATA    M: Mixed            RINEX VERSION / TYPE
CONVBIN 2.4.3                           20240415 022942 UTC PGM / RUN BY / DATE 
format: u-blox UBX                                          COMMENT             
log: /home/regis/git/gnsspwv/obsdata/VERT00CHL/2024-04-15/VECOMMENT             
{self.marker}                                               MARKER NAME         
                                                            MARKER NUMBER       
GEODETIC                                                    MARKER TYPE         
{self.observer}     {self.institution}                      OBSERVER / AGENCY   
UNKNOWN             UBLOX-ZED-F9P                           REC # / TYPE / VERS 
UNKNOWN             TWIVSP6037L                             ANT # / TYPE        
  1713381.0000 -5047934.0000 -3490983.0000                  APPROX POSITION XYZ 
        0.0000        0.0000        0.0000                  ANTENNA: DELTA H/E/N
G    8 C1C L1C D1C S1C C2L L2L D2L S2L                      SYS / # / OBS TYPES 
R    8 C1C L1C D1C S1C C2C L2C D2C S2C                      SYS / # / OBS TYPES 
E    8 C1C L1C D1C S1C C7Q L7Q D7Q S7Q                      SYS / # / OBS TYPES 
S    4 C1C L1C D1C S1C                                      SYS / # / OBS TYPES 
  2024    04    15    02    15   00.0100000     GPS         TIME OF FIRST OBS   
  2024    04    15    02    29   30.0100000     GPS         TIME OF LAST OBS    
                                                            END OF HEADER       
> 2024 04 15 02 15 00.0100000  0 26                     
S33  42607483.986   223903941.9791       -754.302          42.000  
G28  26081540.443   137059395.2271       2289.762          43.000    26081535.500   106799512.5921       1783.944          42.000  
E36  30072006.600   158029504.4341       2400.163          39.000    30072026.330   121087674.8371       1838.953          39.000  
G32  26446744.765   138978561.4301      -2277.850          44.000    26446745.904   108294931.1201      -1775.302          42.000  
R14  27220992.635                3      -3816.708          15.000                                                                  
R17  23843167.913   127590119.0211      -3871.070          53.000    23843160.852    99236992.1831      -3010.913          48.000  
R16  22975841.124   122732986.1041       1057.403          51.000    22975837.917    95458903.4241        822.420          49.000  
G20  27722210.560   145681199.5711       1160.801          38.000                                                                  
E11  26448466.018   138988015.1071       1144.787          43.000    26448464.122   106497534.0041        877.169          49.000  
G29  23928377.325   125744856.9441        616.046          49.000    23928372.939    97983272.0631        480.072          45.000  
S31  41654305.312   218894943.8521       -753.548          44.000  
E03  29049048.015   152653806.2751      -2129.177          44.000    29049051.817   116968441.9661      -1631.525          47.000  
R15  23366232.158   124862288.4221      -2099.392          51.000    23366230.009    97115284.9341      -1633.062          49.000  
R18  22088181.569   117908309.2311        -83.829          51.000    22088178.802    91706754.5991        -65.104          50.000  
R19  24044944.324   128624548.2741       2954.333          42.000    24044941.998   100040906.3411       2297.696          47.000  
E31  31451741.666                3      -2568.571          26.000    31451739.652   126643117.0311      -1968.642          31.000  
G11  25479480.966   133896048.5491      -1942.994          43.000    25479476.031   104334775.1901      -1514.020          45.000  
E24  27779102.591   145980294.1511      -1694.609          48.000    27779101.586   111855090.5921      -1298.532          47.000  
G24  25244062.877   132658508.7621      -3853.083          47.000    25244062.386   103370328.2431      -3002.384          44.000  
G12  24332621.907   127869098.1421      -1482.130          48.000    24332617.107    99638385.7071      -1154.921          47.000  
E05  28404366.969   149265905.0001      -3426.906          42.000    28404384.193   114372468.5731      -2625.886          43.000  
G25  23748486.028   124799366.3061         91.333          49.000    23748483.265    97246331.1561         71.100          45.000  
E10  27471592.029   144364684.9121       -283.662          46.000    27471592.602   110617348.8131       -217.350          51.000  
E25  26918124.922   141456003.6221         57.062          47.000    26918126.415   108388520.6281         43.677          52.000  
E12  28514756.034   149846428.9111      -1587.021          40.000    28514756.088   114817612.4251      -1216.082          48.000  
E14  26554562.881   139545318.4241      -5323.787          46.000    26554563.650   106924390.9371      -4079.323          54.000  
> 2024 04 15 02 15 30.0100000  0 25                     
S33  42611789.067   223926564.654        -753.486          43.000  
G28  26068491.856   136990825.777        2281.804          43.000    26068487.414   106746081.867        1778.079          42.000  
E36  30058302.866   157957503.478        2400.116          38.000    30058324.470   121032506.927        1838.947          40.000  
G32  26459786.839   139047097.690       -2290.740          44.000    26459788.266   108348335.828       -1784.843          42.000  
R17  23864917.277   127706502.983       -3887.421          52.000    23864910.088    99327513.092       -3023.505          49.000  
R16  22969926.074   122701388.998        1049.255          52.000    22969923.073    95434327.921         816.033          49.000  
G20  27715602.188   145646469.069        1155.095          40.000                                                                  
E11  26441960.397   138953833.243        1134.397          42.000    26441959.638   106471342.776         869.202          49.000  
G29  23924898.153   125726577.259         602.856          48.000    23924894.210    97969028.226         469.641          44.000  
S31  41658606.550   218917545.373        -752.969          43.000  
E03  29061231.972   152717835.825       -2139.018          43.000    29061236.260   117017503.516       -1638.907          47.000  
R15  23378056.408   124925469.235       -2112.396          51.000    23378052.479    97164425.573       -1642.819          48.000  
R18  22088726.119   117911216.889        -109.864          50.000    22088724.344    91709016.149         -85.525          50.000  
R19  24028416.801   128536140.334        2940.025          41.000    24028414.937    99972144.855        2286.425          47.000  
E31  31466409.325                       -2570.166          27.000    31466407.898                       -1969.416          27.000  
G11  25490625.035   133954612.633       -1961.050          43.000    25490621.005   104380409.573       -1528.010          45.000  
E24  27788785.580   146031173.913       -1697.047          48.000    27788783.541   111894076.363       -1300.239          47.000  
G24  25266088.103   132774254.455       -3862.972          46.000    25266088.086   103460519.568       -3010.219          44.000  
G12  24341096.898   127913634.262       -1486.766          48.000    24341092.676    99673089.190       -1158.533          47.000  
E05  28423929.625   149368705.595       -3426.196          41.000    28423947.751   114451236.737       -2625.276          43.000  
G25  23747977.867   124796695.377          87.134          49.000    23747974.918    97244249.931          67.889          44.000  
E10  27473252.402   144373408.361        -297.754          47.000    27473252.801   110624033.044        -228.117          51.000  
E25  26917802.980   141454312.146          55.880          48.000    26917804.305   108387224.584          42.775          52.000  
E12  28523856.302   149894245.532       -1600.722          41.000    28523855.292   114854251.145       -1226.411          48.000  
E14  26584946.128   139704985.964       -5320.510          46.000    26584946.969   107046733.593       -4076.778          53.000  
> 2024 04 15 02 16 00.0100000  0 25                     
S33  42616093.359   223949180.951        -753.867          43.000  
G28  26055490.038   136922501.599        2273.252          44.000    26055485.655   106692842.310        1771.463          42.000  
E36  30044601.023   157885510.182        2399.808          37.000    30044621.645   120977345.009        1838.398          39.000  
G32  26472902.553   139116025.624       -2304.271          44.000    26472904.474   108402045.800       -1795.529          42.000  
R17  23886759.327   127823384.469       -3904.376          53.000    23886752.855    99418420.918       -3036.755          48.000  
R16  22964059.276   122670050.234        1040.222          52.000    22964056.332    95409953.329         809.060          50.000  
G20  27709027.652   145611919.125        1148.694          39.000                                                                  
E11  26435518.638   138919982.508        1122.833          42.000    26435517.770   106445405.317         860.288          49.000  
G29  23921497.423   125708707.634         588.715          48.000    23921493.412    97955103.915         458.752          44.000  
S31  41662905.782   218940141.193        -753.073          44.000  
E03  29073473.845   152782168.884       -2149.421          42.000    29073478.851   117066797.594       -1647.017          47.000  
R15  23389953.478   124989051.979       -2126.224          49.000    23389950.913    97213878.803       -1653.627          48.000  
R18  22089420.430   117914920.890        -136.635          51.000    22089418.552    91711897.105        -106.373          51.000  
R19  24011973.279   128448178.905        2924.479          42.000    24011970.435    99903730.624        2274.594          46.000  
G11  25501874.679   134013728.237       -1979.661          42.000    25501870.151   104426473.730       -1542.608          45.000  
E24  27798482.798   146082134.519       -1699.989          48.000    27798481.177   111933124.109       -1302.705          47.000  
G24  25288171.826   132890305.643       -3873.550          46.000    25288171.876   103550948.942       -3018.247          43.000  
G12  24349600.855   127958323.270       -1492.322          48.000    24349596.300    99707911.796       -1162.841          47.000  
E05  28443491.149   149471495.775       -3426.181          41.000    28443508.927   114529996.916       -2625.210          43.000  
G25  23747496.109   124794163.751          81.989          49.000    23747493.315    97242277.261          63.879          45.000  
E10  27474995.513   144382566.055        -312.563          47.000    27474995.392   110631050.019        -239.497          51.000  
E25  26917490.141   141452668.994          53.904          47.000    26917491.480   108385965.576          41.330          51.000  
E12  28533034.755   149942476.995       -1614.666          41.000    28533033.254   114891207.750       -1237.145          48.000  
E14  26615314.076   139864564.106       -5317.803          47.000    26615313.630   107169007.766       -4074.761          53.000  
E31                                                                  31481086.903                       -1970.437          30.000  
> 2024 04 15 02 16 30.0100000  0 25                     
S33  42620394.251   223971784.326        -753.225          42.000  
G28  26042534.476   136854419.248        2265.368          44.000    26042530.754   106639791.141        1765.007          44.000  
E36  30030900.952   157813520.448        2399.149          37.000    30030920.838   120922185.758        1838.792          40.000  
G32  26486092.956   139185336.596       -2316.480          45.000    26486094.173   108456054.238       -1805.080          42.000  
R17  23908691.956   127940753.041       -3920.374          52.000    23908686.238    99509707.591       -3049.158          49.000  
R16  22958240.322   122638965.819        1031.813          52.000    22958237.355    95385776.571         802.600          49.000  
G20  27702485.708   145577546.732        1143.091          38.000                                                                  
E11  26429139.829   138886458.388        1112.033          43.000    26429138.213   106419718.081         852.068          49.000  
G29  23918173.857   125691241.852         575.488          48.000    23918170.235    97941494.283         448.553          44.000  
S31  41667203.313   218962723.649        -752.367          45.000  
E03  29085773.112   152846797.634       -2158.846          44.000    29085777.171   117116318.253       -1654.232          47.000  
R15  23401927.028   125053030.837       -2139.280          50.000    23401923.384    97263640.138       -1663.870          48.000  
R18  22090262.130   117919415.447        -162.945          51.000    22090260.930    91715392.889        -126.761          51.000  
R19  23995612.843   128360660.903        2910.174          42.000    23995609.618    99835661.276        2263.344          46.000  
G11  25513227.259   134073388.192       -1997.706          43.000    25513223.396   104472961.999       -1556.512          45.000  
E24  27808193.832   146133170.372       -1702.315          47.000    27808192.909   111972229.494       -1304.321          47.000  
G24  25310311.697   133006653.953       -3883.253          46.000    25310312.250   103641609.841       -3025.904          44.000  
G12  24358133.197   128003159.690       -1496.931          49.000    24358128.041    99742849.274       -1166.472          47.000  
E05  28463046.804   149574267.456       -3425.224          39.000    28463066.564   114608742.900       -2624.572          44.000  
G25  23747039.679   124791766.233          77.722          49.000    23747037.263    97240409.074          60.602          45.000  
E10  27476817.899   144392152.265        -326.698          46.000    27476819.312   110638395.343        -250.204          51.000  
E25  26917185.936   141451068.379          52.707          47.000    26917186.814   108384739.153          40.373          51.000  
E12  28542291.876   149991116.347       -1628.120          42.000    28542288.994   114928476.881       -1247.445          48.000  
E14  26645662.558   140024043.994       -5314.228          48.000    26645661.514   107291206.664       -4071.977          53.000  
E31                                                                  31495769.662                       -1970.932          28.000  
> 2024 04 15 02 17 00.0100000  0 25                     
S33  42624693.760   223994377.359        -752.942          42.000  
G28  26029626.221   136786584.112        2257.138          43.000    26029622.169   106586932.593        1758.705          43.000  
E36  30017203.060   157741538.842        2398.850          38.000    30017221.865   120867032.776        1838.308          41.000  
G32  26499355.309   139255030.868       -2329.320          44.000    26499355.710   108510361.386       -1814.921          41.000  
R17  23930714.816   128058607.472       -3936.554          52.000    23930710.666    99601372.170       -3061.694          48.000  
R16  22952470.807   122608141.497        1023.142          52.000    22952466.258    95361802.147         795.725          49.000  
G20  27695979.898   145543357.740        1136.425          40.000                                                                  
E11  26422822.530   138853265.191        1100.820          42.000    26422821.450   106394284.427         843.497          49.000  
G29  23914928.200   125674182.503         561.908          49.000    23914924.428    97928201.341         437.787          45.000  
S31  41671498.417   218985295.868        -752.460          44.000  
E03  29098128.999   152911723.404       -2168.899          44.000    29098132.093   117166066.477       -1662.071          46.000  
R15  23413974.635   125117409.736       -2152.632          50.000    23413971.332    97313712.602       -1674.262          48.000  
R18  22091253.151   117924703.516        -189.478          51.000    22091250.694    91719505.873        -147.400          50.000  
R19  23979336.744   128273593.401        2894.751          43.000    23979332.770    99767942.323        2251.483          47.000  
G11  25524684.151   134133594.112       -2015.656          41.000    25524679.281   104519875.749       -1570.808          45.000  
E24  27817920.720   146184284.772       -1705.080          47.000    27817919.716   112011395.093       -1306.442          47.000  
G24  25332508.942   133123299.921       -3893.170          46.000    25332508.862   103732502.680       -3033.607          43.000  
G12  24366694.151   128048146.487       -1502.137          49.000    24366688.533    99777903.917       -1170.457          47.000  
E05  28482601.689   149677021.506       -3424.826          38.000    28482621.377   114687475.343       -2624.156          46.000  
G25  23746610.103   124789506.469          72.961          49.000    23746607.031    97238648.254          56.775          44.000  
E10  27478724.680   144402170.193        -341.104          46.000    27478725.648   110646071.470        -261.366          52.000  
E25  26916889.944   141449513.558          51.046          48.000    26916890.595   108383547.828          39.224          51.000  
E12  28551624.074   150040165.634       -1641.884          41.000    28551622.868   114966060.128       -1258.061          48.000  
E14  26675992.409   140183425.700       -5311.016          48.000    26675990.487   107413330.327       -4069.537          52.000  
E31                                                                  31510458.955                3      -1973.416          24.000  
> 2024 04 15 02 17 30.0100000  0 25                     
S33  42628992.861   224016971.074        -753.132          42.000  
G28  26016767.655   136719010.218        2248.011          43.000    26016764.136   106534277.660        1751.634          44.000  
E36  30003508.416   157669578.700        2398.362          40.000    30003526.116   120811896.248        1837.453          41.000  
G32  26512692.133   139325117.341       -2342.721          45.000    26512693.215   108564974.088       -1825.571          42.000  
R17  23952831.371   128176955.488       -3953.137          53.000    23952826.914    99693420.639       -3074.622          50.000  
R16  22946751.444   122577591.475        1013.680          52.000    22946747.467    95338041.019         788.603          49.000  
G20  27689511.385   145509366.308        1130.054          39.000                                                                  
E11  26416571.832   138820415.888        1089.308          42.000    26416570.182   106369114.254         834.683          49.000  
G29  23911761.462   125657540.816         547.772          49.000    23911757.983    97915233.860         426.807          46.000  
S31  41675794.022   219007869.374        -752.578          44.000  
E03  29110541.138   152976955.892       -2179.643          43.000    29110545.487   117216049.714       -1670.011          47.000  
R15  23426098.575   125182200.634       -2166.635          50.000    23426097.101    97364105.524       -1685.215          49.000  
R18  22092394.702   117930796.775        -216.588          51.000    22092392.125    91724245.089        -168.373          50.000  
R19  23963146.698   128186991.506        2878.943          43.000    23963144.690    99700585.531        2239.081          48.000  
G11  25536245.903   134194356.282       -2034.960          42.000    25536243.223   104567222.901       -1585.496          46.000  
E24  27827664.360   146235489.640       -1708.275          47.000    27827663.615   112050629.998       -1308.969          48.000  
G24  25354764.752   133240252.683       -3903.523          46.000    25354764.179   103823634.593       -3041.725          43.000  
G12  24375285.362   128093295.732       -1507.759          49.000    24375280.157    99813085.171       -1174.880          47.000  
E05  28502154.625   149779767.320       -3425.013          38.000    28502173.981   114766201.465       -2624.008          45.000  
G25  23746208.167   124787396.774          67.780          49.000    23746205.661    97237004.365          52.881          44.000  
E10  27480715.423   144412631.623        -356.097          46.000    27480716.510   110654087.419        -272.806          52.000  
E25  26916605.536   141448016.231          48.920          48.000    26916606.015   108382400.560          37.514          51.000  
E12  28561037.541   150089635.509       -1655.898          41.000    28561036.811   115003965.637       -1268.882          48.000  
E14  26706304.617   140342717.932       -5308.194          48.000    26706302.934   107535385.428       -4067.318          52.000  
E31                                                                  31525158.313                       -1973.683          27.000  
> 2024 04 15 02 18 00.0100000  0 27                     
S33  42633293.218   224039569.305        -753.365          42.000  
G28  26003959.745   136651702.698        2239.234          44.000    26003954.658   106481830.287        1744.782          42.000  
E36  29989818.489   157597644.364        2397.653          41.000    29989836.369   120756779.484        1836.982          42.000  
G32  26526104.605   139395595.850       -2355.653          47.000    26526105.687   108619892.279       -1835.518          42.000  
R17  23975040.122   128295795.130       -3969.434          52.000    23975035.181    99785851.529       -3087.347          49.000  
R16  22941084.286   122547320.937        1004.352          52.000    22941080.465    95314497.303         781.139          49.000  
G20  27683081.233   145475577.613        1122.995          39.000                                                                  
E11  26410386.552   138787914.507        1077.603          42.000    26410385.051   106344210.652         825.758          48.000  
G29  23908674.324   125641319.073         533.746          49.000    23908670.440    97902593.565         416.052          46.000  
S31  41680090.537   219030446.848        -752.470          44.000  
E03  29123012.854   153042496.047       -2189.624          43.000    29123017.124   117266268.710       -1677.873          47.000  
R15  23438301.441   125247406.666       -2180.391          50.000    23438299.064    97414821.299       -1695.869          49.000  
R18  22093687.394   117937697.851        -243.473          50.000    22093685.197    91729612.630        -189.318          51.000  
R19  23947044.991   128100861.169        2863.239          42.000    23947042.614    99633595.455        2226.880          47.000  
G11  25547914.797   134255676.017       -2053.402          42.000    25547911.591   104615004.528       -1599.902          46.000  
E24  27837427.734   146286787.958       -1711.437          48.000    27837425.769   112089936.512       -1311.369          48.000  
G24  25377078.379   133357512.444       -3913.659          45.000    25377077.991   103915005.706       -3049.796          42.000  
G12  24383907.890   128138610.405       -1513.120          48.000    24383903.896    99848395.293       -1179.156          47.000  
E05  28521704.885   149882505.313       -3424.378          37.000    28521725.425   114844921.694       -2623.825          45.000  
G25  23745835.965   124785440.512          62.610          49.000    23745833.526    97235480.030          48.883          45.000  
E10  27482792.228   144423539.375        -370.901          47.000    27482792.447   110662445.353        -284.157          52.000  
E25  26916331.908   141446579.283          46.998          48.000    26916332.402   108381299.548          36.059          51.000  
E12  28570532.437   150139527.635       -1670.131          42.000    28570530.831   115042194.701       -1279.567          48.000  
E14  26736599.682   140501920.449       -5305.036          48.000    26736597.954   107657371.798       -4064.927          51.000  
E31                                                                  31539868.005                       -1975.624          27.000  
E02                                                                  30055111.073                3        835.654          26.000  
R07                                                                  26947657.946                3      -1580.249          13.000  
> 2024 04 15 02 18 30.0100000  0 26                     
S33  42637595.299   224062176.721        -753.699          43.000  
G28  25991203.687   136584669.584        2230.146          45.000    25991198.569   106429596.767        1737.611          42.000  
E36  29976134.670   157525743.267        2396.457          41.000    29976151.695   120701688.127        1836.097          42.000  
G32  26539590.833   139466469.236       -2368.847          46.000    26539592.436   108675118.208       -1846.060          43.000  
R17  23997339.615   128415127.920       -3985.820          52.000    23997334.769    99878665.902       -3100.005          50.000  
R16  22935471.810   122517337.933         994.775          52.000    22935467.792    95291177.213         773.614          48.000  
G20  27676692.928   145442000.098        1115.658          40.000                                                                  
E11  26404269.843   138755767.957        1065.600          42.000    26404267.647   106319578.958         816.358          48.000  
G29  23905667.867   125625522.800         519.629          49.000    23905664.215    97890284.866         404.968          45.000  
S31  41684388.092   219053033.093        -753.022          43.000  
E03  29135543.821   153108347.638       -2200.244          42.000    29135548.771   117316726.326       -1685.877          47.000  
R15  23450583.860   125313034.548       -2194.520          51.000    23450579.651    97465865.214       -1706.836          48.000  
R18  22095131.966   117945412.247        -270.639          50.000    22095130.739    91735612.756        -210.400          51.000  
R19  23931034.131   128015211.631        2847.083          42.000    23931031.422    99566979.348        2214.270          47.000  
G11  25559691.025   134317557.516       -2071.925          42.000    25559686.787   104663223.915       -1614.575          44.000  
E24  27847207.100   146338185.667       -1714.751          48.000    27847206.527   112129319.174       -1313.923          48.000  
G24  25399451.070   133475082.337       -3923.842          45.000    25399451.449   104006618.462       -3057.771          43.000  
G12  24392563.659   128184096.556       -1518.986          49.000    24392559.549    99883839.056       -1183.679          47.000  
E05  28541251.988   149985239.145       -3424.267          35.000    28541275.595   114923638.622       -2623.773          44.000  
G25  23745494.470   124783643.988          57.330          49.000    23745491.204    97234080.131          44.702          44.000  
E10  27484953.615   144434899.238        -386.037          46.000    27484954.101   110671149.697        -295.816          52.000  
E25  26916070.768   141445208.555          44.667          48.000    26916071.962   108380249.282          34.209          52.000  
E12  28580107.980   150189846.694       -1684.447          42.000    28580106.054   115080750.889       -1290.555          48.000  
E14  26766877.452   140661036.049       -5302.256          48.000    26766876.756   107779291.574       -4062.791          52.000  
E31                                                                  31554589.077                3      -1975.913          23.000  
E02                                                                  30048884.302                         835.586          26.000  
> 2024 04 15 02 19 00.0100000  0 28                     
S33  42641897.825   224084788.786        -753.642          43.000  
E02  30042652.854                3       1093.624          25.000    30042655.922                         836.934          29.000  
G28  25978498.726   136517908.644        2220.986          43.000    25978494.079   106377575.290        1730.593          43.000  
E36  29962455.911   157453872.263        2395.260          41.000    29962472.766   120646619.820        1835.673          42.000  
G32  26553151.753   139537730.009       -2381.649          45.000    26553154.101   108730645.939       -1855.793          44.000  
R17  24019730.488   128534944.699       -4001.670          52.000    24019725.026    99971856.721       -3112.400          48.000  
R07  26961548.506                3      -1494.034          13.000    26967947.496                3      -1603.025          12.000  
R16  22929912.122   122487639.890         985.343          52.000    22929908.817    95268078.741         766.379          50.000  
G20  27670343.317   145408631.935        1108.975          39.000                                                                  
E11  26398220.010   138723972.855        1054.211          43.000    26398217.317   106295216.522         807.888          49.000  
G29  23902742.067   125610146.850         505.652          49.000    23902737.955    97878303.684         394.080          45.000  
S31  41688686.634   219075624.019        -752.948          44.000  
E03  29148133.072   153174504.108       -2210.077          42.000    29148138.232   117367417.541       -1693.339          47.000  
R15  23462943.028   125379079.859       -2208.284          51.000    23462940.031    97517233.795       -1717.703          48.000  
R18  22096728.657   117953934.834        -297.245          49.000    22096727.076    91742241.483        -231.253          51.000  
R19  23915111.763   127930041.110        2831.335          42.000    23915109.249    99500735.800        2202.063          48.000  
G11  25571571.898   134379994.701       -2090.157          42.000    25571567.688   104711876.288       -1628.608          44.000  
E24  27857006.221   146389678.361       -1717.702          48.000    27857004.992   112168774.625       -1316.144          48.000  
G24  25421881.300   133592955.124       -3933.968          46.000    25421881.950   104098467.252       -3065.499          43.000  
G12  24401251.570   128229749.502       -1524.332          50.000    24401246.995    99919412.783       -1187.821          47.000  
E05  28560802.776   150087961.803       -3423.389          37.000    28560824.291   115002347.004       -2623.235          44.000  
G25  23745181.843   124782003.223          52.203          48.000    23745178.665    97232801.650          40.607          44.000  
E10  27487199.125   144446706.607        -400.799          45.000    27487201.021   110680196.934        -307.047          52.000  
E25  26915821.363   141443899.545          42.832          48.000    26915822.859   108379246.286          32.880          52.000  
E12  28589764.234   150240586.930       -1698.129          42.000    28589761.631   115119629.812       -1301.099          48.000  
E14  26797137.885   140820057.139       -5298.738          48.000    26797137.615   107901138.914       -4060.058          52.000  
E31                                                                  31569316.431                3      -1977.839          17.000  
R09                                                                  26408814.331                3       2273.377          11.000  
> 2024 04 15 02 19 30.0100000  0 27                     
S33  42646199.678   224107393.461        -753.357          43.000  
E02  30036420.723                3       1092.957          26.000    30036417.066   120944197.1791        838.541          31.000  
G28  25965844.114   136451411.050        2212.355          42.000    25965840.331   106325759.003        1723.742          43.000  
E36  29948781.902   157382021.780        2395.076          40.000    29948798.389   120591567.239        1834.934          42.000  
G32  26566783.294   139609364.066       -2393.942          45.000    26566785.054   108786464.558       -1865.426          44.000  
R17  24042208.803   128655229.582       -4017.127          53.000    24042203.098   100065411.659       -3124.286          48.000  
R07  26972788.226                3      -1514.641          10.000                                                                  
R16  22924404.315   122458218.241         976.191          52.000    22924401.408    95245195.235         759.292          50.000  
G20  27664030.972   145375464.470        1102.760          38.000                                                                  
E11  26392233.510   138692519.310        1043.069          42.000    26392232.178   106271115.813         799.258          49.000  
G29  23899894.381   125595179.365         492.322          49.000    23899889.243    97866640.776         383.612          44.000  
S31  41692984.592   219098207.842        -752.389          44.000  
E03  29160777.000   153240952.415       -2219.695          41.000    29160782.898   117418332.367       -1700.808          47.000  
R15  23475378.069   125445531.293       -2221.681          50.000    23475374.608    97568918.250       -1728.041          48.000  
R18  22098474.465   117963254.155        -323.850          49.000    22098472.860    91749489.859        -251.874          51.000  
R19  23899277.787   127845342.295        2815.515          42.000    23899275.277    99434859.138        2189.868          48.000  
G11  25583556.474   134442974.877       -2108.358          42.000    25583552.174   104760951.768       -1642.963          44.000  
E24  27866821.006   146441255.133       -1720.484          48.000    27866819.780   112208294.483       -1318.323          48.000  
G24  25444367.077   133711117.070       -3943.433          46.000    25444367.467   104190541.329       -3072.844          43.000  
G12  24409968.755   128275558.734       -1529.506          49.000    24409963.706    99955108.281       -1191.794          46.000  
E05  28580345.913   150190659.823       -3422.520          38.000    28580368.158   115081036.576       -2622.583          44.000  
G25  23744896.788   124780507.652          47.571          48.000    23744894.612    97231636.284          37.091          45.000  
E10  27489529.129   144458950.313        -415.209          45.000    27489530.869   110689578.526        -318.216          52.000  
E25  26915582.161   141442641.199          41.231          48.000    26915583.541   108378282.114          31.623          52.000  
E12  28599496.925   150291736.098       -1711.481          42.000    28599495.069   115158822.080       -1311.513          49.000  
E14  26827378.242   140978969.631       -5295.062          48.000    26827377.922   108022903.050       -4057.220          52.000  
E31                                                                  31584055.381                3      -1988.495          14.000  
> 2024 04 15 02 20 00.0100000  0 26                     
S33  42650498.620   224129986.950        -752.573          43.000  
E02  30030167.623                3       1093.904          26.000    30030170.439   120919044.366         839.625          34.000  
G28  25953239.628   136385176.440        2203.662          42.000    25953236.043   106274147.639        1717.251          43.000  
E36  29935111.528   157310190.834        2394.290          40.000    29935128.107   120536529.584        1834.602          42.000  
G32  26580484.273   139681365.852       -2405.761          44.000    26580486.128   108842569.721       -1874.670          43.000  
R17  24064772.931   128775975.596       -4032.169          52.000    24064767.493   100159325.224       -3136.098          49.000  
R16  22918947.993   122429072.484         967.283          52.000    22918944.927    95222526.331         752.290          49.000  
G20  27657758.440   145342497.762        1095.960          39.000                                                                  
E11  26386312.148   138661405.727        1031.740          42.000    26386311.752   106247275.599         790.517          49.000  
G29  23897123.587   125580617.315         479.016          50.000    23897118.194    97855293.800         373.163          44.000  
S31  41697280.143   219120781.311        -751.685          44.000  
E03  29173478.295   153307687.903       -2228.927          43.000    29173482.437   117469467.259       -1707.903          47.000  
R15  23487889.478   125512386.832       -2234.894          51.000    23487885.901    97620916.980       -1738.281          48.000  
R18  22100368.786   117973366.885        -349.963          50.000    22100367.291    91757355.334        -272.113          51.000  
R19  23883532.729   127761115.096        2799.878          43.000    23883530.253    99369349.284        2177.814          48.000  
G11  25595644.008   134506493.784       -2125.808          43.000    25595639.680   104810447.027       -1656.504          44.000  
E24  27876651.478   146492913.475       -1723.009          48.000    27876649.951   112247876.844       -1320.144          48.000  
G24  25466907.352   133829562.884       -3952.585          46.000    25466906.054   104282836.642       -3079.656          42.000  
G12  24418715.189   128321521.841       -1534.368          50.000    24418710.661    99990923.701       -1195.601          47.000  
E05  28599884.640   150293328.391       -3421.599          39.000    28599906.457   115159703.533       -2621.472          45.000  
G25  23744639.235   124779155.242          42.981          48.000    23744638.283    97230582.467          33.539          45.000  
E10  27491942.031   144471627.737        -429.591          45.000    27491942.806   110699292.417        -329.112          52.000  
E25  26915351.447   141441430.946          39.951          47.000    26915353.103   108377354.791          30.609          52.000  
E12  28609306.900   150343290.369       -1724.998          41.000    28609305.247   115198324.709       -1321.607          49.000  
E14  26857595.864   141137767.972       -5290.985          48.000    26857596.132   108144579.715       -4054.163          52.000  
R09                                                                  25181788.360                3       2238.611          14.000  
> 2024 04 15 02 20 30.0100000  0 25                     
S33  42654794.184   224152560.559        -752.398          43.000  
E02  30023907.336                        1096.451          30.000    30023913.625   120893850.384         840.361          36.000  
G28  25940683.939   136319196.492        2194.813          42.000    25940680.907   106222734.756        1710.256          43.000  
E36  29921443.807   157238370.383        2393.781          40.000    29921459.684   120481499.940        1834.040          42.000  
G32  26594252.786   139753721.760       -2417.909          44.000    26594255.590   108898950.799       -1884.262          43.000  
R17  24087420.595   128897167.147       -4047.216          52.000    24087414.970   100253585.344       -3147.909          48.000  
R16  22913541.752   122400194.131         957.924          51.000    22913539.090    95200065.401         745.021          50.000  
G20  27651521.506   145309723.796        1089.275          37.000                                                                  
E11  26380455.112   138630622.726        1020.125          42.000    26380454.177   106223688.687         781.667          50.000  
G29  23894427.183   125566449.603         465.515          50.000    23894422.778    97844254.081         362.738          45.000  
S31  41701571.896   219143333.579        -751.489          44.000  
E03  29186227.654   153374698.040       -2238.449          41.000    29186233.882   117520812.618       -1715.307          47.000  
R15  23500475.000   125579635.968       -2248.347          52.000    23500471.000    97673221.860       -1748.738          48.000  
R18  22102410.196   117984261.704        -376.322          50.000    22102408.325    91765829.100        -292.589          51.000  
R19  23867874.582   127677352.787        2784.040          43.000    23867871.586    99304200.986        2165.466          48.000  
G11  25607831.420   134570539.260       -2143.895          43.000    25607827.378   104860352.603       -1670.267          44.000  
E24  27886495.327   146544643.030       -1725.667          48.000    27886493.766   112287513.789       -1322.240          49.000  
G24  25489497.782   133948279.301       -3962.001          46.000    25489497.298   104375342.825       -3087.114          43.000  
G12  24427489.188   128367628.138       -1539.332          50.000    24427483.869   100026850.694       -1199.641          46.000  
E05  28619416.376   150395954.520       -3420.344          41.000    28619436.708   115238337.981       -2620.922          45.000  
G25  23744407.258   124777935.962          38.141          49.000    23744406.265    97229632.410          29.675          45.000  
E10  27494433.980   144484728.136        -443.799          44.000    27494435.715   110709330.443        -340.119          52.000  
E25  26915128.652   141440258.270          38.291          47.000    26915130.028   108376456.249          29.327          52.000  
E12  28619193.900   150395237.947       -1738.172          41.000    28619190.686   115238128.732       -1331.918          49.000  
E14  26887791.187   141296438.630       -5286.957          48.000    26887790.145   108266158.533       -4051.086          52.000  
> 2024 04 15 02 21 00.0100000  0 27                     
S33  42659084.962   224175107.721        -751.233          42.000  
E02  30017641.670   157743752.2911       1098.809          34.000    30017645.850   120868611.214         841.861          39.000  
G28  25928176.038   136253468.660        2186.626          40.000    25928173.231   106171518.306        1703.701          44.000  
E36  29907776.650   157166557.070        2393.322          40.000    29907792.727   120426475.739        1833.917          43.000  
G32  26608087.914   139826423.851       -2429.446          45.000    26608090.130   108955601.675       -1892.915          42.000  
R17  24110149.752   129018794.934       -4061.723          51.000    24110143.792   100348184.752       -3159.031          49.000  
R16  22908184.591   122371580.289         949.222          51.000    22908183.061    95177810.228         738.247          50.000  
R07  27000567.392                3      -1557.398          11.000                                                                  
G20  27645319.511   145277140.011        1082.368          39.000                                                                  
E11  26374659.125   138600166.493        1009.426          42.000    26374658.463   106200352.170         773.583          50.000  
G29  23891804.867   125552670.667         452.551          50.000    23891801.219    97833517.275         352.618          45.000  
S31  41705858.548   219165860.578        -750.853          44.000  
E03  29199031.394   153441975.902       -2247.061          42.000    29199036.832   117572363.076       -1722.026          47.000  
R15  23513132.521   125647273.827       -2261.256          52.000    23513128.898    97725829.064       -1758.797          49.000  
R18  22104595.089   117995933.224        -402.264          50.000    22104595.391    91774906.977        -312.831          51.000  
R19  23852301.499   127594052.971        2768.726          43.000    23852299.618    99239412.416        2153.473          48.000  
G11  25620118.172   134635104.662       -2161.095          44.000    25620114.180   104910663.355       -1683.956          45.000  
E24  27896350.918   146596439.006       -1727.835          47.000    27896350.337   112327201.620       -1323.962          49.000  
G24  25512139.394   134067258.750       -3970.471          46.000    25512139.400   104468053.937       -3094.016          43.000  
G12  24436289.053   128413873.019       -1544.067          50.000    24436283.498   100062885.679       -1203.173          46.000  
E05  28638936.785   150498531.047       -3418.697          41.000    28638957.561   115316934.406       -2619.260          45.000  
G25  23744200.211   124776845.510          33.881          49.000    23744198.373    97228782.725          26.276          45.000  
E10  27497007.272   144498246.599        -457.683          45.000    27497008.163   110719688.774        -350.767          52.000  
E25  26914911.584   141439118.321          37.337          47.000    26914912.741   108375582.796          28.566          52.000  
E12  28629151.032   150447572.827       -1751.085          40.000    28629149.539   115278229.497       -1341.774          49.000  
E14  26917959.656   141454973.780       -5282.445          48.000    26917958.335   108387633.527       -4047.576          52.000  
R09                                                                  25152266.877                3       2190.664          13.000  
> 2024 04 15 02 21 30.0100000  0 26                     
S33  42663369.874   224197626.275        -749.916          42.000  
E02  30011361.532   157710752.070        1101.384          36.000    30011366.314   120843325.413         843.786          42.000  
G28  25915716.594   136187993.767        2178.465          41.000    25915714.091   106120498.961        1697.563          44.000  
E36  29894111.800   157094751.015        2393.670          41.000    29894127.243   120371457.097        1834.059          43.000  
G32  26621987.543   139899467.762       -2440.378          46.000    26621990.279   109012518.868       -1901.743          42.000  
R17  24132959.558   129140852.790       -4075.351          52.000    24132953.211   100443118.649       -3169.740          49.000  
R16  22902878.144   122343231.992         940.783          52.000    22902875.428    95155761.575         731.778          49.000  
G20  27639155.537   145244747.402        1076.705          38.000                                                                  
E11  26368925.879   138570036.703         999.232          42.000    26368924.873   106177265.770         765.698          50.000  
G29  23889256.075   125539278.392         440.228          49.000    23889253.013    97823081.765         342.957          46.000  
S31  41710139.761   219188358.192        -749.197          44.000  
E03  29211885.545   153509518.067       -2255.596          42.000    29211889.824   117624116.043       -1728.223          47.000  
R15  23525861.554   125715299.254       -2273.657          51.000    23525858.284    97778737.715       -1768.452          48.000  
R18  22106927.795   118008379.211        -427.469          51.000    22106926.601    91784587.233        -332.444          51.000  
R19  23836816.257   127511217.371        2753.760          43.000    23836814.486    99174984.903        2141.620          48.000  
G11  25632502.868   134700186.965       -2177.798          45.000    25632497.942   104961376.871       -1697.034          44.000  
E24  27906219.280   146648300.168       -1729.604          46.000    27906219.044   112366939.397       -1325.244          49.000  
G24  25534829.214   134186497.136       -3978.766          45.000    25534829.603   104560966.799       -3100.234          43.000  
G12  24445116.347   128460255.445       -1548.097          50.000    24445110.050   100099027.818       -1206.234          46.000  
E05  28658446.137   150601054.265       -3416.168          39.000    28658468.387   115395489.991       -2617.604          45.000  
G25  23744017.290   124775883.089          30.133          48.000    23744015.084    97228032.788          23.474          45.000  
E10  27499658.763   144512181.544        -471.068          44.000    27499660.005   110730366.234        -360.999          52.000  
E25  26914700.528   141438009.776          36.666          47.000    26914701.654   108374733.397          28.094          51.000  
E12  28639183.249   150500292.270       -1763.592          39.000    28639181.901   115318624.933       -1351.154          49.000  
E14  26948101.160   141613369.066       -5277.250          48.000    26948099.844   108509001.344       -4043.517          52.000  
R09                                                                  25136230.849                3       2167.893          12.000  
> 2024 04 15 02 22 00.0100000  0 26                     
S33  42667647.828   224220107.354        -748.650          42.000  
E02  30005068.127   157677680.445        1103.761          38.000    30005072.430   120817984.934         845.804          43.000  
G28  25903304.281   136122763.984        2170.310          41.000    25903301.041   106069670.593        1691.216          43.000  
E36  29880446.963   157022943.646        2393.839          42.000    29880461.670   120316437.423        1834.142          44.000  
G32  26635951.332   139972840.303       -2450.865          47.000    26635951.190   109069692.137       -1909.986          40.000  
R17  24155847.189   129263325.664       -4089.181          51.000    24155840.422   100538375.353       -3180.326          49.000  
R16  22897619.730   122315141.204         932.247          52.000    22897616.073    95133913.221         725.035          48.000  
R07  27025636.226                3      -1588.270          13.000                                                                  
G20  27633026.257   145212538.584        1070.544          41.000                                                                  
E11  26363251.762   138540224.323         988.530          41.000    26363251.663   106154422.597         757.435          50.000  
G29  23886778.744   125526261.983         427.710          48.000    23886776.590    97812939.180         333.356          46.000  
S31  41714413.662   219210818.092        -747.965          44.000  
E03  29224787.540   153577312.291       -2263.776          43.000    29224790.576   117676062.176       -1734.630          47.000  
R15  23538662.836   125783702.103       -2286.249          51.000    23538659.130    97831939.945       -1778.303          48.000  
R18  22109403.059   118021588.887        -452.867          51.000    22109400.585    91794861.467        -352.257          51.000  
R19  23821416.222   127428838.762        2738.544          44.000    23821414.782    99110912.807        2129.858          48.000  
G11  25644983.252   134765774.272       -2194.368          44.000    25644979.831   105012483.873       -1709.872          44.000  
E24  27916099.914   146700216.562       -1731.415          46.000    27916098.549   112406719.492       -1326.535          49.000  
G24  25557566.737   134305981.545       -3986.795          46.000    25557567.317   104654071.404       -3106.486          43.000  
G12  24453966.348   128506765.250       -1552.228          50.000    24453960.356   100135269.243       -1209.657          45.000  
E05  28677944.220   150703511.704       -3414.168          38.000    28677966.493   115473995.170       -2615.899          45.000  
G25  23743857.047   124775039.106          26.379          49.000    23743854.377    97227375.141          20.514          45.000  
E10  27502388.681   144526522.716        -484.666          45.000    27502389.076   110741354.960        -371.382          53.000  
E25  26914493.616   141436922.579          36.031          47.000    26914494.598   108373900.370          27.676          51.000  
E12  28649285.997   150553384.925       -1775.820          40.000    28649284.541   115359306.351       -1360.724          49.000  
E14  26978213.680   141771611.500       -5272.126          49.000    26978212.228   108630252.065       -4039.680          52.000  
> 2024 04 15 02 22 30.0100000  0 25                     
S33  42671920.626   224242560.500        -747.940          42.000  
E02  29998764.272   157644548.849        1105.530          41.000    29998767.483   120792598.478         847.070          44.000  
G28  25890941.086   136057793.374        2161.376          42.000    25890936.866   106019044.199        1684.296          42.000  
E36  29866784.141   156951148.362        2393.095          43.000    29866798.598   120261426.969        1833.404          44.000  
G32  26649977.672   140046550.255       -2462.475          46.000    26649977.749   109127128.298       -1918.977          41.000  
R17  24178812.461   129386221.413       -4103.427          50.000    24178807.336   100633960.964       -3191.480          50.000  
R16  22892412.324   122287322.283         922.835          52.000    22892408.079    95112276.327         717.705          49.000  
G20  27626935.784   145180528.100        1063.700          42.000                                                                  
E11  26357641.481   138510742.220         977.106          42.000    26357641.193   106131832.482         748.759          50.000  
G29  23884375.755   125513632.684         414.532          49.000    23884373.092    97803098.221         323.016          46.000  
S31  41718681.931   219233250.754        -747.020          44.000  
E03  29237737.155   153645368.386       -2272.798          42.000    29237741.890   117728208.981       -1741.567          48.000  
R15  23551535.453   125852494.664       -2299.493          50.000    23551533.145    97885445.238       -1788.385          48.000  
R18  22112022.383   118035573.476        -479.001          50.000    22112020.151    91805738.407        -372.478          51.000  
R19  23806104.581   127346932.397        2722.583          44.000    23806102.766    99047208.022        2117.487          49.000  
G11  25657562.079   134831876.731       -2211.793          45.000    25657559.626   105063992.325       -1723.560          46.000  
E24  27925991.312   146752200.148       -1733.916          46.000    27925990.823   112446551.078       -1328.496          50.000  
G24  25580352.506   134425721.186       -3995.515          45.000    25580353.951   104747374.855       -3113.313          44.000  
G12  24462842.798   128553414.578       -1557.134          50.000    24462837.386   100171619.371       -1213.478          45.000  
E05  28697431.492   150805912.880       -3412.388          38.000    28697454.257   115552457.245       -2614.658          45.000  
G25  23743720.898   124774325.977          21.692          48.000    23743718.507    97226819.497          16.888          45.000  
E10  27505196.189   144541281.813        -498.853          45.000    27505197.801   110752663.901        -382.227          53.000  
E25  26914293.055   141435868.615          34.595          47.000    26914294.222   108373092.803          26.582          51.000  
E12  28659462.608   150606861.242       -1788.844          39.000    28659460.767   115400281.733       -1370.634          49.000  
E14  27008298.905   141929710.006       -5267.520          49.000    27008297.422   108751392.494       -4036.090          52.000  
> 2024 04 15 02 23 00.0100000  0 26                     
S33  42676188.540   224264988.959        -747.337          42.000  
E02  29992450.052   157611360.406        1107.396          42.000    29992451.249   120767168.502         848.523          44.000  
G28  25878628.286   135993087.809        2152.560          44.000    25878623.449   105968624.351        1677.115          42.000  
E36  29853124.025   156879370.268        2392.332          43.000    29853138.319   120206429.630        1833.041          44.000  
G32  26664068.444   140120598.131       -2473.662          46.000    26664067.922   109184827.795       -1927.662          40.000  
R17  24201856.752   129509539.030       -4117.374          50.000    24201851.500   100729874.658       -3202.478          49.000  
R16  22887256.600   122259781.100         913.528          52.000    22887252.381    95090855.408         710.562          48.000  
G20  27620883.089   145148721.784        1056.897          42.000                                                                  
E11  26352096.199   138481595.051         966.121          43.000    26352094.604   106109499.004         740.347          50.000  
G29  23882046.931   125501393.641         401.593          49.000    23882044.157    97793561.343         312.946          46.000  
S31  41722946.177   219255659.702        -746.390          44.000  
E03  29250738.716   153713687.931       -2281.841          43.000    29250742.566   117780557.634       -1748.325          47.000  
R15  23564483.277   125921681.010       -2312.621          51.000    23564479.908    97939256.833       -1798.810          47.000  
R18  22114788.419   118050335.927        -504.873          51.000    22114785.700    91817220.352        -392.609          51.000  
R19  23790883.248   127265505.129        2706.372          44.000    23790880.615    98983875.875        2104.901          48.000  
G11  25670238.992   134898496.174       -2229.054          45.000    25670236.394   105115903.601       -1736.904          46.000  
E24  27935897.259   146804254.685       -1736.188          46.000    27935896.548   112486437.025       -1330.311          50.000  
G24  25603187.043   134545716.898       -4003.785          44.000    25603188.021   104840877.822       -3119.996          43.000  
G12  24471746.708   128600207.216       -1561.960          49.000    24471742.012   100208081.158       -1217.193          45.000  
E05  28716908.114   150908259.076       -3410.531          38.000    28716931.516   115630877.256       -2613.246          46.000  
G25  23743610.847   124773747.891          17.181          48.000    23743608.544    97226369.054          13.562          45.000  
E10  27508083.940   144556462.208        -512.949          44.000    27508086.513   110764295.678        -392.986          53.000  
E25  26914099.873   141434851.605          33.340          47.000    26914100.836   108372313.553          25.604          52.000  
E12  28669711.391   150660723.653       -1801.858          38.000    28669710.728   115441552.950       -1380.488          49.000  
E14  27038355.705   142087665.367       -5262.712          48.000    27038355.410   108872423.251       -4032.446          52.000  
R09                                                                  25089428.394                3       2117.665          13.000  
> 2024 04 15 02 23 30.0100000  0 27                     
S33  42680451.313   224287389.988        -746.519          42.000  
E02  29986120.899   157578109.869        1109.468          40.000    29986123.831   120741690.950         850.148          44.000  
G28  25866365.223   135928644.764        2143.587          45.000    25866360.460   105918409.030        1670.250          41.000  
E36  29839466.133   156807606.090        2391.758          43.000    29839480.072   120151442.924        1832.677          43.000  
G32  26678221.505   140194976.070       -2484.927          45.000    26678221.618   109242784.511       -1936.177          40.000  
R17  24224977.857   129633269.118       -4131.318          50.000    24224972.772   100826109.161       -3213.264          48.000  
R09  25978656.007                3       2408.222          12.000                                                                  
R16  22882152.073   122232515.305         904.063          52.000    22882148.559    95069648.694         703.124          48.000  
G20  27614868.772   145117117.294        1050.063          42.000                                                                  
E11  26346612.520   138452779.100         955.241          43.000    26346610.867   106087419.323         731.886          49.000  
G29  23879791.188   125489539.250         388.678          49.000    23879787.534    97784324.198         302.930          45.000  
S31  41727204.933   219278039.692        -745.690          43.000  
E03  29263786.752   153782263.989       -2290.383          43.000    29263792.012   117833102.869       -1754.919          47.000  
R15  23577502.858   125991255.950       -2325.882          51.000    23577499.584    97993370.715       -1809.054          47.000  
R18  22117698.062   118065870.511        -530.760          50.000    22117696.480    91829302.836        -412.863          51.000  
R19  23775749.447   127184555.146        2689.960          43.000    23775747.687    98920914.933        2092.383          48.000  
G11  25683013.697   134965625.978       -2246.277          46.000    25683010.397   105168212.569       -1750.190          46.000  
E24  27945815.547   146856375.531       -1738.478          45.000    27945815.015   112526373.774       -1332.147          50.000  
G24  25626069.527   134665961.100       -4012.594          45.000    25626070.827   104934574.441       -3126.678          44.000  
G12  24480677.617   128647138.720       -1566.825          49.000    24480672.299   100244651.160       -1220.828          45.000  
E05  28736373.873   151010543.187       -3408.761          38.000    28736396.562   115709249.716       -2611.727          45.000  
G25  23743525.655   124773300.577          12.537          48.000    23743523.251    97226020.504           9.875          44.000  
E10  27511052.871   144572058.970        -526.974          45.000    27511054.540   110776246.474        -403.713          53.000  
E25  26913912.186   141433866.747          32.254          47.000    26913913.449   108371558.966          24.659          52.000  
E12  28680033.419   150714965.937       -1814.389          39.000    28680032.466   115483115.258       -1390.302          49.000  
E14  27068384.452   142245469.900       -5257.684          48.000    27068384.706   108993338.418       -4028.562          52.000  
R07                                                                  27057691.952                3      -1717.874          11.000  
> 2024 04 15 02 24 00.0100000  0 26                     
S33  42684709.434   224309766.717        -745.700          42.000  
E02  29979783.017   157544802.323        1111.152          39.000    29979784.797   120716169.751         851.212          41.000  
G28  25854153.491   135864472.062        2134.414          44.000    25854148.881   105868404.370        1663.133          42.000  
E36  29825813.032   156735862.902        2390.773          42.000    29825826.688   120096472.262        1831.837          43.000  
G32  26692439.123   140269686.529       -2495.953          45.000    26692438.843   109301000.318       -1945.020          41.000  
R17  24248177.401   129757412.451       -4145.143          50.000    24248172.298   100922665.107       -3223.938          48.000  
R16  22877101.205   122205532.561         894.396          52.000    22877097.486    95048662.136         695.712          49.000  
G20  27608894.083   145085722.842        1043.114          40.000                                                                  
E11  26341192.457   138424300.939         943.118          42.000    26341191.721   106065598.460         722.869          49.000  
G29  23877609.494   125478074.148         375.500          50.000    23877605.011    97775390.390         292.578          45.000  
S31  41731459.332   219300394.967        -744.915          44.000  
E03  29276886.295   153851100.116       -2299.051          42.000    29276891.575   117885847.299       -1761.561          48.000  
R15  23590597.094   126061225.767       -2339.027          51.000    23590593.898    98047791.652       -1819.258          47.000  
R18  22120754.118   118082182.032        -556.821          51.000    22120752.937    91841989.589        -433.128          51.000  
R19  23760707.589   127104091.340        2673.926          43.000    23760706.242    98858332.128        2079.626          48.000  
G11  25695887.032   135033269.990       -2263.597          46.000    25695882.091   105220922.161       -1763.826          45.000  
E24  27955747.170   146908568.383       -1741.222          45.000    27955746.961   112566365.698       -1334.147          50.000  
G24  25648999.735   134786456.570       -4021.141          46.000    25649000.485   105028466.861       -3133.373          44.000  
G12  24489636.122   128694214.587       -1571.786          50.000    24489630.417   100281333.678       -1224.838          45.000  
E05  28755824.970   151112768.421       -3406.998          37.000    28755850.359   115787577.080       -2610.372          45.000  
G25  23743466.834   124772990.235           8.038          48.000    23743464.132    97225778.719           6.244          44.000  
E10  27514101.381   144588077.399        -541.182          46.000    27514102.607   110788520.373        -414.666          53.000  
E25  26913732.256   141432919.727          30.741          47.000    26913733.347   108370833.354          23.562          52.000  
E12  28690430.603   150769592.575       -1827.509          39.000    28690427.418   115524972.036       -1400.378          49.000  
E14  27098385.533   142403126.388       -5252.848          48.000    27098385.438   109114140.148       -4024.942          51.000  
R09                                                                  25059414.703                3       2072.243          13.000  
> 2024 04 15 02 24 30.0100000  0 25                     
S33  42688964.295   224332127.281        -745.401          43.000  
E02  29973436.962   157511445.708        1112.345          42.000    29973436.623   120690610.892         852.332          40.000  
G28  25841995.263   135800580.259        2124.809          43.000    25841991.469   105818618.564        1655.679          42.000  
E36  29812165.706   156664150.518        2389.652          43.000    29812177.999   120041525.153        1830.832          42.000  
G32  26706721.204   140344734.662       -2507.648          47.000    26706721.322   109359479.235       -1954.138          43.000  
R17  24271454.917   129881973.230       -4159.337          50.000    24271449.396   101019545.693       -3235.068          48.000  
R16  22872104.664   122178843.665         884.368          52.000    22872101.797    95027904.119         687.849          49.000  
G20  27602962.070   145054549.052        1035.116          41.000                                                                  
E11  26335840.093   138396169.809         931.412          43.000    26335838.455   106044043.498         713.601          49.000  
G29  23875503.142   125467006.216         361.932          49.000    23875498.602    97766766.067         281.958          45.000  
S31  41735710.611   219322735.422        -744.832          43.000  
E03  29290036.469   153920202.387       -2308.276          43.000    29290041.133   117938795.707       -1768.555          47.000  
R15  23603767.240   126131598.929       -2352.785          52.000    23603762.644    98102526.352       -1829.982          47.000  
R18  22123956.021   118099278.066        -583.235          50.000    22123955.149    91855286.532        -453.604          51.000  
R19  23745758.976   127024124.729        2656.867          43.000    23745756.684    98796136.039        2066.504          48.000  
G11  25708858.649   135101434.542       -2281.074          46.000    25708853.385   105274037.431       -1777.630          45.000  
E24  27965694.788   146960841.689       -1744.079          44.000    27965693.737   112606419.244       -1336.408          49.000  
G24  25671977.194   134907208.837       -4029.800          44.000    25671978.257   105122559.381       -3139.907          44.000  
G12  24498623.009   128741443.534       -1577.164          49.000    24498618.020   100318135.465       -1229.005          45.000  
E05  28775270.069   151214940.793       -3404.923          38.000    28775294.035   115865863.934       -2609.059          45.000  
G25  23743435.399   124772825.725           2.625          47.000    23743432.804    97225650.538           2.124          45.000  
E10  27517231.431   144604525.576        -555.722          46.000    27517232.716   110801123.557        -425.803          53.000  
E25  26913560.573   141432018.874          28.808          47.000    26913561.996   108370143.119          22.152          52.000  
E12  28700900.545   150824610.281       -1840.833          40.000    28700896.939   115567128.454       -1410.449          49.000  
E14  27128359.889   142560640.258       -5248.346          48.000    27128359.113   109234832.606       -4021.449          51.000  
> 2024 04 15 02 25 00.0100000  0 26                     
S33  42693215.767   224354469.404        -744.267          42.000  
E02  29967077.690   157478037.372        1114.687          41.000    29967079.445   120665012.379         854.119          41.000  
G28  25829890.314   135736969.336        2115.702          44.000    25829887.094   105769051.643        1648.620          43.000  
E36  29798523.471   156592468.277        2389.012          43.000    29798536.153   119986601.078        1830.530          43.000  
G32  26721065.248   140420115.110       -2518.115          46.000    26721066.045   109418217.121       -1962.171          43.000  
R17  24294809.755   130006944.623       -4172.438          51.000    24294802.812   101116745.662       -3245.156          48.000  
R09  26229656.428                3       2675.648          17.000                                                                  
R16  22867162.991   122152448.756         875.007          52.000    22867160.412    95007374.728         680.485          49.000  
G20  27597071.551   145023596.216        1028.129          40.000                                                                  
E11  26330552.543   138368384.507         920.623          43.000    26330550.854   106022753.521         705.390          49.000  
G29  23873471.757   125456332.423         349.255          48.000    23873467.634    97758448.842         272.308          45.000  
S31  41739958.305   219345057.028        -743.650          44.000  
E03  29303236.830   153989566.530       -2316.435          44.000    29303240.785   117991944.764       -1774.868          48.000  
R15  23617011.284   126202373.112       -2365.748          51.000    23617008.043    98157572.889       -1840.008          47.000  
R18  22127305.125   118117155.274        -608.836          51.000    22127303.793    91869191.037        -473.505          51.000  
R19  23730902.742   126944656.429        2640.576          43.000    23730900.922    98734327.491        2053.888          48.000  
G11  25721928.299   135170115.598       -2297.889          47.000    25721922.614   105327555.174       -1790.698          44.000  
E24  27975657.244   147013193.339       -1746.207          44.000    27975655.313   112646532.842       -1338.087          48.000  
G24  25695002.301   135028212.999       -4037.704          42.000    25695004.957   105216848.148       -3146.014          44.000  
G12  24507639.528   128788823.417       -1581.643          49.000    24507634.538   100355054.858       -1232.534          44.000  
E05  28794702.774   151317055.775       -3403.124          38.000    28794727.254   115944106.835       -2607.502          46.000  
G25  23743431.739   124772805.462          -1.685          46.000    23743428.534    97225634.766          -1.349          44.000  
E10  27520442.822   144621401.043        -569.458          46.000    27520444.033   110814054.141        -436.374          53.000  
E25  26913396.996   141431162.053          27.942          47.000    26913398.742   108369486.621          21.380          52.000  
E12  28711444.297   150880015.602       -1853.404          41.000    28711440.376   115609581.894       -1420.003          49.000  
E14  27158306.240   142718006.494       -5243.051          49.000    27158304.960   109355411.942       -4017.403          50.000  
> 2024 04 15 02 25 30.0100000  0 26                     
S33  42697464.250   224376794.508        -744.021          42.000  
E02  29960711.388   157444579.482        1115.961          41.000    29960712.198   120639375.921         855.335          40.000  
G28  25817840.245   135673644.146        2105.924          44.000    25817836.837   105719707.325        1641.194          43.000  
E36  29784888.643   156520820.297        2387.685          44.000    29784900.873   119931703.218        1829.563          44.000  
G32  26735472.087   140495827.388       -2529.138          46.000    26735474.167   109477213.557       -1970.807          44.000  
R17  24318239.117   130132324.321       -4186.091          51.000    24318232.848   101214263.209       -3255.820          47.000  
R09  26214591.763                2       2680.084          26.000                                                                  
R16  22862278.287   122126352.687         864.935          52.000    22862275.139    94987077.806         672.622          49.000  
G20  27591223.756   144992869.418        1020.563          40.000                                                                  
E11  26325332.295   138340948.625         908.822          44.000    26325329.693   106001731.268         696.319          49.000  
G29  23871515.265   125446054.523         336.060          48.000    23871511.692    97750440.148         261.877          45.000  
S31  41744202.512   219367361.978        -743.109          43.000  
E03  29316486.241   154059193.049       -2325.366          42.000    29316490.124   118045294.831       -1781.657          48.000  
R15  23630330.968   126273551.150       -2379.291          51.000    23630327.750    98212933.584       -1850.550          47.000  
R18  22130801.541   118135815.463        -635.050          51.000    22130799.712    91883704.553        -493.917          50.000  
R19  23716141.646   126865691.821        2623.596          43.000    23716139.044    98672910.712        2040.564          48.000  
G11  25735096.473   135239313.893       -2315.056          47.000    25735090.703   105381475.952       -1804.012          45.000  
E24  27985635.057   147065626.096       -1749.161          44.000    27985632.538   112686708.572       -1340.232          48.000  
G24  25718076.883   135149468.812       -4045.981          43.000    25718079.396   105311332.984       -3152.583          43.000  
G12  24516685.285   128836356.967       -1586.958          49.000    24516679.421   100392094.011       -1236.802          44.000  
E05  28814122.895   151419113.532       -3400.777          37.000    28814148.678   116022305.946       -2605.852          45.000  
G25  23743454.548   124772932.607          -6.781          46.000    23743452.982    97225733.869          -5.463          44.000  
E10  27523735.256   144638706.095        -584.022          46.000    27523737.110   110827313.889        -447.515          53.000  
E25  26913242.647   141430351.949          26.272          47.000    26913244.621   108368865.928          20.103          52.000  
E12  28722060.646   150935809.712       -1866.233          40.000    28722057.679   115652333.252       -1429.975          49.000  
E14  27188223.620   142875224.943       -5238.049          49.000    27188222.743   109475878.047       -4013.577          50.000  
> 2024 04 15 02 26 00.0100000  0 26                     
S33  42701707.867   224399096.384        -742.733          42.000  
E02  29954332.752   157411063.398        1118.272          41.000    29954334.386   120613694.936         857.130          41.000  
G28  25805843.172   135610598.793        2096.852          45.000    25805839.907   105670581.133        1633.938          43.000  
E36  29771258.187   156449199.929        2387.109          44.000    29771270.922   119876826.468        1828.905          44.000  
G32  26749940.613   140571860.213       -2539.862          46.000    26749942.949   109536459.744       -1978.796          43.000  
R17  24341742.479   130258099.598       -4198.937          49.000    24341737.109   101312088.468       -3265.886          46.000  
R09  26199521.943                3       2683.206          25.000                                                                  
R16  22857447.816   122100549.529         855.264          52.000    22857444.527    94967008.697         665.321          50.000  
G20  27585418.818   144962363.015        1013.358          41.000                                                                  
E11  26320176.379   138313855.023         897.507          44.000    26320173.878   105980971.270         687.763          49.000  
G29  23869633.177   125436163.750         323.376          48.000    23869628.787    97742733.094         251.892          43.000  
S31  41748442.231   219389642.255        -742.146          44.000  
E03  29329783.098   154129071.685       -2333.496          41.000    29329787.855   118098838.065       -1787.803          48.000  
R15  23643725.616   126345124.818       -2392.249          52.000    23643722.108    98268601.987       -1860.639          48.000  
R18  22134441.834   118155249.246        -660.578          50.000    22134439.769    91898819.754        -513.745          50.000  
R19  23701472.454   126787226.013        2607.355          43.000    23701471.089    98611881.886        2028.034          48.000  
G11  25748359.306   135309019.360       -2331.936          45.000    25748354.680   105435791.944       -1816.947          45.000  
E24  27995625.848   147118131.936       -1751.277          43.000    27995624.354   112726940.328       -1341.928          48.000  
G24  25741197.546   135270965.308       -4053.654          44.000    25741198.974   105406005.409       -3158.778          43.000  
G12  24525758.037   128884036.133       -1591.466          50.000    24525752.013   100429246.603       -1240.278          43.000  
E05  28833532.262   151521103.873       -3398.475          38.000    28833557.339   116100453.364       -2603.903          44.000  
G25  23743505.590   124773199.635         -11.115          47.000    23743503.559    97225941.927          -8.545          45.000  
E10  27527107.978   144656432.314        -597.690          46.000    27527110.039   110840896.370        -457.994          53.000  
E25  26913096.764   141429580.523          25.332          47.000    26913097.645   108368274.865          19.345          52.000  
E12  28732748.498   150991983.143       -1878.759          40.000    28732746.989   115695375.269       -1439.415          49.000  
E14  27218111.143   143032284.701       -5232.578          49.000    27218109.902   109596222.559       -4009.421          50.000  
> 2024 04 15 02 26 30.0100000  0 26                     
S33  42705947.920   224421376.782        -742.407          43.000  
E02  29947944.793   157377493.885        1119.711          41.000    29947946.312   120587972.974         857.819          40.000  
G28  25793900.447   135547840.579        2086.903          45.000    25793896.796   105621678.686        1626.162          43.000  
E36  29757635.481   156377613.781        2385.314          44.000    29757647.530   119821975.911        1827.724          45.000  
G32  26764471.124   140648215.437       -2550.696          47.000    26764472.916   109595957.202       -1987.622          44.000  
R17  24365321.082   130384271.029       -4212.448          49.000    24365314.924   101410221.799       -3276.379          46.000  
R09  26184438.996                        2685.906          28.000    26184468.321                2       2088.782          27.000  
R16  22852674.172   122075046.635         844.931          53.000    22852670.459    94947173.108         657.182          49.000  
G20  27579657.471   144932084.500        1005.090          41.000                                                                  
E11  26315086.285   138287109.689         885.354          43.000    26315084.843   105960478.140         678.447          50.000  
G29  23867826.159   125426664.227         309.991          49.000    23867820.963    97735330.906         241.473          43.000  
S31  41752678.128   219411902.911        -741.879          44.000  
E03  29343130.160   154199205.316       -2342.196          42.000    29343134.395   118152576.713       -1794.749          48.000  
R15  23657195.008   126417099.292       -2406.044          52.000    23657191.133    98324582.125       -1871.357          48.000  
R18  22138228.122   118175460.741        -686.872          51.000    22138225.128    91914539.830        -534.340          50.000  
R19  23686898.898   126709266.655        2589.972          44.000    23686895.844    98551246.980        2014.258          47.000  
G11  25761721.253   135379235.178       -2349.312          46.000    25761717.421   105490505.587       -1830.521          46.000  
E24  28005632.042   147170716.097       -1754.396          42.000    28005630.629   112767232.077       -1344.201          48.000  
G24  25764364.473   135392704.808       -4062.078          44.000    25764365.055   105500867.166       -3165.273          43.000  
G12  24534859.550   128931866.380       -1596.993          49.000    24534854.463   100466516.937       -1244.564          45.000  
E05  28852930.132   151623029.314       -3396.583          39.000    28852953.834   116178551.142       -2602.398          44.000  
G25  23743584.671   124773612.229         -16.479          47.000    23743582.031    97226263.442         -12.726          45.000  
E10  27530562.901   144674584.493        -612.362          46.000    27530563.996   110854805.214        -469.225          53.000  
E25  26912958.986   141428852.916          23.312          48.000    26912959.155   108367717.363          17.863          52.000  
E12  28743511.280   151048539.521       -1891.624          41.000    28743509.062   115738710.715       -1449.621          49.000  
E14  27247968.503   143189188.080       -5227.763          48.000    27247967.787   109716447.237       -4005.612          50.000  
> 2024 04 15 02 27 00.0100000  0 26                     
S33  42710184.990   224443642.773        -742.303          42.000  
E02  29941548.005   157343875.978        1121.176          41.000    29941549.249   120562213.957         859.024          41.000  
G28  25782014.036   135485377.321        2077.132          44.000    25782010.082   105573006.056        1618.340          42.000  
E36  29744020.781   156306068.931        2383.835          45.000    29744032.062   119767156.945        1826.564          45.000  
G32  26779062.466   140724895.459       -2561.517          47.000    26779064.443   109655707.723       -1996.063          43.000  
R17  24388974.078   130510839.704       -4225.627          50.000    24388967.394   101508664.154       -3286.783          46.000  
R09  26169335.062   139742916.9091       2687.885          33.000                                                                  
R16  22847957.484   122049852.036         834.530          52.000    22847953.972    94927577.342         649.063          50.000  
G20  27573940.403   144902041.664         997.354          41.000                                                                  
E11  26310064.975   138260719.042         873.661          43.000    26310062.789   105940256.782         669.473          50.000  
G29  23866093.437   125417560.957         296.790          48.000    23866088.276    97728237.513         231.287          44.000  
S31  41756911.743   219434148.430        -741.450          44.000  
E03  29356526.060   154269597.333       -2350.887          42.000    29356529.291   118206513.372       -1801.434          48.000  
R15  23670739.129   126489480.161       -2419.575          51.000    23670736.041    98380878.363       -1881.996          48.000  
R18  22142160.830   118196454.312        -712.860          50.000    22142158.233    91930868.202        -554.570          50.000  
R19  23672421.916   126631822.745        2572.661          44.000    23672418.425    98491012.951        2000.914          47.000  
G11  25775181.124   135449964.930       -2366.268          46.000    25775177.302   105545619.715       -1843.922          46.000  
E24  28015654.020   147223384.233       -1757.222          42.000    28015653.548   112807588.185       -1346.336          48.000  
G24  25787577.964   135514689.996       -4070.541          45.000    25787578.351   105595920.400       -3171.917          43.000  
G12  24543991.901   128979853.512       -1602.305          50.000    24543985.876   100503909.506       -1248.704          45.000  
E05  28872313.530   151724893.168       -3394.529          38.000    28872338.428   116256601.759       -2600.900          43.000  
G25  23743691.905   124774176.503         -21.606          47.000    23743689.671    97226703.139         -16.705          45.000  
E10  27534099.544   144693167.826        -626.702          47.000    27534100.193   110869044.423        -480.221          53.000  
E25  26912829.630   141428174.749          21.613          47.000    26912830.034   108367197.748          16.572          52.000  
E12  28754346.834   151105483.084       -1904.804          40.000    28754345.607   115782342.807       -1459.533          49.000  
E14  27277797.070   143345937.908       -5222.558          48.000    27277796.089   109836554.262       -4001.643          49.000  
> 2024 04 15 02 27 30.0100000  0 26                     
S33  42714417.434   224465885.610        -741.152          42.000  
E02  29935139.094   157310201.876        1123.177          41.000    29935141.155   120536411.846         860.670          41.000  
G28  25770182.154   135423203.731        2067.435          44.000    25770178.762   105524559.152        1610.837          42.000  
E36  29730412.113   156234559.453        2383.079          45.000    29730423.333   119712365.051        1825.799          46.000  
G32  26793713.758   140801889.625       -2571.631          46.000    26793716.484   109715703.063       -2003.980          44.000  
R17  24412699.167   130637793.304       -4238.297          51.000    24412692.072   101607405.842       -3296.462          47.000  
R09  26154216.844   139662081.1901       2691.475          32.000    26154260.650                3       2092.877          27.000  
R16  22843297.610   122024960.203         824.515          52.000    22843293.792    94908217.047         641.433          50.000  
G20  27568267.360   144872229.774         989.684          42.000                                                                  
E11  26305108.758   138234676.626         862.150          43.000    26305107.145   105920302.270         660.609          50.000  
G29  23864435.542   125408845.616         283.984          49.000    23864430.301    97721446.380         221.246          45.000  
S31  41761140.080   219456370.590        -740.456          43.000  
E03  29369967.083   154340238.111       -2358.878          42.000    29369971.895   118260640.658       -1807.506          48.000  
R15  23684359.433   126562260.151       -2432.758          52.000    23684355.408    98437485.003       -1892.090          46.000  
R18  22146238.598   118218221.370        -738.639          50.000    22146236.764    91947798.152        -574.442          51.000  
R19  23658040.126   126554889.239        2555.903          44.000    23658037.506    98431175.933        1987.755          48.000  
G11  25788735.440   135521199.156       -2383.023          45.000    25788732.584   105601126.931       -1856.931          45.000  
E24  28025691.150   147276129.041       -1759.525          43.000    28025690.905   112848003.055       -1348.211          48.000  
G24  25810836.686   135636910.612       -4078.070          46.000    25810836.719   105691157.016       -3177.687          43.000  
G12  24553152.007   129027990.214       -1607.179          49.000    24553146.240   100541418.602       -1252.224          45.000  
E05  28891685.507   151826685.647       -3391.719          39.000    28891710.031   116334597.722       -2598.910          43.000  
G25  23743826.738   124774885.601         -26.166          47.000    23743825.068    97227255.705         -20.349          45.000  
E10  27537716.254   144712174.502        -640.664          47.000    27537717.294   110883608.021        -491.005          53.000  
E25  26912707.730   141427538.654          20.486          47.000    26912708.958   108366710.374          15.602          52.000  
E12  28765254.643   151162804.813       -1917.208          40.000    28765253.292   115826264.689       -1468.981          49.000  
E14  27307594.164   143502523.964       -5216.896          48.000    27307593.169   109956535.811       -3997.473          48.000  
> 2024 04 15 02 28 00.0100000  0 26                     
S33  42718647.125   224488111.828        -740.748          42.000  
E02  29928721.122   157276478.009        1124.898          40.000    29928723.772   120510571.579         862.093          41.000  
G28  25758407.358   135361329.042        2057.663          44.000    25758404.557   105476345.107        1603.379          43.000  
E36  29716812.150   156163093.812        2381.430          45.000    29716822.769   119657606.706        1824.692          45.000  
G32  26808426.267   140879201.717       -2582.141          47.000    26808429.379   109775946.069       -2012.103          45.000  
R17  24436495.640   130765134.332       -4251.138          50.000    24436488.787   101706448.910       -3306.268          47.000  
R09  26139088.733   139581310.079        2693.540          35.000                                                                  
R16  22838696.109   122000380.939         814.043          52.000    22838692.574    94889099.841         633.122          50.000  
G20  27562640.808   144842658.193         981.654          41.000                                                                  
E11  26300220.646   138208990.241         850.107          43.000    26300219.388   105900620.550         651.373          50.000  
G29  23862851.955   125400524.008         270.819          49.000    23862846.899    97714962.071         210.864          45.000  
S31  41765365.740   219478576.961        -740.017          44.000  
E03  29383457.207   154411132.475       -2367.527          41.000    29383462.076   118314962.226       -1813.935          48.000  
R15  23698054.869   126635446.040       -2446.264          52.000    23698050.447    98494407.378       -1902.606          45.000  
R18  22150461.518   118240767.616        -764.457          50.000    22150460.858    91965334.136        -594.579          51.000  
R19  23643755.135   126478476.347        2538.335          43.000    23643751.861    98371743.800        1974.279          47.000  
G11  25802388.818   135592942.783       -2399.915          46.000    25802384.759   105657031.114       -1869.980          45.000  
E24  28035746.056   147328957.588       -1762.321          44.000    28035743.702   112888482.032       -1350.323          48.000  
G24  25834140.150   135759370.739       -4086.080          46.000    25834140.195   105786580.319       -3183.942          42.000  
G12  24562341.772   129076283.413       -1612.350          50.000    24562335.253   100579049.693       -1256.432          44.000  
E05  28911042.843   151928411.431       -3389.514          38.000    28911069.102   116412542.589       -2597.116          44.000  
G25  23743989.889   124775747.075         -31.030          47.000    23743988.715    97227926.990         -24.237          45.000  
E10  27541414.530   144731611.118        -655.127          46.000    27541415.762   110898501.045        -501.895          53.000  
E25  26912596.403   141426951.672          18.748          47.000    26912597.436   108366260.618          14.358          52.000  
E12  28776236.059   151220510.345       -1929.905          41.000    28776234.636   115870480.623       -1478.762          49.000  
E14  27337361.161   143658950.533       -5211.456          49.000    27337360.045   110076395.154       -3993.162          48.000  
> 2024 04 15 02 28 30.0100000  0 26                     
S33  42722874.100   224510325.590        -740.590          42.000  
E02  29922295.430   157242707.993        1126.283          41.000    29922297.889   120484695.974         862.870          42.000  
G28  25746690.921   135299759.386        2046.888          44.000    25746688.605   105428368.764        1594.930          43.000  
E36  29703220.666   156091677.462        2379.365          43.000    29703231.546   119602886.104        1823.096          46.000  
G32  26823199.228   140956832.413       -2593.231          47.000    26823202.216   109836437.400       -2020.740          44.000  
R17  24460364.106   130892862.198       -4264.250          51.000    24460357.744   101805792.790       -3316.581          45.000  
R09  26123948.388                        2695.981          32.000                                                                  
R16  22834154.340   121976120.273         803.055          52.000    22834151.045    94870230.440         624.588          50.000  
G20  27557059.764   144813332.831         973.127          41.000                                                                  
E11  26295401.466   138183664.748         837.576          43.000    26295400.183   105881215.364         641.933          51.000  
G29  23861343.350   125392599.365         257.184          49.000    23861339.736    97708787.051         200.458          45.000  
S31  41769588.997   219500770.405        -739.815          43.000  
E03  29396996.485   154482282.198       -2376.223          41.000    29397002.170   118369479.465       -1820.735          48.000  
R15  23711828.235   126709041.895       -2460.364          52.000    23711822.943    98551648.542       -1913.653          46.000  
R18  22154831.843   118264095.750        -790.958          50.000    22154830.791    91983478.246        -615.145          50.000  
R19  23629569.260   126402590.719        2520.409          43.000    23629565.742    98312721.775        1960.381          47.000  
G11  25816137.754   135665197.779       -2417.383          45.000    25816134.235   105713333.736       -1883.591          44.000  
E24  28045814.646   147381873.954       -1765.837          43.000    28045812.894   112929028.352       -1353.053          47.000  
G24  25857488.871   135882071.510       -4094.321          45.000    25857490.563   105882191.078       -3190.264          44.000  
G12  24571562.245   129124737.270       -1618.141          50.000    24571556.144   100616805.931       -1261.005          44.000  
E05  28930390.415   152030072.135       -3387.953          40.000    28930415.602   116490437.643       -2595.916          45.000  
G25  23744184.415   124776765.529         -36.890          47.000    23744182.249    97228720.613         -28.711          44.000  
E10  27545195.828   144751481.216        -669.893          47.000    27545196.972   110913726.222        -513.291          53.000  
E25  26912494.414   141426417.846          16.633          46.000    26912495.796   108365851.602          12.670          52.000  
E12  28787290.724   151278602.113       -1943.264          42.000    28787288.642   115914992.520       -1488.793          49.000  
E14  27367098.066   143815218.875       -5206.673          49.000    27367097.146   110196133.259       -3989.517          48.000  
> 2024 04 15 02 29 00.0100000  0 26                     
S33  42727100.033   224532534.016        -740.325          42.000  
E02  29915860.981   157208897.848        1127.429          41.000    29915863.910   120458789.618         863.940          42.000  
G28  25735034.448   135238503.481        2036.543          45.000    25735031.425   105380636.908        1586.924          43.000  
E36  29689640.847   156020318.354        2377.433          43.000    29689651.957   119548209.368        1821.780          47.000  
G32  26838033.442   141034785.029       -2603.827          46.000    26838035.573   109897179.540       -2028.876          44.000  
R17  24484306.599   131020978.864       -4277.142          51.000    24484299.637   101905439.119       -3326.592          48.000  
R09  26108799.544                        2697.725          31.000    26108806.616                1       2097.731          30.000  
R16  22829673.900   121952187.092         792.087          52.000    22829670.677    94851615.766         616.069          50.000  
G20  27551526.729   144784262.926         964.950          38.000                                                                  
E11  26290652.735   138158707.509         825.768          44.000    26290650.699   105862092.315         632.781          50.000  
G29  23859912.286   125385077.250         243.915          49.000    23859908.297    97702925.721         189.972          45.000  
S31  41773811.325   219522957.683        -739.425          44.000  
E03  29410583.993   154553691.550       -2384.752          40.000    29410591.214   118424195.604       -1827.152          49.000  
R15  23725678.105   126783054.280       -2474.103          51.000    23725672.450    98609213.762       -1924.353          45.000  
R18  22159349.865   118288211.168        -817.055          51.000    22159348.314    92002234.696        -635.510          50.000  
R19  23615484.227   126327241.852        2502.464          44.000    23615479.872    98254117.239        1946.452          47.000  
G11  25829985.511   135737968.554       -2434.194          45.000    25829980.578   105770038.310       -1896.999          42.000  
E24  28055903.301   147434884.752       -1768.604          44.000    28055900.677   112969647.004       -1355.309          47.000  
G24  25880884.761   136005016.565       -4102.256          45.000    25880885.004   105977992.203       -3196.447          42.000  
G12  24580814.571   129173358.569       -1623.649          50.000    24580808.521   100654692.658       -1265.254          44.000  
E05  28949724.225   152131671.900       -3385.614          40.000    28949750.203   116568286.039       -2594.118          45.000  
G25  23744409.435   124777948.028         -42.236          48.000    23744407.324    97229642.059         -33.038          44.000  
E10  27549061.073   144771790.902        -684.353          47.000    27549061.977   110929288.248        -524.479          54.000  
E25  26912404.883   141425943.758          14.733          47.000    26912405.437   108365488.354          11.288          52.000  
E12  28798419.352   151337085.122       -1956.189          42.000    28798417.767   115959804.198       -1498.725          49.000  
E14  27396805.150   143971332.802       -5201.337          48.000    27396804.669   110315753.036       -3985.401          49.000  
> 2024 04 15 02 29 30.0100000  0 26                     
S33  42731322.094   224554720.802        -739.264          42.000  
E02  29909417.622   157175034.740        1129.511          42.000    29909419.517   120432842.707         865.436          41.000  
G28  25723435.575   135177551.167        2026.518          46.000    25723431.621   105333141.623        1579.202          42.000  
E36  29676070.203   155949005.665        2376.174          44.000    29676081.025   119493568.184        1820.831          48.000  
G32  26852925.550   141113043.886       -2613.757          46.000    26852927.648   109958160.356       -2036.633          44.000  
R17  24508317.591   131149467.057       -4289.164          50.000    24508311.141   102005374.411       -3335.997          48.000  
R09  26093640.547                        2700.132          29.000    26093646.694                3       2100.043          25.000  
R16  22825253.072   121928571.044         781.776          52.000    22825249.900    94833247.714         608.078          50.000  
G20  27546041.806   144755438.587         956.517          37.000                                                                  
E11  26285971.506   138134107.035         814.112          44.000    26285969.012   105843242.655         623.759          50.000  
G29  23858555.306   125377944.500         231.219          49.000    23858550.342    97697367.771         180.078          45.000  
S31  41778029.454   219545124.930        -739.028          43.000  
E03  29424220.319   154625345.995       -2392.466          41.000    29424226.806   118479099.539       -1833.296          49.000  
R15  23739604.270   126857470.647       -2487.359          51.000    23739599.486    98667093.178       -1934.650          46.000  
R18  22164012.093   118313099.899        -842.626          51.000    22164010.199    92021592.619        -655.330          49.000  
R19  23601496.240   126252420.340        2485.408          43.000    23601492.709    98195922.868        1932.829          47.000  
G11  25843928.979   135811240.720       -2450.778          46.000    25843925.253   105827133.504       -1909.693          43.000  
E24  28066005.090   147487977.663       -1771.098          44.000    28066003.639   113010328.604       -1357.153          46.000  
G24  25904324.200   136128190.667       -4109.660          45.000    25904325.088   106073971.820       -3202.323          43.000  
G12  24590096.379   129222135.221       -1628.580          50.000    24590090.606   100692700.436       -1268.939          45.000  
E05  28969044.258   152233196.078       -3382.939          40.000    28969070.274   116646076.549       -2592.168          44.000  
G25  23744663.038   124779282.818         -47.235          47.000    23744660.676    97230682.162         -36.682          44.000  
E10  27553007.663   144792527.401        -698.347          47.000    27553007.813   110945177.276        -535.122          53.000  
E25  26912323.566   141425517.147          13.370          47.000    26912324.149   108365161.481          10.239          52.000  
E12  28809619.340   151395945.545       -1968.413          42.000    28809618.542   116004905.071       -1508.184          48.000  
E14  27426480.565   144127277.279       -5195.415          48.000    27426480.004   110435242.977       -3980.845          48.000  
