     3.00           OBSERVATION DATA    M: Mixed            RINEX VERSION / TYPE
CONVBIN 2.4.3                           20240415 102942 UTC PGM / RUN BY / DATE 
format: u-blox UBX                                          COMMENT             
log: /home/regis/git/gnsspwv/obsdata/VERT00CHL/2024-04-15/VECOMMENT             
{self.marker}                                               MARKER NAME         
                                                            MARKER NUMBER       
GEODETIC                                                    MARKER TYPE         
{self.observer}     {self.institution}                      OBSERVER / AGENCY   
UNKNOWN             UBLOX-ZED-F9P                           REC # / TYPE / VERS 
UNKNOWN             TWIVSP6037L                             ANT # / TYPE        
  1713381.0000 -5047934.0000 -3490983.0000                  APPROX POSITION XYZ 
        0.0000        0.0000        0.0000                  ANTENNA: DELTA H/E/N
G    8 C1C L1C D1C S1C C2L L2L D2L S2L                      SYS / # / OBS TYPES 
R    8 C1C L1C D1C S1C C2C L2C D2C S2C                      SYS / # / OBS TYPES 
E    8 C1C L1C D1C S1C C7Q L7Q D7Q S7Q                      SYS / # / OBS TYPES 
S    4 C1C L1C D1C S1C                                      SYS / # / OBS TYPES 
  2024    04    15    10    15   00.0010000     GPS         TIME OF FIRST OBS   
  2024    04    15    10    29   30.0010000     GPS         TIME OF LAST OBS    
                                                            END OF HEADER       
> 2024 04 15 10 15 00.0010000  0 22                     
S33  40040831.552   210416204.3031       -643.101          42.000  
E05  23978570.472   126008273.8161      -1171.997          44.000    23978570.780    96551812.9561       -898.058          51.000  
E36  28434815.277   149425894.0061      -2370.817          40.000    28434816.519   114495673.5031      -1816.388          42.000  
G02  22609615.066   118814359.6331       1897.673          45.000                                                                  
R08  22306331.261   119449421.1171       3460.026          49.000    22306324.332    92905250.0531       2691.170          48.000  
R06  20993176.319   112023671.7021      -3475.787          41.000    20993215.352                3      -2957.008          16.000  
R22  20403501.898   108915258.6141       1107.213          50.000    20403496.803    84711945.8061        861.150          49.000  
G08  20461117.090   107524066.2241       -402.692          48.000    20461115.200    83784928.0671       -313.896          47.000  
E08  27910868.068   146672592.0491       2434.958          42.000    27910866.390   112385486.7691       1866.073          40.000  
S31  39087166.920   205404615.1281       -643.824          43.000  
E30  27103023.123   142427470.8861      -3265.004          38.000    27103021.994   109132633.8901      -2501.452          37.000  
R21  20843618.688   111538741.4091      -1805.994          50.000    20843612.811    86752194.9691      -1404.646          47.000  
E15  24679166.273   129689982.7821        360.398          45.000    24679168.064    99372896.5721        276.183          52.000  
G03  23944647.551   125829975.2231       2043.565          40.000    23944646.215    98049332.2021       1592.316          35.000  
E34  24776443.258   130201321.9731      -1330.311          50.000    24776443.404    99764804.5121      -1019.266          51.000  
G27  21144830.016   111116810.4761      -2676.593          48.000    21144826.761    86584623.9361      -2085.657          46.000  
G10  23006739.220   120901369.1401      -3738.755          46.000    23006734.396    94208715.9201      -2913.418          41.000  
E03  24945166.230   131087772.4411       1390.974          46.000    24945166.583   100443899.8971       1065.796          52.000  
G21  21596254.732   113489105.1661       1689.441          46.000                                                                  
E27  26630749.371   139945416.0321      -1783.888          41.000    26630750.215   107231017.2231      -1366.873          46.000  
E18  26409596.559   138783409.7901      -1461.766          47.000                                                                  
G32  21855697.087   114852499.9681       -905.459          51.000    21855693.868    89495464.9161       -705.577          47.000  
> 2024 04 15 10 15 30.0010000  0 22                     
S33  40044502.590   210435497.360        -642.459          42.000  
E05  23985301.598   126043636.087       -1185.295          45.000    23985300.163    96578908.689        -908.048          52.000  
E36  28448351.811   149497032.953       -2371.867          40.000    28448354.043   114550182.358       -1817.062          42.000  
G02  22598789.222   118757469.723        1895.375          45.000                                                                  
R08  22286977.094   119345775.994        3450.143          50.000    22286970.220    92824637.222        2683.512          48.000  
R06  21012765.070   112128202.367       -3492.944          41.000    21014304.267                3      -2966.883          15.000  
R22  20397302.344   108882158.964        1099.772          52.000    20397296.302    84686201.636         855.581          49.000  
G08  20463470.978   107536436.171        -421.627          48.000    20463468.468    83794566.982        -328.499          46.000  
E08  27896962.389   146599519.005        2436.794          41.000    27896961.128   112329495.775        1867.026          40.000  
S31  39090842.704   205423929.187        -643.067          44.000  
E30  27121663.141   142525423.593       -3265.086          38.000    27121663.389   109207688.560       -2501.543          40.000  
R21  20853778.967   111593116.695       -1818.592          50.000    20853774.810    86794486.836       -1414.503          48.000  
E15  24677111.177   129679179.388         360.329          46.000    24677112.360    99364618.663         276.019          52.000  
G03  23933001.330   125768776.062        2036.754          39.000    23933001.937    98001644.538        1587.066          37.000  
E34  24784044.227   130241266.721       -1332.241          49.000    24784044.422    99795411.523       -1020.934          50.000  
G27  21160156.569   111197351.032       -2692.346          47.000    21160153.197    86647382.804       -2097.974          46.000  
G10  23028091.369   121013573.539       -3740.947          47.000    23028086.801    94296147.906       -2915.230          43.000  
E03  24937252.650   131046185.644        1382.026          46.000    24937252.849   100412034.687        1058.927          52.000  
G21  21586622.606   113438489.869        1685.519          46.000                                                                  
E27  26640964.470   139999096.092       -1794.262          41.000    26640965.124   107272148.696       -1374.781          47.000  
E18  26417939.270   138827249.609       -1460.405          47.000                                                                  
G32  21860925.147   114879973.707        -925.673          51.000    21860922.084    89516873.011        -721.384          48.000  
> 2024 04 15 10 16 00.0010000  0 22                     
S33  40048170.829   210454774.748        -642.656          41.000  
E05  23992104.161   126079398.672       -1199.078          43.000    23992105.544    96606311.200        -918.745          52.000  
E36  28461896.605   149568212.999       -2373.837          39.000    28461900.170   114604722.699       -1818.823          44.000  
G02  22587977.394   118700653.027        1892.234          44.000                                                                  
R08  22267678.539   119242434.269        3438.897          49.000    22267671.407    92744260.314        2674.583          47.000  
R06  21032450.396   112233248.745       -3510.364          40.000                                                                  
R22  20391144.219   108849290.118        1091.464          51.000    20391138.987    84660636.997         848.949          49.000  
G08  20465934.770   107549379.534        -441.324          49.000    20465931.183    83804652.723        -343.880          46.000  
E08  27883050.591   146526408.900        2437.302          42.000    27883048.868   112273476.345        1867.622          42.000  
S31  39094514.901   205443228.278        -643.359          43.000  
E30  27140305.569   142623395.003       -3266.351          37.000    27140306.722   109282757.588       -2502.875          40.000  
R21  20864014.116   111647880.264       -1832.278          50.000    20864008.970    86837080.717       -1425.155          48.000  
E15  24675059.380   129668394.251         358.803          46.000    24675059.920    99356354.745         274.892          52.000  
G03  23921396.559   125707788.391        2029.055          39.000    23921396.846    97954121.735        1581.356          38.000  
E34  24791658.485   130281281.336       -1335.370          49.000    24791658.688    99826072.054       -1023.158          50.000  
G27  21175573.556   111278370.990       -2709.143          46.000    21175571.225    86710515.206       -2110.779          47.000  
G10  23049457.439   121125851.056       -3744.328          45.000    23049450.423    94383636.886       -2917.769          40.000  
E03  24929392.703   131004879.293        1371.835          46.000    24929392.421   100380384.354        1051.200          52.000  
G21  21577015.051   113387998.509        1680.579          46.000                                                                  
E27  26651241.484   140053099.717       -1805.685          42.000    26651242.036   107313528.115       -1383.684          47.000  
E18  26426275.975   138871058.802       -1460.071          47.000                                                                  
G32  21866270.345   114908060.437        -946.801          51.000    21866267.241    89538758.746        -737.804          48.000  
> 2024 04 15 10 16 30.0010000  0 22                     
S33  40051838.295   210474045.800        -642.266          42.000  
E05  23998988.396   126115569.665       -1212.527          43.000    23998988.263    96634026.626        -929.102          51.000  
E36  28475451.578   149639442.976       -2375.272          39.000    28475454.936   114659301.268       -1819.861          45.000  
G02  22577180.675   118643918.932        1889.637          44.000                                                                  
R08  22248439.159   119139408.325        3428.963          50.000    22248432.656    92664129.061        2667.028          48.000  
R06  21052233.806   112338815.204       -3527.545          41.000                                                                  
R22  20385032.356   108816663.130        1083.422          52.000    20385027.236    84635260.458         842.670          49.000  
G08  20468508.856   107562905.588        -460.612          50.000    20468504.949    83815192.504        -358.966          46.000  
E08  27869133.111   146453271.928        2438.325          41.000    27869131.493   112217436.387        1868.190          42.000  
S31  39098186.005   205462519.016        -642.881          44.000  
E30  27158955.072   142721391.633       -3266.962          37.000    27158954.232   109357845.914       -2503.494          40.000  
R21  20874322.715   111703041.540       -1845.370          51.000    20874316.253    86879983.911       -1435.281          47.000  
E15  24673011.630   129657636.150         358.054          46.000    24673012.627    99348111.541         274.444          52.000  
G03  23909833.252   125647021.387        2021.930          39.000    23909831.687    97906770.784        1574.918          36.000  
E34  24799288.652   130321374.834       -1337.820          49.000    24799288.492    99856793.035       -1025.055          50.000  
G27  21191084.194   111359877.346       -2724.963          47.000    21191081.752    86774026.654       -2123.383          47.000  
G10  23070837.508   121238208.055       -3746.555          45.000    23070833.859    94471187.661       -2919.135          41.000  
E03  24921586.778   130963863.376        1362.387          46.000    24921587.456   100348956.577        1043.914          52.000  
G21  21567432.810   113337641.187        1676.362          47.000                                                                  
E27  26661580.532   140107433.951       -1816.510          42.000    26661581.455   107355160.837       -1392.031          48.000  
E18  26434608.647   138914845.512       -1459.029          47.000                                                                  
G32  21871732.261   114936768.437        -967.307          49.000    21871729.974    89561128.627        -753.833          48.000  
> 2024 04 15 10 17 00.0010000  0 23                     
S33  40055504.866   210493312.629        -642.035          41.000  
E05  24005949.621   126152151.736       -1226.056          44.000    24005949.377    96662057.033        -939.461          50.000  
E36  28489016.401   149710726.518       -2376.717          39.000    28489019.581   114713920.935       -1821.324          45.000  
G02  22566400.444   118587271.726        1886.848          45.000                                                                  
R08  22229260.636   119036705.048        3418.079          51.000    22229253.454    92584248.760        2658.430          49.000  
R06  21072114.700   112444900.938       -3544.714          42.000                                                                  
R22  20378966.337   108784283.733        1075.277          52.000    20378961.253    84610076.484         836.318          49.000  
G08  20471194.161   107577018.351        -480.049          49.000    20471191.197    83826189.463        -374.100          46.000  
E08  27855211.425   146380113.011        2438.961          42.000    27855209.586   112161379.536        1868.998          43.000  
S31  39101856.014   205481806.544        -642.749          43.000  
E30  27177606.305   142819414.477       -3267.594          37.000    27177607.366   109432954.342       -2503.804          41.000  
R21  20884706.031   111758604.811       -1858.755          50.000    20884700.271    86923199.766       -1445.551          48.000  
R23  23806841.597                3       2615.298          15.000                                                                  
E15  24670969.241   129646908.614         357.101          45.000    24670971.278    99339891.749         273.703          51.000  
G03  23898311.866   125586478.857        2014.451          40.000    23898310.865    97859594.778        1569.861          38.000  
E34  24806934.012   130361550.977       -1340.482          49.000    24806933.419    99887577.343       -1027.078          49.000  
G27  21206687.003   111441871.910       -2741.174          47.000    21206684.521    86837918.519       -2135.962          47.000  
G10  23092234.013   121350645.660       -3749.153          45.000    23092228.276    94558801.417       -2921.533          40.000  
E03  24913838.380   130923142.713        1352.524          46.000    24913839.000   100317755.026        1036.410          53.000  
G21  21557876.470   113287422.113        1671.664          47.000                                                                  
E27  26671983.882   140162100.549       -1827.625          43.000    26671983.983   107397048.224       -1400.441          47.000  
E18  26442936.001   138958612.600       -1458.489          46.000                                                                  
G32  21877314.642   114966100.778        -988.071          50.000    21877311.094    89583984.982        -770.024          48.000  
> 2024 04 15 10 17 30.0010000  0 23                     
S33  40059167.553   210512560.883        -641.410          42.000  
E05  24012984.853   126189130.104       -1239.259          42.000    24012986.092    96690391.105        -949.633          50.000  
E36  28502588.729   149782049.698       -2378.246          40.000    28502591.886   114768570.914       -1822.094          44.000  
G02  22555634.998   118530698.135        1884.395          45.000                                                                  
R08  22210139.263   118934313.392        3407.666          50.000    22210132.375    92504610.834        2650.332          48.000  
R06  21092088.997   112551487.751       -3561.584          43.000                                                                  
R22  20372944.180   108752139.712        1067.374          52.000    20372939.663    84585075.602         830.232          49.000  
G08  20473989.146   107591704.319        -499.249          50.000    20473986.424    83837633.069        -389.019          47.000  
E08  27841283.396   146306919.526        2440.251          42.000    27841281.567   112105296.276        1869.864          42.000  
S31  39105522.692   205501076.160        -642.066          44.000  
E30  27196259.057   142917447.202       -3268.149          35.000    27196263.124   109508070.357       -2504.084          43.000  
R21  20895162.066   111814556.085       -1871.664          51.000    20895155.535    86966717.395       -1455.672          47.000  
R23  23792244.245                3       2616.758          17.000                                                                  
E15  24668932.217   129636197.673         356.594          46.000    24668933.132    99331684.673         273.273          52.000  
G03  23886831.938   125526146.978        2007.358          40.000    23886829.678    97812582.931        1564.021          39.000  
E34  24814591.381   130401796.025       -1342.775          49.000    24814591.726    99918414.458       -1028.858          49.000  
G27  21222380.322   111524338.913       -2756.873          47.000    21222377.140    86902178.500       -2148.120          47.000  
G10  23113642.699   121463147.604       -3751.305          46.000    23113638.606    94646465.207       -2923.186          41.000  
E03  24906143.685   130882704.547        1343.180          46.000    24906143.803   100286769.944        1029.236          53.000  
G21  21548344.119   113237328.219        1667.517          47.000                                                                  
E27  26682445.713   140217083.726       -1838.075          42.000    26682447.204   107439178.229       -1408.407          48.000  
E18  26451257.896   139002345.425       -1457.160          46.000                                                                  
G32  21883012.942   114996042.943       -1008.322          50.000    21883009.016    89607316.502        -785.591          48.000  
> 2024 04 15 10 18 00.0010000  0 22                     
S33  40062828.357   210531799.199        -641.373          42.000  
E05  24020099.516   126226512.274       -1253.047          42.000    24020100.002    96719034.574        -960.158          51.000  
E36  28516170.951   149853420.977       -2380.028          40.000    28516173.692   114823257.774       -1823.708          44.000  
G02  22544886.018   118474207.433        1881.475          46.000                                                                  
R08  22191078.596   118832244.868        3396.441          51.000    22191071.065    92425224.203        2641.552          47.000  
R06  21112158.150   112658579.657       -3578.528          41.000                                                                  
R22  20366968.584   108720241.892        1058.826          52.000    20366964.372    84560266.177         823.531          50.000  
G08  20476894.166   107606972.264        -518.869          49.000    20476891.399    83849530.183        -404.486          47.000  
E08  27827350.772   146233701.246        2440.880          42.000    27827348.357   112049193.979        1870.190          42.000  
S31  39109188.130   205520334.909        -641.870          44.000  
E30  27214916.541   143015495.897       -3268.897          35.000    27214921.121   109583198.510       -2504.772          43.000  
R21  20905692.305   111870904.847       -1885.152          50.000    20905686.296    87010544.222       -1466.181          48.000  
E15  24666898.724   129625511.664         355.354          46.000    24666899.918    99323496.713         272.417          52.000  
G03  23875392.524   125466034.468        1999.691          41.000    23875389.530    97765742.002        1558.256          38.000  
E34  24822265.183   130442118.579       -1345.637          48.000    24822264.741    99949310.935       -1031.044          49.000  
G27  21238164.468   111607284.898       -2773.022          47.000    21238161.269    86966811.720       -2160.779          47.000  
G10  23135064.026   121575719.843       -3753.939          46.000    23135061.457    94734183.806       -2925.089          43.000  
E03  24898503.807   130842558.433        1333.320          46.000    24898504.094   100256008.649        1021.518          53.000  
G21  21538837.701   113187370.485        1662.774          48.000                                                                  
E27  26692972.013   140272390.068       -1849.093          43.000    26692971.624   107481555.816       -1416.823          47.000  
E18  26459575.044   139046051.724       -1456.723          46.000                                                                  
G32  21888827.988   115026602.737       -1029.126          50.000    21888824.543    89631129.334        -801.966          47.000  
> 2024 04 15 10 18 30.0010000  0 22                     
S33  40066489.201   210551037.529        -640.899          42.000  
E05  24027292.976   126264308.509       -1266.812          43.000    24027292.328    96747995.299        -970.517          51.000  
E36  28529763.092   149924851.458       -2381.572          39.000    28529766.402   114877990.045       -1825.131          43.000  
G02  22534154.010   118417811.679        1878.557          45.000                                                                  
R08  22172080.901   118730514.233        3385.596          50.000    22172073.455    92346100.350        2633.285          47.000  
R06  21132322.531   112766183.406       -3594.653          40.000                                                                  
R22  20361041.675   108688603.557        1050.457          51.000    20361037.314    84535658.593         817.092          50.000  
G08  20479912.832   107622833.718        -538.361          50.000    20479909.825    83861889.757        -419.632          47.000  
E08  27813415.158   146160470.685        2441.393          42.000    27813413.007   111993082.282        1870.698          41.000  
S31  39112853.009   205539594.348        -641.652          44.000  
E30  27233581.767   143113569.070       -3269.212          38.000    27233584.239   109658345.490       -2505.116          45.000  
R21  20916298.039   111927662.977       -1898.616          49.000    20916293.405    87054689.377       -1476.605          48.000  
E15  24664872.135   129614861.709         354.684          47.000    24664873.331    99315336.384         271.711          52.000  
G03  23863997.053   125406152.660        1992.197          41.000    23863994.526    97719080.830        1552.427          40.000  
E34  24829954.959   130482529.949       -1348.342          48.000    24829954.401    99980275.483       -1033.049          48.000  
G27  21254040.413   111690719.122       -2789.124          46.000    21254038.392    87031825.391       -2173.303          47.000  
G10  23156501.304   121688371.105       -3756.083          45.000    23156497.464    94821964.000       -2926.959          42.000  
E03  24890922.677   130802716.724        1323.166          46.000    24890922.287   100225480.586        1013.884          53.000  
G21  21529358.427   113137560.613        1658.042          47.000                                                                  
E27  26703559.048   140328028.926       -1860.059          42.000    26703558.990   107524188.202       -1425.112          47.000  
E18  26467889.222   139089741.919       -1455.831          47.000                                                                  
G32  21894762.191   115057790.720       -1049.868          49.000    21894758.497    89655431.658        -818.073          46.000  
> 2024 04 15 10 19 00.0010000  0 22                     
S33  40070149.595   210570273.000        -641.282          42.000  
E05  24034562.721   126302514.142       -1280.303          42.000    24034562.680    96777269.739        -981.114          51.000  
E36  28543367.360   149996337.607       -2384.023          39.000    28543370.184   114932764.895       -1826.504          44.000  
G02  22523440.170   118361507.776        1875.098          46.000                                                                  
R08  22153145.590   118629121.042        3373.630          51.000    22153138.830    92267238.981        2623.969          47.000  
R06  21152582.709   112874291.423       -3611.859          40.000                                                                  
R22  20355162.937   108657222.986        1041.572          52.000    20355158.334    84511251.474         810.178          49.000  
G08  20483043.026   107639285.306        -558.204          49.000    20483040.301    83874709.174        -435.006          47.000  
E08  27799477.478   146087225.462        2441.608          42.000    27799474.644   111936959.310        1870.655          42.000  
S31  39116517.292   205558850.440        -642.062          44.000  
E30  27252249.608   143211660.644       -3270.107          40.000    27252250.597   109733506.573       -2505.713          45.000  
R21  20926981.611   111984827.000       -1912.220          51.000    20926974.433    87099150.281       -1487.398          47.000  
E15  24662851.643   129604244.059         353.252          47.000    24662852.905    99307200.813         270.726          52.000  
G03  23852645.617   125346498.041        1984.710          43.000    23852643.146    97672596.738        1546.465          41.000  
E34  24837661.065   130523026.635       -1351.303          48.000    24837660.585   100011305.394       -1035.446          48.000  
G27  21270009.390   111774636.002       -2805.157          46.000    21270007.276    87097215.151       -2185.785          47.000  
G10  23177952.465   121801095.314       -3758.782          46.000    23177948.525    94909800.982       -2928.743          43.000  
E03  24883398.848   130763176.839        1313.006          47.000    24883398.109   100195183.795        1006.008          53.000  
G21  21519906.490   113087895.930        1652.956          46.000                                                                  
E27  26714207.890   140383994.579       -1871.098          42.000    26714209.032   107567071.036       -1433.662          47.000  
E18  26476199.722   139133411.614       -1455.493          47.000                                                                  
G32  21900816.394   115089602.467       -1070.813          50.000    21900812.861    89680220.031        -834.435          47.000  
> 2024 04 15 10 19 30.0010000  0 22                     
S33  40073810.133   210589509.062        -641.695          42.000  
E05  24041908.866   126341133.964       -1294.307          40.000    24041911.714    96806861.528        -991.906          50.000  
E36  28556982.639   150067884.986       -2386.402          39.000    28556984.723   114987586.690       -1828.445          43.000  
G02  22512744.648   118305302.428        1871.561          45.000                                                                  
R08  22134276.823   118528073.579        3362.183          51.000    22134269.446    92188646.501        2615.004          48.000  
R06  21172936.870   112982904.705       -3629.156          40.000    21173549.144                3      -3053.517          16.000  
R22  20349334.484   108626108.091        1032.475          52.000    20349329.258    84487050.997         803.002          49.000  
G08  20486286.494   107656333.011        -578.442          49.000    20486284.739    83887993.089        -450.730          47.000  
E08  27785538.372   146013972.636        2441.402          42.000    27785535.176   111880830.519        1870.767          42.000  
S31  39120181.888   205578108.037        -642.036          44.000  
E30  27270919.892   143309773.911       -3270.885          40.000    27270921.095   109808684.266       -2506.296          45.000  
R21  20937740.283   112042403.221       -1926.241          50.000    20937734.763    87143931.747       -1498.232          48.000  
E15  24660838.276   129593664.431         351.816          47.000    24660839.418    99299094.355         269.543          52.000  
G03  23841338.484   125287076.527        1976.752          43.000    23841335.478    97626294.262        1540.239          41.000  
E34  24845385.217   130563614.526       -1354.615          48.000    24845384.084   100042405.189       -1037.958          48.000  
G27  21286070.786   111859039.352       -2821.688          46.000    21286068.653    87162983.984       -2198.704          47.000  
G10  23199418.021   121913895.838       -3761.561          46.000    23199412.852    94997697.465       -2931.061          42.000  
E03  24875932.484   130723945.635        1302.495          46.000    24875932.657   100165123.520         997.971          53.000  
G21  21510484.217   113038383.144        1647.716          46.000                                                                  
E27  26724918.503   140440290.964       -1882.188          40.000    26724922.401   107610207.241       -1442.178          48.000  
E18  26484507.151   139177065.809       -1454.999          48.000                                                                  
G32  21906989.938   115122043.035       -1092.059          50.000    21906986.421    89705498.387        -851.049          47.000  
> 2024 04 15 10 20 00.0010000  0 23                     
S33  40077472.326   210608753.538        -641.231          42.000  
E05  24049338.833   126380173.550       -1308.072          40.000    24049340.354    96836774.928       -1002.270          50.000  
E36  28570610.975   150139500.146       -2388.111          40.000    28570613.541   115042460.361       -1829.847          44.000  
G02  22502069.181   118249202.526        1868.367          46.000                                                                  
R08  22115472.897   118427382.058        3350.253          51.000    22115466.152    92110330.876        2605.901          47.000  
R06  21193385.834   113092025.471       -3645.721          39.000                                                                  
R22  20343556.454   108595267.497        1023.772          51.000    20343552.088    84463063.899         796.167          50.000  
G08  20489645.447   107673983.601        -598.114          49.000    20489643.336    83901746.795        -466.113          47.000  
E08  27771599.829   145940720.020        2441.788          41.000    27771595.621   111824701.909        1871.177          42.000  
S31  39123847.959   205597373.413        -641.990          44.000  
E30  27289594.807   143407912.824       -3271.417          40.000    27289596.146   109883881.627       -2506.656          45.000  
R21  20948578.559   112100398.776       -1939.806          50.000    20948573.051    87189039.376       -1508.844          48.000  
R23  23718462.597                2       2635.691          29.000    23715277.246                3       2017.560          10.000  
E15  24658833.905   129583129.249         350.746          46.000    24658834.473    99291021.957         268.780          51.000  
G03  23830075.447   125227894.752        1969.113          42.000    23830073.334    97580178.581        1534.427          42.000  
E34  24853127.727   130604300.322       -1357.532          49.000    24853126.415   100073579.997       -1040.259          48.000  
G27  21302226.436   111943933.645       -2837.613          47.000    21302223.539    87229135.373       -2211.187          47.000  
G10  23220898.100   122026776.739       -3763.785          46.000    23220893.422    95085656.539       -2932.496          41.000  
E03  24868526.710   130685030.740        1292.107          46.000    24868527.573   100135305.620         990.140          53.000  
G21  21501093.480   112989030.599        1642.725          47.000                                                                  
E27  26735695.211   140496922.696       -1893.010          40.000    26735699.239   107653600.398       -1450.603          48.000  
E18  26492812.529   139220710.307       -1454.385          48.000                                                                  
G32  21913283.280   115155118.170       -1112.794          49.000    21913279.495    89731271.204        -866.973          46.000  
> 2024 04 15 10 20 30.0010000  0 22                     
S33  40081135.625   210628003.203        -641.758          42.000  
E05  24056847.346   126419630.521       -1322.175          41.000    24056848.785    96867008.198       -1013.094          50.000  
E36  28584252.241   150211181.744       -2390.396          40.000    28584254.412   115097384.991       -1831.632          44.000  
G02  22491413.361   118193207.387        1864.893          45.000                                                                  
R08  22096736.154   118327048.197        3338.674          51.000    22096729.457    92032293.478        2596.675          48.000  
R06  21213928.557   113201647.731       -3662.335          39.000                                                                  
R22  20337830.426   108564702.058        1014.406          51.000    20337825.558    84439290.787         788.897          49.000  
G08  20493118.928   107692236.014        -618.255          49.000    20493116.487    83915969.454        -481.812          47.000  
E08  27757659.646   145867467.634        2441.763          41.000    27757655.861   111768573.440        1870.950          42.000  
S31  39127514.858   205616645.231        -642.337          44.000  
E30  27308275.401   143506073.712       -3272.562          41.000    27308275.327   109959095.791       -2507.401          44.000  
R21  20959494.293   112158812.848       -1954.090          50.000    20959488.809    87234472.532       -1519.837          48.000  
E15  24656837.544   129572637.174         349.064          46.000    24656837.842    99282982.588         267.500          51.000  
G03  23818858.955   125168951.561        1960.889          44.000    23818856.850    97534248.857        1527.701          41.000  
E34  24860888.802   130645082.853       -1361.010          49.000    24860887.406   100104828.938       -1042.830          48.000  
G27  21318473.914   112029315.638       -2853.976          47.000    21318471.164    87295666.776       -2223.930          47.000  
G10  23242392.515   122139734.348       -3766.597          44.000    23242388.572    95173675.454       -2934.865          42.000  
E03  24861182.100   130646431.936        1281.478          46.000    24861182.442   100105729.916         981.904          53.000  
G21  21491733.258   112939837.628        1637.117          48.000                                                                  
E27  26746538.553   140553886.545       -1904.160          44.000    26746538.844   107697247.981       -1459.137          48.000  
E18  26501115.388   139264343.025       -1454.110          47.000                                                                  
G32  21919697.080   115188825.727       -1133.994          49.000    21919693.722    89757536.865        -883.718          46.000  
> 2024 04 15 10 21 00.0010000  0 23                     
S33  40084798.573   210647253.073        -641.341          42.000  
E05  24064436.176   126459497.709       -1335.571          43.000    24064435.489    96897555.757       -1023.232          50.000  
E36  28597902.843   150282923.578       -2391.933          39.000    28597907.247   115152355.790       -1832.951          43.000  
G02  22480777.023   118137311.845        1861.854          44.000                                                                  
R08  22078066.513   118227068.619        3327.058          51.000    22078057.787    91954531.538        2587.943          45.000  
R06  21234563.400   113311761.156       -3678.229          39.000    21233652.638                3      -3069.812          18.000  
R22  20332155.598   108534407.425        1005.509          51.000    20332150.654    84415728.323         782.086          49.000  
G08  20496706.041   107711084.221        -637.953          50.000    20496702.622    83930656.385        -497.226          47.000  
E08  27743719.171   145794210.535        2441.996          41.000    27743716.414   111712441.435        1871.340          44.000  
S31  39131182.043   205635915.419        -642.309          43.000  
E30  27326956.712   143604247.706       -3272.532          40.000    27326957.724   110034320.061       -2507.446          44.000  
R21  20970487.341   112217639.511       -1967.542          49.000    20970481.025    87280226.557       -1530.367          47.000  
R23  23688817.465                        2642.498          30.000                                                                  
E15  24654847.931   129562181.906         348.142          46.000    24654847.859    99274971.432         266.792          51.000  
G03  23807686.823   125110240.880        1953.491          42.000    23807684.212    97488500.246        1522.230          41.000  
E34  24868666.283   130685956.030       -1363.748          49.000    24868665.441   100136147.332       -1044.927          48.000  
G27  21334813.382   112115177.071       -2869.849          47.000    21334809.999    87362571.777       -2236.123          47.000  
G10  23263900.494   122252760.061       -3768.329          45.000    23263895.710    95261747.384       -2936.030          40.000  
E03  24853896.593   130608144.089        1271.348          46.000    24853896.450   100076392.470         974.172          53.000  
G21  21482401.863   112890799.659        1632.253          48.000                                                                  
E27  26757439.715   140611174.247       -1914.564          43.000    26757440.287   107741143.762       -1467.194          48.000  
E18  26509414.583   139307957.071       -1453.281          47.000                                                                  
G32  21926231.347   115223158.789       -1154.621          50.000    21926226.916    89784289.870        -899.658          46.000  
> 2024 04 15 10 21 30.0010000  0 23                     
S33  40088459.131   210666491.233        -640.713          42.000  
E05  24072096.327   126499763.318       -1348.737          43.000    24072098.007    96928408.633       -1033.464          50.000  
E36  28611564.363   150354714.893       -2393.849          37.000    28611567.817   115207364.466       -1834.175          40.000  
G02  22470157.073   118081505.893        1858.855          45.000                                                                  
R08  22059459.634   118127435.826        3315.648          50.000    22059451.791    91877039.361        2578.830          45.000  
R06  21255287.783   113422350.270       -3693.817          38.000    21254470.038                3      -3085.930          15.000  
R22  20326530.162   108504374.850         996.750          51.000    20326524.925    84392369.686         775.323          50.000  
G08  20500404.241   107730517.676        -657.512          50.000    20500401.043    83945799.328        -512.270          47.000  
E08  27729775.602   145720939.386        2442.809          41.000    27729773.147   111656298.619        1871.590          43.000  
S31  39134847.064   205655174.758        -641.727          44.000  
E30  27345636.694   143702421.780       -3272.490          37.000    27345639.806   110109544.341       -2507.302          44.000  
R21  20981555.620   112276868.113       -1980.909          50.000    20981549.067    87326293.222       -1540.681          46.000  
R23  23673988.346   126639895.3331       2645.299          34.000                                                                  
E15  24652862.521   129551752.742         347.327          46.000    24652863.277    99266980.274         266.121          51.000  
G03  23796556.672   125051752.096        1946.014          40.000    23796554.215    97442924.571        1516.523          42.000  
E34  24876459.371   130726909.371       -1366.424          49.000    24876458.349   100167527.135       -1046.914          48.000  
G27  21351240.489   112201505.242       -2885.245          47.000    21351238.196    87429840.468       -2248.396          48.000  
G10  23285418.868   122365840.789       -3770.268          46.000    23285415.668    95349862.218       -2938.015          41.000  
E03  24846667.491   130570157.562        1261.144          46.000    24846668.256   100047285.903         966.472          54.000  
G21  21473097.796   112841906.843        1627.405          48.000                                                                  
E27  26768400.928   140668773.270       -1925.221          43.000    26768401.124   107785278.066       -1475.052          48.000  
E18  26517707.977   139351540.977       -1452.148          47.000                                                                  
G32  21932881.117   115258105.701       -1174.931          49.000    21932877.313    89811521.226        -915.418          46.000  
> 2024 04 15 10 22 00.0010000  0 23                     
S33  40092118.139   210685717.299        -641.216          42.000  
E05  24079835.856   126540427.039       -1362.252          44.000    24079835.856    96959566.514       -1043.738          50.000  
E36  28625236.253   150426556.224       -2395.835          37.000    28625238.988   115262411.485       -1835.749          41.000  
G02  22459555.094   118025790.987        1855.362          45.000                                                                  
R08  22040920.120   118028153.189        3303.314          51.000    22040912.491    91799819.560        2569.139          47.000  
R06  21276100.590   113533411.342       -3709.979          38.000                                                                  
R22  20320953.694   108474607.000         987.482          52.000    20320948.280    84369216.927         767.954          49.000  
G08  20504213.700   107750537.147        -677.261          50.000    20504210.951    83961398.911        -527.730          47.000  
E08  27715830.612   145647656.138        2442.792          41.000    27715827.906   111600146.529        1871.509          44.000  
S31  39138509.369   205674421.900        -641.646          43.000  
E30  27364319.280   143800594.028       -3272.586          37.000    27364320.674   110184767.207       -2507.482          43.000  
R21  20992699.308   112336499.786       -1994.495          49.000    20992693.006    87372673.417       -1551.355          47.000  
R23  23659142.883   126560481.511        2648.497          34.000                                                                  
E15  24650883.053   129541350.259         345.999          46.000    24650883.782    99259009.539         265.263          51.000  
G03  23785468.065   124993485.908        1938.274          41.000    23785466.514    97397522.350        1510.344          42.000  
E34  24884268.108   130767943.587       -1369.469          49.000    24884266.972   100198968.929       -1049.337          48.000  
G27  21367757.167   112288298.678       -2901.212          48.000    21367753.880    87497471.673       -2260.469          47.000  
G10  23306947.326   122478974.785       -3772.062          46.000    23306943.688    95438018.596       -2939.453          41.000  
E03  24839495.883   130532473.988        1250.921          45.000    24839497.381   100018411.504         958.513          54.000  
G21  21463822.077   112793161.400        1622.030          48.000                                                                  
E27  26779419.469   140726682.147       -1935.774          42.000    26779420.542   107829649.821       -1483.247          48.000  
E18  26525996.203   139395094.660       -1451.543          47.000                                                                  
G32  21939648.427   115293666.281       -1195.809          49.000    21939645.200    89839230.770        -931.711          46.000  
> 2024 04 15 10 22 30.0010000  0 23                     
S33  40095776.347   210704940.625        -640.778          42.000  
E05  24087651.676   126581497.062       -1375.703          45.000    24087651.481    96991035.760       -1054.294          50.000  
E36  28638918.048   150498456.940       -2397.590          34.000    28638921.313   115317504.019       -1837.274          42.000  
G02  22448971.554   117970177.137        1852.078          45.000                                                                  
R08  22022446.913   117929233.392        3291.317          51.000    22022440.681    91722881.938        2559.876          48.000  
R06  21297002.730   113644949.163       -3725.801          39.000                                                                  
R22  20315428.556   108445115.555         978.344          51.000    20315422.661    84346279.129         760.930          49.000  
G08  20508136.760   107771152.072        -697.139          50.000    20508134.099    83977462.486        -543.258          47.000  
E08  27701883.561   145574371.386        2442.750          40.000    27701882.606   111543993.269        1871.698          45.000  
S31  39142171.457   205693666.530        -641.613          43.000  
E30  27383003.601   143898771.333       -3272.404          38.000    27383003.047   110259993.965       -2507.548          41.000  
R21  21003919.924   112396544.342       -2008.411          50.000    21003913.965    87419374.715       -1562.134          46.000  
R23  23644281.464   126480978.721        2651.414          33.000                                                                  
E15  24648909.985   129530983.761         344.842          46.000    24648911.211    99251066.375         264.201          51.000  
G03  23774424.936   124935451.750        1930.666          42.000    23774423.044    97352300.992        1504.253          42.000  
E34  24892093.804   130809068.233       -1372.418          49.000    24892092.558   100230480.004       -1051.695          48.000  
G27  21384363.035   112375564.643       -2916.737          48.000    21384359.639    87565471.134       -2272.678          47.000  
G10  23328487.915   122592169.092       -3774.183          47.000    23328483.595    95526221.887       -2940.851          40.000  
E03  24832385.060   130495103.866        1240.323          46.000    24832386.253    99989777.244         950.409          54.000  
G21  21454575.900   112744573.505        1616.985          48.000                                                                  
E27  26790499.169   140784908.333       -1946.257          42.000    26790500.427   107874264.656       -1491.205          48.000  
E18  26534280.266   139438626.719       -1450.824          47.000                                                                  
G32  21946532.838   115329848.897       -1216.504          48.000    21946530.444    89867425.007        -947.755          46.000  
> 2024 04 15 10 23 00.0010000  0 23                     
S33  40099434.780   210724167.493        -641.291          42.000  
E05  24095546.689   126622979.494       -1389.627          46.000    24095545.451    97022820.953       -1064.876          50.000  
E36  28652611.470   150570424.086       -2400.261          34.000    28652617.285   115372647.424       -1839.103          42.000  
G02  22438409.179   117914672.222        1848.034          45.000                                                                  
R08  22004044.225   117830686.972        3278.197          51.000    22004037.155    91646234.746        2549.607          46.000  
R06  21317994.543   113756966.566       -3742.324          40.000                                                                  
R22  20309957.295   108415909.647         968.558          51.000    20309951.429    84323563.448         753.349          48.000  
G08  20512174.017   107792369.666        -717.583          49.000    20512171.713    83993995.671        -559.102          47.000  
E08  27687939.256   145501093.571        2442.130          39.000    27687938.121   111487845.335        1871.405          44.000  
S31  39145834.313   205712914.829        -641.697          43.000  
E30  27401688.663   143996958.325       -3273.229          37.000    27401687.255   110335228.136       -2508.143          41.000  
R21  21015220.047   112457009.532       -2022.614          50.000    21015212.781    87466403.187       -1573.175          46.000  
R23  23629403.463                        2653.420          31.000                                                                  
E15  24646945.468   129520660.285         343.273          46.000    24646946.952    99243156.200         262.957          52.000  
G03  23763427.378   124877656.841        1922.467          43.000    23763424.714    97307266.002        1497.740          42.000  
E34  24899938.386   130850290.561       -1375.873          49.000    24899936.842   100262065.909       -1054.282          48.000  
G27  21401060.342   112463308.188       -2932.954          48.000    21401057.160    87633842.727       -2285.420          47.000  
G10  23350040.168   122705428.464       -3776.514          45.000    23350036.127    95614475.889       -2942.810          41.000  
E03  24825334.306   130458055.266        1229.456          46.000    24825336.296    99961389.346         942.129          54.000  
G21  21445360.822   112696151.603        1610.949          48.000                                                                  
E27  26801641.345   140843456.914       -1957.294          42.000    26801642.086   107919126.562       -1499.624          48.000  
E18  26542560.289   139482143.536       -1450.409          47.000                                                                  
G32  21953538.094   115366659.800       -1237.457          49.000    21953535.244    89896108.811        -964.260          46.000  
> 2024 04 15 10 23 30.0010000  0 22                     
S33  40103094.980   210743401.173        -641.104          42.000  
E05  24103518.789   126664875.711       -1403.339          46.000    24103517.892    97054923.241       -1075.279          50.000  
E36  28666319.993   150642460.185       -2401.969          35.000    28666325.544   115427843.607       -1840.554          42.000  
G02  22427868.461   117859279.746        1844.725          43.000                                                                  
R08  21985712.415   117732519.226        3266.099          51.000    21985703.888    91569882.035        2540.250          46.000  
R06  21339076.423   113869461.455       -3757.588          41.000                                                                  
R22  20304540.243   108386993.985         959.108          51.000    20304534.563    84301073.476         745.843          49.000  
G08  20516327.372   107814192.521        -737.350          50.000    20516324.057    84011000.467        -574.581          47.000  
E08  27673993.554   145427826.519        2442.149          37.000    27673996.031   111431705.666        1871.365          45.000  
S31  39149498.448   205732169.164        -641.744          44.000  
E30  27420374.367   144095155.051       -3273.296          37.000    27420373.060   110410469.744       -2508.051          40.000  
R21  21026598.377   112517898.112       -2036.469          50.000    21026591.174    87513760.949       -1583.929          45.000  
E15  24644989.927   129510382.380         341.934          46.000    24644990.996    99235280.952         261.991          52.000  
G03  23752476.041   124820103.791        1914.506          44.000    23752472.246    97262419.431        1491.647          41.000  
E34  24907801.925   130891613.283       -1378.951          49.000    24907800.050   100293728.749       -1056.625          47.000  
G27  21417847.894   112551529.715       -2948.501          47.000    21417844.889    87702586.736       -2297.546          46.000  
G10  23371605.617   122818753.019       -3778.250          45.000    23371601.022    95702780.650       -2943.969          40.000  
E03  24818346.146   130421331.784        1218.882          45.000    24818347.955    99933250.566         933.887          54.000  
G21  21436178.314   112647899.422        1605.791          47.000                                                                  
E27  26812844.827   140902328.395       -1967.484          43.000    26812844.739   107964235.889       -1507.665          48.000  
E18  26550839.097   139525646.923       -1449.686          47.000                                                                  
G32  21960663.617   115404100.525       -1258.275          49.000    21960660.059    89925283.394        -980.461          45.000  
> 2024 04 15 10 24 00.0010000  0 23                     
S33  40106755.669   210762638.678        -641.099          42.000  
E05  24111568.118   126707183.805       -1417.169          44.000    24111568.599    97087341.118       -1085.858          50.000  
E36  28680041.954   150714564.266       -2404.439          38.000    28680047.136   115483091.955       -1842.528          44.000  
G02  22417350.086   117803999.540        1840.796          45.000                                                                  
R08  21967451.185   117634732.050        3253.559          51.000    21967442.701    91493825.343        2530.583          47.000  
R06  21360247.055   113982428.664       -3773.426          41.000                                                                  
R22  20299178.086   108358369.865         949.266          51.000    20299172.141    84278810.271         738.284          48.000  
G08  20520594.668   107836619.779        -757.681          50.000    20520591.570    84028476.255        -590.277          47.000  
E08  27660053.297   145354570.744        2441.969          37.000    27660055.423   111375574.624        1870.869          44.000  
S31  39153163.756   205751428.153        -642.053          44.000  
E30  27439061.890   144193358.140       -3273.247          37.000    27439060.129   110485716.267       -2508.051          39.000  
R21  21038056.444   112579209.719       -2050.641          51.000    21038049.919    87561447.716       -1594.830          46.000  
R23  23599624.593                3       2661.740          23.000                                                                  
E15  24643043.043   129500149.170         340.313          47.000    24643043.727    99227439.941         260.807          52.000  
G03  23741570.080   124762791.743        1906.383          44.000    23741566.347    97217760.679        1485.239          42.000  
E34  24915684.464   130933035.691       -1382.358          49.000    24915682.274   100325467.988       -1059.237          47.000  
G27  21434726.517   112640226.248       -2964.319          47.000    21434723.702    87771700.914       -2309.944          47.000  
G10  23393181.603   122932139.679       -3780.426          45.000    23393178.356    95791133.871       -2945.830          42.000  
E03  24811420.653   130384933.576        1207.842          45.000    24811421.380    99905361.009         925.553          54.000  
G21  21427028.560   112599817.141        1599.727          47.000                                                                  
E27  26824108.883   140961519.991       -1978.288          44.000    26824108.423   108009590.501       -1515.868          48.000  
E18  26559114.325   139569135.308       -1449.317          47.000                                                                  
G32  21967907.952   115442169.205       -1279.225          49.000    21967904.092    89954947.301        -996.958          45.000  
> 2024 04 15 10 24 30.0010000  0 23                     
S33  40110417.167   210781881.124        -641.440          42.000  
E05  24119697.740   126749904.010       -1430.890          45.000    24119697.866    97120074.776       -1096.438          49.000  
E36  28693775.691   150786737.693       -2406.724          36.000    28693781.694   115538393.403       -1844.314          44.000  
G02  22406852.329   117748833.451        1837.006          45.000                                                                  
R08  21949261.946   117537330.347        3240.361          51.000    21949254.418    91418068.484        2520.329          46.000  
R06  21381505.392   114095865.033       -3788.954          42.000                                                                  
R22  20293870.703   108330040.697         939.448          51.000    20293865.400    84256776.488         730.626          48.000  
G08  20524978.018   107859652.824        -777.702          50.000    20524975.171    84046424.095        -606.098          48.000  
E08  27646117.059   145281328.880        2441.196          38.000    27646117.893   111319454.220        1870.554          44.000  
S31  39156829.395   205770692.711        -642.102          44.000  
E30  27457749.501   144291566.544       -3273.661          36.000    27457747.688   110560966.895       -2508.591          37.000  
R21  21049594.163   112640945.641       -2064.734          52.000    21049585.728    87609464.480       -1605.914          46.000  
R23  23584682.810                3       2662.118          24.000                                                                  
E15  24641105.157   129489961.987         338.769          47.000    24641105.252    99219634.189         259.617          52.000  
G03  23730709.964   124705722.165        1898.205          45.000    23730706.724    97173290.880        1479.131          43.000  
E34  24923585.805   130974559.318       -1385.764          49.000    24923583.930   100357284.779       -1061.781          47.000  
G27  21451695.032   112729396.976       -2980.036          48.000    21451692.083    87841184.571       -2322.104          47.000  
G10  23414771.170   123045587.421       -3782.598          46.000    23414767.959    95879534.636       -2947.711          43.000  
E03  24804555.615   130348862.961        1197.000          44.000    24804557.376    99877722.506         917.095          54.000  
G21  21417911.840   112551908.056        1594.216          47.000                                                                  
E27  26835433.110   141021030.995       -1988.836          43.000    26835433.097   108055189.863       -1524.043          48.000  
E18  26567386.876   139612609.314       -1448.816          47.000                                                                  
G32  21975271.914   115480866.205       -1300.328          49.000    21975266.840    89985100.785       -1013.402          43.000  
> 2024 04 15 10 25 00.0010000  0 23                     
S33  40114078.543   210801121.361        -641.410          42.000  
E05  24127903.342   126793026.289       -1444.155          45.000    24127904.040    97153116.506       -1106.701          50.000  
E36  28707521.969   150858971.447       -2409.137          37.000    28707527.136   115593741.065       -1845.766          42.000  
G02  22396374.812   117693773.706        1833.286          45.000                                                                  
R08  21931143.870   117440307.232        3227.760          51.000    21931135.946    91342606.074        2510.366          47.000  
R06  21402848.967   114209757.024       -3804.027          43.000                                                                  
R22  20288618.085   108301999.517         929.769          52.000    20288611.988    84234966.691         723.179          48.000  
G08  20529474.354   107883282.699        -797.801          50.000    20529471.830    84064836.985        -621.759          48.000  
E08  27632181.245   145208093.287        2441.003          39.000    27632181.489   111263338.625        1870.449          43.000  
S31  39160494.507   205789953.112        -642.133          44.000  
E30  27476437.430   144389768.837       -3273.247          36.000    27476435.962   110636212.827       -2508.323          38.000  
R21  21061206.935   112703097.393       -2078.778          51.000    21061201.386    87657804.684       -1616.833          47.000  
R23  23569764.821                        2665.015          28.000                                                                  
E15  24639173.844   129479811.903         337.654          47.000    24639173.636    99211856.871         258.728          52.000  
G03  23719894.078   124648886.119        1890.427          44.000    23719892.214    97129003.070        1473.137          43.000  
E34  24931505.433   131016175.384       -1388.762          49.000    24931503.982   100389172.400       -1064.104          48.000  
G27  21468752.091   112819030.800       -2995.548          48.000    21468748.383    87911029.098       -2334.383          46.000  
G10  23436367.724   123159084.973       -3784.163          45.000    23436365.723    95967974.258       -2948.528          43.000  
E03  24797752.631   130313112.060        1186.182          45.000    24797753.996    99850328.950         908.917          54.000  
G21  21408826.622   112504163.901        1588.510          48.000                                                                  
E27  26846816.558   141080850.464       -1999.133          42.000    26846816.404   108101025.549       -1531.813          48.000  
E18  26575654.967   139656059.292       -1447.972          47.000                                                                  
G32  21982753.185   115520181.536       -1320.888          49.000    21982748.170    90015736.102       -1029.504          42.000  
> 2024 04 15 10 25 30.0010000  0 23                     
S33  40117740.050   210820362.714        -641.165          41.000  
E05  24136188.095   126836556.116       -1457.668          46.000    24136187.628    97186470.526       -1117.075          50.000  
E36  28721280.223   150931272.067       -2410.937          36.000    28721285.702   115649139.988       -1847.530          43.000  
G02  22385919.542   117638827.633        1829.699          45.000                                                                  
R08  21913098.163   117343673.287        3214.597          50.000    21913090.169    91267446.345        2500.204          47.000  
R06  21424277.909   114324107.169       -3819.181          43.000                                                                  
R22  20283420.807   108274255.211         919.765          51.000    20283414.991    84213387.808         715.327          48.000  
G08  20534085.801   107907515.988        -817.880          50.000    20534082.858    84083720.077        -637.450          47.000  
E08  27618248.281   145134871.932        2440.536          39.000    27618247.860   111207233.945        1869.859          43.000  
S31  39164160.147   205809215.973        -642.081          44.000  
E30  27495124.549   144487969.209       -3273.348          34.000    27495123.953   110711457.260       -2508.183          40.000  
R21  21072901.278   112765671.946       -2092.859          51.000    21072895.254    87706473.783       -1627.832          47.000  
R23  23554796.095                        2667.030          30.000                                                                  
E15  24637250.534   129469705.542         336.166          47.000    24637250.471    99204113.049         257.475          52.000  
G03  23709123.859   124592290.278        1882.487          44.000    23709122.282    97084902.432        1466.732          43.000  
E34  24939442.817   131057890.698       -1392.230          48.000    24939442.434   100421136.062       -1066.741          48.000  
G27  21485898.041   112909132.205       -3011.185          48.000    21485894.561    87981237.957       -2346.428          47.000  
G10  23457975.891   123272636.807       -3786.106          45.000    23457974.426    96056456.139       -2950.161          44.000  
E03  24791011.869   130277688.510        1175.289          45.000    24791012.804    99823186.211         900.520          53.000  
G21  21399774.215   112456592.675        1582.799          48.000                                                                  
E27  26858258.694   141140983.002       -2009.661          41.000    26858258.853   108147101.132       -1539.876          47.000  
E18  26583920.022   139699491.162       -1447.375          47.000                                                                  
G32  21990353.132   115560120.747       -1341.725          49.000    21990348.527    90046857.569       -1045.665          42.000  
> 2024 04 15 10 26 00.0010000  0 23                     
S33  40121402.897   210839611.326        -641.701          42.000  
E05  24144549.607   126880496.266       -1471.614          46.000    24144549.261    97220138.926       -1127.514          50.000  
E36  28735053.401   151003643.455       -2413.350          38.000    28735057.365   115704593.127       -1849.270          42.000  
G02  22375485.882   117584000.151        1825.547          45.000                                                                  
R08  21895125.747   117247435.175        3201.185          50.000    21895118.502    91192594.471        2489.802          48.000  
R06  21445792.467   114438914.268       -3834.487          43.000                                                                  
R22  20278280.062   108246813.819         909.715          52.000    20278274.712    84192044.515         707.441          49.000  
G08  20538812.190   107932356.507        -838.231          49.000    20538809.473    84103076.338        -653.228          47.000  
E08  27604318.276   145061670.027        2439.522          40.000    27604317.731   111151144.155        1869.420          43.000  
S31  39167826.773   205828483.623        -642.354          44.000  
E30  27513810.255                       -3272.857          30.000    27513810.650   110786701.283       -2508.177          41.000  
R21  21084673.203   112828673.442       -2107.129          50.000    21084667.812    87755474.875       -1638.892          46.000  
R23  23539835.137                3       2668.887          27.000                                                                  
E15  24635335.583   129459646.776         334.471          47.000    24635336.438    99196405.696         256.310          52.000  
G03  23698400.474   124535938.580        1874.154          44.000    23698399.180    97040992.017        1460.275          43.000  
E34  24947401.077   131099709.322       -1395.793          48.000    24947400.251   100453178.883       -1069.411          48.000  
G27  21503133.466   112999702.803       -3026.824          49.000    21503129.282    88051812.437       -2358.621          46.000  
G10  23479595.231   123386244.380       -3787.981          47.000    23479593.149    96144981.497       -2951.546          44.000  
E03  24784334.772   130242597.154        1163.966          45.000    24784335.242    99796298.017         891.979          53.000  
G21  21390755.844   112409199.675        1576.790          48.000                                                                  
E27  26869761.282   141201430.403       -2020.046          41.000    26869761.255   108193417.959       -1547.908          47.000  
E18  26592182.562   139742908.099       -1447.088          47.000                                                                  
G32  21998072.360   115600686.646       -1362.713          48.000    21998067.892    90078467.327       -1061.900          42.000  
> 2024 04 15 10 26 30.0010000  0 23                     
S33  40125066.359   210858861.903        -642.133          42.000  
E05  24152987.181   126924843.181       -1485.255          45.000    24152988.369    97254119.028       -1138.002          50.000  
E36  28748838.984   151076083.164       -2415.981          38.000    28748842.441   115760098.544       -1851.041          42.000  
G02  22365074.301   117529289.501        1821.454          45.000                                                                  
R08  21877227.635   117151593.346        3187.908          51.000    21877221.385    91118050.853        2479.445          49.000  
R06  21467391.980   114554171.839       -3849.595          43.000                                                                  
R22  20273195.483   108219675.080         899.327          52.000    20273190.192    84170936.590         699.575          48.000  
G08  20543654.549   107957801.831        -858.359          49.000    20543652.061    84122903.857        -669.005          47.000  
E08  27590391.799   144988486.506        2438.988          41.000    27590391.681   111095068.464        1868.859          43.000  
S31  39171493.237   205847755.236        -642.839          43.000  
E30  27532499.167   144684363.619       -3273.951          34.000    27532497.380   110861941.218       -2508.050          43.000  
R21  21096526.469   112892099.603       -2121.417          51.000    21096520.283    87804806.320       -1650.012          46.000  
R23  23524859.421   125842113.5211       2671.476          32.000                                                                  
E15  24633429.391   129449633.286         332.944          46.000    24633430.822    99188733.047         254.993          52.000  
G03  23687723.911   124479828.667        1866.111          43.000    23687721.505    96997269.995        1453.976          43.000  
E34  24955378.336   131141629.047       -1399.240          48.000    24955377.205   100485299.171       -1072.151          48.000  
G27  21520456.083   113090738.053       -3042.566          48.000    21520452.789    88122748.965       -2370.769          47.000  
G10  23501223.793   123499903.122       -3789.510          46.000    23501220.747    96233546.696       -2953.026          43.000  
E03  24777719.299   130207836.561        1152.807          45.000    24777720.415    99769663.291         883.433          53.000  
G21  21381770.930   112361984.008        1570.518          48.000                                                                  
E27  26881322.139   141262188.240       -2030.392          41.000    26881322.990   108239972.672       -1555.954          46.000  
E18  26600441.319   139786307.009       -1446.517          48.000                                                                  
G32  22005909.967   115641875.692       -1383.700          48.000    22005905.433    90110562.693       -1078.270          40.000  
> 2024 04 15 10 27 00.0010000  0 23                     
S33  40128729.121   210878110.935        -641.344          42.000  
E05  24161503.214   126969591.782       -1498.146          46.000    24161503.591    97288406.926       -1148.063          50.000  
E36  28762636.236   151148587.199       -2417.612          37.000    28762640.200   115815653.300       -1852.427          44.000  
G02  22354684.951   117474692.826        1817.974          45.000                                                                  
R08  21859404.183   117056147.093        3175.052          50.000    21859397.613    91043814.875        2469.486          48.000  
R06  21489074.518   114669871.262       -3863.839          43.000                                                                  
R22  20268167.530   108192837.092         889.598          51.000    20268162.730    84150062.599         691.836          49.000  
G08  20548611.107   107983847.894        -878.133          49.000    20548608.982    84143199.467        -684.361          47.000  
E08  27576470.183   144915318.818        2438.677          43.000    27576468.058   111039004.912        1868.629          43.000  
S31  39175160.613   205867024.761        -642.171          44.000  
E30  27551180.096   144782546.368       -3272.964          33.000    27551180.688   110937172.201       -2507.432          43.000  
R21  21108458.096   112955946.998       -2135.181          50.000    21108451.694    87854465.378       -1660.760          46.000  
R23  23509870.929                        2674.391          30.000                                                                  
E15  24631532.354   129439661.185         331.798          47.000    24631533.263    99181092.089         254.255          52.000  
G03  23677092.056   124423956.567        1858.423          44.000    23677088.915    96953733.285        1448.168          41.000  
E34  24963373.520   131183646.187       -1402.196          48.000    24963372.772   100517494.091       -1074.400          48.000  
G27  21537867.170   113182231.812       -3057.219          48.000    21537863.925    88194042.786       -2382.265          47.000  
G10  23522860.963   123613606.906       -3790.721          46.000    23522858.030    96322147.002       -2954.076          42.000  
E03  24771168.631   130173403.847        1142.429          46.000    24771167.982    99743279.787         875.253          53.000  
G21  21372819.151   112314942.664        1565.204          49.000                                                                  
E27  26892943.002   141323250.635       -2040.433          42.000    26892942.508   108286760.737       -1563.335          46.000  
E18  26608695.658   139829683.295       -1445.437          48.000                                                                  
G32  22013864.616   115683682.824       -1403.814          47.000    22013862.047    90143139.662       -1093.848          42.000  
> 2024 04 15 10 27 30.0010000  0 23                     
S33  40132390.583   210897352.266        -641.413          42.000  
E05  24170094.115   127014735.583       -1511.477          46.000    24170094.270    97322997.606       -1158.158          50.000  
E36  28776444.658   151221150.154       -2420.001          39.000    28776449.462   115871253.234       -1854.243          44.000  
G02  22344316.432   117420205.563        1814.057          45.000                                                                  
R08  21841653.640   116961093.691        3161.626          50.000    21841647.769    90969884.442        2459.142          50.000  
R06  21510836.596   114786002.733       -3878.409          43.000                                                                  
R22  20263195.671   108166296.633         879.484          51.000    20263190.924    84129420.041         684.127          49.000  
G08  20553680.506   108010489.194        -898.174          49.000    20553678.191    84163958.934        -700.090          46.000  
E08  27562549.018   144842162.918        2438.137          43.000    27562547.185   110982950.388        1868.267          43.000  
S31  39178826.310   205886286.604        -641.940          44.000  
E30  27569863.480   144880709.724       -3271.885          33.000    27569860.387   111012388.264       -2507.078          43.000  
R21  21120467.017   113020210.197       -2149.207          50.000    21120460.934    87904447.846       -1671.503          45.000  
R23  23494865.877                        2676.547          26.000                                                                  
E15  24629641.193   129429725.130         330.409          47.000    24629642.486    99173478.765         253.191          52.000  
G03  23666504.413   124368317.012        1850.601          43.000    23666500.672    96910377.791        1442.169          41.000  
E34  24971386.307   131225755.531       -1405.385          47.000    24971385.459   100549759.655       -1076.762          47.000  
G27  21555364.029   113274176.491       -3072.446          48.000    21555360.266    88265687.963       -2394.129          47.000  
G10  23544505.307   123727348.151       -3792.404          46.000    23544501.933    96410776.447       -2954.961          42.000  
E03  24764676.792   130139294.618        1131.405          46.000    24764677.226    99717144.143         866.856          53.000  
G21  21363899.683   112268071.737        1559.283          48.000                                                                  
E27  26904619.905   141384610.136       -2050.375          43.000    26904619.559   108333776.446       -1571.080          47.000  
E18  26616945.062   139873030.902       -1444.560          48.000                                                                  
G32  22021937.460   115726101.574       -1424.281          48.000    22021935.224    90176193.190       -1109.760          42.000  
> 2024 04 15 10 28 00.0010000  0 23                     
S33  40136052.342   210916595.147        -641.553          42.000  
E05  24178761.895   127060281.010       -1525.001          47.000    24178761.275    97357896.031       -1168.495          50.000  
E36  28790265.442   151293779.567       -2422.187          38.000    28790269.732   115926904.037       -1855.924          42.000  
G02  22333969.605   117365836.176        1810.148          44.000                                                                  
R08  21823978.667   116866443.895        3148.012          49.000    21823973.349    90896267.971        2448.584          49.000  
R06  21532680.865   114902569.325       -3892.613          41.000                                                                  
R22  20258281.485   108140063.514         869.108          51.000    20258276.567    84109016.491         675.994          49.000  
G08  20558864.699   108037733.215        -918.342          49.000    20558862.118    84185188.047        -715.794          47.000  
E08  27548631.506   144769027.749        2437.243          43.000    27548629.850   110926911.753        1867.615          43.000  
S31  39182491.863   205905549.542        -642.294          44.000  
E30  27588540.336                       -3271.436          29.000    27588537.582   111087593.405       -2506.867          44.000  
R21  21132555.377   113084897.026       -2163.385          50.000    21132549.809    87954759.794       -1682.617          46.000  
R23  23479861.670                1       2678.284          28.000                                                                  
E15  24627758.794   129419832.807         328.866          47.000    24627760.271    99165898.949         251.902          52.000  
G03  23655962.126   124312917.624        1842.536          41.000    23655959.120    96867209.459        1435.826          42.000  
E34  24979418.731   131267964.920       -1408.801          47.000    24979417.513   100582101.895       -1079.524          47.000  
G27  21572946.784   113366577.432       -3087.832          48.000    21572943.860    88337688.689       -2406.136          47.000  
G10  23566158.154   123841132.192       -3793.626          47.000    23566154.864    96499439.265       -2955.936          42.000  
E03  24758250.148   130105517.485        1120.086          46.000    24758249.876    99691262.943         858.295          53.000  
G21  21355014.844   112221380.670        1553.141          47.000                                                                  
E27  26916353.639   141446272.297       -2060.568          42.000    26916353.875   108381024.076       -1578.852          47.000  
E18  26625189.758   139916356.774       -1444.087          48.000                                                                  
G32  22030127.675   115769138.326       -1445.099          49.000    22030124.929    90209728.320       -1125.772          42.000  
> 2024 04 15 10 28 30.0010000  0 23                     
S33  40139715.676   210935846.272        -641.787          41.000  
E05  24187506.649   127106236.457       -1538.855          47.000    24187506.285    97393108.616       -1178.970          50.000  
E36  28804100.958   151366485.077       -2424.906          39.000    28804105.142   115982613.149       -1858.133          42.000  
G02  22323647.828   117311594.995        1805.825          44.000                                                                  
R08  21806380.580   116772210.364        3134.042          49.000    21806375.170    90822975.199        2437.718          49.000  
R06  21554607.609   115019576.454       -3907.615          41.000                                                                  
R22  20253426.811   108114149.682         858.334          50.000    20253422.331    84088861.300         667.454          50.000  
G08  20564165.535   108065589.363        -938.795          49.000    20564163.407    84206894.116        -731.664          47.000  
E08  27534720.191   144695924.278        2436.116          43.000    27534718.450   110870897.408        1866.518          43.000  
S31  39186159.029   205924820.621        -642.601          44.000  
R21  21144725.409   113150017.625       -2178.003          51.000    21144718.576    88005409.135       -1694.031          46.000  
R23  23464828.514   125520987.9821       2680.591          32.000                                                                  
E15  24625887.979   129409993.868         327.027          48.000    24625888.058    99158360.028         250.513          52.000  
G03  23645466.829   124257767.996        1834.009          41.000    23645464.109    96824235.686        1429.063          41.000  
E34  24987471.795   131310284.138       -1412.607          47.000    24987470.475   100614528.286       -1082.440          47.000  
G27  21590618.210   113459441.995       -3103.291          47.000    21590615.912    88410050.649       -2418.103          48.000  
G10  23587820.342   123954966.436       -3795.424          47.000    23587815.157    96588141.226       -2957.561          40.000  
E03  24751888.353   130072082.970        1108.541          46.000    24751887.840    99665644.261         849.438          54.000  
G21  21346165.791   112174879.856        1546.700          47.000                                                                  
E27  26928146.021   141508244.642       -2070.976          42.000    26928146.988   108428509.381       -1586.829          48.000  
E18  26633431.398   139959669.783       -1443.648          48.000                                                                  
G32  22038437.096   115812801.455       -1466.017          50.000    22038433.058    90243751.538       -1142.301          42.000  
E30                                                                  27607213.116   111162793.096       -2506.631          43.000  
> 2024 04 15 10 29 00.0010000  0 23                     
S33  40143380.819   210955108.252        -642.054          42.000  
E05  24196329.402   127152602.578       -1552.129          46.000    24196329.508    97428635.902       -1189.386          50.000  
E36  28817951.273   151439268.429       -2427.462          39.000    28817955.953   116038381.923       -1859.672          42.000  
G02  22313350.644   117257485.098        1801.624          44.000                                                                  
R08  21788861.412   116678397.943        3120.338          49.000    21788856.532    90750009.994        2426.838          49.000  
R06  21576616.811   115137021.206       -3921.896          41.000                                                                  
R22  20248632.688   108088559.147         847.681          51.000    20248628.730    84068957.535         659.367          50.000  
G08  20569583.223   108094059.316        -959.071          49.000    20569580.989    84229078.474        -747.242          47.000  
E08  27520815.369   144622855.709        2435.126          43.000    27520813.766   110814909.788        1865.928          43.000  
S31  39189828.324   205944102.507        -642.739          44.000  
E30  27625885.280                1      -3270.580          27.000    27625886.823   111237986.907       -2506.480          42.000  
R21  21156975.871   113215574.240       -2192.310          50.000    21156970.142    88056397.561       -1705.096          47.000  
R23  23449785.749   125440542.764        2682.370          33.000                                                                  
E15  24624026.430   129400210.234         325.380          48.000    24624026.332    99150863.486         249.349          52.000  
G03  23635020.546   124202869.929        1825.934          40.000    23635017.226    96781457.964        1422.732          40.000  
E34  24995546.593   131352715.258       -1416.010          47.000    24995544.616   100647040.419       -1085.214          46.000  
G27  21608377.541   113552769.686       -3118.468          48.000    21608375.006    88482773.517       -2429.967          47.000  
G10  23609491.505   124068850.609       -3797.071          46.000    23609488.359    96676882.049       -2958.714          43.000  
E03  24745589.421   130038993.838        1097.293          45.000    24745590.997    99640290.265         840.783          54.000  
G21  21337353.792   112128572.636        1540.493          47.000                                                                  
E27  26939996.969   141570526.995       -2081.044          41.000    26939999.422   108476232.209       -1594.563          48.000  
E18  26641671.511   140002971.157       -1443.121          48.000                                                                  
G32  22046865.200   115857091.570       -1486.605          50.000    22046860.845    90278263.306       -1158.336          42.000  
> 2024 04 15 10 29 30.0010000  0 23                     
S33  40147046.948   210974372.003        -641.845          41.000  
E05  24205228.449   127199370.162       -1565.530          46.000    24205228.863    97464470.776       -1199.638          50.000  
E36  28831815.089   151512121.609       -2429.456          40.000    28831820.329   116094204.209       -1861.681          42.000  
G02  22303077.102   117203499.328        1797.524          45.000                                                                  
R08  21771419.573   116585001.228        3106.381          49.000    21771414.931    90677368.104        2416.016          48.000  
R06  21598705.794   115254891.235       -3936.013          39.000                                                                  
R22  20243897.648   108063285.946         837.167          50.000    20243894.390    84049300.614         651.190          51.000  
G08  20575116.257   108123134.780        -979.108          49.000    20575114.006    84251734.675        -763.051          47.000  
E08  27506916.579   144549815.378        2434.403          43.000    27506914.782   110758943.809        1865.157          44.000  
S31  39193497.823   205963386.723        -642.730          44.000  
E30  27644554.449                       -3269.703          31.000    27644557.515   111313166.841       -2505.778          42.000  
R21  21169306.217   113281558.602       -2206.549          50.000    21169299.991    88107718.671       -1716.266          46.000  
R23  23434733.096                        2684.549          31.000                                                                  
E15  24622173.227   129390473.957         323.815          47.000    24622173.671    99143403.235         248.094          52.000  
G03  23624619.407   124148215.360        1817.742          40.000    23624618.235    96738870.028        1416.436          41.000  
E34  25003640.593   131395250.480       -1419.608          47.000    25003638.796   100679632.302       -1087.622          46.000  
G27  21626223.541   113646550.287       -3133.462          48.000    21626221.204    88555849.275       -2441.565          48.000  
G10  23631170.583   124182774.451       -3798.116          46.000    23631166.116    96765653.792       -2959.483          40.000  
E03  24739357.518   130006243.064        1086.065          45.000    24739358.632    99615195.513         832.138          53.000  
G21  21328577.860   112082452.355        1534.280          46.000                                                                  
E27  26951906.461   141633109.225       -2090.889          41.000    26951908.192   108524184.827       -1602.131          48.000  
E18  26649907.590   140046252.182       -1442.310          48.000                                                                  
G32  22055410.280   115901999.369       -1507.056          50.000    22055406.225    90313256.405       -1174.270          41.000  
