     3.00           OBSERVATION DATA    M: Mixed            RINEX VERSION / TYPE
CONVBIN 2.4.3                           20240415 042942 UTC PGM / RUN BY / DATE 
format: u-blox UBX                                          COMMENT             
log: /home/regis/git/gnsspwv/obsdata/VERT00CHL/2024-04-15/VECOMMENT             
{self.marker}                                               MARKER NAME         
                                                            MARKER NUMBER       
GEODETIC                                                    MARKER TYPE         
{self.observer}     {self.institution}                      OBSERVER / AGENCY   
UNKNOWN             UBLOX-ZED-F9P                           REC # / TYPE / VERS 
UNKNOWN             TWIVSP6037L                             ANT # / TYPE        
  1713381.0000 -5047934.0000 -3490983.0000                  APPROX POSITION XYZ 
        0.0000        0.0000        0.0000                  ANTENNA: DELTA H/E/N
G    8 C1C L1C D1C S1C C2L L2L D2L S2L                      SYS / # / OBS TYPES 
R    8 C1C L1C D1C S1C C2C L2C D2C S2C                      SYS / # / OBS TYPES 
E    8 C1C L1C D1C S1C C7Q L7Q D7Q S7Q                      SYS / # / OBS TYPES 
S    4 C1C L1C D1C S1C                                      SYS / # / OBS TYPES 
  2024    04    15    04    15   00.0130000     GPS         TIME OF FIRST OBS   
  2024    04    15    04    29   30.0130000     GPS         TIME OF LAST OBS    
                                                            END OF HEADER       
> 2024 04 15 04 15 00.0130000  0 24                     
S33  43606239.248   229152480.5731       -705.976          43.000  
E02  28478921.383   149657760.5621       1103.100          47.000    28478921.276   114672861.9971        845.278          52.000  
G28  25272017.737   132805331.3041      -1570.348          47.000    25272014.887   103484657.5651      -1223.516          47.000  
E36  27611236.930   145098367.0141        694.156          48.000    27611237.494   111179479.1781        532.018          51.000  
G26  27218094.856   143032066.9311       2392.469          38.000    27218092.668   111453513.8461       1863.942          36.000  
R20  25247451.000   135009500.8061       2088.176          39.000    25247451.321   105007469.1811       1624.053          43.000  
R10  26639432.803                3       3255.607          26.000                                                                  
R09  23411655.076   125016936.1321       1056.652          52.000    23411649.865    97235658.7661        821.854          50.000  
R16  23966684.232   128025888.6311      -3034.821          52.000    23966681.637    99575604.7351      -2360.285          48.000  
E11  27044074.566   142117979.8491      -2010.750          44.000    27044071.207   108895824.3481      -1540.758          50.000  
G18  24794009.714   130293758.1901       1312.439          47.000    24794005.730   101527714.8101       1022.681          47.000  
G29  25006608.112   131411019.1101      -1832.165          48.000    25006603.157   102398468.8541      -1427.574          44.000  
S31  42652244.061   224139172.6161       -705.879          44.000  
R18  25692052.379   137146020.9991      -4254.473          49.000    25692048.945   106669421.3481      -3308.871          45.000  
R19  23417380.833   125267557.8321      -2136.266          43.000    23417375.375    97429926.5991      -1661.762          47.000  
G05  27419888.702   144092560.2131       -192.592          42.000    27419883.872   112279927.3791       -149.933          37.000  
E34  31184037.323   163873294.4331       2261.427          41.000    31184046.583   125565364.1601       1732.747          42.000  
E24  30758791.701   161638647.8251      -2775.349          44.000    30758790.807   123853046.6071      -2126.489          47.000  
G12  27441626.422   144207013.9351      -3184.828          45.000    27441621.041   112369225.9831      -2481.677          40.000  
G25  24859145.788   130635927.8191      -2058.710          47.000    24859144.551   101794301.4791      -1604.211          47.000  
E10  30046664.084   157896785.4821      -3115.217          45.000    30046663.197   120986103.8301      -2386.958          49.000  
E25  27383854.299   143903433.9521      -1002.813          49.000    27383854.727   110263825.9871       -768.436          50.000  
G31  26155084.663   137445848.5031        777.665          46.000    26155081.168   107100736.8261        606.101          44.000  
E14  32596580.744   171296327.4631      -3178.897          39.000    32596578.313   131253086.5901      -2435.884          45.000  
> 2024 04 15 04 15 30.0130000  0 24                     
S33  43610270.569   229173665.926        -705.952          43.000  
E02  28472633.651   149624716.243        1100.053          47.000    28472633.075   114647542.345         842.840          52.000  
G28  25281036.911   132852722.308       -1588.887          48.000    25281033.340   103521585.620       -1238.197          47.000  
E36  27607307.992   145077723.426         681.955          48.000    27607309.280   111163661.380         522.649          51.000  
G26  27204442.263   142960322.122        2390.296          37.000    27204440.211   111397608.844        1862.513          37.000  
R20  25235778.992   134947085.299        2072.979          39.000    25235779.320   104958923.875        1612.325          43.000  
R10  26621126.477                        3249.997          30.000                                                                  
R09  23405773.503   124985527.968        1037.215          52.000    23405769.053    97211230.221         806.742          51.000  
R16  23983783.695   128117229.351       -3054.465          52.000    23983780.472    99646647.514       -2375.836          49.000  
E11  27055586.906   142178476.567       -2021.896          45.000    27055583.258   108942178.992       -1549.253          50.000  
G18  24786565.576   130254637.534        1295.703          46.000    24786561.431   101497231.196        1009.595          47.000  
G29  25017081.841   131466063.302       -1837.406          48.000    25017077.609   102441360.447       -1431.689          45.000  
S31  42656272.708   224160343.622        -705.484          44.000  
R18  25715973.890   137273710.700       -4258.106          50.000    25715970.588   106768735.536       -3311.805          46.000  
R19  23429412.641   125331913.971       -2153.912          43.000    23429406.033    97479981.394       -1675.368          47.000  
G05  27421034.827   144098579.136        -208.510          42.000    27421029.523   112284617.507        -162.019          37.000  
E34  31171138.891   163805513.048        2257.582          42.000    31171147.200   125513428.600        1729.926          42.000  
E24  30774649.715   161721989.154       -2780.596          43.000    30774650.481   123916905.536       -2130.610          48.000  
G12  27459830.287   144302678.075       -3192.604          45.000    27459825.459   112443769.423       -2487.782          40.000  
G25  24870935.202   130697880.537       -2071.338          47.000    24870934.010   101842576.295       -1613.989          47.000  
E10  30064465.152   157990333.794       -3121.117          45.000    30064464.470   121057783.730       -2391.564          49.000  
E25  27389602.794   143933641.136       -1010.783          49.000    27389602.805   110286971.738        -774.478          50.000  
G31  26150697.518   137422786.835         759.882          47.000    26150692.510   107082766.669         592.302          44.000  
E14  32614698.342   171391535.573       -3168.093          40.000    32614695.320   131326038.258       -2427.280          44.000  
> 2024 04 15 04 16 00.0130000  0 25                     
S33  43614300.503   229194842.372        -705.509          42.000  
E02  28466361.601   149591757.255        1097.132          47.000    28466361.058   114622288.085         840.723          52.000  
G28  25290159.931   132900663.567       -1607.206          47.000    25290156.481   103558942.428       -1252.471          47.000  
E36  27603448.429   145057439.328         670.150          48.000    27603449.371   111148119.040         513.532          52.000  
G26  27190797.427   142888622.197        2389.241          37.000    27190796.501   111341738.814        1861.610          38.000  
R20  25224190.815   134885119.293        2058.116          40.000    25224190.764   104910728.212        1600.413          43.000  
R10  26602851.119   141808132.4381       3247.186          34.000                                                                  
R09  23400000.180   124954700.362        1017.858          52.000    23399996.512    97187253.185         791.745          52.000  
R16  24000991.877   128209155.909       -3073.883          52.000    24000989.644    99718145.902       -2390.827          49.000  
G20  28163497.493   148000181.8941      -2246.222          30.000                                                                  
E11  27067160.655   142239297.170       -2032.782          45.000    27067156.980   108988781.788       -1557.596          50.000  
G18  24779215.237   130216011.894        1279.333          47.000    24779211.108   101467133.323         996.808          47.000  
G29  25027586.972   131521266.312       -1842.698          49.000    25027582.241   102484375.786       -1435.756          45.000  
S31  42660299.408   224181504.825        -705.229          44.000  
R18  25739913.511   137401506.161       -4261.478          48.000    25739910.987   106868132.046       -3314.474          47.000  
R19  23441539.172   125396787.442       -2171.293          43.000    23441533.080    97530438.513       -1688.593          47.000  
G05  27422269.954   144105070.663        -224.182          42.000    27422264.274   112289675.851        -174.399          37.000  
E34  31158258.568   163737836.396        2254.293          41.000    31158267.573   125461573.281        1727.142          41.000  
E24  30790539.712   161805487.523       -2785.922          43.000    30790539.844   123980884.783       -2134.572          48.000  
G12  27478079.519   144398571.836       -3200.343          46.000    27478072.511   112518491.799       -2493.742          37.000  
G25  24882795.553   130760205.100       -2083.502          47.000    24882793.434   101891140.884       -1623.462          46.000  
E10  30082300.666   158084057.521       -3126.959          46.000    30082299.622   121129598.009       -2396.059          49.000  
E25  27395396.131   143964081.437       -1018.469          49.000    27395395.404   110310296.126        -780.390          51.000  
G31  26146408.819   137400250.062         742.641          47.000    26146403.861   107065205.544         578.596          44.000  
E14  32632749.692   171486399.148       -3156.563          40.000    32632747.394   131398725.957       -2418.460          44.000  
> 2024 04 15 04 16 30.0130000  0 25                     
S33  43618328.334   229216008.635        -705.296          42.000  
E02  28460106.036   149558886.469        1094.114          47.000    28460105.913   114597101.416         838.321          52.000  
G28  25299386.954   132949155.494       -1625.559          47.000    25299384.083   103596728.351       -1266.754          47.000  
E36  27599657.275   145037516.846         658.029          48.000    27599658.308   111132853.792         504.158          52.000  
G26  27177162.680   142816970.726        2387.474          38.000    27177161.491   111285906.544        1860.736          39.000  
R20  25212688.151   134823605.905        2042.822          41.000    25212687.239   104862884.546        1588.766          43.000  
R10  26584589.541   141710782.957        3243.123          33.000                                                                  
R09  23394336.754   124924457.849         998.148          52.000    23394333.132    97163731.219         776.438          51.000  
R16  24018310.963   128301668.408       -3093.595          52.000    24018307.567    99790100.028       -2406.038          48.000  
G20  28176363.808   148067812.552       -2262.792          32.000                                                                  
E11  27078795.945   142300441.760       -2043.665          44.000    27078792.212   109035632.853       -1565.946          50.000  
G18  24771960.762   130177884.356        1262.567          48.000    24771955.928   101437423.598         983.807          48.000  
G29  25038122.123   131576628.806       -1848.163          48.000    25038117.678   102527515.409       -1440.128          45.000  
S31  42664324.833   224202657.588        -704.957          44.000  
R18  25763872.875   137529405.847       -4265.189          49.000    25763870.375   106967609.597       -3317.206          46.000  
R19  23453762.036   125462176.682       -2188.510          41.000    23453756.825    97581296.835       -1701.965          47.000  
G05  27423595.217   144112037.854        -240.391          40.000    27423590.275   112295104.860        -187.363          39.000  
E34  31145399.832   163670267.568        2250.503          41.000    31145409.218   125409800.540        1724.375          41.000  
E24  30806458.313   161889144.396       -2791.210          43.000    30806458.949   124044985.489       -2138.857          48.000  
G12  27496371.462   144494695.845       -3208.132          47.000    27496365.024   112593393.575       -2499.800          39.000  
G25  24894726.362   130822903.434       -2096.338          46.000    24894725.051   101939996.735       -1633.525          47.000  
E10  30100168.991   158177956.575       -3133.042          46.000    30100168.036   121201546.634       -2400.575          49.000  
E25  27401232.912   143994757.347       -1026.504          49.000    27401233.100   110333801.042        -786.619          51.000  
G31  26142220.309   137378241.275         724.869          46.000    26142215.869   107048055.848         564.806          44.000  
E14  32650735.373   171580920.006       -3145.545          39.000    32650734.575   131471150.992       -2409.724          44.000  
> 2024 04 15 04 17 00.0130000  0 25                     
S33  43622355.080   229237168.938        -704.941          42.000  
E02  28453868.746   149526106.680        1091.243          48.000    28453868.298   114571984.456         836.102          52.000  
G28  25308720.324   132998198.354       -1643.776          47.000    25308716.259   103634943.518       -1280.872          47.000  
E36  27595935.324   145017958.042         645.983          48.000    27595936.243   111117867.196         495.013          52.000  
G26  27163538.140   142745371.119        2385.584          40.000    27163536.701   111230114.684        1858.976          39.000  
R20  25201269.675   134762547.756        2027.571          40.000    25201268.605   104815394.967        1577.062          42.000  
R10  26566345.340   141613553.261        3238.911          34.000                                                                  
R09  23388784.502   124894805.027         978.669          52.000    23388779.951    97140667.902         761.169          51.000  
R16  24035739.236   128394766.850       -3113.015          52.000    24035735.440    99862509.900       -2421.266          48.000  
G20  28189325.570                       -2277.721          31.000                                                                  
E11  27090491.694   142361910.532       -2054.193          43.000    27090489.366   109082732.291       -1573.921          50.000  
G18  24764799.549   130140257.907        1245.953          46.000    24764795.569   101408104.335         970.782          47.000  
G29  25048687.647   131632151.227       -1853.299          48.000    25048683.213   102570779.653       -1444.205          45.000  
S31  42668348.358   224223803.676        -704.627          44.000  
R18  25787852.130   137657408.319       -4268.249          50.000    25787848.951   107067167.050       -3319.718          45.000  
R19  23466082.127   125528080.835       -2205.500          42.000    23466077.129    97632555.625       -1715.111          48.000  
G05  27425011.688   144119484.192        -255.857          39.000    27425008.017   112300907.248        -199.889          38.000  
E34  31132563.014   163602809.545        2247.050          42.000    31132571.958   125358112.678        1721.484          42.000  
E24  30822408.867   161972961.239       -2796.659          44.000    30822408.538   124109208.747       -2142.813          47.000  
G12  27514706.807   144591051.224       -3215.607          46.000    27514702.420   112668475.648       -2505.739          41.000  
G25  24906729.124   130885977.356       -2108.644          47.000    24906727.365   101989145.217       -1643.109          46.000  
E10  30118070.059   158272030.684       -3138.501          45.000    30118069.757   121273629.398       -2404.906          49.000  
E25  27407116.219   144025671.248       -1034.395          49.000    27407115.804   110357488.295        -792.577          51.000  
G31  26138132.974   137356763.643         707.184          46.000    26138129.044   107031320.034         551.021          44.000  
E14  32668658.443   171675099.654       -3133.445          40.000    32668656.928   131543314.625       -2401.057          45.000  
> 2024 04 15 04 17 30.0130000  0 25                     
S33  43626380.597   229258323.942        -705.014          42.000  
E02  28447649.021   149493421.219        1087.941          48.000    28447648.554   114546939.769         833.696          52.000  
G28  25318158.475   133047792.824       -1662.358          48.000    25318153.654   103673588.526       -1295.336          47.000  
E36  27592282.829   144998765.409         633.559          48.000    27592283.857   111103161.185         485.588          51.000  
G26  27149924.105   142673827.236        2383.978          40.000    27149922.240   111174366.253        1857.785          39.000  
R20  25189936.783   134701948.266        2012.310          38.000    25189936.527   104768262.140        1565.152          41.000  
R10  26548123.478   141516448.932        3234.673          32.000                                                                  
R09  23383343.010   124865747.201         958.565          52.000    23383338.277    97118067.355         745.548          51.000  
R16  24053277.839   128488452.025       -3132.546          53.000    24053273.923    99935376.118       -2436.389          49.000  
G20  28202376.645   148204530.173       -2294.700          36.000                                                                  
E11  27102250.133   142423704.057       -2065.049          43.000    27102248.470   109130080.565       -1582.227          50.000  
G18  24757735.726   130103136.005        1228.967          47.000    24757731.891   101379178.221         957.623          47.000  
G29  25059284.122   131687834.451       -1858.891          48.000    25059278.621   102614169.149       -1448.368          43.000  
S31  42672371.867   224244945.175        -704.608          44.000  
R18  25811850.405   137785512.645       -4271.798          50.000    25811847.444   107166803.766       -3322.449          46.000  
R19  23478498.409   125594498.427       -2222.376          42.000    23478493.683    97684213.758       -1728.551          48.000  
G05  27426520.077   144127412.267        -272.501          41.000    27426515.135   112307085.006        -212.147          37.000  
E34  31119747.947   163535465.802        2242.893          41.000    31119756.810   125306512.343        1718.668          44.000  
E24  30838388.560   162056939.909       -2801.830          43.000    30838388.731   124173556.022       -2146.929          47.000  
G12  27533086.395   144687639.531       -3223.401          46.000    27533083.319   112743739.249       -2511.744          42.000  
G25  24918803.063   130949429.149       -2121.242          46.000    24918801.433   102038588.153       -1652.939          46.000  
E10  30136005.178   158366280.171       -3144.475          45.000    30136004.588   121345846.547       -2409.416          49.000  
E25  27413044.949   144056825.977       -1042.552          49.000    27413044.210   110381360.104        -798.826          51.000  
G31  26134147.699   137335820.687         689.223          46.000    26134143.454   107015000.849         537.083          44.000  
E14  32686516.192   171768940.294       -3122.168          41.000    32686514.008   131615218.499       -2392.328          44.000  
> 2024 04 15 04 18 00.0130000  0 25                     
S33  43630405.182   229279472.568        -705.011          42.000  
E02  28441446.972   149460829.302        1084.973          48.000    28441446.589   114521966.787         831.238          52.000  
G28  25327700.279   133097935.507       -1680.449          48.000    25327695.145   103712660.715       -1309.404          47.000  
E36  27588700.360   144979937.394         621.616          48.000    27588700.885   111088734.558         476.317          51.000  
G26  27136320.726   142602339.028        2381.940          41.000    27136317.827   111118661.196        1855.938          39.000  
R20  25178689.324   134641806.284        1997.231          39.000    25178689.718   104721485.165        1553.205          42.000  
R10  26529927.003   141419471.344        3230.657          33.000                                                                  
R09  23378013.412   124837285.857         938.805          53.000    23378008.390    97095930.735         730.264          51.000  
R16  24070924.915   128582720.127       -3151.914          52.000    24070921.204   100008695.732       -2451.560          49.000  
G20  28215522.901   148273614.988       -2311.190          36.000                                                                  
E11  27114070.041   142485818.899       -2075.723          42.000    27114068.682   109177675.037       -1590.534          51.000  
G18  24750767.935   130066518.005        1212.146          48.000    24750764.041   101350644.752         944.666          48.000  
G29  25069910.539   131743675.599       -1863.892          48.000    25069904.159   102657681.736       -1452.202          44.000  
S31  42676393.454   224266079.565        -704.274          44.000  
R18  25835866.610   137913713.575       -4275.020          50.000    25835863.337   107266515.634       -3324.909          46.000  
R19  23491010.454   125661424.568       -2239.151          43.000    23491004.678    97736267.448       -1741.668          47.000  
G05  27428120.766   144135821.504        -288.117          42.000    27428116.079   112313637.643        -224.450          39.000  
E34  31106954.448   163468235.659        2239.222          42.000    31106963.012   125254999.036        1715.887          44.000  
E24  30854399.874   162141078.231       -2807.171          43.000    30854399.905   124238025.589       -2150.832          47.000  
G12  27551510.123   144784458.147       -3231.148          44.000    27551506.322   112819182.251       -2517.585          41.000  
G25  24930949.333   131013257.050       -2133.818          46.000    24930948.007   102088324.156       -1662.776          47.000  
E10  30153973.033   158460701.267       -3150.117          46.000    30153972.936   121418195.197       -2413.728          50.000  
E25  27419018.338   144088220.319       -1050.368          48.000    27419018.496   110405415.515        -804.758          51.000  
G31  26130263.850   137315411.788         671.434          47.000    26130259.275   106999097.809         522.941          43.000  
E14  32704307.239   171862439.971       -3110.928          41.000    32704306.902   131686861.110       -2383.748          45.000  
> 2024 04 15 04 18 30.0130000  0 25                     
S33  43634428.296   229300614.570        -704.293          43.000  
E02  28435262.577   149428331.854        1081.728          48.000    28435262.650   114497066.148         828.857          52.000  
G28  25337345.626   133148624.729       -1698.706          48.000    25337340.779   103752158.784       -1323.754          46.000  
E36  27585186.944   144961474.144         609.442          48.000    27585187.395   111074587.422         466.926          51.000  
G26  27122727.968   142530907.979        2380.104          42.000    27122725.087   111063000.680        1854.530          39.000  
R20  25167528.684   134582123.375        1981.603          39.000    25167528.953   104675065.208        1541.316          43.000  
R10  26511759.483   141322623.787        3226.493          34.000                                                                  
R09  23372795.087   124809423.421         918.743          52.000    23372790.011    97074259.948         714.531          50.000  
R16  24088681.009   128677569.462       -3171.165          52.000    24088677.746   100082467.397       -2466.526          50.000  
G20  28228761.637   148343180.926       -2327.284          38.000                                                                  
E11  27125952.007   142548253.242       -2086.575          43.000    27125949.574   109225514.318       -1598.805          51.000  
G18  24743895.939   130030404.990        1195.410          48.000    24743892.502   101322504.770         931.519          48.000  
G29  25080566.128   131799673.315       -1869.236          48.000    25080561.091   102701316.311       -1456.551          45.000  
S31  42680413.972   224287206.557        -704.314          44.000  
R18  25859900.191   138042007.824       -4277.977          50.000    25859897.581   107366300.046       -3327.323          46.000  
R19  23503615.816   125728855.410       -2255.952          43.000    23503609.959    97788713.671       -1754.795          48.000  
G05  27429813.732   144144712.989        -304.273          42.000    27429806.752   112320566.078        -237.080          37.000  
E34  31094182.759   163401120.251        2235.451          41.000    31094190.559   125203573.614        1712.842          45.000  
E24  30870441.485   162225375.720       -2812.671          44.000    30870441.044   124302617.114       -2155.120          46.000  
G12  27569977.921   144881506.304       -3238.654          43.000    27569973.182   112894804.144       -2523.633          40.000  
G25  24943167.328   131077460.944       -2146.488          46.000    24943165.834   102138353.135       -1672.414          47.000  
E10  30171972.899   158555291.914       -3155.847          46.000    30171972.410   121490673.738       -2418.152          49.000  
E25  27425038.053   144119854.809       -1058.464          48.000    27425038.353   110429654.929        -811.074          51.000  
G31  26126482.744   137295538.214         653.464          47.000    26126478.109   106983611.876         509.266          44.000  
E14  32722034.753   171955598.491       -3099.617          41.000    32722034.168   131758242.316       -2374.913          44.000  
> 2024 04 15 04 19 00.0130000  0 25                     
S33  43638448.715   229321742.501        -703.878          42.000  
E02  28429095.493   149395923.072        1078.761          48.000    28429095.412   114472233.462         826.479          52.000  
G28  25347093.565   133199851.992       -1716.459          47.000    25347088.761   103792076.108       -1337.559          46.000  
E36  27581740.776   144943368.993         597.379          48.000    27581742.339   111060714.667         457.756          52.000  
G26  27109144.771   142459528.961        2378.213          41.000    27109142.021   111007380.670        1853.582          39.000  
R20  25156452.723   134522893.373        1966.890          39.000    25156452.829   104628997.508        1529.952          43.000  
R10  26493611.427   141225902.420        3222.076          35.000                                                                  
R09  23367688.817   124782155.795         898.767          52.000    23367683.347    97053051.782         699.112          50.000  
R16  24106543.540   128772990.989       -3190.283          52.000    24106541.382   100156684.098       -2481.361          50.000  
G20  28242089.142   148413219.600       -2342.523          37.000                                                                  
E11  27137891.901   142610998.558       -2096.876          43.000    27137889.610   109273591.886       -1606.572          51.000  
G18  24737118.428   129994791.147        1178.741          48.000    24737115.433   101294753.751         918.463          48.000  
G29  25091249.887   131855819.706       -1874.177          48.000    25091245.942   102745066.749       -1460.279          45.000  
S31  42684431.728   224308320.624        -703.932          44.000  
R18  25883949.720   138170385.151       -4280.736          50.000    25883947.093   107466149.087       -3329.439          47.000  
R19  23516313.240   125796781.227       -2272.557          43.000    23516307.825    97841544.867       -1767.525          47.000  
G05  27431594.882   144154080.811        -320.115          42.000    27431588.859   112327865.703        -249.869          39.000  
E34  31081431.068   163334113.876        2231.702          40.000    31081439.225   125152231.717        1710.026          45.000  
E24  30886512.545   162309825.042       -2817.703          45.000    30886511.375   124367324.983       -2158.898          46.000  
G12  27588488.325   144978776.764       -3246.124          44.000    27588483.101   112970599.302       -2529.315          41.000  
G25  24955454.455   131142033.936       -2158.663          45.000    24955453.604   102188669.733       -1682.190          47.000  
E10  30190003.373   158650043.239       -3161.106          46.000    30190003.905   121563275.416       -2422.171          50.000  
E25  27431102.106   144151723.155       -1066.342          48.000    27431102.572   110454073.519        -817.012          51.000  
G31  26122801.440   137276193.925         635.757          46.000    26122796.902   106968538.409         495.467          44.000  
E14  32739695.661   172048408.894       -3088.084          41.000    32739695.403   131829356.758       -2366.215          44.000  
> 2024 04 15 04 19 30.0130000  0 25                     
S33  43642467.504   229342860.939        -703.840          42.000  
E02  28422946.286   149363609.681        1075.714          48.000    28422946.184   114447473.853         824.273          51.000  
G28  25356944.254   133251621.355       -1734.435          46.000    25356940.614   103832415.840       -1351.549          46.000  
E36  27578364.156   144925627.841         585.528          47.000    27578366.647   111047120.801         448.622          52.000  
G26  27095572.888   142388209.291        2376.490          42.000    27095570.514   110951806.927        1851.866          39.000  
R20  25145462.239   134464121.922        1951.458          41.000    25145462.605   104583286.463        1517.658          42.000  
R10  26475487.385   141129316.685        3217.593          35.000                                                                  
R09  23362695.318   124755491.693         878.931          51.000    23362690.186    97032313.039         683.582          50.000  
R16  24124514.088   128868988.759       -3209.316          52.000    24124511.339   100231348.989       -2496.207          49.000  
G20  28255507.587   148483735.444       -2358.704          39.000                                                                  
E11  27149892.306   142674058.816       -2106.884          44.000    27149889.582   109321910.777       -1614.340          51.000  
G18  24730437.735   129959683.287        1161.993          48.000    24730434.406   101267396.989         905.389          48.000  
G29  25101963.690   131912119.160       -1879.080          49.000    25101959.609   102788936.464       -1464.166          46.000  
S31  42688447.644   224329425.026        -703.127          44.000  
R18  25908015.749   138298848.111       -4283.199          51.000    25908013.453   107566064.718       -3331.428          47.000  
R19  23529104.088   125865203.876       -2288.779          42.000    23529098.028    97894762.479       -1780.173          46.000  
G05  27433470.063   144163932.012        -336.287          42.000    27433465.225   112335541.968        -261.939          40.000  
E34  31068701.365   163267223.343        2227.855          40.000    31068709.840   125100978.583        1707.165          45.000  
E24  30902612.320   162394431.559       -2822.544          44.000    30902611.429   124432153.328       -2162.793          46.000  
G12  27607042.018   145076274.842       -3253.491          45.000    27607037.484   113046571.784       -2535.352          40.000  
G25  24967814.495   131206981.650       -2170.926          46.000    24967812.675   102239278.319       -1691.558          46.000  
E10  30208065.758   158744958.952       -3166.349          47.000    30208064.559   121636003.042       -2426.236          49.000  
E25  27437211.844   144183831.581       -1074.090          47.000    27437212.486   110478676.067        -823.030          51.000  
G31  26119222.067   137257385.758         618.073          47.000    26119217.658   106953882.677         481.842          44.000  
E14  32757292.482   172140876.692       -3076.556          41.000    32757291.880   131900208.695       -2357.232          44.000  
> 2024 04 15 04 20 00.0130000  0 25                     
S33  43646483.896   229363968.729        -703.596          42.000  
E02  28416814.919   149331390.259        1072.093          47.000    28416815.110   114422786.252         821.509          51.000  
G28  25366897.971   133303928.643       -1752.767          47.000    25366894.832   103873174.725       -1365.713          47.000  
E36  27575056.192   144908248.400         572.977          46.000    27575059.345   111033804.097         439.158          52.000  
G26  27082012.146   142316948.187        2374.324          41.000    27082009.729   110896278.839        1850.035          39.000  
R20  25134557.967   134405808.635        1935.859          41.000    25134556.906   104537931.759        1505.636          42.000  
R10  26457395.653   141032866.910        3212.301          37.000                                                                  
R09  23357814.863   124729431.014         858.353          52.000    23357810.006    97012043.599         667.683          51.000  
R16  24142592.819   128965558.019       -3228.714          52.000    24142588.990   100306458.400       -2511.240          49.000  
G20  28269015.763   148554724.449       -2374.761          38.000                                                                  
E11  27161951.974   142737429.899       -2117.608          45.000    27161948.473   109370467.858       -1622.766          51.000  
G18  24723853.204   129925080.013        1144.769          48.000    24723849.295   101240433.423         892.059          48.000  
G29  25112705.651   131968567.980       -1884.355          49.000    25112701.241   102832922.575       -1468.312          45.000  
S31  42692461.829   224350518.545        -702.963          44.000  
R18  25932096.034   138427391.088       -4286.276          51.000    25932093.736   107666042.591       -3333.765          46.000  
R19  23541986.322   125934117.542       -2305.495          41.000    23541981.071    97948361.979       -1793.202          47.000  
G05  27435435.676   144174264.778        -352.478          43.000    27435432.143   112343593.516        -275.027          40.000  
E34  31055994.912   163200447.411        2223.959          40.000    31056001.734   125049813.226        1703.810          45.000  
E24  30918741.401   162479192.385       -2827.985          43.000    30918741.081   124497099.898       -2167.086          46.000  
G12  27625637.820   145173996.522       -3261.353          44.000    27625633.293   113122718.519       -2541.321          40.000  
G25  24980243.934   131272301.618       -2183.681          45.000    24980242.300   102290176.974       -1701.646          46.000  
E10  30226158.152   158840034.660       -3172.116          47.000    30226157.782   121708853.251       -2430.539          50.000  
E25  27443367.063   144216178.200       -1082.476          47.000    27443367.893   110503461.128        -829.393          51.000  
G31  26115744.583   137239112.618         599.919          46.000    26115740.250   106939643.871         467.211          44.000  
E14  32774822.663   172232999.305       -3065.181          42.000    32774821.846   131970796.179       -2348.585          44.000  
> 2024 04 15 04 20 30.0130000  0 25                     
S33  43650499.847   229385071.966        -703.335          42.000  
E02  28410703.235   149299272.754        1068.817          47.000    28410703.353   114398176.735         819.020          52.000  
G28  25376955.026   133356779.043       -1770.779          47.000    25376952.152   103914356.834       -1379.918          47.000  
E36  27571819.988   144891237.706         560.901          47.000    27571822.137   111020769.961         429.731          52.000  
G26  27068464.539   142245754.295        2371.890          41.000    27068462.261   110840803.120        1847.717          40.000  
R20  25123740.186   134347962.170        1920.714          40.000    25123739.024   104492940.167        1493.416          43.000  
R10  26439331.029   140936563.644        3207.758          38.000                                                                  
R09  23353049.587   124703983.788         837.718          52.000    23353044.841    96992251.292         651.708          51.000  
R16  24160779.132   129062704.394       -3247.961          52.000    24160775.241   100382016.653       -2526.089          49.000  
G20  28282615.658   148626191.783       -2390.393          38.000                                                                  
E11  27174071.212   142801117.026       -2128.267          45.000    27174067.672   109419267.079       -1630.789          50.000  
G18  24717366.420   129890989.285        1127.686          49.000    24717361.827   101213869.251         878.772          48.000  
G29  25123476.449   132025172.112       -1889.430          48.000    25123472.433   102877029.691       -1472.194          45.000  
S31  42696474.985   224371607.423        -703.117          44.000  
R18  25956192.082   138556017.683       -4289.087          51.000    25956190.067   107766085.510       -3335.932          48.000  
R19  23554961.396   126003526.022       -2321.997          42.000    23554956.400    98002346.374       -1806.010          47.000  
G05  27437496.191   144185086.766        -369.071          43.000    27437490.274   112352026.221        -287.515          39.000  
E34  31043310.320   163133794.175        2219.706          40.000    31043317.671   124998741.814        1700.840          45.000  
E24  30934901.706   162564113.987       -2833.600          43.000    30934901.685   124562169.634       -2171.180          47.000  
G12  27644277.001   145271948.444       -3269.037          45.000    27644272.734   113199044.683       -2547.168          41.000  
G25  24992746.066   131338000.652       -2196.354          45.000    24992744.259   102341371.028       -1711.471          46.000  
E10  30244281.019   158935275.210       -3177.440          46.000    30244280.777   121781829.800       -2434.744          49.000  
E25  27449569.226   144248770.489       -1090.575          47.000    27449570.079   110528434.431        -835.670          51.000  
G31  26112371.068   137221382.445         581.907          47.000    26112366.196   106925828.113         453.465          43.000  
E14  32792287.669   172324783.526       -3053.755          41.000    32792288.043   132041124.382       -2339.948          44.000  
> 2024 04 15 04 21 00.0130000  0 25                     
S33  43654515.062   229406172.720        -703.343          42.000  
E02  28404611.394   149267260.708        1065.325          47.000    28404611.573   114373648.033         816.356          52.000  
G28  25387115.698   133410173.352       -1789.030          47.000    25387113.278   103955962.776       -1394.031          48.000  
E36  27568654.290   144874598.443         548.555          47.000    27568655.878   111008020.411         420.241          52.000  
G26  27054930.292   142174631.761        2369.516          41.000    27054928.344   110785382.993        1846.266          39.000  
R20  25113009.629   134290584.827        1904.613          40.000    25113008.673   104448313.420        1481.368          44.000  
R10  26421293.138   140840412.916        3202.226          39.000                                                                  
R09  23348400.129   124679155.595         817.229          51.000    23348395.363    96972940.472         635.663          51.000  
R16  24179073.398   129160428.190       -3267.007          52.000    24179069.171   100458024.020       -2541.042          49.000  
G20  28296306.547   148698138.090       -2406.078          36.000                                                                  
E11  27186249.696   142865120.917       -2138.748          44.000    27186247.200   109468309.028       -1638.767          50.000  
G18  24710977.063   129857414.584        1110.559          48.000    24710972.364   101187707.171         865.204          48.000  
G29  25134277.578   132081932.586       -1894.856          47.000    25134273.064   102921258.609       -1476.164          44.000  
S31  42700487.180   224392694.213        -703.004          44.000  
R18  25980303.411   138684727.460       -4291.728          51.000    25980301.690   107866193.110       -3337.955          47.000  
R19  23568029.687   126073428.646       -2338.515          42.000    23568024.489    98056715.070       -1818.602          48.000  
G05  27439648.828   144196401.935        -385.426          44.000    27439643.598   112360843.238        -300.252          40.000  
E34  31030649.035   163067267.210        2215.429          39.000    31030657.584   124947767.165        1697.492          45.000  
E24  30951092.009   162649198.394       -2839.006          42.000    30951092.532   124627364.152       -2175.293          47.000  
G12  27662960.564   145370132.755       -3276.776          45.000    27662957.148   113275551.905       -2553.351          41.000  
G25  25005320.581   131404081.162       -2209.174          45.000    25005318.891   102392862.335       -1721.581          46.000  
E10  30262436.466   159030681.155       -3182.975          47.000    30262436.334   121854933.055       -2438.880          49.000  
E25  27455818.950   144281611.494       -1098.822          47.000    27455819.459   110553598.295        -841.886          52.000  
G31  26109101.005   137204198.697         563.643          47.000    26109096.313   106912438.175         439.255          43.000  
E14  32809690.905   172416231.826       -3042.776          42.000    32809690.541   132111195.137       -2331.306          44.000  
> 2024 04 15 04 21 30.0130000  0 25                     
S33  43658529.688   229427269.330        -703.527          42.000  
E02  28398539.736   149235354.032        1061.726          47.000    28398539.942   114349200.087         813.440          51.000  
G28  25397379.987   133464108.701       -1807.067          48.000    25397376.319   103997990.272       -1408.109          47.000  
E36  27565558.558   144858329.616         535.955          48.000    27565560.026   110995554.709         410.691          52.000  
G26  27041409.795   142103581.195        2367.090          41.000    27041407.648   110730018.946        1844.419          39.000  
R20  25102368.220   134233677.276        1888.661          39.000    25102367.302   104404052.100        1469.179          44.000  
R10  26403284.208   140744417.252        3196.976          39.000                                                                  
R09  23343866.382   124654947.609         796.359          51.000    23343862.203    96954112.049         619.362          51.000  
R16  24197474.441   129258726.344       -3286.275          52.000    24197470.798   100534478.099       -2556.009          49.000  
G20  28310088.461   148770561.160       -2421.821          34.000                                                                  
E11  27198489.384   142929438.811       -2149.375          44.000    27198486.428   109517591.564       -1646.746          50.000  
G18  24704686.156   129824355.869        1093.188          48.000    24704681.842   101161947.164         851.868          48.000  
G29  25145108.200   132138847.419       -1899.875          48.000    25145103.362   102965607.847       -1480.433          44.000  
S31  42704499.377   224413777.486        -702.766          44.000  
R18  26004429.728   138813515.941       -4294.436          50.000    26004427.900   107966361.939       -3340.146          47.000  
R19  23581188.542   126143820.186       -2354.597          41.000    23581183.360    98111464.055       -1831.542          48.000  
G05  27441895.958   144208210.444        -401.917          44.000    27441891.809   112370044.699        -312.938          41.000  
E34  31018012.629   163000866.551        2211.206          39.000    31018021.390   124896889.302        1694.181          45.000  
E24  30967312.901   162734444.052       -2844.372          42.000    30967314.258   124692682.248       -2179.438          47.000  
G12  27681688.371   145468547.561       -3284.546          45.000    27681683.790   113352238.721       -2559.515          40.000  
G25  25017968.518   131470541.985       -2221.794          45.000    25017965.976   102444649.945       -1731.311          46.000  
E10  30280623.676   159126249.403       -3188.386          47.000    30280622.377   121928160.678       -2443.076          49.000  
E25  27462115.255   144314700.622       -1107.267          47.000    27462116.279   110578952.302        -848.417          52.000  
G31  26105935.235   137187561.354         545.272          48.000    26105930.601   106899474.009         424.902          43.000  
E14  32827027.405   172507342.858       -3031.495          41.000    32827028.308   132181007.510       -2323.107          44.000  
> 2024 04 15 04 22 00.0130000  0 25                     
S33  43662545.074   229448370.140        -703.391          42.000  
E02  28392489.721   149203561.116        1057.896          47.000    28392489.883   114324839.287         810.608          51.000  
G28  25407747.833   133518590.598       -1825.137          47.000    25407743.500   104040443.666       -1422.243          46.000  
E36  27562534.374   144842438.645         523.412          48.000    27562535.794   110983378.537         401.105          52.000  
G26  27027904.551   142032611.606        2364.073          42.000    27027902.026   110674717.998        1842.410          39.000  
R20  25091815.273   134177247.265        1873.087          40.000    25091814.466   104360162.226        1456.875          44.000  
R10  26385306.557   140648587.049        3191.588          39.000                                                                  
R09  23339452.069   124631370.165         775.388          52.000    23339447.555    96935774.049         603.003          52.000  
R16  24215984.168   129357604.172       -3305.534          52.000    24215980.898   100611383.042       -2570.981          49.000  
G20  28323962.392   148843466.714       -2437.411          33.000                                                                  
E11  27210789.874   142994076.151       -2159.640          44.000    27210786.476   109567118.892       -1654.743          50.000  
G18  24698494.584   129791821.352        1075.763          48.000    24698489.960   101136595.617         838.196          47.000  
G29  25155969.574   132195922.476       -1905.223          48.000    25155964.606   103010081.903       -1484.487          45.000  
S31  42708512.017   224434864.233        -703.287          44.000  
R18  26028571.647   138942387.445       -4296.947          50.000    26028568.762   108066595.328       -3342.148          46.000  
R19  23594439.469   126214705.235       -2370.918          41.000    23594433.755    98166596.879       -1844.197          46.000  
G05  27444237.436   144220519.188        -418.513          42.000    27444234.310   112379635.969        -326.384          41.000  
E34  31005401.578   162934600.680        2206.915          39.000    31005411.069   124846114.685        1690.712          44.000  
E24  30983567.501   162819857.876       -2849.924          42.000    30983568.141   124758129.211       -2183.627          47.000  
G12  27700461.567   145567199.094       -3292.517          45.000    27700456.290   113429109.963       -2565.417          40.000  
G25  25030689.061   131537390.249       -2234.779          46.000    25030687.038   102496739.492       -1741.396          47.000  
E10  30298841.345   159221985.294       -3193.956          47.000    30298840.567   122001516.720       -2447.269          49.000  
E25  27468460.815   144348045.727       -1115.634          47.000    27468461.765   110604502.442        -854.891          52.000  
G31  26102875.011   137171478.606         526.820          48.000    26102870.432   106886941.980         410.536          44.000  
E14  32844301.972   172598123.892       -3020.329          40.000    32844303.265   132250566.977       -2314.415          44.000  
> 2024 04 15 04 22 30.0130000  0 25                     
S33  43666561.453   229469475.516        -703.571          42.000  
E02  28386461.933   149171884.922        1053.887          47.000    28386462.056   114300567.924         807.551          51.000  
G28  25418219.344   133573619.137       -1843.251          46.000    25418215.408   104083323.021       -1436.621          47.000  
E36  27559582.868   144826927.577         510.683          48.000    27559584.053   110971493.456         391.288          52.000  
G26  27014414.918   141961726.619        2361.309          42.000    27014413.242   110619482.985        1840.112          39.000  
R20  25081351.454   134121297.239        1856.848          39.000    25081351.732   104316645.610        1444.383          44.000  
R10  26367360.563   140552927.720        3185.368          39.000                                                                  
R09  23335155.649   124608428.082         754.102          52.000    23335151.346    96917930.196         586.510          51.000  
R16  24234603.926   129457061.420       -3324.800          52.000    24234600.354   100688738.652       -2586.056          50.000  
G20  28337928.238                       -2454.011          33.000                                                                  
E11  27223150.688   143059033.249       -2170.488          44.000    27223147.374   109616891.214       -1663.328          50.000  
G18  24692403.825   129759813.969        1058.136          48.000    24692399.138   101111654.818         824.506          47.000  
G29  25166861.394   132253158.514       -1910.542          48.000    25166856.530   103054681.432       -1488.642          45.000  
S31  42712525.708   224455955.938        -702.997          44.000  
R18  26052728.550   139071340.748       -4299.738          50.000    26052726.734   108166892.329       -3344.227          46.000  
R19  23607782.174   126286082.271       -2387.477          41.000    23607776.301    98222112.333       -1857.008          46.000  
G05  27446676.071   144233331.341        -435.363          43.000    27446672.409   112389619.441        -339.344          41.000  
E34  30992818.339   162868472.631        2201.959          39.000    30992826.280   124795445.638        1687.109          43.000  
E24  30999853.240   162905441.360       -2855.735          42.000    30999854.739   124823706.116       -2188.102          48.000  
G12  27719279.052   145666088.412       -3300.330          44.000    27719274.334   113506166.589       -2571.649          40.000  
G25  25043484.078   131604627.754       -2247.858          46.000    25043482.518   102549132.346       -1751.714          47.000  
E10  30317091.328   159317888.711       -3199.531          47.000    30317090.031   122075001.179       -2451.598          49.000  
E25  27474855.116   144381649.266       -1124.441          47.000    27474856.345   110630250.591        -861.606          52.000  
G31  26099920.476   137155953.469         508.113          48.000    26099916.490   106874844.444         395.875          44.000  
E14  32861515.914   172688576.766       -3009.746          41.000    32861515.469   132319875.004       -2306.312          44.000  
> 2024 04 15 04 23 00.0130000  0 25                     
S33  43670577.592   229490581.744        -703.708          42.000  
E02  28380455.796   149140321.246        1050.018          47.000    28380455.581   114276382.777         804.538          51.000  
G28  25428793.501   133629187.265       -1861.392          47.000    25428789.735   104126622.831       -1450.474          47.000  
E36  27556702.851   144811791.265         497.953          48.000    27556703.839   110959895.509         381.698          52.000  
G26  27000941.721   141890922.765        2358.638          42.000    27000939.750   110564311.191        1837.664          38.000  
R20  25070977.663   134065822.980        1840.988          39.000    25070977.846   104273499.032        1432.152          44.000  
R10  26349445.967   140457437.870        3179.938          39.000                                                                  
R09  23330977.201   124586118.572         732.899          52.000    23330973.117    96900578.343         570.000          51.000  
R16  24253329.142   129557091.260       -3344.015          52.000    24253326.160   100766539.599       -2600.979          50.000  
G20  28351980.555                       -2469.990          29.000                                                                  
E11  27235571.127   143124303.071       -2181.145          44.000    27235567.804   109666903.145       -1671.356          50.000  
G18  24686412.468   129728329.367        1040.601          48.000    24686407.426   101087121.379         810.889          46.000  
G29  25177782.345   132310549.142       -1915.761          48.000    25177776.860   103099401.409       -1492.672          44.000  
S31  42716539.322   224477047.458        -703.465          44.000  
R18  26076899.318   139200367.470       -4302.181          49.000    26076898.101   108267246.458       -3346.173          48.000  
R19  23621215.500   126357942.673       -2403.455          41.000    23621210.719    98278003.743       -1869.370          47.000  
G05  27449210.087   144246643.038        -452.284          44.000    27449205.803   112399992.186        -352.721          41.000  
E34  30980259.713   162802478.260        2197.204          39.000    30980267.431   124744878.988        1683.550          42.000  
E24  31016171.675   162991188.681       -2861.120          44.000    31016172.099   124889408.612       -2192.442          48.000  
G12  27738140.673   145765209.733       -3308.075          44.000    27738137.168   113583403.977       -2577.832          40.000  
G25  25056351.636   131672249.117       -2260.366          46.000    25056350.304   102601824.286       -1761.364          47.000  
E10  30335371.877   159413952.454       -3204.909          47.000    30335370.459   122148608.446       -2455.680          49.000  
E25  27481297.816   144415506.506       -1132.997          47.000    27481299.285   110656193.138        -868.146          53.000  
G31  26097070.622   137140981.790         489.712          47.000    26097067.497   106863178.207         381.587          44.000  
E14  32878664.758   172778696.101       -2998.495          41.000    32878664.409   132388927.469       -2297.756          44.000  
> 2024 04 15 04 23 30.0130000  0 25                     
S33  43674593.749   229511686.829        -703.772          42.000  
E02  28374471.192   149108870.929        1046.402          47.000    28374470.883   114252284.486         801.845          51.000  
G28  25439469.976   133685292.887       -1879.180          47.000    25439466.145   104170341.466       -1464.349          47.000  
E36  27553893.256   144797029.520         485.793          48.000    27553894.840   110948584.575         372.259          52.000  
G26  26987484.162   141820201.507        2356.057          42.000    26987482.056   110509203.764        1835.489          38.000  
R20  25060693.431   134010825.141        1825.172          40.000    25060692.896   104230723.020        1419.642          43.000  
R10  26331564.741   140362119.896        3174.064          40.000                                                                  
R09  23326918.939   124564443.642         711.792          52.000    23326913.632    96883720.071         553.583          51.000  
R16  24272162.116   129657690.871       -3362.887          52.000    24272159.382   100844783.707       -2615.540          50.000  
G20  28366120.877                       -2486.108          29.000                                                                  
E11  27248050.879   143189883.618       -2191.575          44.000    27248047.453   109717153.159       -1679.057          50.000  
G18  24680520.483   129697368.235        1023.108          48.000    24680516.659   101062995.824         797.357          48.000  
G29  25188732.405   132368093.196       -1920.781          48.000    25188727.389   103144240.961       -1496.761          44.000  
S31  42720552.825   224498138.799        -702.770          44.000  
R18  26101083.764   139329463.944       -4304.458          50.000    26101081.823   108367654.839       -3347.826          48.000  
R19  23634739.216   126430282.020       -2419.118          42.000    23634734.271    98334267.690       -1881.710          47.000  
G05  27451837.009   144260455.123        -468.929          43.000    27451832.839   112410754.879        -365.493          40.000  
E34  30967726.383   162736618.428        2193.082          40.000    30967734.936   124694415.451        1680.370          42.000  
E24  31032519.320   163077099.222       -2866.520          44.000    31032520.141   124955236.122       -2196.383          48.000  
G12  27757047.494   145864562.066       -3315.680          45.000    27757042.901   113660821.360       -2583.667          40.000  
G25  25069293.039   131740253.992       -2273.283          46.000    25069291.300   102654815.068       -1771.466          47.000  
E10  30353681.871   159510174.320       -3210.095          46.000    30353680.761   122222336.911       -2459.622          48.000  
E25  27487789.388   144449617.725       -1141.229          47.000    27487790.598   110682330.305        -874.526          53.000  
G31  26094327.525   137126564.087         471.266          47.000    26094323.560   106851943.591         367.360          44.000  
E14  32895750.545   172868481.570       -2987.356          42.000    32895749.631   132457724.109       -2288.882          43.000  
> 2024 04 15 04 24 00.0130000  0 25                     
S33  43678608.523   229532784.027        -703.281          42.000  
E02  28368507.239   149077528.726        1042.911          47.000    28368506.642   114228269.045         799.152          51.000  
G28  25450246.681   133741927.814       -1896.754          46.000    25450243.678   104214472.542       -1478.029          47.000  
E36  27551153.722   144782636.138         473.512          47.000    27551155.739   110937555.889         362.871          52.000  
G26  26974040.957   141749558.269        2353.477          42.000    26974038.945   110454157.117        1834.093          38.000  
R20  25050496.447   133956297.810        1809.477          39.000    25050495.704   104188312.939        1407.379          43.000  
R10  26313714.874   140266971.202        3168.794          40.000                                                                  
R09  23322977.876   124543400.028         690.761          52.000    23322972.922    96867352.813         537.318          51.000  
R16  24291099.173   129758851.930       -3381.565          52.000    24291095.892   100923464.492       -2630.057          49.000  
G20  28380360.532   149139860.439       -2500.625          33.000                                                                  
E11  27260588.302   143255766.764       -2201.164          44.000    27260584.614   109767635.061       -1686.585          51.000  
G18  24674727.617   129666925.150        1005.914          48.000    24674723.807   101039273.975         783.844          48.000  
G29  25199710.361   132425783.283       -1925.580          48.000    25199705.746   103189194.266       -1500.402          45.000  
S31  42724564.953   224519222.347        -702.810          44.000  
R18  26125278.934   139458620.900       -4306.332          49.000    26125277.302   108468110.266       -3349.267          48.000  
R19  23648350.861   126503091.431       -2434.914          43.000    23648344.965    98390897.227       -1893.861          47.000  
G05  27454560.218   144274761.162        -485.214          44.000    27454554.529   112421902.416        -377.861          39.000  
E34  30955218.883   162670888.016        2188.555          42.000    30955226.486   124644051.057        1676.783          42.000  
E24  31048897.170   163163166.112       -2871.741          44.000    31048897.898   125021183.449       -2200.450          48.000  
G12  27775996.713   145964137.940       -3322.943          46.000    27775992.215   113738412.875       -2589.252          41.000  
G25  25082305.643   131808635.805       -2285.735          46.000    25082303.749   102708099.589       -1781.191          47.000  
E10  30372019.719   159606545.962       -3214.862          45.000    30372019.315   122296180.133       -2463.501          48.000  
E25  27494328.085   144483977.131       -1149.622          47.000    27494329.043   110708657.632        -880.873          53.000  
G31  26091688.949   137112695.252         452.963          48.000    26091684.298   106841136.701         352.858          43.000  
E14  32912771.116   172957926.774       -2976.010          41.000    32912770.362   132526260.049       -2280.398          43.000  
> 2024 04 15 04 24 30.0130000  0 25                     
S33  43682621.513   229553873.621        -702.570          42.000  
E02  28362563.622   149046295.504        1039.509          47.000    28362563.120   114204337.115         796.504          51.000  
G28  25461124.110   133799089.978       -1914.042          46.000    25461121.326   104259014.459       -1491.417          47.000  
E36  27548484.550   144768610.963         461.706          47.000    27548486.951   110926809.344         353.661          52.000  
G26  26960612.850   141678994.638        2351.018          43.000    26960611.164   110399172.514        1831.796          38.000  
R20  25040387.293   133902241.622        1794.373          39.000    25040387.067   104146269.288        1395.490          43.000  
R10  26295897.142   140171994.486        3163.083          40.000                                                                  
R09  23319155.945   124522989.613         670.032          52.000    23319150.535    96851478.051         521.097          51.000  
R16  24310141.284   129860571.970       -3399.714          52.000    24310137.795   101002580.049       -2644.258          50.000  
G20  28394683.990   149215127.883       -2516.133          33.000                                                                  
E11  27273182.417   143321950.660       -2210.706          44.000    27273179.238   109818347.409       -1694.006          51.000  
G18  24669033.803   129637000.778         989.044          49.000    24669029.119   101015956.333         770.642          48.000  
G29  25210715.865   132483618.144       -1929.958          47.000    25210711.583   103234260.384       -1503.805          45.000  
S31  42728575.218   224540298.242        -702.154          44.000  
R18  26149486.463   139587834.968       -4307.889          49.000    26149483.479   108568610.119       -3350.551          49.000  
R19  23662048.831   126576366.545       -2450.177          42.000    23662043.079    98447888.983       -1905.416          46.000  
G05  27457376.518   144289562.706        -501.330          44.000    27457372.337   112433436.089        -390.790          40.000  
E34  30942736.489   162605287.931        2184.645          42.000    30942742.601   124593786.465        1674.069          41.000  
E24  31065304.723   163249388.781       -2876.557          44.000    31065305.397   125087250.109       -2204.191          48.000  
G12  27794988.418   146063936.834       -3330.170          46.000    27794983.338   113816178.225       -2594.971          41.000  
G25  25095389.801   131877394.246       -2297.984          46.000    25095387.858   102761677.575       -1790.578          47.000  
E10  30390386.943   159703065.317       -3219.354          45.000    30390386.570   122370136.531       -2466.945          48.000  
E25  27500913.928   144518585.041       -1157.469          47.000    27500914.599   110735175.377        -886.952          53.000  
G31  26089154.086   137099375.642         435.153          48.000    26089149.740   106830757.773         339.010          43.000  
E14  32929728.250   173047031.476       -2963.868          41.000    32929726.465   132594535.059       -2271.382          43.000  
> 2024 04 15 04 25 00.0130000  0 25                     
S33  43686631.624   229574945.359        -702.426          42.000  
E02  28356638.925   149015161.889        1036.002          47.000    28356638.621   114180481.507         793.735          51.000  
G28  25472099.915   133856766.996       -1931.407          47.000    25472097.307   104303957.572       -1504.962          47.000  
E36  27545884.278   144754943.645         449.427          47.000    27545886.095   110916336.986         344.376          52.000  
G26  26947198.028   141608501.955        2348.110          41.000    26947196.880   110344243.166        1829.817          38.000  
R20  25030364.009   133848647.081        1778.136          38.000    25030364.626   104104584.713        1383.328          43.000  
R10  26278110.648   140077183.614        3157.352          41.000                                                                  
R09  23315450.508   124503204.660         648.894          52.000    23315445.703    96836089.742         504.605          51.000  
R16  24329285.473   129962838.472       -3418.135          51.000    24329282.916   101082120.617       -2658.577          51.000  
G20  28409093.898   149290847.039       -2531.779          34.000                                                                  
E11  27285832.572   143388423.063       -2220.767          44.000    27285828.511   109869280.799       -1701.646          51.000  
G18  24663436.011   129607585.576         971.729          49.000    24663431.531   100993035.419         757.202          48.000  
G29  25221747.079   132541585.941       -1934.742          48.000    25221742.588   103279430.088       -1507.440          45.000  
S31  42732582.731   224561356.594        -702.285          44.000  
R18  26173700.163   139717092.533       -4309.644          48.000    26173697.017   108669143.759       -3351.821          48.000  
R19  23675831.054   126650093.176       -2465.183          42.000    23675825.712    98505231.948       -1917.418          46.000  
G05  27460286.509   144304849.750        -517.817          44.000    27460281.686   112445348.026        -403.512          40.000  
E34  30930274.982   162539808.781        2180.545          42.000    30930282.202   124543614.579        1670.836          41.000  
E24  31081740.467   163335756.245       -2881.555          44.000    31081740.662   125153427.706       -2207.916          48.000  
G12  27814019.322   146163947.633       -3337.555          46.000    27814013.945   113894108.649       -2600.574          39.000  
G25  25108544.051   131946518.696       -2310.612          47.000    25108542.204   102815540.762       -1800.479          47.000  
E10  30408778.252   159799719.927       -3224.153          43.000    30408779.271   122444196.517       -2470.553          48.000  
E25  27507545.420   144553431.529       -1165.604          48.000    27507545.698   110761875.918        -893.178          53.000  
G31  26086721.989   137086595.720         416.757          48.000    26086717.265   106820799.394         324.718          42.000  
E14  32946617.194   173135785.138       -2952.733          41.000    32946615.709   132662541.111       -2262.567          44.000  
> 2024 04 15 04 25 30.0130000  0 25                     
S33  43690638.832   229596004.177        -701.943          42.000  
E02  28350734.952   148984134.805        1032.195          47.000    28350734.334   114156707.521         790.966          51.000  
G28  25483174.638   133914962.755       -1948.720          47.000    25483170.880   104349304.912       -1518.469          46.000  
E36  27543352.526   144741639.998         437.085          47.000    27543354.442   110906143.307         334.924          52.000  
G26  26933798.111   141538087.803        2345.747          42.000    26933797.534   110289375.048        1827.942          38.000  
R20  25020429.059   133795520.526        1762.943          39.000    25020429.246   104063264.151        1370.893          42.000  
R10  26260357.049   139982547.451        3151.236          42.000                                                                  
R09  23311863.636   124484053.638         627.527          52.000    23311859.170    96821194.499         488.108          51.000  
R16  24348533.396   130065654.816       -3436.544          52.000    24348530.967   101162088.864       -2672.878          51.000  
G20  28423590.597   149367022.011       -2547.395          34.000                                                                  
E11  27298536.929   143455188.021       -2230.779          44.000    27298533.317   109920438.364       -1709.238          51.000  
G18  24657936.222   129578686.186         954.510          48.000    24657932.016   100970516.428         743.896          48.000  
G29  25232804.844   132599691.296       -1939.277          49.000    25232799.575   103324706.979       -1511.244          45.000  
S31  42736587.649   224582401.855        -701.681          44.000  
R18  26197923.836   139846396.383       -4311.062          48.000    26197919.946   108769713.441       -3353.100          48.000  
R19  23689698.645   126724273.954       -2480.532          43.000    23689692.667    98562928.102       -1929.261          46.000  
G05  27463288.920   144320628.521        -534.242          44.000    27463283.209   112457643.211        -416.384          39.000  
E34  30917838.966   162474457.543        2176.133          42.000    30917845.947   124493540.704        1667.121          41.000  
E24  31098204.313   163422273.847       -2886.381          42.000    31098204.132   125219720.348       -2211.667          47.000  
G12  27833092.313   146264175.247       -3344.873          47.000    27833086.507   113972208.020       -2606.189          39.000  
G25  25121768.712   132016014.733       -2323.029          47.000    25121766.654   102869693.482       -1810.314          47.000  
E10  30427197.901   159896513.607       -3228.928          42.000    30427198.560   122518363.122       -2474.099          48.000  
E25  27514223.100   144588522.907       -1173.965          48.000    27514223.297   110788764.111        -899.603          53.000  
G31  26084394.722   137074362.468         398.397          48.000    26084389.025   106811266.996         310.306          43.000  
E14  32963440.025   173224193.510       -2941.188          40.000    32963439.658   132730282.589       -2253.786          44.000  
> 2024 04 15 04 26 00.0130000  0 25                     
S33  43694644.513   229617054.408        -701.576          42.000  
E02  28344851.896   148953219.089        1028.635          47.000    28344851.153   114133018.881         788.068          51.000  
G28  25494347.930   133973679.081       -1965.878          47.000    25494344.099   104395057.874       -1531.810          47.000  
E36  27540891.412   144728703.849         424.930          47.000    27540892.654   110896231.209         325.567          52.000  
G26  26920414.997   141467757.775        2342.917          42.000    26920414.089   110234572.452        1825.607          39.000  
R20  25010582.354   133742866.504        1747.036          40.000    25010582.571   104022311.063        1358.915          43.000  
R10  26242637.701   139888093.694        3145.261          43.000                                                                  
R09  23308397.058   124465542.968         606.256          52.000    23308392.394    96806797.308         471.498          51.000  
R16  24367884.129   130169022.735       -3454.846          52.000    24367881.587   101242486.098       -2687.134          50.000  
G20  28438173.783   149443654.682       -2562.252          34.000                                                                  
E11  27311298.569   143522247.553       -2240.502          44.000    27311294.344   109971821.635       -1716.633          51.000  
G18  24652535.824   129550307.171         937.262          48.000    24652531.416   100948402.930         730.383          47.000  
G29  25243888.544   132657936.940       -1943.932          49.000    25243882.808   103370093.186       -1514.501          45.000  
S31  42740590.556   224603438.100        -701.492          44.000  
R18  26222155.241   139975747.395       -4312.573          48.000    26222152.733   108870319.727       -3354.069          48.000  
R19  23703650.374   126798909.221       -2495.535          41.000    23703644.818    98620977.750       -1940.924          46.000  
G05  27466385.167   144336902.897        -550.872          43.000    27466380.725   112470324.542        -429.168          40.000  
E34  30905427.722   162409239.115        2171.670          42.000    30905435.474   124443568.569        1663.931          41.000  
E24  31114697.713   163508944.937       -2891.560          42.000    31114696.032   125286130.609       -2215.727          45.000  
G12  27852206.711   146364622.418       -3351.886          47.000    27852201.286   114050478.495       -2611.908          39.000  
G25  25135064.399   132085885.910       -2335.345          46.000    25135062.533   102924138.536       -1819.727          47.000  
E10  30445644.496   159993448.233       -3233.633          43.000    30445644.417   122592637.663       -2477.657          48.000  
E25  27520948.578   144623863.473       -1182.370          47.000    27520948.277   110815843.220        -905.941          53.000  
G31  26082171.817   137062680.207         380.113          47.000    26082165.640   106802163.910         296.341          43.000  
E14  32980200.015   173312260.368       -2930.001          40.000    32980198.362   132797762.361       -2245.056          45.000  
> 2024 04 15 04 26 30.0130000  0 25                     
S33  43698648.119   229638094.103        -701.324          42.000  
E02  28338990.374   148922414.659        1024.748          47.000    28338989.344   114109415.486         785.270          51.000  
G28  25505619.925   134032912.843       -1983.270          47.000    25505615.899   104441213.998       -1545.450          47.000  
E36  27538499.644   144716134.005         412.760          47.000    27538501.027   110886599.779         316.205          52.000  
G26  26907047.821   141397512.458        2339.823          42.000    26907046.642   110179835.859        1823.139          40.000  
R20  25000824.386   133690684.128        1731.480          40.000    25000824.296   103981724.842        1346.584          43.000  
R10  26224953.615   139793824.063        3138.985          43.000                                                                  
R09  23305050.411   124447673.737         584.765          52.000    23305046.164    96792899.012         454.835          51.000  
R16  24387336.688   130272939.105       -3473.252          51.000    24387334.845   101323309.904       -2701.357          51.000  
G20  28452842.993   149520742.148       -2577.910          35.000                                                                  
E11  27324114.136   143589598.710       -2249.962          44.000    27324111.014   110023428.356       -1723.900          51.000  
G18  24647234.712   129522448.190         919.678          48.000    24647229.445   100926694.648         716.693          47.000  
G29  25254998.712   132716320.815       -1948.667          49.000    25254993.128   103415587.127       -1518.303          45.000  
S31  42744591.535   224624463.755        -700.762          44.000  
R18  26246395.025   140105141.294       -4314.066          48.000    26246392.631   108970959.436       -3355.364          49.000  
R19  23717686.342   126873994.447       -2510.705          42.000    23717681.091    98679377.395       -1952.715          46.000  
G05  27469576.472   144353673.985        -567.544          42.000    27469572.481   112483392.955        -442.153          41.000  
E34  30893042.162   162344153.396        2167.163          41.000    30893050.359   124393698.071        1660.768          41.000  
E24  31131219.176   163595767.675       -2896.715          43.000    31131218.174   125352657.114       -2219.736          45.000  
G12  27871362.764   146465287.077       -3359.344          46.000    27871357.203   114128918.472       -2617.493          39.000  
G25  25148430.574   132156130.842       -2347.967          44.000    25148429.992   102978874.834       -1829.716          47.000  
E10  30464116.058   160090520.589       -3238.176          42.000    30464116.619   122667017.792       -2481.157          47.000  
E25  27527720.810   144659452.480       -1190.540          47.000    27527720.752   110843112.703        -912.216          53.000  
G31  26080053.267   137051548.512         361.682          47.000    26080047.976   106793489.854         281.879          44.000  
E14  32996894.228   173399984.374       -2918.652          41.000    32996892.227   132864979.447       -2236.341          45.000  
> 2024 04 15 04 27 00.0130000  0 25                     
S33  43702649.579   229659121.590        -700.670          42.000  
E02  28333149.078   148891721.282        1021.146          47.000    28333148.466   114085897.204         782.250          51.000  
G28  25516990.265   134092660.647       -2000.385          48.000    25516985.707   104487770.674       -1558.615          46.000  
E36  27536176.562   144703929.141         400.520          47.000    27536178.570   110877248.010         306.907          52.000  
G26  26893696.961   141327352.317        2336.942          42.000    26893695.728   110125165.625        1821.338          39.000  
R20  24991154.013   133638973.420        1715.670          40.000    24991154.104   103941505.455        1334.306          43.000  
R10  26207304.184   139699741.102        3132.801          44.000                                                                  
R09  23301824.965   124430447.279         563.297          52.000    23301820.498    96779500.654         438.199          51.000  
R16  24406892.527   130377400.036       -3491.211          52.000    24406890.834   101404557.258       -2715.405          51.000  
G20  28467597.239   149598281.232       -2592.360          33.000                                                                  
E11  27336985.111   143657238.331       -2259.471          44.000    27336982.435   110075256.127       -1731.322          51.000  
G18  24642032.065   129495108.604         902.533          48.000    24642026.657   100905391.094         703.253          47.000  
G29  25266133.794   132774840.046       -1952.904          48.000    25266129.280   103461186.538       -1521.896          45.000  
S31  42748590.334   224645477.657        -700.876          44.000  
R18  26270642.480   140234573.699       -4315.189          48.000    26270639.410   109071629.116       -3356.177          47.000  
R19  23731806.510   126949524.435       -2525.133          42.000    23731800.712    98738122.947       -1963.835          46.000  
G05  27472861.957   144370940.399        -583.984          43.000    27472857.813   112496847.297        -455.085          40.000  
E34  30880680.333   162279200.161        2162.608          39.000    30880690.059   124343929.096        1657.205          41.000  
E24  31147769.662   163682740.263       -2901.585          43.000    31147769.481   125419298.449       -2223.415          47.000  
G12  27890558.820   146566167.221       -3366.396          45.000    27890554.243   114207526.337       -2623.320          40.000  
G25  25161868.967   132226747.919       -2360.149          45.000    25161867.980   103033901.097       -1839.155          47.000  
E10  30482615.520   160187727.439       -3242.561          43.000    30482614.353   122741500.935       -2484.640          47.000  
E25  27534538.517   144695289.102       -1198.778          46.000    27534540.205   110870571.926        -918.603          53.000  
G31  26078039.592   137040966.996         343.336          48.000    26078034.677   106785244.509         267.456          43.000  
E14  33013522.045   173487364.210       -2906.994          40.000    33013520.012   132931932.812       -2227.415          45.000  
> 2024 04 15 04 27 30.0130000  0 25                     
S33  43706650.897   229680147.510        -701.066          42.000  
E02  28327332.335   148861150.992        1016.975          47.000    28327331.366   114062473.204         779.195          51.000  
G28  25528459.802   134152931.466       -2017.759          49.000    25528454.867   104534734.911       -1572.188          46.000  
E36  27533925.933   144692100.207         387.991          47.000    27533927.599   110868184.302         297.416          52.000  
G26  26880364.820   141257290.115        2333.726          43.000    26880363.567   110070571.753        1818.330          39.000  
R20  24981573.957   133587745.418        1699.874          40.000    24981574.277   103901661.525        1321.903          44.000  
R10  26189692.086   139605859.271        3126.079          44.000                                                                  
R09  23298721.764   124413877.127         541.392          52.000    23298717.504    96766612.762         421.088          52.000  
R16  24426552.123   130482414.472       -3509.607          52.000    24426549.888   101486235.114       -2729.804          51.000  
G20  28482441.417   149676281.245       -2608.020          33.000                                                                  
E11  27349912.888   143725175.619       -2269.760          44.000    27349910.635   110127311.974       -1739.075          51.000  
G18  24636930.586   129468300.175         884.747          48.000    24636925.663   100884501.444         689.478          48.000  
G29  25277297.667   132833504.651       -1957.903          49.000    25277293.009   103506899.224       -1525.549          46.000  
S31  42752589.141   224666490.553        -700.239          44.000  
R18  26294897.685   140364052.809       -4316.716          47.000    26294895.174   109172335.111       -3357.438          48.000  
R19  23746010.491   127025507.266       -2540.336          42.000    23746004.587    98797220.702       -1975.632          46.000  
G05  27476244.814   144388713.448        -600.867          44.000    27476239.415   112510696.438        -468.096          39.000  
E34  30868347.700   162214391.405        2157.657          36.000    30868356.376   124294270.834        1653.384          41.000  
E24  31164349.942   163769873.224       -2907.348          43.000    31164350.750   125486062.621       -2227.542          48.000  
G12  27909798.319   146667273.199       -3374.031          44.000    27909794.080   114286310.115       -2628.920          39.000  
G25  25175379.256   132297747.861       -2373.025          44.000    25175378.417   103089225.705       -1849.093          46.000  
E10  30501139.396   160285077.793       -3247.384          42.000    30501138.852   122816094.059       -2488.342          46.000  
E25  27541407.322   144731384.851       -1207.440          46.000    27541409.103   110898229.689        -925.216          54.000  
G31  26076132.615   137030947.595         324.566          48.000    26076128.146   106777437.176         252.828          44.000  
E14  33030084.838   173574410.786       -2896.320          39.000    33030084.375   132998630.827       -2218.987          45.000  
> 2024 04 15 04 28 00.0130000  0 25                     
S33  43710649.964   229701165.190        -700.519          42.000  
E02  28321537.403   148830698.173        1012.833          48.000    28321536.558   114039139.223         776.154          51.000  
G28  25540026.996   134213716.551       -2034.957          47.000    25540021.761   104582099.879       -1585.673          47.000  
E36  27531745.461   144680640.454         375.508          48.000    27531746.603   110859403.480         287.737          52.000  
G26  26867049.914   141187320.991        2330.544          43.000    26867049.223   110016050.387        1816.293          39.000  
R20  24972083.190   133536994.299        1683.453          39.000    24972083.744   103862188.516        1309.402          43.000  
R10  26172117.696   139512175.814        3119.053          44.000                                                                  
R09  23295740.797   124397959.043         519.401          52.000    23295737.014    96754232.014         404.056          52.000  
R16  24446314.020   130587973.264       -3527.944          53.000    24446310.065   101568336.364       -2743.910          50.000  
G20  28497370.727   149754733.348       -2622.842          33.000                                                                  
E11  27362896.422   143793402.024       -2279.576          44.000    27362893.552   110179589.350       -1746.604          50.000  
G18  24631929.259   129442016.866         867.023          48.000    24631924.829   100864020.994         675.568          48.000  
G29  25288487.587   132892307.204       -1962.568          48.000    25288482.464   103552719.405       -1529.425          45.000  
S31  42756585.906   224687494.962        -700.095          44.000  
R18  26319160.280   140493568.690       -4318.126          46.000    26319156.577   109273069.681       -3358.318          47.000  
R19  23760297.282   127101931.954       -2555.159          41.000    23760291.930    98856662.117       -1987.279          47.000  
G05  27479722.622   144406986.889        -617.868          43.000    27479716.534   112524935.517        -481.256          38.000  
E34  30856040.429   162149721.506        2153.017          35.000    30856048.986   124244718.952        1649.666          40.000  
E24  31180959.278   163857159.271       -2912.346          42.000    31180960.853   125552944.127       -2231.500          48.000  
G12  27929080.139   146768597.059       -3381.305          45.000    27929076.051   114365263.737       -2635.062          40.000  
G25  25188962.670   132369123.657       -2385.784          45.000    25188961.197   103144843.184       -1858.853          47.000  
E10  30519690.525   160382562.948       -3252.061          41.000    30519690.740   122890790.461       -2491.825          47.000  
E25  27548325.090   144767733.382       -1216.068          46.000    27548326.099   110926081.153        -931.844          54.000  
G31  26074331.024   137021484.142         305.920          48.000    26074327.387   106770063.050         238.328          44.000  
E14  33046582.964   173661117.299       -2884.530          38.000    33046584.084   133065068.324       -2210.478          45.000  
> 2024 04 15 04 28 30.0130000  0 25                     
S33  43714648.839   229722179.132        -700.517          42.000  
E02  28315765.724   148800368.103        1008.959          47.000    28315764.919   114015899.314         773.125          52.000  
G28  25551691.966   134275017.978       -2052.052          47.000    25551687.245   104629867.212       -1598.950          47.000  
E36  27529636.147   144669554.027         363.192          48.000    27529636.729   110850908.697         278.399          51.000  
G26  26853753.865   141117450.936        2327.292          43.000    26853753.362   109961606.234        1813.234          39.000  
R20  24962682.793   133486725.334        1667.576          40.000    24962682.477   103823090.467        1296.909          42.000  
R10  26154581.509   139418697.711        3112.658          44.000                                                                  
R09  23292883.522   124382699.188         497.630          52.000    23292879.156    96742363.216         387.067          51.000  
R16  24466176.786   130694077.884       -3545.949          52.000    24466172.997   101650862.167       -2757.955          50.000  
G20  28512384.634                       -2638.312          29.000                                                                  
E11  27375934.861   143861920.014       -2288.691          44.000    27375931.836   110232090.150       -1753.682          50.000  
G18  24627027.981   129416263.550         849.628          48.000    24627023.682   100843953.525         661.993          48.000  
G29  25299704.325   132951250.752       -1967.168          49.000    25299698.883   103598649.418       -1532.754          44.000  
S31  42760582.176   224708495.052        -699.890          44.000  
R18  26343430.064   140623122.797       -4319.127          46.000    26343427.166   109373833.976       -3359.366          48.000  
R19  23774666.082   127178800.064       -2569.392          42.000    23774660.960    98916448.443       -1998.638          46.000  
G05  27483296.039   144425765.830        -634.456          42.000    27483289.494   112539568.460        -494.355          37.000  
E34  30843761.475   162085195.850        2148.458          34.000    30843770.654   124195277.520        1646.037          40.000  
E24  31197599.759   163944602.108       -2917.464          43.000    31197601.107   125619945.740       -2235.400          50.000  
G12  27948404.150   146870142.193       -3388.591          46.000    27948399.393   114444389.804       -2640.326          40.000  
G25  25202616.844   132440879.163       -2398.055          46.000    25202615.608   103200756.561       -1868.517          47.000  
E10  30538267.319   160480185.129       -3256.395          41.000    30538267.314   122965591.843       -2495.052          47.000  
E25  27555290.617   144804339.390       -1224.461          46.000    27555292.051   110954129.904        -938.229          54.000  
G31  26072637.214   137012581.327         287.406          48.000    26072633.056   106763125.778         224.130          44.000  
E14  33063018.300   173747487.953       -2873.525          37.000    33063019.302   133131248.438       -2201.778          44.000  
> 2024 04 15 04 29 00.0130000  0 24                     
S33  43718647.431   229743190.686        -700.458          42.000  
E02  28310018.117   148770164.640        1004.455          47.000    28310017.107   113992756.406         769.716          51.000  
G28  25563454.954   134336836.408       -2069.398          47.000    25563451.521   104678037.400       -1612.490          47.000  
E36  27527597.391   144658843.597         350.574          47.000    27527598.816   110842702.017         268.679          51.000  
G26  26840477.552   141047684.481        2323.574          43.000    26840476.635   109907242.782        1810.641          39.000  
R20  24953373.299   133436941.116        1651.057          40.000    24953373.008   103784369.467        1284.411          43.000  
R10  26137084.225   139325431.475        3105.285          43.000                                                                  
R09  23290149.737   124368103.298         475.313          52.000    23290145.827    96731010.850         369.673          52.000  
R16  24486141.324   130800729.247       -3564.252          52.000    24486137.981   101733813.183       -2772.274          50.000  
E11  27389028.719   143930730.471       -2298.588          43.000    27389025.916   110284815.024       -1761.245          50.000  
G18  24622228.867   129391043.692         831.647          48.000    24622225.268   100824301.693         648.084          49.000  
G29  25310948.023   133010336.598       -1972.047          48.000    25310942.405   103644690.327       -1536.849          44.000  
S31  42764578.309   224729493.627        -700.063          44.000  
R18  26367707.701   140752715.034       -4320.497          46.000    26367704.919   109474627.901       -3360.367          49.000  
R19  23789119.249   127256110.063       -2584.591          43.000    23789113.466    98976578.457       -2010.241          47.000  
G05  27486966.544   144445054.696        -651.526          40.000    27486960.343   112554598.719        -508.055          38.000  
E34  30831511.730   162020818.085        2143.240          35.000    30831519.436   124145949.432        1642.398          40.000  
E24  31214269.282   164032203.921       -2922.965          43.000    31214271.393   125687069.128       -2239.662          49.000  
G12  27967770.087   146971910.376       -3396.166          46.000    27967765.392   114523689.652       -2646.372          40.000  
G25  25216344.618   132513016.903       -2411.144          46.000    25216343.152   103256967.766       -1878.749          47.000  
E10  30556870.563   160577945.078       -3261.183          42.000    30556871.396   123040498.819       -2498.838          49.000  
E25  27562307.010   144841206.080       -1233.444          47.000    27562307.546   110982378.406        -945.100          54.000  
G31  26071051.006   137004242.964         268.334          48.000    26071046.202   106756628.348         209.041          44.000  
E14  33079390.410   173833525.467       -2862.502          36.000    33079391.225   133197173.255       -2193.288          43.000  
> 2024 04 15 04 29 30.0130000  0 25                     
S33  43722644.414   229764195.283        -700.167          42.000  
E02  28304294.022   148740083.334        1000.409          47.000    28304292.776   113969707.109         766.705          51.000  
G28  25575315.908   134399164.216       -2086.274          47.000    25575311.808   104726604.500       -1625.622          47.000  
E36  27525629.471   144648503.575         338.395          47.000    27525630.884   110834779.169         259.284          51.000  
G26  26827220.648   140978017.963        2320.295          43.000    26827219.133   109852957.235        1808.109          38.000  
R20  24944152.842   133387636.617        1635.505          39.000    24944152.449   103746021.601        1272.030          43.000  
R10  26119626.455   139232375.368        3098.008          42.000                                                                  
R09  23287540.353   124354167.709         453.280          52.000    23287536.451    96720172.062         352.620          52.000  
R16  24506207.903   130907919.146       -3582.242          52.000    24506204.842   101817183.049       -2786.049          51.000  
G20  28542671.473                3      -2668.091          27.000                                                                  
E11  27402176.870   143999826.026       -2307.889          43.000    27402174.438   110337758.374       -1768.383          49.000  
G18  24617530.013   129366352.409         814.105          48.000    24617527.378   100805061.761         634.393          49.000  
G29  25322217.351   133069558.260       -1976.503          48.000    25322212.210   103690837.079       -1540.060          45.000  
S31  42768572.774   224750485.297        -699.852          44.000  
R18  26391989.894   140882336.657       -4321.315          41.000    26391988.045   109575444.710       -3361.011          49.000  
R19  23803652.710   127333853.358       -2598.550          42.000    23803646.787    99037045.472       -2021.393          47.000  
G05  27490731.896   144464847.106        -668.282          42.000    27490727.397   112570021.432        -520.750          38.000  
E34  30819289.584   161956583.817        2138.630          36.000    30819295.632   124096731.308        1638.595          41.000  
E24  31230969.049   164119958.643       -2927.690          43.000    31230970.191   125754309.697       -2243.358          48.000  
G12  27987175.761   147073895.493       -3403.432          44.000    27987171.878   114603158.526       -2651.950          40.000  
G25  25230143.022   132585530.950       -2423.671          46.000    25230142.114   103313472.221       -1888.533          46.000  
E10  30575498.028   160675835.389       -3265.389          42.000    30575499.207   123115505.652       -2501.961          49.000  
E25  27569370.979   144878328.371       -1241.747          47.000    27569371.807   111010822.760        -951.516          54.000  
G31  26069571.198   136996463.814         249.838          48.000    26069565.910   106750566.653         194.646          44.000  
E14  33095699.860   173919224.177       -2850.887          37.000    33095699.187   133262838.505       -2184.458          44.000  
