     3.00           OBSERVATION DATA    M: Mixed            RINEX VERSION / TYPE
CONVBIN 2.4.3                           20240415 185942 UTC PGM / RUN BY / DATE 
format: u-blox UBX                                          COMMENT             
log: /home/regis/git/gnsspwv/obsdata/VERT00CHL/2024-04-15/VECOMMENT             
{self.marker}                                               MARKER NAME         
                                                            MARKER NUMBER       
GEODETIC                                                    MARKER TYPE         
{self.observer}     {self.institution}                      OBSERVER / AGENCY   
UNKNOWN             UBLOX-ZED-F9P                           REC # / TYPE / VERS 
UNKNOWN             TWIVSP6037L                             ANT # / TYPE        
  1713381.0000 -5047934.0000 -3490983.0000                  APPROX POSITION XYZ 
        0.0000        0.0000        0.0000                  ANTENNA: DELTA H/E/N
G    8 C1C L1C D1C S1C C2L L2L D2L S2L                      SYS / # / OBS TYPES 
R    8 C1C L1C D1C S1C C2C L2C D2C S2C                      SYS / # / OBS TYPES 
E    8 C1C L1C D1C S1C C7Q L7Q D7Q S7Q                      SYS / # / OBS TYPES 
S    4 C1C L1C D1C S1C                                      SYS / # / OBS TYPES 
  2024    04    15    18    45   00.4900000     GPS         TIME OF FIRST OBS   
  2024    04    15    18    59   30.4900000     GPS         TIME OF LAST OBS    
                                                            END OF HEADER       
> 2024 04 15 18 45 00.4900000  0 24                     
G05  19427216.536   102090683.6011       1662.961          45.000    19427218.038    79551176.7341       1295.897          43.000  
G09  19815894.220   104133105.7171      -2865.748          44.000    19815901.217    81142648.8301      -2233.204          43.000  
E27  21172236.423   111261020.6481        866.510          47.000    21172245.036    85252087.5251        663.989          53.000  
G11  21087159.245   110813716.4771      -3355.254          44.000    21087167.371    86348236.8631      -2613.973          40.000  
R13  16412011.106    87639368.2621      -2230.726          42.000    16412012.709    68164050.1311      -1735.205          44.000  
R02  17943351.151    95749084.6041      -2870.770          52.000    17943356.713    74471497.6511      -2232.794          47.000  
R04  19235090.817   103003043.7761       2611.051          42.000    19235091.060    80113474.2671       2030.861          44.000  
R03  16523207.873    88450146.0001        409.009          52.000    16523207.705    68794600.9291        318.031          51.000  
E33  23679957.576   124438892.1581      -2530.153          42.000    23679969.569    95349326.6471      -1938.860          48.000  
G07  18346840.742    96413260.5271      -3425.214          50.000    18346841.527    75127210.2331      -2668.985          45.000  
S31  35731302.643   187769201.2351       -806.152          44.000  
S33  36679872.970   192753966.5021       -806.045          41.000  
G14  18080422.627    95013437.5871       1547.118          47.000    18080426.185    74036557.5211       1205.548          47.000  
G20  17725386.851    93147598.4551       -775.195          45.000                                                                  
R12  19377298.178   103510015.1751      -4726.995          42.000    19377306.091    80507791.8571      -3676.755          50.000  
R14  17529932.523    93444582.4151       2256.494          53.000    17529938.431    72679279.4591       1754.937          48.000  
E07  21268115.483   111764659.3041      -1558.249          48.000    21268124.043    85637858.7131      -1193.915          52.000  
E08  25134199.833   132080855.7311      -2682.594          42.000    25134219.785   101204766.6341      -2055.483          45.000  
G13  20141323.514   105843396.2501       1471.990          41.000                                                                  
E26  24323295.932   127819679.2331      -3463.852          36.000    24323314.763    97939591.1891      -2653.817          42.000  
G22  19996461.040   105082263.1121       2731.140          43.000                                                                  
G30  17300799.213    90916370.6411      -1495.991          48.000    17300802.081    70843966.4911      -1165.842          46.000  
E21  24240091.782   127382628.4761       2282.477          42.000    24240112.855    97604987.4451       1748.873          46.000  
E30  22108057.467   116178706.6211      -1872.294          46.000    22108065.279    89020118.7801      -1434.568          47.000  
> 2024 04 15 18 45 30.4900000  0 24                     
G05  19417758.720   102040979.988        1650.474          46.000    19417759.570    79512446.698        1285.999          43.000  
G09  19832270.718   104219165.673       -2871.457          43.000    19832279.752    81209708.298       -2237.646          44.000  
E27  21167321.192   111235192.393         855.161          47.000    21167330.130    85232297.119         655.326          53.000  
G11  21106322.775   110914422.762       -3358.524          43.000    21106331.062    86426708.880       -2617.421          40.000  
R13  16424605.210    87706622.823       -2253.087          41.000    16424606.771    68216359.208       -1752.250          43.000  
R02  17959531.229    95835418.793       -2884.930          52.000    17959536.986    74538646.273       -2243.762          48.000  
R04  19220463.123   102924712.501        2611.027          45.000    19220463.219    80052550.069        2030.909          46.000  
R03  16520954.050    88438081.128         395.177          52.000    16520953.451    68785217.110         307.457          50.000  
E33  23694425.000   124514921.659       -2538.746          42.000    23694437.846    95407582.755       -1945.125          48.000  
G07  18366412.243    96516108.041       -3431.473          50.000    18366413.074    75207351.085       -2673.911          46.000  
S31  35735903.142   187793377.439        -805.632          43.000  
S33  36684472.012   192778135.676        -805.397          42.000  
G14  18071630.862    94967239.607        1532.734          46.000    18071634.935    74000559.189        1194.216          47.000  
G20  17729867.084    93171139.831        -794.324          47.000                                                                  
R12  19403865.950   103651932.623       -4733.864          44.000    19403873.014    80618171.908       -3681.941          48.000  
R14  17517281.365    93377144.475        2239.293          52.000    17517287.595    72626827.890        1741.667          49.000  
E07  21277022.046   111811462.443       -1562.122          49.000    21277030.547    85673720.791       -1196.911          52.000  
E08  25149519.920   132161363.051       -2684.671          42.000    25149540.337   101266453.725       -2057.168          45.000  
G13  20132918.449   105799227.601        1472.349          42.000                                                                  
E26  24343063.294   127923557.116       -3461.559          37.000    24343083.228    98019185.297       -2652.449          42.000  
G22  19980883.354   105000401.898        2726.379          44.000                                                                  
G30  17309371.541    90961417.318       -1507.178          49.000    17309373.598    70879067.763       -1174.409          45.000  
E21  24227061.416   127314158.675        2281.713          42.000    24227083.084    97552524.018        1748.535          46.000  
E30  22118782.101   116235058.749       -1884.626          47.000    22118788.729    89063297.658       -1444.049          47.000  
> 2024 04 15 18 46 00.4900000  0 24                     
G05  19408372.148   101991658.513        1637.813          44.000    19408374.011    79474014.420        1276.467          42.000  
G09  19848680.588   104305407.682       -2877.566          41.000    19848690.124    81276909.599       -2242.239          43.000  
E27  21162471.842   111209709.920         843.817          47.000    21162481.225    85212771.679         646.563          53.000  
G11  21125510.424   111015245.609       -3362.610          43.000    21125517.510    86505271.641       -2620.125          40.000  
R13  16437325.007    87774543.373       -2274.765          42.000    16437326.066    68269186.289       -1769.241          44.000  
R02  17975789.863    95922180.724       -2898.914          52.000    17975796.710    74606127.556       -2254.748          47.000  
R04  19205836.613   102846390.283        2610.802          44.000    19205837.008    79991632.895        2030.627          46.000  
R03  16518778.636    88426434.785         381.401          52.000    16518778.163    68776158.856         296.647          51.000  
E33  23708943.170   124591214.343       -2547.287          42.000    23708955.935    95466040.546       -1951.878          48.000  
G07  18386019.874    96619146.171       -3437.606          50.000    18386021.192    75287640.423       -2678.621          46.000  
S31  35740503.036   187817547.970        -805.312          44.000  
S33  36689070.339   192802299.305        -804.929          41.000  
G14  18062923.476    94921483.107        1517.880          45.000    18062926.883    73964904.825        1182.947          46.000  
G20  17734457.519    93195260.521        -813.483          47.000                                                                  
R12  19430474.214   103794057.491       -4740.799          46.000    19430479.647    80728713.358       -3687.179          49.000  
R14  17504729.639    93310230.274        2221.948          53.000    17504734.499    72574783.657        1728.297          49.000  
E07  21285952.520   111858390.789       -1566.246          49.000    21285960.462    85709678.812       -1200.061          52.000  
E08  25164853.949   132241946.270       -2687.308          41.000    25164875.448   101328198.970       -2058.918          45.000  
G13  20124512.756   105755053.212        1472.684          41.000                                                                  
E26  24362820.709   128027382.236       -3459.759          36.000    24362841.457    98098738.904       -2651.189          42.000  
G22  19965333.310   104918684.111        2721.664          45.000                                                                  
G30  17318009.053    91006807.434       -1518.240          49.000    17318011.518    70914436.673       -1183.135          45.000  
E21  24214038.985   127245719.299        2280.954          43.000    24214059.032    97500083.901        1747.760          46.000  
E30  22129578.087   116291791.064       -1897.063          47.000    22129584.528    89106767.842       -1453.730          47.000  
> 2024 04 15 18 46 30.4900000  0 24                     
G05  19399057.224   101942711.778        1625.168          44.000    19399059.710    79435874.113        1266.537          42.000  
G09  19865125.615   104391821.644       -2883.383          43.000    19865134.011    81344244.944       -2246.750          42.000  
E27  21157687.404   111184564.338         832.386          48.000    21157695.960    85193504.363         637.852          53.000  
G11  21144714.767   111116171.672       -3366.069          41.000    21144724.307    86583914.900       -2623.137          40.000  
R13  16450166.264    87843116.993       -2296.838          41.000    16450168.603    68322521.314       -1786.224          43.000  
R02  17992127.522    96009359.609       -2913.063          53.000    17992133.232    74673933.146       -2265.751          46.000  
R04  19191210.952   102768069.234        2610.452          45.000    19191211.010    79930716.612        2030.416          47.000  
R03  16516679.324    88415198.798         367.449          52.000    16516679.482    68767419.768         285.848          51.000  
E33  23723509.745   124667758.221       -2555.820          42.000    23723522.296    95524690.724       -1958.234          48.000  
G07  18405661.400    96722362.837       -3443.672          50.000    18405662.333    75368068.896       -2683.427          46.000  
S31  35745099.727   187841702.389        -804.906          45.000  
S33  36693665.795   192826447.346        -804.790          42.000  
G14  18054298.658    94876160.379        1503.272          46.000    18054301.581    73929588.493        1171.327          46.000  
G20  17739155.701    93219950.369        -832.587          48.000                                                                  
R12  19457115.722   103936375.822       -4747.289          47.000    19457122.308    80839405.227       -3692.345          48.000  
R14  17492272.427    93243831.806        2204.578          53.000    17492278.453    72523140.494        1714.697          49.000  
E07  21294904.792   111905434.802       -1570.150          49.000    21294912.597    85745725.462       -1203.145          52.000  
E08  25180201.271   132322595.523       -2689.525          42.000    25180222.693   101389994.792       -2060.635          45.000  
G13  20116103.561   105710863.160        1473.125          42.000                                                                  
E26  24382566.883   128131142.397       -3457.688          37.000    24382587.745    98178242.736       -2649.452          41.000  
G22  19949809.384   104837102.547        2716.878          46.000                                                                  
G30  17326708.862    91052529.308       -1529.770          49.000    17326712.253    70950064.114       -1191.951          45.000  
E21  24201018.966   127177301.880        2280.049          43.000    24201039.135    97447660.620        1747.027          46.000  
E30  22140444.648   116348892.453       -1909.630          47.000    22140450.859    89150520.809       -1463.209          47.000  
> 2024 04 15 18 47 00.4900000  0 24                     
G05  19389815.392   101894147.198        1612.240          45.000    19389818.821    79398031.628        1256.229          44.000  
G09  19881604.131   104478412.491       -2889.758          44.000    19881612.108    81411718.082       -2251.431          42.000  
E27  21152967.523   111159761.530         820.837          48.000    21152976.143    85174499.712         628.959          53.000  
G11  21163940.199   111217202.707       -3369.519          41.000    21163950.070    86662639.969       -2625.678          40.000  
R13  16463130.390    87912345.286       -2318.808          41.000    16463132.766    68376365.514       -1803.372          43.000  
R02  18008544.567    96096960.481       -2927.144          52.000    18008550.636    74742066.978       -2276.787          47.000  
R04  19176586.775   102689756.587        2610.086          46.000    19176586.130    79869806.812        2030.160          47.000  
R03  16514658.666    88404381.306         353.364          52.000    16514658.555    68759006.154         274.849          51.000  
E33  23738124.525   124744555.954       -2564.460          43.000    23738135.885    95583535.484       -1964.788          47.000  
G07  18425337.046    96825760.635       -3449.730          50.000    18425337.573    75448638.538       -2688.231          45.000  
S31  35749693.926   187865845.316        -804.643          44.000  
S33  36698258.650   192850583.266        -804.310          42.000  
G14  18045759.053    94831278.668        1488.363          47.000    18045760.711    73894615.788        1159.728          46.000  
G20  17743963.328    93245214.133        -851.935          47.000                                                                  
R12  19483793.597   104078888.462       -4753.812          45.000    19483799.391    80950248.256       -3697.358          48.000  
R14  17479913.561    93177956.909        2186.833          52.000    17479921.812    72471904.592        1700.878          51.000  
E07  21303880.711   111952599.846       -1574.438          49.000    21303887.709    85781864.844       -1206.334          52.000  
E08  25195562.625   132403315.800       -2692.104          42.000    25195583.747   101451845.053       -2062.730          45.000  
G13  20107692.235   105666662.386        1473.223          42.000                                                                  
E26  24402301.596   128234840.275       -3455.802          36.000    24402320.181    98257698.869       -2647.800          38.000  
G22  19934312.265   104755664.738        2712.030          47.000                                                                  
G30  17335473.479    91098586.093       -1541.075          49.000    17335476.146    70985952.523       -1200.802          45.000  
E21  24188004.785   127108912.920        2279.045          43.000    24188024.893    97395259.149        1746.248          46.000  
E30  22151381.469   116406366.642       -1922.124          47.000    22151387.987    89194559.432       -1472.753          48.000  
> 2024 04 15 18 47 30.4900000  0 24                     
G05  19380650.425   101845980.044        1598.701          45.000    19380652.899    79360498.772        1245.849          44.000  
G09  19898117.934   104565193.345       -2895.988          43.000    19898125.695    81479339.284       -2256.667          41.000  
E27  21148315.954   111135315.672         808.755          48.000    21148324.136    85155768.545         619.754          53.000  
G11  21183187.836   111318348.500       -3373.230          40.000    21183197.572    86741454.477       -2628.637          38.000  
R13  16476219.151    87982238.921       -2341.026          41.000    16476221.579    68430727.222       -1820.863          43.000  
R02  18025042.034    96184996.145       -2941.966          52.000    18025047.539    74810538.951       -2288.150          46.000  
R04  19161966.292   102611467.795        2609.007          47.000    19161965.886    79808915.613        2029.234          47.000  
R03  16512719.358    88393998.339         338.652          52.000    16512719.311    68750930.520         263.435          51.000  
E33  23752788.744   124821618.648       -2573.429          43.000    23752800.506    95642583.271       -1971.766          47.000  
G07  18445050.001    96929350.241       -3456.434          51.000    18445050.005    75529357.617       -2693.208          45.000  
S31  35754288.447   187889989.579        -804.993          44.000  
S33  36702852.150   192874721.135        -804.882          42.000  
G14  18037304.544    94786853.295        1472.998          46.000    18037307.699    73859998.701        1147.790          47.000  
G20  17748882.501    93271064.634        -871.619          47.000                                                                  
R12  19510511.071   104221604.802       -4760.657          47.000    19510517.258    81061249.726       -3702.745          49.000  
R14  17467657.108    93112620.785        2168.668          53.000    17467664.891    72421087.734        1686.686          50.000  
E07  21312881.106   111999899.418       -1578.986          49.000    21312888.656    85818107.308       -1209.882          52.000  
E08  25210938.711   132484120.238       -2695.159          42.000    25210961.024   101513759.765       -2064.845          46.000  
G13  20099282.054   105622464.200        1473.080          44.000                                                                  
E26  24422024.681   128338486.872       -3454.100          35.000    24422042.078    98337115.676       -2646.920          33.000  
G22  19918845.640   104674386.235        2706.233          47.000                                                                  
G30  17344303.219    91144989.265       -1552.844          48.000    17344306.133    71022110.853       -1210.271          45.000  
E21  24174998.502   127040567.094        2277.301          43.000    24175018.692    97342890.717        1744.818          46.000  
E30  22162389.888   116464225.603       -1935.165          46.000    22162398.412    89238892.880       -1482.852          48.000  
> 2024 04 15 18 48 00.4900000  0 24                     
G05  19371561.865   101798216.426        1585.470          46.000    19371563.163    79323280.389        1235.458          44.000  
G09  19914668.932   104652168.086       -2902.416          43.000    19914675.788    81547111.589       -2261.619          41.000  
E27  21143733.284   111111231.653         796.913          49.000    21143741.135    85137314.646         610.618          54.000  
G11  21202457.829   111419609.795       -3376.922          40.000    21202467.500    86820358.923       -2631.542          38.000  
R13  16489433.206    88052798.553       -2362.869          40.000    16489435.155    68485606.947       -1838.017          43.000  
R02  18041622.543    96273470.075       -2956.292          52.000    18041627.536    74879351.824       -2299.382          47.000  
R04  19147351.867   102533209.309        2608.367          46.000    19147351.722    79748047.960        2028.670          47.000  
R03  16510862.412    88384055.972         324.078          52.000    16510861.814    68743197.565         252.047          51.000  
E33  23767504.338   124898948.027       -2581.809          43.000    23767516.371    95701835.387       -1978.275          47.000  
G07  18464799.217    97033133.473       -3462.685          50.000    18464799.212    75610227.586       -2698.218          44.000  
S31  35758884.213   187914139.651        -805.253          44.000  
S33  36707446.582   192898864.588        -804.716          42.000  
G14  18028937.772    94742890.427        1457.946          46.000    18028941.971    73825742.027        1136.074          48.000  
G20  17753914.408    93297505.830        -891.205          47.000                                                                  
R12  19537266.100   104364524.938       -4767.154          49.000    19537271.954    81172409.694       -3707.979          49.000  
R14  17455501.864    93047829.513        2150.693          53.000    17455508.146    72370694.651        1672.708          48.000  
E07  21321908.137   112047337.890       -1583.414          49.000    21321915.914    85854456.191       -1213.303          52.000  
E08  25226331.502   132565012.809       -2697.677          41.000    25226353.392   101575742.083       -2067.128          44.000  
G13  20090873.134   105578272.869        1472.914          43.000                                                                  
E26  24441738.984   128442083.870       -3452.128          37.000    24441756.592    98416494.451       -2645.447          32.000  
G22  19903410.782   104593273.966        2701.061          47.000                                                                  
G30  17353200.036    91191740.993       -1564.142          48.000    17353202.514    71058540.730       -1218.773          44.000  
E21  24162001.418   126972269.824        2275.985          43.000    24162021.519    97290559.501        1743.939          46.000  
E30  22173473.728   116522472.025       -1947.813          46.000    22173482.448    89283523.204       -1492.465          48.000  
> 2024 04 15 18 48 30.4900000  0 24                     
G05  19362550.127   101750857.598        1571.598          46.000    19362551.450    79286377.434        1224.525          44.000  
G09  19931257.411   104739335.538       -2909.220          45.000    19931264.023    81615034.019       -2266.802          42.000  
E27  21139218.268   111087509.362         784.388          48.000    21139226.758    85119137.913         601.098          53.000  
G11  21221748.521   111520982.098       -3381.118          41.000    21221757.394    86899349.909       -2634.998          37.000  
R13  16502769.906    88124019.693       -2385.306          40.000    16502772.630    68541001.161       -1855.485          42.000  
R02  18058284.067    96362381.200       -2971.327          52.000    18058290.706    74948504.697       -2310.968          47.000  
R04  19132743.609   102454981.931        2606.789          48.000    19132743.915    79687204.524        2027.390          49.000  
R03  16509087.207    88374555.751         308.961          52.000    16509086.377    68735808.481         240.298          50.000  
E33  23782269.744   124976540.931       -2590.993          43.000    23782282.065    95761289.429       -1985.473          46.000  
G07  18484584.732    97137107.097       -3469.315          50.000    18484584.457    75691245.949       -2703.495          43.000  
S31  35763479.800   187938293.133        -805.436          43.000  
S33  36712041.986   192923012.708        -805.380          42.000  
G14  18020660.647    94699391.278        1441.843          46.000    18020664.648    73791846.655        1123.582          48.000  
G20  17759058.035    93324536.414        -911.017          47.000                                                                  
R12  19564058.961   104507643.720       -4774.242          50.000    19564065.001    81283724.175       -3713.309          49.000  
R14  17443448.981    92983584.878        2132.115          52.000    17443456.096    72320726.723        1658.361          49.000  
E07  21330961.288   112094914.571       -1588.416          48.000    21330970.035    85890910.971       -1217.131          53.000  
E08  25241742.409   132645992.428       -2700.953          41.000    25241764.410   101637791.061       -2069.464          45.000  
G13  20082464.703   105534087.295        1472.317          44.000                                                                  
E26  24461443.551   128545627.863       -3450.547          38.000    24461462.045                       -2644.226          28.000  
G22  19888006.722   104512329.335        2695.063          48.000                                                                  
G30  17362162.161    91238838.446       -1575.932          48.000    17362164.881    71095240.059       -1228.099          44.000  
E21  24149014.074   126904021.583        2273.952          43.000    24149033.984    97238265.856        1742.254          46.000  
E30  22184631.413   116581103.626       -1961.044          46.000    22184639.819    89328448.681       -1502.562          48.000  
> 2024 04 15 18 49 00.4900000  0 24                     
G05  19353615.578   101703907.266        1557.999          45.000    19353616.905    79249792.777        1214.058          43.000  
G09  19947882.011   104826697.101       -2915.704          46.000    19947889.467    81683107.705       -2271.891          43.000  
E27  21134772.737   111064151.140         772.355          48.000    21134781.668    85101240.166         591.868          53.000  
G11  21241059.924   111622463.645       -3384.792          41.000    21241070.045    86978426.020       -2638.177          33.000  
R13  16516230.715    88195901.027       -2407.691          40.000    16516232.719    68596908.810       -1872.056          42.000  
R02  18075027.621    96451730.085       -2985.711          52.000    18075035.208    75017998.024       -2322.297          47.000  
R04  19118142.074   102376789.465        2605.726          47.000    19118141.333    79626388.244        2026.599          48.000  
R03  16507395.564    88365501.251         294.177          53.000    16507394.419    68728766.101         228.760          50.000  
E33  23797085.539   125054396.608       -2599.517          44.000    23797098.031    95820944.831       -1991.998          47.000  
G07  18504406.391    97241270.506       -3475.451          50.000    18504406.687    75772412.139       -2708.156          45.000  
S31  35768077.479   187962452.092        -805.616          43.000  
S33  36716638.410   192947164.874        -805.416          42.000  
G14  18012472.011    94656359.462        1426.448          46.000    18012475.918    73758315.459        1111.541          48.000  
G20  17764314.640    93352157.468        -930.847          47.000                                                                  
R12  19590887.808   104650958.710       -4780.510          50.000    19590893.801    81395191.250       -3718.172          49.000  
R14  17431499.553    92919890.019        2113.833          52.000    17431506.864    72271186.407        1644.139          48.000  
E07  21340041.343   112142631.316       -1592.960          48.000    21340050.288    85927473.064       -1220.593          53.000  
E08  25257169.701   132727060.627       -2703.833          42.000    25257191.304   101699907.885       -2071.781          44.000  
G13  20074058.089   105489909.227        1472.322          43.000                                                                  
E26  24481136.853   128649118.189       -3448.981          38.000    24481155.159                1      -2641.589          25.000  
G22  19872636.186   104431556.532        2689.360          48.000                                                                  
G30  17371190.034    91286281.325       -1587.297          47.000    17371193.473    71132208.510       -1236.840          44.000  
E21  24136036.842   126835825.312        2272.384          44.000    24136056.708    97186012.027        1741.070          47.000  
E30  22195862.834   116640120.557       -1973.780          47.000    22195870.185    89373669.404       -1512.451          49.000  
> 2024 04 15 18 49 30.4900000  0 24                     
G05  19344759.031   101657368.142        1544.405          46.000    19344760.380    79213528.547        1203.593          44.000  
G09  19964543.658   104914253.058       -2921.839          44.000    19964550.724    81751332.844       -2276.613          42.000  
E27  21130397.640   111041158.361         760.335          48.000    21130405.869    85083622.417         582.609          53.000  
G11  21260392.341   111724051.511       -3388.134          40.000    21260401.659    87057584.929       -2640.163          34.000  
R13  16529814.318    88268439.561       -2428.952          37.000    16529817.536    68653327.667       -1889.297          42.000  
R02  18091854.152    96541517.031       -3000.204          53.000    18091860.109    75087832.095       -2333.574          46.000  
R04  19103547.336   102298634.509        2604.531          48.000    19103546.064    79565601.139        2025.838          47.000  
R03  16505788.058    88356895.758         279.313          52.000    16505786.787    68722072.932         217.310          51.000  
E33  23811951.548   125132513.258       -2608.176          44.000    23811963.334    95880800.162       -1998.523          47.000  
G07  18524263.770    97345620.738       -3481.473          50.000    18524265.070    75853723.910       -2712.739          45.000  
S31  35772675.364   187986616.996        -805.622          44.000  
S33  36721235.013   192971322.920        -805.480          42.000  
G14  18004372.053    94613797.480        1410.719          45.000    18004377.127    73725150.389        1099.520          49.000  
G20  17769682.085    93380369.150        -950.208          47.000                                                                  
R12  19617752.812   104794466.324       -4786.750          51.000    19617758.924    81506808.192       -3723.016          49.000  
R14  17419653.463    92856747.942        2095.440          51.000    17419661.189    72222076.019        1629.754          49.000  
E07  21349149.053   112190488.860       -1597.528          49.000    21349157.384    85964143.066       -1224.057          52.000  
E08  25272612.833   132808217.751       -2706.696          41.000    25272636.416   101762092.786       -2073.782          46.000  
G13  20065652.223   105445738.979        1472.244          42.000                                                                  
E26  24500820.029   128752553.008       -3446.708          37.000    24500841.390                3      -2640.142          21.000  
G22  19857298.170   104350958.492        2683.699          47.000                                                                  
G30  17380284.501    91334068.230       -1598.566          49.000    17380286.657    71169445.047       -1245.640          44.000  
E21  24123068.348   126767682.902        2270.521          43.000    24123088.982    97133799.445        1739.657          47.000  
E30  22207166.427   116699521.969       -1986.535          47.000    22207174.203    89419184.715       -1522.052          49.000  
> 2024 04 15 18 50 00.4900000  0 24                     
G05  19335981.485   101611244.410        1530.321          45.000    19335982.385    79177588.019        1192.262          43.000  
G09  19981242.625   105002005.536       -2928.343          43.000    19981250.533    81819711.210       -2281.970          43.000  
E27  21126091.270   111018534.149         747.832          48.000    21126100.563    85066287.104         572.992          53.000  
G11  21279743.872   111825744.634       -3391.477          40.000    21279750.465                       -2643.327          31.000  
R13  16543520.449    88341634.034       -2451.129          38.000    16543524.569    68710256.668       -1906.351          42.000  
R02  18108763.341    96631743.691       -3015.138          52.000    18108767.276    75158008.205       -2345.024          45.000  
R04  19088958.988   102220521.516        2602.882          48.000    19088958.946    79504846.668        2024.557          48.000  
R03  16504264.958    88348743.793         263.997          52.000    16504264.347    68715732.514         205.309          51.000  
E33  23826866.507   125210890.940       -2617.141          44.000    23826878.205    95940855.536       -2005.265          46.000  
G07  18544156.531    97450158.029       -3487.904          50.000    18544157.916    75935181.459       -2717.804          45.000  
S31  35777275.504   188010788.089        -806.051          44.000  
S33  36725834.196   192995489.662        -805.936          42.000  
G14  17996363.054    94571709.766        1394.715          46.000    17996367.594    73692354.862        1086.909          48.000  
G20  17775163.291    93409173.223        -970.203          47.000                                                                  
R12  19644653.545   104938164.903       -4793.324          50.000    19644660.317    81618573.626       -3728.094          49.000  
R14  17407913.770    92794162.916        2076.672          52.000    17407920.688    72173398.941        1615.228          49.000  
E07  21358282.776   112238489.915       -1602.670          49.000    21358291.734    86000923.022       -1228.033          53.000  
E08  25288073.939   132889466.053       -2709.894          42.000    25288097.268   101824347.618       -2076.751          45.000  
G13  20057248.248   105401578.969        1471.438          41.000                                                                  
E26  24520492.826   128855932.324       -3445.176          36.000    24520516.534                       -2639.340          26.000  
G22  19841994.831   104270540.355        2677.430          47.000                                                                  
G30  17389443.281    91382199.720       -1610.099          49.000    17389445.350    71206950.085       -1254.785          44.000  
E21  24110113.113   126699598.147        2268.368          44.000    24110132.366    97081631.032        1738.057          47.000  
E30  22218543.395   116759308.810       -1999.584          46.000    22218551.008    89464995.378       -1532.113          49.000  
> 2024 04 15 18 50 30.4900000  0 24                     
G05  19327284.473   101565541.291        1516.334          46.000    19327284.991    79141975.223        1181.667          43.000  
G09  19997978.775   105089957.322       -2934.968          43.000    19997987.718    81888244.820       -2287.224          43.000  
E27  21121857.217   110996282.264         735.617          48.000    21121865.919    85049237.057         563.618          52.000  
G11  21299115.855   111927542.499       -3394.590          39.000    21299123.814    87216148.565       -2645.211          32.000  
R13  16557351.943    88415484.312       -2472.655          40.000    16557354.706    68767695.798       -1923.164          43.000  
R02  18125753.708    96722412.758       -3029.510          51.000    18125760.674    75228528.366       -2356.399          47.000  
R04  19074380.190   102142455.774        2601.488          48.000    19074380.870    79444128.963        2023.358          48.000  
R03  16502827.870    88341050.816         248.853          52.000    16502827.639    68709749.070         193.557          51.000  
E33  23841831.608   125289530.287       -2625.659          45.000    23841843.544    96001111.373       -2011.785          47.000  
G07  18564085.182    97554883.443       -3493.822          49.000    18564086.159    76016785.581       -2722.559          45.000  
S31  35781877.600   188034970.047        -806.379          45.000  
S33  36730434.732   193019665.200        -805.964          42.000  
G14  17988445.211    94530101.252        1379.034          46.000    17988449.256    73659932.750        1074.593          48.000  
G20  17780757.565    93438572.211        -989.880          46.000                                                                  
R12  19671589.706   105082053.335       -4799.308          51.000    19671596.379    81730486.798       -3732.838          49.000  
R14  17396277.977    92732140.062        2058.019          51.000    17396285.393    72125159.064        1600.701          49.000  
E07  21367445.726   112286637.622       -1607.352          49.000    21367453.901    86037815.340       -1231.625          52.000  
E08  25303553.544   132970808.403       -2712.941          42.000    25303576.779   101886674.470       -2078.761          45.000  
G13  20048847.341   105357432.474        1471.617          41.000                                                                  
E26  24540156.630   128959256.765       -3442.952          37.000                                                                  
G22  19826726.551   104190307.468        2671.278          47.000                                                                  
G30  17398668.863    91430676.766       -1621.663          49.000    17398670.181    71244724.387       -1263.384          44.000  
E21  24097168.153   126631575.304        2266.389          44.000    24097187.520    97029510.101        1736.523          47.000  
E30  22229994.384   116819482.644       -2012.178          47.000    22230001.682    89511102.573       -1541.813          49.000  
> 2024 04 15 18 51 00.4900000  0 24                     
G05  19318665.435   101520247.668        1502.903          46.000    19318666.518    79106681.523        1171.202          43.000  
G09  20014750.735   105178095.255       -2940.840          42.000    20014759.839    81956923.536       -2291.657          43.000  
E27  21117691.841   110974390.554         723.876          49.000    21117700.052    85032462.992         554.597          53.000  
G11  21318503.851   112029428.863       -3397.504          36.000    21318513.226                1      -2647.296          31.000  
R13  16571301.890    88489973.858       -2493.795          40.000    16571304.392    68825632.067       -1939.283          42.000  
R02  18142826.298    96813510.109       -3043.615          52.000    18142833.092    75299381.670       -2367.229          47.000  
R04  19059807.285   102064426.059        2600.446          47.000    19059809.451    79383439.265        2022.590          48.000  
R03  16501474.439    88333805.524         234.069          52.000    16501474.361    68704113.812         182.029          51.000  
E33  23856842.831   125368416.070       -2633.526          44.000    23856854.635    96061556.042       -2017.939          47.000  
G07  18584046.897    97659781.468       -3499.348          50.000    18584046.405    76098524.261       -2726.804          43.000  
S31  35786478.516   188059148.632        -805.901          45.000  
S33  36735034.767   193043838.736        -805.730          42.000  
G14  17980617.573    94488961.198        1363.391          46.000    17980620.566    73627875.635        1062.549          48.000  
G20  17786463.180    93468552.764       -1008.929          47.000                                                                  
R12  19698558.035   105226114.575       -4804.791          50.000    19698564.874    81842534.308       -3737.080          47.000  
R14  17384747.162    92670668.481        2039.891          53.000    17384752.776    72077347.995        1586.483          48.000  
E07  21376633.581   112334919.356       -1611.504          49.000    21376641.475    86074810.358       -1234.825          53.000  
E08  25319047.930   133052231.716       -2715.455          41.000    25319071.734   101949063.345       -2080.597          44.000  
G13  20040446.529   105313286.642        1471.283          41.000                                                                  
E26  24559805.219   129062511.000       -3440.498          33.000    24559827.618    98892234.9771      -2636.134          33.000  
G22  19811492.457   104110249.353        2665.608          48.000                                                                  
G30  17407956.945    91479484.591       -1632.207          50.000    17407957.713    71282756.468       -1271.936          43.000  
E21  24084232.296   126563602.953        2264.949          43.000    24084252.396    96977427.808        1735.527          47.000  
E30  22241516.052   116880029.244       -2024.203          46.000    22241523.541    89557495.394       -1551.149          48.000  
> 2024 04 15 18 51 30.4900000  0 24                     
G05  19310124.135   101475361.152        1489.220          46.000    19310125.269    79071705.030        1160.628          43.000  
G09  20031559.614   105266414.450       -2947.129          45.000    20031566.026    82025743.368       -2296.087          42.000  
E27  21113593.966   110952854.998         711.943          49.000    21113601.856    85015961.813         545.456          52.000  
G11  21337908.263   112131395.458       -3399.827          37.000    21337916.755                       -2648.894          28.000  
R13  16585369.225    88565094.145       -2514.721          40.000    16585371.717    68884058.966       -1955.864          43.000  
R02  18159977.251    96905030.392       -3057.699          52.000    18159984.603    75370563.905       -2378.319          48.000  
R04  19045242.156   101986429.843        2599.295          46.000    19045244.157    79322775.600        2021.626          47.000  
R03  16500203.909    88327005.633         219.153          52.000    16500204.485    68698825.035         170.387          51.000  
E33  23871900.281   125447541.115       -2641.283          44.000    23871911.658    96122184.066       -2023.909          46.000  
G07  18604039.323    97764844.808       -3504.883          49.000    18604039.419    76180391.696       -2731.014          43.000  
S31  35791077.595   188083318.602        -805.486          44.000  
S33  36739633.055   193068003.276        -805.334          42.000  
G14  17972876.962    94448286.556        1347.968          45.000    17972880.456    73596181.227        1050.421          48.000  
G20  17792277.658    93499109.459       -1028.137          47.000                                                                  
R12  19725557.076   105370339.367       -4810.272          51.000    19725564.093    81954709.054       -3741.336          48.000  
R14  17373316.958    92609744.868        2021.497          52.000    17373323.443    72029963.119        1572.247          48.000  
E07  21385846.748   112383330.568       -1615.935          50.000    21385853.884    86111904.592       -1238.163          52.000  
E08  25334557.667   133133731.115       -2717.747          41.000    25334581.152   102011510.560       -2082.474          45.000  
G13  20032044.623   105269136.559        1471.730          42.000                                                                  
E26  24579440.756                       -3437.970          31.000    24579460.619    98971291.852       -2633.939          32.000  
G22  19796290.443   104030363.763        2659.889          47.000                                                                  
G30  17417305.705    91528616.508       -1643.234          49.000    17417307.339    71321041.082       -1280.459          44.000  
E21  24071306.501   126495677.609        2263.390          44.000    24071326.236    96925381.540        1734.174          47.000  
E30  22253106.731   116940942.271       -2036.586          45.000    22253114.651    89604168.982       -1560.389          48.000  
> 2024 04 15 18 52 00.4900000  0 25                     
G05  19301660.816   101430884.693        1475.504          46.000    19301661.774    79037048.110        1149.725          43.000  
G09  20048400.446   105354915.103       -2953.278          44.000    20048407.637    82094704.718       -2301.151          43.000  
E27  21109564.461   110931676.994         699.639          49.000    21109571.498    84999734.593         536.167          52.000  
G11  21357328.822   112233439.779       -3403.218          37.000    21357339.430    87454721.8191      -2652.356          31.000  
R13  16599553.973    88640842.652       -2535.684          40.000    16599556.238    68942974.462       -1972.091          42.000  
R02  18177207.617    96996973.633       -3072.031          52.000    18177212.994    75442075.099       -2389.363          46.000  
R04  19030683.846   101908469.897        2597.759          47.000    19030686.558    79262140.185        2020.501          48.000  
R03  16499017.890    88320654.192         203.947          52.000    16499018.057    68693885.017         158.671          51.000  
E33  23887003.162   125526903.850       -2649.655          44.000    23887014.366    96182994.195       -2030.255          46.000  
G07  18624062.907    97870071.681       -3510.546          49.000    18624064.081    76262386.582       -2735.341          43.000  
S31  35795676.145   188107481.054        -805.466          44.000  
S33  36744229.962   193092160.164        -805.335          42.000  
G14  17965225.478    94408080.006        1332.172          46.000    17965229.365    73564851.575        1038.080          49.000  
G20  17798202.115    93530242.710       -1047.589          47.000                                                                  
R12  19752586.977   105514724.561       -4815.723          51.000    19752593.093    82067008.572       -3745.514          47.000  
R14  17361991.400    92549372.121        2003.113          53.000    17361997.143    71983006.669        1557.847          48.000  
E07  21395083.654   112431872.205       -1620.483          50.000    21395091.194    86149098.741       -1241.622          53.000  
E08  25350079.948   133215307.140       -2720.948          39.000    25350104.435   102074016.452       -2084.689          45.000  
G13  20023642.133   105224982.881        1471.545          42.000                                                                  
E26  24599061.175                       -3435.005          29.000    24599080.488    99050288.377       -2632.165          32.000  
G22  19781121.713   103950654.004        2653.673          47.000                                                                  
G30  17426716.871    91578071.285       -1654.059          49.000    17426718.636    71359577.235       -1288.874          44.000  
E21  24058389.963   126427801.346        2261.637          44.000    24058409.484    96873372.907        1732.683          47.000  
E30  22264767.343   117002221.012       -2048.930          45.000    22264775.418    89651122.833       -1570.002          48.000  
E19                                                                  24260731.321    97687911.9681        932.596          33.000  
> 2024 04 15 18 52 30.4900000  0 25                     
G05  19293276.621   101386828.574        1461.544          46.000    19293278.223    79002718.698        1138.860          43.000  
E19  24253770.360                        1218.372          30.000    24253779.324    97659918.740         934.043          35.000  
G09  20065276.488   105443605.904       -2959.473          42.000    20065285.228    82163814.181       -2306.188          42.000  
E27  21105603.496   110910866.007         687.588          49.000    21105611.344    84983788.594         526.930          52.000  
G11  21376764.056   112335566.991       -3405.619          35.000    21376772.864    87534300.981       -2653.575          32.000  
R13  16613858.339    88717224.514       -2556.872          40.000    16613859.986    69002382.555       -1988.489          43.000  
R02  18194518.295    97089347.904       -3086.309          53.000    18194524.887    75513921.547       -2400.393          47.000  
R04  19016135.299   101830557.689        2596.205          47.000    19016136.258    79201541.897        2019.387          46.000  
R03  16497917.631    88314762.625         188.708          52.000    16497917.078    68689302.708         146.766          51.000  
E33  23902151.036   125606510.575       -2657.439          43.000    23902163.313    96243991.297       -2036.368          47.000  
G07  18644119.306    97975468.739       -3516.060          50.000    18644120.762    76344514.087       -2739.903          42.000  
S31  35800274.158   188131643.820        -805.372          44.000  
S33  36748827.167   193116317.484        -805.444          42.000  
G14  17957665.741    94368352.271        1316.235          46.000    17957669.083    73533895.002        1025.732          48.000  
G20  17804238.142    93561960.518       -1067.010          47.000                                                                  
R12  19779646.971   105659274.929       -4821.087          51.000    19779653.973    82179436.534       -3749.667          48.000  
R14  17350772.192    92489561.165        1984.260          54.000    17350777.935    71936487.168        1543.456          49.000  
E07  21404347.174   112480553.304       -1625.044          50.000    21404355.034    86186399.761       -1245.141          53.000  
E08  25365621.428   133296968.372       -2723.365          42.000    25365644.276   102136587.663       -2086.870          45.000  
G13  20015241.045   105180834.351        1471.469          43.000                                                                  
E26  24618667.390                1      -3432.883          29.000    24618685.221    99129229.377       -2630.083          31.000  
G22  19765987.890   103871131.337        2647.691          47.000                                                                  
G30  17436189.903    91627855.735       -1664.930          48.000    17436192.299    71398370.274       -1297.137          44.000  
E21  24045484.201   126359984.345        2259.598          44.000    24045503.989    96821409.621        1731.400          48.000  
E30  22276498.748   117063872.722       -2061.230          44.000    22276507.673    89698362.433       -1579.341          49.000  
> 2024 04 15 18 53 00.4900000  0 25                     
G05  19284973.794   101343202.197        1446.824          46.000    19284975.519    78968724.177        1127.216          43.000  
E19  24246810.533   127417834.575        1219.409          32.000    24246819.752    97631896.817         934.279          37.000  
G09  20082191.939   105532493.828       -2966.592          44.000    20082199.855    82233077.282       -2311.525          41.000  
E27  21101714.139   110890430.092         674.769          48.000    21101722.624    84968130.003         517.067          53.000  
G11  21396215.836                       -3409.562          31.000    21396222.802                1      -2656.591          27.000  
R13  16628281.497    88794244.162       -2578.210          41.000    16628283.738    69062286.701       -2005.258          43.000  
R02  18211911.310    97182160.144       -3101.236          52.000    18211919.462    75586108.594       -2412.097          48.000  
R04  19001596.289   101752702.218        2594.047          48.000    19001597.004    79140987.693        2017.649          48.000  
R03  16496903.739    88309340.130         172.615          51.000    16496904.328    68685085.191         134.314          52.000  
E33  23917346.603   125686366.362       -2666.048          43.000    23917359.741    96305179.237       -2042.918          47.000  
G07  18664209.810    98081040.866       -3522.163          51.000    18664210.842    76426777.971       -2744.530          44.000  
S31  35804873.277   188155814.064        -806.010          44.000  
S33  36753425.772   193140482.152        -805.751          42.000  
G14  17950198.349    94329112.563        1299.530          45.000    17950202.276    73503318.742        1012.708          49.000  
G20  17810386.378    93594269.318       -1087.036          47.000                                                                  
R12  19806739.341   105803993.950       -4826.946          51.000    19806745.435    82291995.688       -3754.365          46.000  
R14  17339657.121    92430321.132        1964.839          52.000    17339663.624    71890411.785        1528.157          48.000  
E07  21413639.013   112529381.439       -1630.201          50.000    21413646.940    86223813.441       -1249.117          53.000  
E08  25381179.591   133378722.051       -2726.998          41.000    25381201.666   102199229.661       -2089.300          44.000  
G13  20006842.882   105136698.439        1470.696          42.000                                                                  
G22  19750893.432   103791805.749        2640.662          47.000                                                                  
G30  17445727.973    91677975.343       -1676.429          49.000    17445729.798    71437424.502       -1306.319          45.000  
E21  24032592.676   126292235.257        2256.876          44.000    24032611.425    96769498.371        1729.357          47.000  
E30  22288302.980   117125903.248       -2074.248          44.000    22288312.009    89745892.325       -1589.322          50.000  
E26                                                                  24638280.159                       -2629.459          30.000  
> 2024 04 15 18 53 30.4900000  0 25                     
G05  19276754.941   101300011.217        1432.377          45.000    19276757.166    78935068.910        1116.071          43.000  
E19  24239843.104   127381228.574        1220.829          33.000    24239853.699    97603848.171         935.286          37.000  
G09  20099145.129   105621581.580       -2973.062          43.000    20099152.100    82302496.069       -2316.628          41.000  
E27  21097897.811   110870372.858         662.228          49.000    21097905.877    84952761.580         507.328          52.000  
G11  21415685.473   112540185.3251      -3411.636          29.000    21415694.895                       -2658.925          31.000  
R13  16642824.273    88871900.571       -2599.417          41.000    16642827.004    69122686.107       -2021.721          44.000  
R02  18229388.429    97275412.606       -3115.848          52.000    18229394.802    75658638.113       -2423.500          46.000  
R04  18987068.019   101674909.167        2591.941          48.000    18987069.578    79080482.049        2015.816          47.000  
R03  16495979.804    88304392.098         156.974          51.000    16495980.108    68681236.729         122.105          51.000  
E33  23932589.875   125766471.731       -2674.395          42.000    23932603.784    96366558.405       -2049.293          47.000  
G07  18684332.970    98186788.521       -3527.848          51.000    18684333.064    76509178.683       -2749.093          42.000  
S31  35809474.297   188179993.665        -806.044          44.000  
S33  36758026.241   193164656.808        -806.129          42.000  
G14  17942825.113    94290365.712        1283.148          46.000    17942828.587    73473126.533         999.805          49.000  
G20  17816647.350    93627171.522       -1106.781          47.000                                                                  
R12  19833862.919   105948880.626       -4832.387          51.000    19833868.029    82404685.269       -3758.635          46.000  
R14  17328651.886    92371657.002        1945.731          53.000    17328658.835    71844784.275        1513.272          49.000  
E07  21422959.326   112578359.763       -1635.287          49.000    21422967.402    86261342.212       -1252.994          53.000  
E08  25396754.720   133460570.835       -2729.923          39.000    25396776.450   102261944.566       -2091.669          43.000  
G13  19998447.424   105092578.420        1470.125          42.000                                                                  
E26  24657838.979                       -3428.832          31.000    24657856.971                       -2627.142          26.000  
G22  19735836.245   103712682.517        2633.851          47.000                                                                  
G30  17455329.753    91728431.043       -1687.556          49.000    17455331.933    71476740.629       -1315.182          45.000  
E21  24019713.107   126224558.347        2254.485          44.000    24019732.129    96717642.459        1727.423          47.000  
E30  22300179.480   117188314.036       -2086.700          45.000    22300188.199    89793713.574       -1598.984          49.000  
> 2024 04 15 18 54 00.4900000  0 25                     
G05  19268619.381   101257256.972        1417.865          46.000    19268621.876    78901753.959        1104.777          45.000  
E19  24232872.495   127344587.587        1221.963          33.000    24232880.690    97575772.730         936.186          35.000  
G09  20116135.242   105710869.010       -2979.448          43.000    20116144.023    82372070.414       -2321.425          42.000  
E27  21094153.248   110850695.133         649.730          49.000    21094160.982    84937683.916         497.874          52.000  
G11  21435168.484   112642568.851       -3413.958          32.000    21435178.819                       -2659.849          27.000  
R13  16657486.223    88950190.438       -2620.050          41.000    16657488.407    69183578.228       -2037.827          44.000  
R02  18246945.415    97369104.586       -3130.252          52.000    18246952.017    75731509.412       -2434.740          46.000  
R04  18972553.843   101597180.700        2590.028          48.000    18972553.528    79020026.634        2014.442          46.000  
R03  16495143.930    88299920.732         141.172          51.000    16495144.102    68677759.006         109.755          50.000  
E33  23947881.292   125846824.379       -2682.404          43.000    23947894.299    96428127.036       -2055.317          47.000  
G07  18704489.329    98292709.480       -3533.453          51.000    18704489.039    76591714.420       -2753.298          43.000  
S31  35814078.225   188204183.389        -806.727          44.000  
S33  36762628.159   193188841.908        -806.251          42.000  
G14  17935546.496    94252113.762        1266.907          48.000    17935549.532    73443319.956         987.122          49.000  
G20  17823021.382    93660666.768       -1126.245          47.000                                                                  
R12  19861016.582   106093930.977       -4837.542          51.000    19861022.182    82517502.117       -3762.486          45.000  
R14  17317754.644    92313570.595        1926.566          53.000    17317762.420    71799606.122        1498.436          49.000  
E07  21432308.066   112627488.657       -1639.991          49.000    21432316.352    86298986.348       -1256.625          53.000  
E08  25412347.733   133542514.691       -2733.043          40.000    25412371.391   102324732.386       -2094.129          45.000  
G13  19990055.041   105048474.153        1469.785          43.000                                                                  
E26  24677411.010                1      -3425.953          27.000    24677425.429                       -2625.352          29.000  
G22  19720818.549   103633764.302        2627.312          47.000                                                                  
G30  17464994.687    91779221.068       -1698.389          49.000    17464996.317    71516317.242       -1323.580          44.000  
E21  24006848.322   126156955.145        2252.288          43.000    24006867.530    96665842.972        1725.720          47.000  
E30  22312129.413   117251103.695       -2099.107          46.000    22312136.675    89841825.130       -1608.438          50.000  
> 2024 04 15 18 54 30.4900000  0 25                     
G05  19260566.476   101214936.518        1403.597          47.000    19260568.257    78868777.014        1093.613          44.000  
E19  24225889.557   127307906.321        1223.763          33.000    24225900.157    97547666.425         937.372          36.000  
G09  20133163.646   105800350.685       -2985.798          44.000    20133172.359    82441796.138       -2326.555          42.000  
E27  21090479.420   110831392.406         637.183          48.000    21090487.624    84922893.584         488.210          52.000  
G11  21454667.335                3      -3416.792          29.000    21454675.112                1      -2661.975          25.000  
R13  16672263.250    89029105.018       -2641.053          40.000    16672266.608    69244956.166       -2053.812          44.000  
R02  18264583.712    97463229.923       -3144.588          50.000    18264591.454    75804717.807       -2445.700          46.000  
R04  18958049.814   101519513.685        2587.979          48.000    18958049.543    78959619.069        2012.735          46.000  
R03  16494398.256    88295923.186         125.358          51.000    16494397.487    68674649.787          97.549          50.000  
E33  23963218.160   125927416.834       -2690.264          44.000    23963230.871    96489879.447       -2061.452          46.000  
G07  18724677.048    98398796.023       -3538.956          51.000    18724677.751    76674379.163       -2757.605          43.000  
S31  35818681.996   188228377.519        -806.329          42.000  
S33  36767231.393   193213030.736        -806.344          43.000  
G14  17928361.249    94214353.345        1250.537          47.000    17928363.785    73413896.388         974.622          49.000  
G20  17829507.348    93694749.217       -1145.868          47.000                                                                  
R12  19888198.615   106239135.615       -4842.581          50.000    19888204.663    82630438.961       -3766.473          46.000  
R14  17306965.106    92256058.737        1907.609          52.000    17306972.818    71754874.867        1483.603          49.000  
E07  21441684.434   112676763.198       -1644.884          49.000    21441693.067    86336742.102       -1260.237          53.000  
E08  25427959.324   133624548.282       -2735.860          41.000    25427981.706   102387588.961       -2096.322          44.000  
G13  19981664.250   105004381.092        1469.839          43.000                                                                  
G22  19705839.733   103555048.324        2620.658          47.000                                                                  
G30  17474722.350    91830338.314       -1709.285          50.000    17474723.784    71556148.836       -1331.905          45.000  
E21  23993996.220   126089421.836        2249.880          42.000    23994016.017    96614097.027        1723.959          47.000  
E30  22324148.027   117314265.641       -2111.477          45.000    22324156.126    89890221.945       -1617.821          50.000  
E26                                                                  24696979.348                       -2623.103          28.000  
> 2024 04 15 18 55 00.4900000  0 25                     
G05  19252595.908   101173051.412        1388.777          47.000    19252598.005    78836139.291        1082.116          45.000  
E19  24218904.234   127271183.904        1224.560          35.000    24218911.663    97519528.560         938.172          36.000  
G09  20150229.261   105890025.698       -2992.442          46.000    20150236.866    82511672.506       -2331.764          42.000  
E27  21086878.369   110812464.706         624.528          49.000    21086885.956    84908390.620         478.575          52.000  
G11  21474163.671                1      -3419.282          30.000    21474182.931                3      -2664.178          22.000  
R13  16687157.744    89108640.030       -2661.577          40.000    16687160.877    69306816.745       -2070.420          43.000  
R02  18282304.477    97557787.443       -3159.242          51.000    18282311.451    75878262.313       -2457.050          46.000  
R04  18943557.520   101441909.884        2585.417          49.000    18943558.552    78899260.639        2011.053          47.000  
R03  16493740.105    88292401.035         109.321          51.000    16493739.275    68671910.339          85.049          51.000  
E33  23978599.448   126008246.032       -2698.298          45.000    23978612.077    96551813.244       -2067.549          46.000  
G07  18744895.471    98505045.478       -3544.565          51.000    18744896.157    76757170.859       -2761.960          42.000  
S31  35823286.760   188252574.157        -807.000          43.000  
S33  36771835.207   193237222.854        -806.730          42.000  
G14  17921269.639    94177085.758        1233.868          47.000    17921271.400    73384856.843         961.420          48.000  
G20  17836104.495    93729417.171       -1165.588          47.000                                                                  
R12  19915409.575   106384490.092       -4847.682          50.000    19915415.427    82743492.330       -3770.365          46.000  
R14  17296284.092    92199122.654        1888.144          51.000    17296291.290    71710591.403        1468.553          48.000  
E07  21451087.129   112726183.044       -1649.858          47.000    21451097.423    86374609.184       -1264.170          53.000  
E08  25443587.064   133706670.864       -2739.012          40.000    25443609.671   102450513.735       -2098.593          43.000  
G13  19973274.962   104960297.764        1469.094          43.000                                                                  
G22  19690899.002   103476536.728        2613.454          46.000                                                                  
G30  17484510.808    91881780.214       -1720.326          49.000    17484512.719    71596233.440       -1340.516          45.000  
E21  23981159.052   126021959.146        2247.495          43.000    23981177.709    96562405.211        1722.169          47.000  
E30  22336237.628   117377797.670       -2124.152          45.000    22336246.042    89938902.342       -1627.517          50.000  
E26                                                                  24716516.710                3      -2620.746          25.000  
> 2024 04 15 18 55 30.4900000  0 25                     
G05  19244708.581   101131602.037        1374.230          47.000    19244710.322    78803841.080        1070.991          45.000  
E19  24211906.728   127234418.702        1226.227          34.000    24211915.226    97491357.958         939.859          34.000  
G09  20167329.111   105979892.309       -2998.910          44.000    20167338.647    82581698.178       -2336.857          42.000  
E27  21083347.709   110793911.200         612.154          49.000    21083355.692    84894174.361         469.018          53.000  
G11  21493690.268   112950093.5131      -3420.741          30.000    21493718.880                       -2665.009          31.000  
R13  16702167.816    89188790.159       -2682.006          41.000    16702169.444    69369155.704       -2086.024          43.000  
R02  18300104.693    97652774.542       -3173.429          50.000    18300111.599    75952140.946       -2468.213          46.000  
R04  18929077.387   101364370.050        2583.404          49.000    18929078.528    78838951.942        2009.307          47.000  
R03  16493171.114    88289354.931          93.432          52.000    16493170.652    68669541.131          72.724          51.000  
E33  23994025.737   126089308.127       -2706.173          46.000    23994038.270    96613925.475       -2073.459          46.000  
G07  18765144.570    98611453.844       -3549.611          50.000    18765145.801    76840086.394       -2765.928          43.000  
S31  35827891.980   188276772.830        -806.842          44.000  
S33  36776439.117   193261416.411        -806.663          42.000  
G14  17914270.571    94140311.266        1217.584          46.000    17914272.942    73356201.492         948.615          47.000  
G20  17842812.856    93764668.375       -1184.918          47.000                                                                  
R12  19942647.109   106529989.059       -4852.375          49.000    19942654.126    82856658.102       -3774.119          46.000  
R14  17285711.315    92142762.499        1868.943          52.000    17285717.521    71666755.912        1453.524          48.000  
E07  21460519.367   112775746.900       -1654.636          47.000    21460529.085    86412586.606       -1267.875          53.000  
E08  25459230.039   133788880.779       -2742.190          39.000    25459254.485   102513505.369       -2100.986          45.000  
G13  19964887.241   104916223.399        1468.894          41.000                                                                  
G22  19675997.743   103398230.586        2606.612          47.000                                                                  
G30  17494360.891    91933543.391       -1730.804          49.000    17494363.339    71636568.364       -1348.609          45.000  
E21  23968335.182   125954566.981        2245.198          43.000    23968353.573    96510767.418        1720.286          48.000  
E30  22348396.850   117441696.730       -2136.233          44.000    22348405.814    89987863.968       -1636.714          51.000  
E26                                                                  24736035.743                3      -2621.752          22.000  
> 2024 04 15 18 56 00.4900000  0 25                     
G05  19236904.808   101090595.265        1359.418          47.000    19236906.865    78771887.782        1059.341          44.000  
E19  24204902.263   127197615.962        1227.377          34.000    24204911.753    97463158.590         940.172          34.000  
G09  20184467.628   106069955.597       -3005.365          44.000    20184477.006    82651877.071       -2341.735          42.000  
E27  21079889.511   110775737.882         599.495          50.000    21079897.234    84880249.405         459.342          53.000  
G11  21513232.709   113052754.950       -3423.333          33.000    21513250.314                       -2667.494          27.000  
R13  16717292.767    89269557.381       -2702.406          41.000    16717294.506    69431974.624       -2101.817          43.000  
R02  18317987.031    97748196.242       -3187.966          50.000    18317993.925    76026357.607       -2479.619          45.000  
R04  18914611.063   101286901.941        2581.059          49.000    18914613.147    78778699.039        2007.430          47.000  
R03  16492691.725    88286792.770          77.303          52.000    16492692.397    68667548.333          60.134          51.000  
E33  24009496.815   126170606.103       -2713.814          45.000    24009509.158    96676218.418       -2079.360          47.000  
G07  18785424.023    98718024.291       -3555.036          50.000    18785425.130    76923128.218       -2770.028          41.000  
S31  35832497.751   188300977.511        -807.094          44.000  
S33  36781044.743   193285616.873        -806.528          42.000  
G14  17907367.084    94104037.008        1200.793          46.000    17907370.314    73327935.958         935.590          48.000  
G20  17849632.505    93800507.777       -1204.407          47.000                                                                  
R12  19969912.196   106675633.781       -4857.315          48.000    19969918.996    82969937.205       -3777.822          47.000  
R14  17275247.200    92086985.308        1849.553          52.000    17275253.098    71623373.840        1438.449          48.000  
E07  21469981.552   112825460.377       -1659.527          49.000    21469989.238    86450678.682       -1271.645          53.000  
E08  25474891.039   133871183.136       -2744.701          38.000    25474915.845   102576567.881       -2103.219          44.000  
G13  19956502.955   104872163.659        1468.210          40.000                                                                  
G22  19661136.977   103320137.632        2599.465          47.000                                                                  
G30  17504273.427    91985631.244       -1741.738          50.000    17504275.204    71677156.276       -1357.272          45.000  
E21  23955524.313   125887252.032        2242.585          44.000    23955543.530    96459188.825        1718.401          48.000  
E30  22360626.834   117505966.722       -2148.431          44.000    22360636.069    90037109.792       -1646.193          51.000  
E26                                                                  24755542.767                3      -2612.432          15.000  
> 2024 04 15 18 56 30.4900000  0 24                     
G05  19229185.430   101050027.307        1344.887          48.000    19229186.465    78740276.411        1048.094          44.000  
E19  24197890.925   127160769.363        1229.098          33.000    24197900.542    97434925.568         941.380          36.000  
G09  20201642.967   106160208.984       -3011.561          45.000    20201652.166    82722204.112       -2346.761          43.000  
E27  21076502.410   110757939.177         587.019          49.000    21076509.863    84866611.493         449.852          52.000  
G11  21532779.756                       -3424.796          31.000    21532794.644                       -2668.207          29.000  
R13  16732531.137    89350931.637       -2722.885          41.000    16732534.094    69495265.693       -2117.237          43.000  
R02  18335949.043    97844045.114       -3202.136          52.000    18335957.216    76100906.459       -2490.370          46.000  
R04  18900157.004   101209501.508        2578.768          48.000    18900159.189    78718498.780        2005.780          48.000  
R03  16492303.099    88284710.146          61.366          52.000    16492302.262    68665928.523          47.803          50.000  
E33  24025009.769   126252131.331       -2721.310          45.000    24025023.425    96738685.515       -2085.101          47.000  
G07  18805732.563    98824748.009       -3559.985          49.000    18805733.688    77006289.485       -2774.304          42.000  
S31  35837103.910   188325182.271        -806.824          43.000  
S33  36785649.366   193309817.214        -806.648          42.000  
G14  17900558.440    94068258.616        1184.351          46.000    17900562.010    73300056.840         922.900          48.000  
G20  17856562.355    93836928.290       -1223.773          46.000                                                                  
R12  19997202.289   106821414.133       -4861.599          48.000    19997208.940    83083321.788       -3781.216          46.000  
R14  17264891.648    92031786.556        1830.278          52.000    17264897.553    71580441.633        1423.540          48.000  
E07  21479467.703   112875317.499       -1664.202          48.000    21479477.062    86488880.852       -1275.223          54.000  
E08  25490571.136   133953571.698       -2747.831          40.000    25490594.727   102639696.417       -2105.396          45.000  
G13  19948119.814   104828112.206        1468.208          40.000                                                                  
G22  19646316.106   103242253.992        2592.531          48.000                                                                  
G30  17514245.311    92038035.594       -1752.057          50.000    17514247.471    71717990.858       -1365.388          44.000  
E21  23942728.392   125820009.491        2240.160          45.000    23942747.416    96407665.695        1716.357          48.000  
E30  22372925.398   117570599.791       -2160.651          44.000    22372934.985    90086633.848       -1655.413          51.000  
> 2024 04 15 18 57 00.4900000  0 24                     
G05  19221550.191   101009901.241        1329.935          49.000    19221551.475    78709009.354        1036.390          45.000  
E19  24190871.533   127123880.020        1230.030          35.000    24190880.855    97406659.852         942.724          36.000  
G09  20218854.638   106250653.360       -3018.162          45.000    20218864.137    82792679.990       -2351.802          43.000  
E27  21073186.514   110740516.846         574.254          49.000    21073194.615    84853261.969         440.043          52.000  
G11  21552338.057   113258302.2261      -3427.119          35.000    21552350.415                1      -2669.962          32.000  
R13  16747883.004    89432910.645       -2742.955          41.000    16747886.255    69559027.127       -2133.471          44.000  
R02  18353992.931    97940321.523       -3216.514          52.000    18353999.075    76175787.928       -2501.697          46.000  
R04  18885716.145   101132172.304        2576.001          48.000    18885717.967    78658353.875        2003.816          48.000  
R03  16492004.418    88283110.617          45.001          52.000    16492003.227    68664684.438          34.974          50.000  
E33  24040566.461   126333882.525       -2728.938          44.000    24040580.167    96801325.759       -2090.935          47.000  
G07  18826070.541    98931624.207       -3565.206          49.000    18826071.830    77089569.531       -2778.241          41.000  
S31  35841709.621   188349387.228        -807.100          43.000  
S33  36790255.102   193334017.793        -806.853          42.000  
G14  17893844.791    94032979.002        1167.493          47.000    17893848.175    73272566.370         909.656          47.000  
G20  17863604.172    93873930.108       -1243.268          45.000                                                                  
R12  20024517.596   106967327.238       -4866.095          48.000    20024523.868    83196809.674       -3784.960          45.000  
R14  17254645.806    91977169.328        1810.664          53.000    17254652.688    71537961.727        1408.234          50.000  
E07  21488983.684   112925319.730       -1669.323          48.000    21488992.246    86527194.199       -1279.087          54.000  
E08  25506265.316   134036047.304       -2750.846          41.000    25506289.216   102702891.664       -2107.855          44.000  
G13  19939739.318   104784070.381        1467.582          42.000                                                                  
G22  19631535.092   103164583.506        2585.278          46.000                                                                  
G30  17524277.862    92090755.765       -1762.746          50.000    17524280.262    71759071.471       -1373.500          45.000  
E21  23929946.698   125752841.896        2237.611          45.000    23929965.367    96356199.959        1714.435          48.000  
E30  22385293.974   117635595.603       -2172.750          44.000    22385303.309    90136435.826       -1664.781          51.000  
> 2024 04 15 18 57 30.4900000  0 24                     
G05  19213999.997   100970225.978        1314.693          49.000    19214001.307    78678093.580        1024.550          45.000  
E19  24183845.632   127086954.199        1230.966          33.000    24183854.711    97378366.168         943.344          36.000  
G09  20236103.271   106341295.229       -3024.878          44.000    20236111.708    82863309.713       -2357.144          42.000  
E27  21069944.567   110723478.259         561.319          49.000    21069952.177    84840206.466         430.087          52.000  
G11  21571904.949   113361136.452       -3428.716          35.000    21571920.054                       -2671.862          32.000  
R13  16763348.770    89515497.300       -2763.419          41.000    16763351.950    69623261.164       -2149.148          44.000  
R02  18372115.963    98037031.341       -3231.198          51.000    18372122.490    76251006.440       -2513.253          46.000  
R04  18871290.313   101054923.498        2573.354          48.000    18871291.142    78598271.504        2001.574          46.000  
R03  16491797.927    88282002.908          28.426          52.000    16491795.852    68663822.872          22.155          50.000  
E33  24056167.211   126415864.108       -2736.522          43.000    24056180.940    96864142.525       -2097.070          46.000  
G07  18846437.963    99038657.169       -3570.565          47.000    18846440.129    77172971.731       -2782.261          42.000  
S31  35846317.168   188373598.622        -807.390          44.000  
S33  36794861.520   193358226.120        -807.180          41.000  
G14  17887228.935    93998206.730        1150.287          48.000    17887230.661    73245471.189         896.436          47.000  
G20  17870757.933    93911519.151       -1263.025          47.000                                                                  
R12  20051857.603   107113376.213       -4870.738          47.000    20051865.020    83310403.177       -3788.540          46.000  
R14  17244510.385    91923142.144        1790.797          52.000    17244517.293    71495940.748        1392.806          50.000  
E07  21498527.867   112975474.025       -1674.650          48.000    21498536.035    86565624.052       -1283.180          53.000  
E08  25521977.028   134118616.500       -2754.233          41.000    25522001.604   102766158.596       -2110.207          45.000  
G13  19931362.624   104740045.001        1467.008          42.000                                                                  
G22  19616796.696   103087135.303        2577.619          45.000                                                                  
G30  17534371.275    92143796.516       -1773.611          50.000    17534372.947    71800401.913       -1381.928          45.000  
E21  23917180.913   125685757.331        2234.625          45.000    23917199.224    96304797.870        1712.146          47.000  
E30  22397733.809   117700959.375       -2185.214          45.000    22397741.800    90186519.734       -1674.380          51.000  
> 2024 04 15 18 58 00.4900000  0 24                     
G05  19206534.305   100930995.167        1300.412          48.000    19206536.047    78647524.161        1013.075          44.000  
E19  24176810.163   127049983.936        1232.899          33.000    24176818.975    97350038.484         944.508          36.000  
G09  20253387.651   106432125.970       -3030.810          44.000    20253396.089    82934086.670       -2361.651          41.000  
E27  21066773.858   110706815.779         549.188          50.000    21066781.605    84827439.168         420.765          53.000  
G11  21591483.973   113464018.168       -3430.566          36.000    21591495.455                       -2672.572          27.000  
R13  16778926.709    89598679.509       -2782.665          41.000    16778929.456    69687958.444       -2164.108          44.000  
R02  18390317.971    98134165.700       -3244.772          50.000    18390326.534    76326555.142       -2523.873          47.000  
R04  18856878.719   100977749.030        2571.318          48.000    18856879.884    78538247.040        1999.844          48.000  
R03  16491681.434    88281380.715          12.680          51.000    16491680.615    68663338.959           9.882          51.000  
E33  24071810.718   126498065.461       -2743.755          44.000    24071823.465    96927127.691       -2102.316          46.000  
G07  18866834.006    99145836.383       -3574.948          49.000    18866835.192    77256487.942       -2785.566          41.000  
S31  35850924.345   188397809.026        -807.043          44.000  
S33  36799467.828   193382431.940        -806.764          42.000  
G14  17880707.242    93963935.287        1134.033          48.000    17880709.093    73218766.273         883.673          48.000  
G20  17878020.348    93949686.749       -1281.671          47.000                                                                  
R12  20079222.629   107259548.760       -4874.435          48.000    20079228.250    83424092.803       -3791.112          45.000  
R14  17234485.079    91869698.292        1771.782          52.000    17234490.786    71454373.419        1378.026          50.000  
E07  21508098.550   113025772.427       -1678.969          47.000    21508107.620    86604164.339       -1286.518          54.000  
E08  25537706.095   134201270.934       -2756.466          42.000    25537730.983   102829490.885       -2112.101          45.000  
G13  19922985.869   104696028.289        1467.028          43.000                                                                  
G22  19602099.672   103009903.922        2570.679          44.000                                                                  
G30  17544524.046    92197147.746       -1783.533          50.000    17544525.372    71841974.284       -1389.839          45.000  
E21  23904429.152   125618748.988        2232.381          45.000    23904447.735    96253454.158        1710.434          48.000  
E30  22410240.652   117766681.290       -2196.675          44.000    22410247.866    90236878.071       -1683.133          51.000  
> 2024 04 15 18 58 30.4900000  0 24                     
G05  19199153.733   100892210.930        1285.146          49.000    19199155.697    78617302.678        1001.345          45.000  
E19  24169766.818                        1234.690          30.000    24169775.194    97321676.802         945.928          36.000  
G09  20270708.651   106523145.931       -3037.319          43.000    20270718.165    83005011.010       -2366.873          43.000  
E27  21063674.516   110690530.531         536.364          49.000    21063682.332    84814960.903         410.989          52.000  
G11  21611071.268   113566944.598       -3431.599          34.000    21611076.172                1      -2674.045          28.000  
R13  16794615.172    89682454.399       -2802.436          42.000    16794618.299    69753116.661       -2179.678          45.000  
R02  18408600.007    98231723.956       -3259.198          49.000    18408608.675    76402433.492       -2534.813          46.000  
R04  18842480.832   100900651.944        2568.458          47.000    18842481.984    78478282.752        1997.660          48.000  
R03  16491655.686    88281246.972          -3.842          50.000    16491655.530    68663234.909          -3.018          51.000  
E33  24087494.266   126580484.673       -2751.073          43.000    24087507.362    96990279.781       -2107.997          46.000  
G07  18887257.369    99253160.748       -3579.992          49.000    18887258.332    77340117.201       -2789.625          41.000  
S31  35855531.446   188422018.764        -806.976          44.000  
S33  36804074.174   193406636.904        -806.787          40.000  
G14  17874281.099    93930166.891        1117.163          47.000    17874283.160    73192453.355         870.410          47.000  
G20  17885393.461    93988431.993       -1301.282          47.000                                                                  
R12  20106609.517   107405841.325       -4878.591          47.000    20106614.629    83537875.811       -3794.471          45.000  
R14  17224568.012    91816840.005        1751.989          51.000    17224574.720    71413261.545        1362.702          49.000  
E07  21517698.120   113076215.715       -1684.113          47.000    21517706.689    86642815.620       -1290.343          54.000  
E08  25553452.431   134284010.991       -2759.460          42.000    25553476.613   102892888.750       -2114.306          45.000  
G13  19914610.866   104652020.513        1466.478          42.000                                                                  
G22  19587445.527   102932892.432        2563.240          47.000                                                                  
G30  17554735.224    92250808.004       -1794.002          50.000    17554737.008    71883787.485       -1397.895          45.000  
E21  23891692.464   125551818.706        2229.518          45.000    23891711.272    96202170.268        1708.379          48.000  
E30  22422813.928   117832760.294       -2208.705          43.000    22422822.377    90287509.999       -1692.353          51.000  
> 2024 04 15 18 59 00.4900000  0 24                     
G05  19191859.846   100853881.278        1270.167          48.000    19191861.692    78587435.440         989.592          45.000  
E19  24162716.877                        1236.111          30.000    24162724.225    97293285.869         947.244          37.000  
G09  20288066.845   106614360.902       -3043.757          43.000    20288075.847    83076087.358       -2371.828          42.000  
E27  21060648.676   110674629.314         523.629          49.000    21060656.877    84802776.893         401.244          53.000  
G11  21630666.755   113669918.525       -3433.346          33.000    21630677.072    88573999.0971      -2675.687          35.000  
R13  16810414.836    89766824.231       -2822.072          41.000    16810417.987    69818737.660       -2195.073          44.000  
R02  18426964.182    98329711.354       -3273.273          51.000    18426972.648    76478645.659       -2545.890          47.000  
R04  18828098.917   100823640.699        2565.674          47.000    18828099.699    78418385.245        1995.528          47.000  
R03  16491723.297    88281610.243         -20.382          51.000    16491723.389    68663517.481         -15.814          51.000  
E33  24103220.533   126663125.532       -2758.407          44.000    24103233.850    97053601.726       -2113.485          46.000  
G07  18907708.400    99360633.058       -3584.803          48.000    18907709.585    77423861.838       -2793.568          41.000  
S31  35860138.680   188446231.627        -807.116          44.000  
S33  36808681.071   193430846.815        -806.981          41.000  
G14  17867952.058    93896909.491        1100.012          47.000    17867953.988    73166538.604         857.153          47.000  
G20  17892877.539    94027760.646       -1320.599          47.000                                                                  
R12  20134017.779   107552256.603       -4882.542          45.000    20134024.377    83651754.185       -3797.251          45.000  
R14  17214763.553    91764575.352        1732.416          52.000    17214768.754    71372611.390        1347.549          48.000  
E07  21527326.079   113126810.303       -1688.961          47.000    21527334.486    86681582.866       -1294.152          54.000  
E08  25569215.368   134366842.641       -2762.571          44.000    25569239.578   102956356.823       -2116.779          46.000  
G13  19906239.454   104608028.312        1466.192          43.000                                                                  
G22  19572834.376   102856109.411        2555.655          47.000                                                                  
G30  17565005.639    92304781.592       -1804.310          50.000    17565007.663    71925844.800       -1405.854          45.000  
E21  23878971.858   125484974.104        2226.874          44.000    23878990.989    96150952.034        1706.189          48.000  
E30  22435456.285   117899201.020       -2220.747          43.000    22435465.621    90338419.124       -1701.584          51.000  
> 2024 04 15 18 59 30.4900000  0 24                     
G05  19184650.716   100815997.620        1255.454          48.000    19184652.249    78557915.731         978.227          45.000  
E19  24155651.831                1       1237.904          28.000    24155663.935    97264857.160         948.635          37.000  
G09  20305458.592   106705759.519       -3049.431          42.000    20305468.583    83147306.829       -2376.122          42.000  
E27  21057693.795   110659101.566         511.474          49.000    21057701.860    84790879.043         391.962          53.000  
G11  21650267.077   113772925.586       -3432.850          32.000    21650280.873    88654263.770       -2675.491          33.000  
R13  16826322.965    89851774.281       -2841.144          41.000    16826325.901    69884809.894       -2209.814          44.000  
R02  18445407.343    98428115.824       -3286.949          52.000    18445413.111    76555182.263       -2556.504          47.000  
R04  18813731.585   100746706.813        2563.389          46.000    18813733.261    78358547.865        1993.702          48.000  
R03  16491881.674    88282461.193         -36.494          50.000    16491882.761    68664179.320         -28.311          51.000  
E33  24118986.134   126745974.552       -2764.822          44.000    24119000.254    97117083.165       -2118.592          47.000  
G07  18928186.196    99468240.446       -3589.051          48.000    18928186.527    77507711.624       -2796.767          42.000  
S31  35864745.448   188470438.439        -806.709          44.000  
S33  36813286.508   193455049.589        -806.672          42.000  
G14  17861718.578    93864153.685        1083.612          47.000    17861721.147    73141014.716         844.342          47.000  
G20  17900470.022    94067660.077       -1339.362          47.000                                                                  
R12  20161448.116   107698779.310       -4885.676          45.000    20161454.182    83765716.207       -3799.978          45.000  
R14  17205066.763    91712894.202        1713.058          53.000    17205073.664    71332415.006        1332.451          48.000  
E07  21536980.499   113177545.407       -1693.314          47.000    21536989.182    86720457.772       -1297.498          54.000  
E08  25584992.049   134449754.557       -2764.773          43.000    25585017.260   103019886.401       -2118.644          46.000  
G13  19897868.721   104564040.855        1466.078          43.000                                                                  
G22  19558265.262   102779546.553        2548.491          47.000                                                                  
G30  17575333.604    92359055.557       -1814.034          50.000    17575336.129    71968136.203       -1413.403          46.000  
E21  23866266.428   125418205.473        2224.483          44.000    23866284.286    96099792.006        1704.341          47.000  
E30  22448167.103   117965990.828       -2232.049          44.000    22448175.101    90389595.683       -1710.199          50.000  
