     3.00           OBSERVATION DATA    M: Mixed            RINEX VERSION / TYPE
CONVBIN 2.4.3                           20240415 034442 UTC PGM / RUN BY / DATE 
format: u-blox UBX                                          COMMENT             
log: /home/regis/git/gnsspwv/obsdata/VERT00CHL/2024-04-15/VECOMMENT             
{self.marker}                                               MARKER NAME         
                                                            MARKER NUMBER       
GEODETIC                                                    MARKER TYPE         
{self.observer}     {self.institution}                      OBSERVER / AGENCY   
UNKNOWN             UBLOX-ZED-F9P                           REC # / TYPE / VERS 
UNKNOWN             TWIVSP6037L                             ANT # / TYPE        
  1713381.0000 -5047934.0000 -3490983.0000                  APPROX POSITION XYZ 
        0.0000        0.0000        0.0000                  ANTENNA: DELTA H/E/N
G    8 C1C L1C D1C S1C C2L L2L D2L S2L                      SYS / # / OBS TYPES 
R    8 C1C L1C D1C S1C C2C L2C D2C S2C                      SYS / # / OBS TYPES 
E    8 C1C L1C D1C S1C C7Q L7Q D7Q S7Q                      SYS / # / OBS TYPES 
S    4 C1C L1C D1C S1C                                      SYS / # / OBS TYPES 
  2024    04    15    03    30   00.0120000     GPS         TIME OF FIRST OBS   
  2024    04    15    03    44   30.0120000     GPS         TIME OF LAST OBS    
                                                            END OF HEADER       
> 2024 04 15 03 30 00.0120000  0 26                     
S33  43238615.941   227220592.5201       -724.742          42.000  
E02  29088264.363   152859873.0251       1225.200          45.000    29088264.306   117126427.0211        938.740          48.000  
G28  24909577.564   130900699.8041        164.678          47.000    24909573.819   102000530.9601        128.307          48.000  
E36  28230285.365   148351478.3051       1670.213          47.000    28230287.167   113672119.6771       1279.903          51.000  
R20  26604377.701                3       3196.062          22.000    26604395.992                        2481.872          32.000  
R09  24309271.262   129810155.3871       2335.028          52.000    24309266.613   100963717.9241       1816.162          50.000  
R16  22899435.498   122324840.5251      -1182.237          52.000    22899431.816    95141457.4641       -919.465          50.000  
G20  27393567.537   143954153.8641       -676.642          40.000                                                                  
E11  26293497.561   138173669.5201       -864.652          45.000    26293493.930   105873560.0041       -662.501          48.000  
G18  25809356.129   135629413.7511       2542.071          47.000    25809354.551   105685362.5801       1980.899          46.000  
G29  24218215.307   127267987.6821      -1180.781          49.000    24218211.253    99170131.9391       -919.970          47.000  
S31  42284890.874   222208714.1391       -724.528          44.000  
R15  25995547.644   138912521.7661      -4089.982          52.000    25995545.109   108043238.6371      -3181.015          46.000  
R18  23703944.975   126533371.5241      -3442.274          51.000    23703942.117    98415138.7851      -2677.395          51.000  
R19  22796910.658   121948455.7381       -226.307          42.000    22796905.222    94848401.3951       -176.000          48.000  
G05  27645906.306   145280279.0731        975.569          46.000    27645902.400   113205419.4841        760.426          42.000  
G11  28137137.993   147861556.2981      -3985.896          42.000    28137132.733   115217444.1991      -3106.067          39.000  
E24  29457793.966   154801870.8541      -2293.259          46.000    29457794.087   118614479.4141      -1757.196          51.000  
G12  25989883.931   136578064.0621      -2465.559          47.000    25989878.907   106424592.0231      -1921.378          43.000  
G25  24078738.811   126534862.1401      -1013.043          49.000    24078736.320    98598666.5991       -789.349          44.000  
E10  28626760.811   150435145.3961      -2334.185          46.000    28626760.461   115268743.5431      -1788.688          50.000  
E25  27030474.259   142046414.5281       -414.238          47.000    27030475.804   108840915.1771       -317.331          52.000  
E12  30640104.575   161015203.5201      -3197.889          42.000    30640100.977   123375506.2201      -2450.383          43.000  
G31  26917765.879   141453758.2691       2092.508          41.000    26917759.754   110223783.4851       1630.802          38.000  
E14  30702897.453   161344968.6241      -4181.051          43.000    30702897.894   123628019.8291      -3203.639          50.000  
E03                                                                  31330454.997                3      -2268.446          20.000  
> 2024 04 15 03 30 30.0120000  0 26                     
S33  43242754.607   227242341.922        -725.590          43.000  
E02  29081269.601   152823120.925        1224.374          45.000    29081270.639   117098266.356         938.198          48.000  
G28  24908691.489   130896045.179         145.131          46.000    24908688.477   101996903.954         113.085          48.000  
E36  28220775.694   148301507.947        1660.434          47.000    28220778.159   113633830.762        1272.311          51.000  
R20  26586516.272                2       3181.648          27.000    26586517.948   110576634.254        2473.935          32.000  
R09  24296178.896   129740243.470        2325.256          52.000    24296174.496   100909341.988        1808.545          50.000  
R16  22906131.965   122360611.519       -1203.108          51.000    22906127.673    95169279.353        -935.680          49.000  
G20  27397479.190   143974709.360        -694.348          41.000                                                                  
E11  26298474.629   138199824.538        -879.409          45.000    26298471.135   105893600.861        -673.838          48.000  
G18  25794873.115   135553304.713        2531.226          47.000    25794871.059   105626056.969        1972.446          45.000  
G29  24224982.381   127303549.554       -1190.571          49.000    24224978.296    99197842.506        -927.711          47.000  
S31  42289026.747   222230446.282        -724.835          44.000  
R15  26018539.892   139035387.329       -4101.623          51.000    26018536.333   108138800.669       -3190.092          46.000  
R18  23723332.036   126636864.290       -3457.681          51.000    23723330.606    98495633.130       -2689.272          52.000  
R19  22798246.458   121955602.465        -250.858          41.000    22798241.194    94853959.998        -194.970          48.000  
G05  27640364.747   145251156.168         965.345          44.000    27640360.307   113182726.369         751.989          42.000  
G11  28159915.242   147981251.360       -3994.250          41.000    28159909.726   115310713.056       -3112.184          38.000  
E24  29470899.640   154870748.440       -2299.190          44.000    29470900.583   118667255.714       -1761.601          51.000  
G12  26003982.401   136652153.927       -2474.059          47.000    26003977.447   106482324.323       -1927.854          43.000  
G25  24084552.358   126565412.490       -1024.147          48.000    24084549.756    98622472.052        -798.023          44.000  
E10  28640119.252   150505346.236       -2346.167          45.000    28640119.477   115322533.793       -1797.797          51.000  
E25  27032853.889   142058920.776        -420.103          46.000    27032855.865   108850497.885        -321.885          52.000  
E12  30658381.116   161111247.702       -3205.298          42.000    30658377.432   123449098.526       -2456.094          44.000  
G31  26905851.815   141391150.587        2080.647          41.000    26905845.640   110174998.281        1621.281          38.000  
E14  30726735.836   161470243.860       -4171.074          42.000    30726737.104   123724009.932       -3196.077          50.000  
E03                                                                  31347343.025                3      -2261.590          23.000  
> 2024 04 15 03 31 00.0120000  0 26                     
S33  43246893.601   227264092.120        -725.047          43.000  
E02  29074277.701   152786378.463        1224.643          45.000    29074278.637   117070113.074         938.361          48.000  
G28  24907916.145   130891965.636         126.459          48.000    24907912.158   101993725.053          98.608          48.000  
E36  28211320.315   148251820.403        1651.701          47.000    28211322.787   113595758.551        1265.503          51.000  
R20  26568688.098                3       3171.870          19.000    26568692.304   110502494.508        2467.682          33.000  
R09  24283138.711   129670609.960        2316.424          52.000    24283134.407   100855182.605        1801.814          50.000  
R16  22912943.420   122396995.268       -1222.911          52.000    22912939.131    95197577.822        -951.309          50.000  
G20  27401489.664   143995777.996        -710.474          39.000                                                                  
E11  26303532.639   138226407.341        -893.311          44.000    26303529.636   105913969.504        -684.503          48.000  
G18  25780449.728   135477510.164        2521.240          47.000    25780447.686   105566996.425        1964.559          46.000  
G29  24231803.733   127339393.302       -1199.432          49.000    24231799.196    99225772.717        -934.644          47.000  
S31  42293162.354   222252180.324        -724.333          44.000  
R15  26041594.284   139158588.225       -4112.181          49.000    26041591.466   108234623.447       -3198.351          46.000  
R18  23742802.696   126740800.965       -3471.844          51.000    23742801.402    98576472.773       -2700.374          51.000  
R19  22799716.487   121963469.752        -274.109          41.000    22799711.416    94860079.029        -213.195          48.000  
G05  27634878.212   145222327.823         956.135          45.000    27634873.927   113160262.790         745.048          41.000  
G11  28182735.759   148101174.594       -4001.246          41.000    28182730.500   115404159.730       -3117.774          38.000  
E24  29484037.630   154939787.291       -2303.969          44.000    29484038.225   118720155.573       -1765.380          50.000  
G12  26018126.979   136726486.761       -2481.741          47.000    26018122.431   106540245.993       -1933.926          42.000  
G25  24090426.664   126596280.600       -1034.198          49.000    24090423.640    98646525.126        -806.014          44.000  
E10  28653542.499   150575888.875       -2357.034          45.000    28653543.422   115376585.933       -1806.047          51.000  
E25  27035264.756   142071589.997        -424.992          46.000    27035266.887   108860205.473        -325.684          52.000  
E12  30676696.847   161207498.299       -3211.611          42.000    30676693.252   123522848.990       -2460.867          44.000  
G31  26894003.404   141328886.040        2069.799          41.000    26893997.958   110126480.436        1612.757          38.000  
E14  30750516.470   161595208.719       -4160.333          43.000    30750517.276   123819762.208       -3187.758          50.000  
E03                                                                  31364233.532                3      -2263.430          21.000  
> 2024 04 15 03 31 30.0120000  0 26                     
S33  43251033.454   227285847.771        -725.272          43.000  
E02  29067289.275   152749649.394        1223.985          45.000    29067289.509   117041970.025         937.929          48.000  
G28  24907249.638   130888465.169         107.096          48.000    24907245.675   101990997.416          83.375          47.000  
E36  28201919.326   148202420.142        1641.712          46.000    28201922.051   113557906.465        1257.984          51.000  
R20  26550919.020                3       3163.579          24.000    26550916.304                        2459.950          31.000  
R09  24270152.035   129601261.753        2306.829          52.000    24270147.629   100801245.137        1794.028          50.000  
R16  22919869.586   122433996.145       -1243.704          51.000    22919866.247    95226356.296        -967.284          50.000  
G20  27405595.660   144017363.299        -728.314          39.000                                                                  
E11  26308672.087   138253420.419        -907.474          44.000    26308669.806   105934667.863        -695.572          47.000  
G18  25766087.585   135402035.761        2510.392          47.000    25766085.031   105508185.324        1956.117          46.000  
G29  24238678.012   127375520.686       -1208.955          49.000    24238674.314    99253923.963        -942.189          48.000  
S31  42297298.893   222273918.132        -724.736          44.000  
R15  26064713.563   139282125.645       -4123.422          51.000    26064710.525   108330707.969       -3207.164          47.000  
R18  23762356.584   126845180.637       -3486.716          51.000    23762354.853    98657656.961       -2711.855          50.000  
R19  22801321.807   121972060.096        -298.601          39.000    22801317.929    94866760.400        -232.207          48.000  
G05  27629449.685   145193799.419         945.915          45.000    27629445.992   113138032.886         737.088          42.000  
G11  28205599.680   148221326.371       -4008.899          40.000    28205594.698   115497784.480       -3124.171          38.000  
E24  29497205.493   155008990.630       -2309.533          43.000    29497206.969   118773181.506       -1769.726          50.000  
G12  26032319.978   136801065.925       -2490.165          47.000    26032315.237   106598359.576       -1940.372          43.000  
G25  24096362.140   126627470.582       -1045.168          49.000    24096359.019    98670829.013        -814.430          44.000  
E10  28667032.015   150646774.820       -2368.716          45.000    28667032.512   115430901.123       -1814.891          51.000  
E25  27037707.099   142084426.188        -430.854          46.000    27037709.587   108870040.988        -330.087          52.000  
E12  30695051.819   161303956.480       -3218.573          40.000    30695048.677   123596758.493       -2466.055          44.000  
G31  26882220.376   141266969.975        2057.823          40.000    26882215.697   110078234.156        1603.619          38.000  
E14  30774237.785   161719865.627       -4150.119          43.000    30774238.325   123915278.526       -3179.865          49.000  
E03                                                                  31381124.721                3      -2267.608          24.000  
> 2024 04 15 03 32 00.0120000  0 26                     
S33  43255173.447   227307604.244        -725.340          43.000  
E02  29060302.530   152712929.608        1223.642          46.000    29060301.952   117013834.108         937.519          48.000  
G28  24906693.176   130885540.012          87.806          47.000    24906689.041   101988718.037          68.396          47.000  
E36  28192572.539   148153303.739        1632.375          46.000    28192575.369   113520271.883        1250.788          50.000  
R20  26533192.768                        3154.197          26.000    26533190.994                        2453.675          29.000  
R09  24257218.118   129532197.131        2297.326          51.000    24257213.973   100747528.202        1786.847          50.000  
R16  22926909.974   122471610.229       -1264.121          50.000    22926907.690    95255611.665        -983.143          50.000  
G20  27409801.615   144039461.456        -745.251          37.000                                                                  
E11  26313894.221   138280858.539        -921.775          44.000    26313890.680   105955691.867        -706.173          47.000  
G18  25751785.455   135326879.352        2499.737          47.000    25751783.220   105449622.019        1947.908          45.000  
G29  24245605.717   127411925.579       -1218.165          49.000    24245601.521    99282291.429        -949.336          48.000  
S31  42301435.586   222295656.663        -724.979          44.000  
R15  26087893.849   139405992.880       -4134.426          51.000    26087891.369   108427049.048       -3215.688          47.000  
R18  23781991.344   126949994.657       -3501.070          51.000    23781989.830    98739178.981       -2723.122          50.000  
R19  22803061.478   121981367.529        -322.012          40.000    22803057.920    94873999.560        -250.701          48.000  
G05  27624076.606   145165568.131         935.857          44.000    27624072.853   113116034.496         729.264          41.000  
G11  28228506.157   148341699.264       -4016.224          40.000    28228500.859   115591581.502       -3129.268          36.000  
E24  29510405.090   155078354.085       -2314.909          43.000    29510406.197   118826330.094       -1773.851          50.000  
G12  26046557.627   136875887.623       -2498.268          47.000    26046552.687   106656662.177       -1946.701          43.000  
G25  24102357.497   126658978.772       -1055.695          49.000    24102355.114    98695380.850        -822.589          44.000  
E10  28680585.672   150717997.693       -2379.859          45.000    28680585.680   115485474.506       -1823.503          51.000  
E25  27040181.284   142097425.473        -436.177          47.000    27040183.412   108880001.477        -334.188          52.000  
E12  30713445.313   161400615.613       -3225.432          40.000    30713442.440   123670821.994       -2471.489          45.000  
G31  26870503.553   141205400.477        2046.359          41.000    26870499.062   110030257.921        1594.794          39.000  
E14  30797899.254   161844209.200       -4139.774          43.000    30797900.323   124010554.791       -3171.981          49.000  
E03                                                                  31398020.329                3      -2268.144          25.000  
> 2024 04 15 03 32 30.0120000  0 26                     
S33  43259312.153   227329352.816        -724.865          43.000  
E02  29053316.008   152676213.163        1223.897          46.000    29053315.215   116985700.752         937.719          48.000  
G28  24906244.953   130883184.396          68.979          47.000    24906240.876   101986882.473          53.741          47.000  
E36  28183279.769   148104465.998        1623.260          47.000    28183282.267   113482850.803        1243.777          51.000  
R20  26515523.010                3       3143.893          21.000    26515517.095   110281370.160        2446.223          34.000  
R09  24244337.219   129463413.318        2288.080          52.000    24244333.542   100694029.692        1779.577          50.000  
R16  22934066.165   122509832.066       -1284.209          51.000    22934062.493    95285339.763        -998.750          50.000  
G20  27414103.080   144062066.335        -762.353          39.000                                                                  
E11  26319195.759   138308714.456        -935.690          45.000    26319191.266   105977036.036        -716.915          46.000  
G18  25737543.471   135252036.970        2489.157          48.000    25737540.982   105391303.410        1939.838          46.000  
G29  24252584.563   127448599.674       -1227.052          48.000    24252580.603    99310868.659        -956.005          48.000  
S31  42305570.774   222317388.274        -724.436          44.000  
R15  26111133.686   139530181.655       -4144.976          50.000    26111131.957   108523640.202       -3223.904          47.000  
R18  23801706.047   127055232.309       -3514.996          51.000    23801704.660    98821030.510       -2733.918          51.000  
R19  22804935.132   121991384.538        -345.800          41.000    22804929.885    94881790.594        -268.911          48.000  
G05  27618761.231   145137631.071         926.305          45.000    27618757.938   113094265.424         721.616          43.000  
G11  28251453.237   148462283.882       -4023.031          40.000    28251447.520   115685543.566       -3134.092          36.000  
E24  29523635.815   155147871.250       -2319.895          44.000    29523634.884   118879596.478       -1777.540          50.000  
G12  26060841.573   136950944.824       -2505.824          49.000    26060834.768   106715148.319       -1952.560          42.000  
G25  24108412.896   126690799.567       -1066.047          49.000    24108410.569    98720176.278        -830.684          44.000  
E10  28694201.456   150789549.337       -2390.439          46.000    28694201.322   115540299.798       -1831.744          51.000  
E25  27042685.439   142110582.155        -441.238          47.000    27042686.792   108890082.569        -338.063          52.000  
E12  30731876.480   161497467.250       -3231.440          40.000    30731873.007   123745032.999       -2476.118          46.000  
G31  26858853.259   141144173.430        2035.032          41.000    26858847.494   109982548.532        1585.753          38.000  
E14  30821500.287   161968232.214       -4128.857          43.000    30821501.110   124105585.397       -3163.586          49.000  
E03                                                                  31414917.065                3      -2262.816          18.000  
> 2024 04 15 03 33 00.0120000  0 26                     
S33  43263449.249   227351092.277        -724.903          42.000  
E02  29046329.485   152639498.887        1223.546          46.000    29046328.864   116957569.071         937.510          48.000  
G28  24905905.174   130881397.299          49.713          47.000    24905901.115   101985489.911          38.792          48.000  
E36  28174039.901   148055906.322        1613.869          47.000    28174041.912   113445642.805        1236.548          51.000  
R20  26497907.329                3       3136.383          26.000    26497899.154   110208087.543        2438.510          35.000  
R09  24231509.111   129394911.211        2278.348          52.000    24231505.620   100640750.287        1772.056          51.000  
R16  22941334.814   122548660.699       -1304.705          51.000    22941331.066    95315539.815       -1014.735          49.000  
G20  27418501.725   144085177.162        -778.760          39.000                                                                  
E11  26324575.527   138336985.721        -949.469          45.000    26324571.320   105998698.449        -727.501          46.000  
G18  25723361.715   135177509.246        2478.750          49.000    25723357.870   105333229.990        1931.434          45.000  
G29  24259614.259   127485539.846       -1236.155          49.000    24259610.167    99339653.226        -963.112          48.000  
S31  42309704.781   222339110.932        -723.895          44.000  
R15  26134433.051   139654687.813       -4155.862          50.000    26134431.848   108620478.245       -3232.344          47.000  
R18  23821500.822   127160887.888       -3529.101          51.000    23821497.572    98903207.050       -2744.802          50.000  
R19  22806940.172   122002108.397        -369.544          41.000    22806934.829    94890131.374        -287.323          48.000  
G05  27613500.522   145109988.033         916.074          44.000    27613497.152   113072725.446         713.887          42.000  
G11  28274438.846   148583075.603       -4029.875          38.000    28274433.310   115779666.993       -3140.281          35.000  
E24  29536893.492   155217540.475       -2324.970          45.000    29536892.741   118932979.367       -1781.563          50.000  
G12  26075169.071   137026236.396       -2513.867          48.000    26075163.527   106773817.050       -1959.017          43.000  
G25  24114527.120   126722932.107       -1076.706          48.000    24114525.553    98745214.603        -839.016          45.000  
E10  28707879.958   150861426.260       -2401.560          46.000    28707878.922   115595374.332       -1840.158          51.000  
E25  27045218.967   142123895.225        -446.662          47.000    27045220.225   108900283.497        -342.201          52.000  
E12  30750342.636   161594507.709       -3238.162          38.000    30750339.064   123819388.662       -2481.154          46.000  
G31  26847268.301   141083289.473        2023.526          41.000    26847261.515   109935106.478        1576.732          38.000  
E14  30845040.424   162091932.180       -4118.221          43.000    30845040.331   124200368.488       -3155.425          49.000  
E03                                                                  31431811.983                3      -2267.859          18.000  
> 2024 04 15 03 33 30.0120000  0 25                     
S33  43267584.581   227372825.078        -724.391          42.000  
E02  29039343.980   152602789.421        1223.494          46.000    29039343.063   116929441.065         937.440          48.000  
G28  24905673.654   130880181.547          30.822          47.000    24905669.540   101984542.545          24.060          47.000  
E36  28164852.577   148007628.039        1604.320          48.000    28164854.643   113408650.388        1229.368          51.000  
R20  26480330.995                        3127.059          28.000    26480330.001   110135021.108        2432.215          35.000  
R09  24218734.974   129326696.223        2268.977          51.000    24218731.215   100587694.185        1764.783          51.000  
R16  22948717.225   122588098.944       -1324.848          50.000    22948714.354    95346213.989       -1030.451          49.000  
G20  27422996.387   144108796.224        -795.807          39.000                                                                  
E11  26330034.485   138365673.601        -963.115          45.000    26330030.541   106020680.085        -737.924          47.000  
G18  25709239.789   135103300.720        2468.231          49.000    25709236.649   105275405.279        1923.447          45.000  
G29  24266695.089   127522746.640       -1244.727          49.000    24266690.408    99368645.537        -969.947          48.000  
S31  42313837.019   222360826.899        -723.320          44.000  
R15  26157792.226   139779511.666       -4166.155          49.000    26157791.744   108717563.361       -3240.289          49.000  
R18  23841371.575   127266959.503       -3542.823          50.000    23841369.427    98985707.178       -2755.432          51.000  
R19  22809076.604   122013539.661        -393.163          41.000    22809072.088    94899022.373        -305.508          48.000  
G05  27608296.780   145082644.517         906.477          45.000    27608293.811   113051418.863         706.316          41.000  
G11  28297463.793   148704073.711       -4037.462          36.000    28297458.854   115873951.201       -3145.722          34.000  
E24  29550179.894   155287363.946       -2330.077          44.000    29550179.715   118986480.451       -1785.394          50.000  
G12  26089540.811   137101764.270       -2521.605          47.000    26089536.643   106832669.898       -1964.956          43.000  
G25  24120701.545   126755379.383       -1086.895          48.000    24120699.512    98770498.189        -846.997          44.000  
E10  28721619.355   150933628.840       -2412.415          46.000    28721618.595   115650698.357       -1848.326          51.000  
E25  27047782.383   142137367.532        -451.858          47.000    27047783.815   108910606.436        -346.214          52.000  
E12  30768845.134   161691737.092       -3244.245          37.000    30768841.186   123893889.103       -2485.841          46.000  
G31  26835748.966   141022752.883        2012.192          43.000    26835742.170   109887935.125        1567.942          38.000  
E14  30868518.760   162215310.431       -4107.389          43.000    30868518.830   124294905.067       -3147.231          49.000  
> 2024 04 15 03 34 00.0120000  0 25                     
S33  43271717.941   227394548.320        -724.114          42.000  
E02  29032358.522   152566082.998        1223.369          46.000    29032358.054   116901315.389         937.478          48.000  
G28  24905550.797   130879535.513          11.953          47.000    24905546.963   101984039.141           9.266          48.000  
E36  28155719.300   147959630.051        1595.108          48.000    28155720.754   113371872.742        1222.251          51.000  
R20  26462813.131                        3117.462          32.000    26462814.673   110062171.379        2424.478          37.000  
R09  24206014.571   129258769.865        2259.294          51.000    24206010.727   100534862.575        1757.151          50.000  
R16  22956214.864   122628144.928       -1345.174          51.000    22956211.169    95377360.864       -1046.207          50.000  
G20  27427586.545   144132922.201        -812.909          38.000                                                                  
E11  26335572.736   138394775.222        -977.191          45.000    26335568.731   106042978.747        -748.707          47.000  
G18  25695178.792   135029411.562        2457.423          48.000    25695176.890   105217829.434        1914.983          46.000  
G29  24273824.881   127560216.279       -1253.555          49.000    24273820.327    99397842.669        -976.674          48.000  
S31  42317967.601   222382532.993        -723.568          44.000  
R15  26181210.060   139904648.767       -4176.634          48.000    26181209.461   108814892.087       -3248.437          48.000  
R18  23861319.530   127373440.676       -3556.291          51.000    23861316.665    99068525.865       -2766.009          51.000  
R19  22811344.996   122025675.372        -416.206          40.000    22811341.207    94908461.279        -323.787          49.000  
G05  27603150.992   145055600.039         896.346          46.000    27603146.795   113030345.292         698.206          40.000  
G11  28320526.692   148825273.059       -4043.634          34.000    28320522.729   115968392.231       -3151.153          35.000  
E24  29563495.633   155357339.550       -2335.080          44.000    29563495.605   119040098.091       -1789.308          50.000  
G12  26103958.498   137177526.215       -2529.345          47.000    26103953.408   106891705.165       -1970.917          43.000  
G25  24126935.732   126788139.989       -1097.267          48.000    24126934.251    98796025.935        -855.111          44.000  
E10  28735420.623   151006152.994       -2422.836          46.000    28735419.389   115706268.802       -1856.487          51.000  
E25  27050376.979   142150997.566        -456.979          48.000    27050377.700   108921050.237        -350.214          52.000  
E12  30787382.529   161789151.107       -3249.878          36.000    30787378.571   123968530.981       -2490.492          46.000  
G31  26824295.634   140962563.916        2000.356          43.000    26824289.489   109841034.646        1558.474          40.000  
E14  30891935.023   162338363.945       -4096.440          44.000    30891934.788   124389192.808       -3138.880          48.000  
> 2024 04 15 03 34 30.0120000  0 25                     
S33  43275849.417   227416258.803        -724.051          43.000  
E02  29025372.995   152529376.392        1223.400          45.000    29025372.988   116873189.576         937.285          49.000  
G28  24905534.384   130879456.066          -7.031          46.000    24905531.485   101983977.221          -5.497          48.000  
E36  28146637.934   147911909.714        1585.793          47.000    28146639.945   113335307.858        1214.924          51.000  
R20  26445346.806                        3108.112          31.000    26445349.537   109989536.857        2417.429          39.000  
R09  24193348.032   129191131.230        2249.430          51.000    24193343.432   100482254.765        1749.627          50.000  
R16  22963824.318   122668796.152       -1365.428          50.000    22963820.617    95408978.466       -1062.016          49.000  
G20  27432273.097   144157551.685        -829.559          37.000                                                                  
E11  26341188.669   138424285.921        -990.957          46.000    26341184.330   106065590.861        -759.263          47.000  
G18  25681178.887   134955840.358        2446.741          47.000    25681176.797   105160501.348        1906.442          46.000  
G29  24281003.580   127597943.380       -1262.135          48.000    24280999.592    99427240.433        -983.602          47.000  
S31  42322095.708   222404226.516        -723.307          44.000  
R15  26204684.216   140030093.330       -4187.018          47.000    26204683.876   108912459.904       -3256.534          47.000  
R18  23881341.866   127480323.356       -3569.775          52.000    23881338.446    99151656.851       -2776.400          49.000  
R19  22813744.331   122038509.644        -439.796          40.000    22813740.955    94918443.509        -342.046          49.000  
G05  27598061.536   145028853.076         886.190          47.000    27598056.902   113009503.501         690.330          40.000  
G11  28343625.966                       -4050.134          32.000    28343623.410   116062984.898       -3156.583          33.000  
E24  29576839.847   155427463.505       -2340.393          45.000    29576840.127   119093829.400       -1793.178          51.000  
G12  26118418.049   137253518.256       -2537.303          46.000    26118413.250   106950919.742       -1977.058          43.000  
G25  24133228.785   126821210.992       -1107.870          48.000    24133227.127    98821795.550        -863.313          44.000  
E10  28749281.267   151078993.153       -2433.506          47.000    28749280.259   115762081.393       -1864.678          51.000  
E25  27053000.709   142164782.282        -462.399          49.000    27053000.870   108931612.543        -354.330          53.000  
E12  30805953.222   161886743.834       -3256.494          35.000    30805949.965   124043309.821       -2495.218          46.000  
G31  26812906.740   140902721.204        1988.773          43.000    26812902.352   109794403.967        1549.692          40.000  
E14  30915289.397   162461088.195       -4085.595          44.000    30915288.145   124483228.300       -3130.554          48.000  
> 2024 04 15 03 35 00.0120000  0 25                     
S33  43279979.195   227437960.710        -723.390          43.000  
E02  29018388.679   152492675.905        1223.178          45.000    29018389.103   116845068.441         937.209          49.000  
G28  24905628.426   130879949.547         -26.000          46.000    24905625.581   101984361.732         -20.333          48.000  
E36  28137610.572   147864473.970        1576.245          47.000    28137613.261   113298961.034        1207.835          51.000  
R20  26427932.821                        3097.853          32.000    26427938.487   109917124.049        2409.884          41.000  
R09  24180736.891   129123789.180        2239.648          51.000    24180732.463   100429877.634        1742.036          50.000  
R16  22971547.963   122710059.076       -1385.751          50.000    22971545.444    95441071.837       -1077.844          49.000  
G20  27437056.588   144182690.529        -846.613          37.000                                                                  
E11  26346883.244   138454210.603       -1004.349          45.000    26346878.766   106088520.185        -769.553          47.000  
G18  25667240.194   134882595.273        2435.874          47.000    25667238.600   105103427.345        1898.097          46.000  
G29  24288232.544   127635932.320       -1270.660          48.000    24288228.196    99456842.212        -990.131          47.000  
S31  42326222.026   222425911.720        -722.686          44.000  
R15  26228218.558   140155849.029       -4197.139          50.000    26228216.902   109010269.776       -3264.385          46.000  
R18  23901439.424   127587609.504       -3583.026          51.000    23901436.652    99235101.604       -2786.818          50.000  
R19  22816274.909   122052047.840        -463.108          40.000    22816270.608    94928973.226        -360.272          48.000  
G05  27593030.754   145002412.190         876.101          47.000    27593024.961   112988900.267         682.548          41.000  
G11  28366765.445                3      -4056.287          30.000    28366761.087   116157731.300       -3160.244          31.000  
E24  29590214.662   155497741.660       -2345.348          46.000    29590213.291   119147678.876       -1797.099          50.000  
G12  26132923.505   137329746.887       -2544.843          46.000    26132919.531   107010318.652       -1983.187          43.000  
G25  24139582.816   126854599.017       -1118.422          49.000    24139581.223    98847812.194        -871.491          45.000  
E10  28763202.774   151152153.316       -2444.172          47.000    28763202.322   115818139.177       -1872.744          51.000  
E25  27055654.606   142178728.163        -467.665          49.000    27055654.733   108942298.353        -358.346          53.000  
E12  30824558.226                       -3262.259          31.000    30824555.770   124118228.506       -2499.689          46.000  
G31  26801585.201   140843232.959        1976.710          42.000    26801581.836   109748049.471        1540.730          40.000  
E14  30938580.495   162583488.259       -4074.650          44.000    30938580.418   124577015.332       -3122.132          48.000  
> 2024 04 15 03 35 30.0120000  0 25                     
S33  43284108.135   227459657.994        -723.475          43.000  
E02  29011407.056   152455985.103        1222.720          45.000    29011407.222   116816954.731         936.801          49.000  
G28  24905832.344   130881019.603         -45.472          47.000    24905829.210   101985195.509         -35.465          48.000  
E36  28128639.043   147817326.949        1566.602          47.000    28128641.202   113262835.445        1200.365          51.000  
R20  26410575.294   141229279.4841       3088.107          34.000    26410581.433   109844937.532        2402.185          41.000  
R09  24168182.622   129056750.584        2229.326          51.000    24168178.107   100377736.506        1733.860          50.000  
R16  22979388.217   122751937.218       -1406.364          51.000    22979385.136    95473643.737       -1093.857          49.000  
G20  27441937.798   144208342.745        -863.708          39.000                                                                  
E11  26352655.763   138484551.547       -1018.548          44.000    26352652.249   106111768.459        -780.455          47.000  
G18  25653364.972   134809681.668        2424.724          47.000    25653363.903   105046611.675        1889.301          47.000  
G29  24295512.313   127674184.215       -1279.681          49.000    24295507.414    99486648.893        -997.217          47.000  
S31  42330348.079   222447592.578        -722.868          44.000  
R15  26251811.376   140281916.903       -4207.700          51.000    26251809.100   109108322.450       -3272.537          47.000  
R18  23921612.772   127695297.939       -3596.463          51.000    23921610.474    99318859.281       -2797.238          50.000  
R19  22818936.770   122066291.448        -486.778          39.000    22818932.654    94940051.604        -378.526          47.000  
G05  27588058.988   144976283.009         865.504          47.000    27588053.564   112968539.894         674.526          40.000  
E24  29603617.598   155568177.045       -2350.710          46.000    29603616.344   119201648.848       -1801.136          50.000  
G12  26147476.531   137406215.029       -2553.054          47.000    26147470.916   107069904.180       -1989.532          43.000  
G25  24145997.183   126888307.928       -1129.183          48.000    24145995.806    98874078.853        -879.989          44.000  
E10  28777184.852   151225634.665       -2454.810          46.000    28777185.358   115874443.073       -1880.978          51.000  
E25  27058338.977   142192838.950        -473.318          48.000    27058339.879   108953110.505        -362.647          53.000  
E12  30843192.699                       -3268.732          30.000    30843196.476   124193287.750       -2504.421          45.000  
G31  26790333.976   140784104.467        1964.489          41.000    26790330.089   109701975.297        1530.868          40.000  
E14  30961812.267   162705566.348       -4064.018          44.000    30961810.890   124670555.672       -3114.021          48.000  
G11                                                                  28389938.200                       -3165.738          31.000  
> 2024 04 15 03 36 00.0120000  0 25                     
S33  43288235.944   227481349.189        -722.653          43.000  
E02  29004427.223   152419303.640        1222.631          45.000    29004426.843   116788848.177         936.887          49.000  
G28  24906146.100   130882665.909         -64.340          47.000    24906142.406   101986478.326         -50.194          47.000  
E36  28119721.872   147770468.942        1557.241          47.000    28119724.316   113226931.303        1193.228          51.000  
R20  26393269.966   141136758.737        3078.790          33.000    26393277.684   109772977.816        2394.579          38.000  
R09  24155685.489   128990017.635        2219.440          50.000    24155681.436   100325833.105        1726.300          51.000  
R16  22987343.367   122794430.494       -1426.642          51.000    22987340.349    95506694.030       -1109.492          50.000  
G20  27446917.681   144234507.490        -880.713          40.000                                                                  
E11  26358507.393   138515307.029       -1032.065          44.000    26358504.993   106135334.369        -790.807          47.000  
G18  25639553.605   134737101.069        2413.932          47.000    25639552.134   104990055.451        1880.953          47.000  
G29  24302840.876   127712696.820       -1287.921          49.000    24302836.115    99516658.753       -1003.699          46.000  
S31  42334472.360   222469266.761        -722.195          44.000  
R15  26275461.396   140408293.928       -4217.626          50.000    26275459.994   109206615.577       -3280.348          48.000  
R18  23941860.853   127803383.762       -3609.233          51.000    23941858.548    99402926.037       -2807.251          49.000  
R19  22821732.072   122081238.382        -509.740          40.000    22821726.741    94951677.035        -396.484          47.000  
G05  27583145.474   144950466.516         855.457          46.000    27583141.090   112948423.214         666.705          41.000  
E24  29617050.352   155638768.866       -2355.563          46.000    29617049.580   119255738.673       -1804.943          50.000  
G12  26162073.319   137482921.216       -2560.648          47.000    26162067.610   107129675.196       -1995.339          44.000  
G25  24152472.461   126922337.631       -1139.544          48.000    24152471.641    98900595.494        -887.803          45.000  
E10  28791229.028   151299434.556       -2465.282          47.000    28791229.166   115930991.044       -1888.893          51.000  
E25  27061055.578   142207114.517        -478.480          48.000    27061056.359   108964048.932        -366.658          53.000  
E12  30861870.961                       -3274.083          28.000    30861872.029   124268485.439       -2508.879          45.000  
G31  26779152.202   140725336.896        1952.854          41.000    26779146.782   109656182.388        1521.631          40.000  
E14  30984982.671   162827320.872       -4052.934          46.000    30984980.024   124763848.094       -3105.471          48.000  
G11                                                                  28413151.614                       -3170.476          28.000  
> 2024 04 15 03 36 30.0120000  0 25                     
S33  43292361.834   227503032.788        -722.603          43.000  
E02  28997448.396   152382630.594        1222.353          45.000    28997448.284   116760748.078         936.546          50.000  
G28  24906568.977   130884887.504         -83.601          48.000    24906564.886   101988209.415         -65.251          47.000  
E36  28110859.168   147723899.557        1547.419          46.000    28110862.432   113191248.322        1185.626          51.000  
R20  26376021.417   141044530.613        3069.322          35.000    26376029.289   109701245.693        2387.640          38.000  
R09  24143246.271   128923592.294        2208.997          50.000    24143242.562   100274168.991        1718.029          51.000  
R16  22995413.471   122837537.973       -1447.249          51.000    22995409.587    95540222.050       -1125.642          49.000  
G20  27451994.501   144261183.840        -897.809          40.000                                                                  
E11  26364439.041   138546474.704       -1045.928          44.000    26364435.689   106159216.096        -801.379          47.000  
G18  25625805.459   134664854.361        2402.555          47.000    25625803.625   104933759.417        1872.187          47.000  
G29  24310218.503   127751467.235       -1296.686          49.000    24310213.436    99546869.480       -1010.376          46.000  
S31  42338595.336   222490933.597        -722.362          44.000  
R15  26299166.445   140534976.740       -4227.835          48.000    26299167.687   109305146.473       -3288.341          48.000  
R18  23962182.152   127911861.378       -3622.467          51.000    23962179.791    99487297.511       -2817.487          49.000  
R19  22824657.209   122096885.383        -532.918          40.000    22824651.728    94963846.932        -414.657          47.000  
G05  27578291.314   144924963.518         844.788          45.000    27578287.859   112928550.837         658.344          41.000  
E24  29630513.504   155709515.701       -2360.853          46.000    29630512.348   119309947.270       -1809.016          50.000  
G12  26176715.051   137559864.578       -2568.729          48.000    26176709.836   107189631.052       -2001.765          44.000  
G25  24159008.501   126956687.514       -1150.249          47.000    24159008.206    98927361.627        -896.325          45.000  
E10  28805333.223   151373549.696       -2475.892          47.000    28805332.758   115987780.569       -1897.067          51.000  
E25  27063803.185   142221554.115        -484.086          48.000    27063803.890   108975113.037        -370.952          52.000  
E12  30880585.876   162278933.632       -3280.885          31.000    30880581.186   124343818.811       -2513.316          46.000  
G31  26768037.548   140666930.988        1940.773          42.000    26768032.545   109610671.329        1512.526          40.000  
E14  31008089.014   162948749.632       -4042.281          45.000    31008087.064   124856890.915       -3097.191          47.000  
G11                                                                  28436397.657                       -3175.648          25.000  
> 2024 04 15 03 37 00.0120000  0 25                     
S33  43296486.911   227524708.513        -722.931          43.000  
E02  28990470.610   152345966.883        1221.566          44.000    28990471.323   116732655.126         936.140          50.000  
G28  24907101.567   130887685.198        -103.049          49.000    24907096.873   101990389.391         -80.211          47.000  
E36  28102052.919   147677620.247        1537.541          47.000    28102055.739   113155787.598        1178.124          51.000  
R20  26358830.413   140952598.280        3059.290          36.000    26358836.263   109629743.627        2379.600          38.000  
R09  24130865.511   128857477.568        2198.351          50.000    24130861.589   100222746.448        1709.875          51.000  
R16  23003598.398   122881260.691       -1467.987          51.000    23003595.010    95574228.580       -1141.707          50.000  
G20  27457168.549   144288372.542        -914.905          39.000                                                                  
E11  26370449.195   138578054.078       -1059.759          44.000    26370445.073   106183413.276        -811.943          47.000  
G18  25612121.591   134592944.160        2391.060          47.000    25612118.906   104877725.605        1863.242          47.000  
G29  24317645.051   127790493.960       -1305.450          48.000    24317639.586    99577279.912       -1017.084          45.000  
S31  42342716.856   222512592.525        -721.812          44.000  
R15  26322930.328   140661963.190       -4238.111          49.000    26322931.089   109403913.510       -3296.218          47.000  
R18  23982576.006   128020727.104       -3635.536          51.000    23982573.076    99571970.842       -2827.582          48.000  
R19  22827712.767   122113231.683        -556.835          39.000    22827707.729    94976560.749        -433.093          47.000  
G05  27573498.199   144899777.616         834.027          46.000    27573495.197   112908925.537         649.860          41.000  
E24  29644006.289   155780417.938       -2366.340          46.000    29644004.877   119364274.906       -1813.101          50.000  
G12  26191401.276   137637045.451       -2576.915          47.000    26191397.135   107249771.988       -2007.941          44.000  
G25  24165606.819   126991358.694       -1161.286          48.000    24165604.798    98954378.124        -905.130          44.000  
E10  28819496.201   151447978.572       -2486.408          46.000    28819496.029   116044810.485       -1905.187          51.000  
E25  27066582.209   142236158.796        -489.908          47.000    27066583.086   108986303.627        -375.298          52.000  
E12  30899331.863   162377425.416       -3285.887          31.000    30899323.470   124419286.531       -2518.034          45.000  
G31  26756992.385   140608889.925        1928.454          43.000    26756987.905   109565444.535        1502.917          40.000  
E14  31031133.749   163069852.285       -4031.640          45.000    31031132.391   124949683.838       -3089.114          47.000  
G11                                                                  28459700.799                3      -3180.012          25.000  
> 2024 04 15 03 37 30.0120000  0 25                     
S33  43300610.071   227546376.940        -722.393          42.000  
E02  28983495.914   152309313.325        1221.487          44.000    28983496.141   116704569.955         935.740          50.000  
G28  24907743.843   130891059.776        -122.346          49.000    24907739.173   101993018.935         -95.493          48.000  
E36  28093301.839   147631632.434        1527.780          46.000    28093304.433   113120550.208        1170.612          51.000  
R20  26341694.122   140860963.927        3049.377          36.000    26341698.807   109558473.317        2371.930          38.000  
R09  24118543.279   128791677.878        2187.848          51.000    24118539.162   100171568.911        1701.660          51.000  
R16  23011899.265   122925599.840       -1488.592          52.000    23011894.888    95608714.600       -1157.773          49.000  
G20  27462440.087   144316074.149        -932.452          36.000                                                                  
E11  26376536.542   138610044.482       -1073.536          44.000    26376532.612   106207925.420        -822.604          47.000  
G18  25598502.634   134521373.153        2379.748          48.000    25598499.301   104821956.083        1854.210          47.000  
G29  24325119.266   127829775.944       -1313.867          47.000    24325114.227    99607889.256       -1023.889          45.000  
S31  42346837.095   222534243.734        -721.771          44.000  
R15  26346752.525   140789251.741       -4248.198          50.000    26346750.752   109502915.620       -3304.141          46.000  
R18  24003042.793   128129976.957       -3648.328          50.000    24003038.943    99656942.948       -2837.592          47.000  
R19  22830898.933   122130276.355        -580.322          40.000    22830893.535    94989817.735        -451.190          47.000  
G05  27568766.551   144874910.665         823.254          46.000    27568763.365   112889548.729         641.650          41.000  
E24  29657527.435   155851475.849       -2371.609          46.000    29657526.894   119418721.848       -1817.097          50.000  
G12  26206134.385   137714463.583       -2584.910          48.000    26206129.168   107310097.764       -2014.247          44.000  
G25  24172266.683   127026352.261       -1171.997          48.000    24172263.933    98981645.818        -913.182          44.000  
E10  28833718.732   151522719.675       -2496.859          46.000    28833718.734   116102079.625       -1913.163          51.000  
E25  27069392.996   142250929.579        -495.401          47.000    27069393.876   108997621.495        -379.592          52.000  
E12  30918109.100                       -3292.221          30.000    30918098.891   124494887.325       -2522.346          45.000  
G31  26746016.478   140551215.989        1916.089          43.000    26746013.164   109520503.825        1492.930          40.000  
E14  31054116.006   163190628.357       -4020.645          44.000    31054114.974   125042226.545       -3080.826          46.000  
G11                                                                  28483026.644                3      -3186.113          24.000  
> 2024 04 15 03 38 00.0120000  0 25                     
S33  43304732.882   227568042.189        -722.013          42.000  
E02  28976524.410   152272675.806        1220.884          45.000    28976524.159   116676497.059         935.514          49.000  
G28  24908496.959   130895017.012        -141.660          48.000    24908492.818   101996102.460        -110.490          48.000  
E36  28084606.254   147585942.416        1517.976          46.000    28084609.723   113085541.031        1163.179          51.000  
R20  26324614.816   140769635.468        3039.117          37.000    26324619.096   109487440.927        2363.740          37.000  
R09  24106281.446   128726201.601        2177.067          50.000    24106277.349   100120642.948        1693.235          51.000  
R16  23020316.137   122970560.646       -1509.198          52.000    23020311.731    95643684.126       -1173.677          49.000  
G20  27467808.056   144344294.505        -949.341          34.000                                                                  
E11  26382702.478   138642450.341       -1087.162          44.000    26382699.331   106232755.900        -833.093          47.000  
G18  25584949.051   134450148.926        2368.328          48.000    25584945.980   104766456.785        1845.381          47.000  
G29  24332643.982   127869316.912       -1322.424          48.000    24332639.021    99638700.401       -1030.389          45.000  
S31  42350956.772   222555892.495        -721.797          44.000  
R15  26370630.329   140916845.352       -4258.251          51.000    26370628.413   109602154.950       -3311.948          46.000  
R18  24023581.015   128239612.345       -3661.087          51.000    24023578.035    99742214.913       -2847.414          48.000  
R19  22834217.449   122148023.223        -603.445          40.000    22834212.216    95003620.888        -469.343          48.000  
G05  27564096.918   144850370.258         812.451          47.000    27564092.377   112870426.376         633.240          40.000  
E24  29671078.939   155922694.783       -2376.774          45.000    29671079.316   119473292.177       -1821.140          49.000  
G12  26220912.065   137792125.024       -2592.937          47.000    26220907.289   107370613.121       -2020.278          44.000  
G25  24178988.050   127061674.310       -1183.053          48.000    24178985.170    99009169.494        -921.797          43.000  
E10  28848001.785   151597776.415       -2507.072          46.000    28848001.485   116159590.640       -1921.097          50.000  
E25  27072236.527   142265872.478        -501.001          47.000    27072237.464   109009071.253        -383.866          53.000  
E12  30936915.194   162574933.407       -3297.615          35.000    30936907.885   124570623.696       -2526.903          44.000  
G31  26735112.413   140493916.766        1903.559          43.000    26735109.207   109475855.077        1483.470          40.000  
E14  31077039.248   163311082.494       -4009.914          45.000    31077036.881   125134522.558       -3072.621          46.000  
G11                                                                  28506378.644                3      -3183.906          19.000  
> 2024 04 15 03 38 30.0120000  0 25                     
S33  43308854.736   227589703.317        -722.085          42.000  
E02  28969555.657   152236052.482        1220.508          45.000    28969554.840   116648435.063         935.246          49.000  
G28  24909360.757   130899554.907        -160.900          48.000    24909355.951   101999638.452        -125.471          48.000  
E36  28075968.099   147540548.941        1508.142          46.000    28075971.558   113050759.070        1155.550          51.000  
R20  26307591.805   140678613.117        3029.021          36.000    26307596.186   109416646.483        2356.070          37.000  
R09  24094080.373   128661049.577        2166.389          51.000    24094075.817   100069969.166        1684.870          50.000  
R16  23028848.763   123016141.739       -1529.642          52.000    23028844.370    95679136.079       -1189.784          49.000  
G20  27473278.019   144373031.356        -966.669          33.000                                                                  
E11  26388948.054   138675268.364       -1100.694          44.000    26388944.453   106257902.174        -843.360          47.000  
G18  25571460.520   134379271.389        2356.575          48.000    25571458.207   104711227.629        1836.553          47.000  
G29  24340218.052   127909112.759       -1330.762          48.000    24340212.368    99669710.149       -1036.725          46.000  
S31  42355075.561   222577536.500        -721.145          44.000  
R15  26394563.792   141044739.733       -4268.053          51.000    26394561.836   109701628.216       -3319.470          46.000  
R18  24044190.917   128349626.741       -3673.370          52.000    24044188.379    99827781.660       -2857.141          50.000  
R19  22837666.073   122166468.047        -626.177          40.000    22837660.144    95017966.884        -487.302          48.000  
G05  27559489.535   144826157.219         801.538          46.000    27559484.449   112851559.100         624.402          41.000  
E24  29684662.043   155994072.357       -2381.925          45.000    29684661.809   119527984.055       -1824.989          49.000  
G12  26235736.707   137870026.735       -2600.786          47.000    26235731.203   107431315.751       -2026.571          44.000  
G25  24185772.175   127097323.247       -1193.763          49.000    24185768.953    99036947.867        -930.207          44.000  
E10  28862344.121   151673144.610       -2517.381          46.000    28862343.305   116217340.275       -1928.933          50.000  
E25  27075112.335   142280985.830        -506.628          47.000    27075113.390   109020651.614        -388.166          53.000  
E12  30955754.252   162673948.250       -3303.096          35.000    30955749.646   124646492.188       -2531.033          44.000  
G31  26724280.037   140436992.099        1891.180          43.000    26724276.892   109431498.226        1473.576          40.000  
E14  31099897.873   163431211.566       -3998.859          44.000    31099896.820   125226569.509       -3064.135          46.000  
G11                                                                  28529759.763                3      -3204.648          15.000  
> 2024 04 15 03 39 00.0120000  0 25                     
S33  43312975.556   227611356.727        -721.521          42.000  
E02  28962588.718   152199442.457        1219.910          45.000    28962588.202   116620383.260         934.750          50.000  
G28  24910334.339   130904672.360        -180.507          47.000    24910329.801   102003626.060        -140.652          48.000  
E36  28067387.623   147495451.563        1498.115          47.000    28067389.883   113016203.985        1147.795          51.000  
R20  26290626.614   140587897.143        3018.677          37.000    26290631.677   109346090.331        2347.674          38.000  
R09  24081940.483   128596223.560        2155.157          50.000    24081935.847   100019548.951        1676.263          50.000  
R16  23037497.159   123062341.602       -1550.486          52.000    23037493.301    95715069.277       -1205.887          49.000  
G20  27478843.367   144402283.182        -984.021          34.000                                                                  
E11  26395270.989   138708496.192       -1114.453          44.000    26395267.570   106283362.473        -854.066          47.000  
G18  25558038.522   134308741.376        2344.963          48.000    25558036.643   104656269.284        1827.255          47.000  
G29  24347837.654   127949160.397       -1339.240          47.000    24347833.030    99700916.140       -1043.488          45.000  
S31  42359192.645   222599173.476        -721.182          44.000  
R15  26418553.149   141172930.650       -4278.060          49.000    26418551.984   109801332.107       -3327.308          47.000  
R18  24064870.634   128460014.495       -3685.931          52.000    24064867.685    99913638.819       -2866.889          49.000  
R19  22841243.375   122185607.959        -650.007          39.000    22841238.210    95032853.527        -505.344          49.000  
G05  27554943.459   144802271.229         790.552          45.000    27554939.534   112832946.683         616.071          42.000  
G11  28553194.171                3      -4105.560          26.000    28553172.020                3      -3197.374          17.000  
E24  29698274.615   156065607.085       -2387.315          45.000    29698274.362   119582796.353       -1829.265          49.000  
G12  26250606.161   137948167.720       -2608.878          48.000    26250601.509   107492204.830       -2032.959          44.000  
G25  24192617.521   127133298.346       -1204.741          49.000    24192614.962    99064980.426        -938.794          44.000  
E10  28876744.585   151748820.866       -2527.948          46.000    28876743.974   116275325.977       -1936.937          49.000  
E25  27078020.332   142296268.841        -512.350          47.000    27078021.856   109032361.989        -392.744          53.000  
E12  30974628.719   162773132.014       -3309.004          37.000    30974623.601   124722490.138       -2535.396          43.000  
G31  26713518.352   140380443.117        1878.435          43.000    26713515.543   109387434.086        1463.651          41.000  
E14  31122696.394   163551013.400       -3987.946          44.000    31122693.868   125318365.704       -3055.713          45.000  
> 2024 04 15 03 39 30.0120000  0 25                     
S33  43317094.903   227633005.083        -721.793          42.000  
E02  28955624.636   152162848.383        1219.221          44.000    28955624.451   116592343.668         934.254          50.000  
G28  24911418.491   130910371.812        -199.821          47.000    24911414.975   102008067.169        -155.927          49.000  
E36  28058863.531   147450653.394        1488.119          48.000    28058865.250   112981878.163        1140.218          51.000  
R20  26273719.478   140497492.069        3008.173          35.000    26273725.551   109275775.937        2339.987          37.000  
R09  24069862.950   128531728.928        2144.054          51.000    24069858.189    99969386.459        1667.516          50.000  
R16  23046263.393   123109163.060       -1571.327          52.000    23046257.479    95751485.972       -1222.147          48.000  
G20  27484509.417   144432052.499       -1001.343          34.000                                                                  
E11  26401672.107   138742134.818       -1128.333          44.000    26401668.845   106309137.539        -864.744          47.000  
G18  25544684.787   134238563.274        2333.124          49.000    25544682.011   104601585.118        1817.925          47.000  
G29  24355507.113   127989460.696       -1347.754          48.000    24355501.738    99732318.959       -1050.214          45.000  
S31  42363309.193   222620805.704        -721.099          44.000  
R15  26442597.658   141301418.235       -4288.107          49.000    26442596.769   109901266.713       -3335.040          46.000  
R18  24085619.713   128570773.645       -3698.371          52.000    24085615.542    99999784.827       -2876.478          49.000  
R19  22844950.712   122205443.052        -673.192          38.000    22844946.412    95048280.823        -523.547          48.000  
G05  27550462.159   144778717.528         779.315          46.000    27550457.995   112814593.180         607.257          43.000  
E24  29711917.406   156137301.044       -2392.629          45.000    29711917.069   119637730.675       -1833.370          49.000  
G12  26265520.878   138026549.677       -2617.048          47.000    26265516.641   107553281.676       -2039.340          44.000  
G25  24199526.343   127169602.474       -1215.852          48.000    24199523.570    99093269.328        -947.247          44.000  
E10  28891204.428   151824805.427       -2537.997          47.000    28891203.275   116333547.917       -1944.785          49.000  
E25  27080961.894   142311724.348        -518.345          48.000    27080962.725   109044204.515        -397.168          53.000  
E12  30993535.133   162872484.824       -3314.784          38.000    30993529.955   124798617.585       -2540.001          44.000  
G31  26702830.578   140324273.766        1865.696          44.000    26702827.337   109343665.737        1453.895          41.000  
E14  31145431.380   163670489.423       -3977.367          44.000    31145429.793   125409912.264       -3047.563          45.000  
G11                                                                  28576645.227                3      -3198.326          20.000  
> 2024 04 15 03 40 00.0120000  0 25                     
S33  43321214.122   227654652.623        -721.983          42.000  
E02  28948664.629   152126274.539        1218.469          43.000    28948664.781   116564319.576         933.771          50.000  
G28  24912615.086   130916657.355        -219.596          48.000    24912611.108   102012964.964        -170.974          48.000  
E36  28050396.564   147406159.238        1477.768          47.000    28050398.349   112947785.289        1132.402          52.000  
R20  26256871.346   140407403.440        2997.145          36.000    26256877.620   109205707.668        2331.183          37.000  
R09  24057848.788   128467572.929        2132.585          51.000    24057844.150    99919487.344        1658.752          50.000  
R16  23055144.760   123156610.445       -1592.217          52.000    23055139.579    95788389.493       -1238.397          48.000  
G20  27490266.936                       -1018.591          26.000                                                                  
E11  26408153.276   138776187.142       -1142.118          44.000    26408148.602   106335229.579        -875.068          47.000  
G18  25531398.948   134168743.056        2321.151          49.000    25531395.452   104547179.803        1808.700          47.000  
G29  24363224.941   128030015.260       -1356.256          48.000    24363219.276    99763919.921       -1056.915          45.000  
S31  42367425.235   222642436.114        -721.175          44.000  
R15  26466697.670   141430204.224       -4298.043          48.000    26466696.668   110001433.483       -3342.999          46.000  
R18  24106437.005   128681903.948       -3710.731          51.000    24106433.519   100086219.502       -2886.084          47.000  
R19  22848788.187   122225976.016        -696.169          39.000    22848784.785    95064250.918        -541.481          49.000  
G05  27546044.351   144755501.594         767.889          45.000    27546039.394   112796502.886         598.376          42.000  
E24  29725590.470   156209157.978       -2398.109          44.000    29725591.576   119692789.856       -1837.540          49.000  
G12  26280483.650   138105176.656       -2625.294          47.000    26280479.385   107614549.420       -2045.479          44.000  
G25  24206498.103   127206240.089       -1227.003          49.000    24206495.360    99121818.134        -956.023          44.000  
E10  28905722.871   151901100.161       -2548.390          46.000    28905721.588   116392007.529       -1952.838          49.000  
E25  27083936.521   142327356.773        -524.227          48.000    27083937.531   109056182.615        -401.697          53.000  
E12  31012472.901   162972008.205       -3320.473          39.000    31012468.476   124874875.757       -2544.213          43.000  
G31  26692216.571   140268489.792        1852.936          44.000    26692211.882   109300197.695        1443.837          41.000  
E14  31168106.074   163789642.632       -3966.267          44.000    31168103.973   125501211.482       -3039.346          45.000  
G11                                                                  28600130.013                3      -3204.251          19.000  
> 2024 04 15 03 40 30.0120000  0 25                     
S33  43325333.930   227676303.995        -721.742          42.000  
E02  28941710.432   152089727.031        1217.851          43.000    28941710.277   116536315.663         933.262          50.000  
G28  24913923.573   130923534.753        -238.834          47.000    24913919.400   102018323.971        -186.105          48.000  
E36  28041987.815   147361975.561        1467.891          47.000    28041990.330   112913930.326        1124.660          52.000  
R20  26240084.418   140317640.158        2986.640          36.000    26240090.757   109135892.412        2322.465          37.000  
R09  24045899.277   128403764.331        2121.289          51.000    24045895.078    99869858.443        1649.977          50.000  
R16  23064144.923   123204689.635       -1612.995          52.000    23064140.363    95825784.381       -1254.569          48.000  
G20  27496129.792                       -1036.017          27.000                                                                  
E11  26414712.232   138810657.618       -1155.535          44.000    26414708.119   106361642.045        -885.625          47.000  
G18  25518182.110   134099288.436        2309.217          49.000    25518178.694   104493059.400        1799.456          47.000  
G29  24370990.934   128070828.266       -1364.545          48.000    24370985.559    99795722.283       -1063.214          44.000  
S31  42371541.993   222664070.340        -721.129          44.000  
R15  26490854.810   141559291.636       -4307.870          48.000    26490853.424   110101834.646       -3350.595          45.000  
R18  24127325.525   128793406.907       -3722.686          51.000    24127323.002   100172944.046       -2895.398          49.000  
R19  22852758.201   122247210.614        -719.334          40.000    22852754.257    95080766.719        -559.473          49.000  
G05  27541692.653   144732631.603         756.512          44.000    27541686.398   112778682.112         589.502          41.000  
E24  29739296.747   156281183.364       -2403.568          44.000    29739297.786   119747978.128       -1841.625          49.000  
G12  26295493.694   138184053.862       -2633.315          47.000    26295489.371   107676012.116       -2051.741          44.000  
G25  24213535.006   127243217.419       -1238.011          49.000    24213531.904    99150631.634        -964.814          44.000  
E10  28920301.028   151977708.649       -2558.612          46.000    28920299.951   116450707.540       -1960.657          49.000  
E25  27086946.790   142343172.335        -530.120          49.000    27086947.019   109068301.027        -406.208          53.000  
E12  31031444.287   163071705.671       -3325.772          39.000    31031440.396   124951267.323       -2548.377          43.000  
G31  26681676.237   140213099.290        1840.081          44.000    26681670.963   109257036.273        1433.819          41.000  
E14  31190718.784   163908477.899       -3955.670          43.000    31190717.438   125592267.060       -3030.938          45.000  
G11                                                                  28623667.260                3      -3215.197          23.000  
> 2024 04 15 03 41 00.0120000  0 25                     
S33  43329452.838   227697948.884        -721.687          42.000  
E02  28934759.052   152053197.555        1217.186          44.000    28934758.995   116508325.578         932.546          50.000  
G28  24915343.091   130930995.450        -258.468          47.000    24915338.775   102024137.481        -201.482          48.000  
E36  28033636.809   147318094.564        1457.310          46.000    28033640.048   112880307.270        1116.784          52.000  
R20  26223357.056   140228194.615        2976.309          35.000    26223363.247   109066324.252        2314.543          36.000  
R09  24034013.841   128340297.592        2109.660          51.000    24034009.629    99820495.427        1640.782          50.000  
R16  23073262.527   123253391.926       -1633.985          52.000    23073257.462    95863663.934       -1270.826          48.000  
G20  27502097.550   144524498.138       -1053.717          30.000                                                                  
E11  26421349.282   138845536.413       -1169.730          44.000    26421345.328   106388367.352        -896.188          47.000  
G18  25505033.629   134030192.842        2296.978          49.000    25505030.045   104439218.784        1789.879          47.000  
G29  24378804.456   128111889.371       -1373.065          47.000    24378798.555    99827717.970       -1069.855          44.000  
S31  42375657.865   222685698.925        -721.080          44.000  
R15  26515066.060   141688669.758       -4317.575          48.000    26515065.399   110202461.881       -3358.165          45.000  
R18  24148280.855   128905269.348       -3734.907          51.000    24148279.104   100259948.137       -2904.976          50.000  
R19  22856857.370   122269135.962        -742.509          40.000    22856853.566    95097819.782        -577.598          49.000  
G05  27537404.292   144710100.367         745.239          44.000    27537398.993   112761125.375         580.786          41.000  
E24  29753033.694   156353368.299       -2408.907          45.000    29753034.263   119803288.645       -1845.872          49.000  
G12  26310549.385   138263172.316       -2641.522          48.000    26310543.798   107737662.850       -2058.368          43.000  
G25  24220634.625   127280526.397       -1249.336          50.000    24220631.300    99179703.553        -973.438          44.000  
E10  28934936.825   152054620.149       -2568.976          47.000    28934935.853   116509639.730       -1968.375          49.000  
E25  27089989.636   142359162.871        -536.126          48.000    27089989.877   109080553.519        -410.826          53.000  
E12  31050446.769   163171566.361       -3331.516          40.000    31050443.364   125027783.957       -2552.874          42.000  
G31  26671209.016   140158095.712        1826.797          43.000    26671203.682   109214176.352        1423.576          40.000  
E14  31213269.316   164026985.673       -3944.960          43.000    31213268.649   125683071.703       -3022.686          44.000  
G11                                                                  28647224.112                3      -3220.249          24.000  
> 2024 04 15 03 41 30.0120000  0 25                     
S33  43333570.072   227719584.861        -720.959          42.000  
E02  28927810.792   152016682.861        1216.795          44.000    28927810.445   116480346.794         932.321          50.000  
G28  24916873.419   130939035.864        -277.776          47.000    24916869.231   102030402.711        -216.343          49.000  
E36  28025343.831   147274513.329        1447.526          46.000    28025346.887   112846913.930        1109.065          52.000  
R20  26206689.590   140139065.345        2965.717          38.000    26206694.619   108997002.055        2306.415          38.000  
R09  24022192.539   128277172.111        2098.334          51.000    24022188.090    99771397.831        1632.092          49.000  
R16  23082495.354   123302713.629       -1654.505          52.000    23082491.127    95902025.258       -1286.862          48.000  
G20  27508157.530   144556349.162       -1070.282          30.000                                                                  
E11  26428062.975   138880818.645       -1183.213          43.000    26428059.241   106415401.783        -906.515          47.000  
G18  25491953.368   133961454.646        2285.184          49.000    25491948.968   104385656.632        1780.712          47.000  
G29  24386664.150   128153193.320       -1381.012          47.000    24386658.592    99859902.874       -1076.190          44.000  
S31  42379771.744   222707318.336        -720.330          44.000  
R15  26539331.518   141818331.996       -4326.915          49.000    26539331.181   110303310.073       -3365.368          46.000  
R18  24169302.063   129017483.136       -3746.393          50.000    24169299.727   100347225.537       -2913.837          49.000  
R19  22861084.266   122291746.556        -765.370          41.000    22861079.927    95115405.808        -595.205          48.000  
G05  27533180.753   144687906.287         733.978          43.000    27533176.262   112743831.296         572.046          42.000  
E24  29766801.850   156425708.949       -2414.022          46.000    29766800.234   119858718.431       -1849.766          49.000  
G12  26325651.201   138342528.235       -2649.285          48.000    26325645.361   107799498.618       -2064.385          43.000  
G25  24227796.858   127318163.848       -1260.347          49.000    24227793.860    99209031.447        -982.094          45.000  
E10  28949628.384   152131828.897       -2578.711          46.000    28949627.872   116568799.679       -1975.877          48.000  
E25  27093065.154   142375325.216        -541.768          48.000    27093065.317   109092937.650        -415.158          53.000  
E12  31069479.689   163271584.370       -3336.697          40.000    31069475.885   125104421.144       -2556.796          42.000  
G31  26660814.981   140103477.380        1814.101          43.000    26660810.568   109171616.613        1413.547          41.000  
E14  31235757.693   164145161.415       -3933.761          43.000    31235756.683   125773621.956       -3014.318          43.000  
G11                                                                  28670815.218                3      -3222.379          23.000  
> 2024 04 15 03 42 00.0120000  0 25                     
S33  43337685.770   227741212.909        -720.867          42.000  
E02  28920864.953   151980185.282        1216.380          44.000    28920865.260   116452381.145         931.875          50.000  
G28  24918513.740   130947657.930        -297.252          47.000    24918510.130   102037121.188        -231.570          48.000  
E36  28017108.605   147231234.640        1437.691          47.000    28017110.963   112813752.387        1101.500          51.000  
R20  26190082.945   140050256.264        2955.236          37.000    26190087.477   108927928.905        2298.272          39.000  
R09  24010436.332   128214392.731        2086.741          51.000    24010430.790    99722569.444        1623.076          49.000  
R16  23091844.561   123352656.839       -1675.184          52.000    23091840.772    95940869.961       -1302.884          49.000  
G20  27514319.452   144588717.239       -1086.993          34.000                                                                  
E11  26434853.576   138916505.034       -1196.180          43.000    26434850.220   106442745.902        -916.581          47.000  
G18  25478941.969   133893077.798        2273.133          50.000    25478936.994   104332376.065        1771.112          46.000  
G29  24394570.032   128194740.008       -1388.947          46.000    24394565.227    99892276.929       -1082.220          45.000  
S31  42383884.445   222728929.742        -719.779          44.000  
R15  26563649.188   141948277.930       -4336.322          50.000    26563648.699   110404378.950       -3372.687          45.000  
R18  24190389.642   129130046.063       -3757.917          50.000    24190385.949   100434774.451       -2922.884          49.000  
R19  22865439.598   122315042.319        -787.967          41.000    22865434.567    95133524.750        -612.880          48.000  
G05  27529022.777   144666053.944         722.516          43.000    27529018.807   112726803.526         563.129          43.000  
E24  29780598.193   156498206.970       -2419.295          46.000    29780596.009   119914268.828       -1853.723          49.000  
G12  26340797.246   138422123.031       -2657.235          47.000    26340790.948   107861520.505       -2070.568          43.000  
G25  24235021.956   127356132.214       -1271.156          50.000    24235019.120    99238617.187        -990.535          45.000  
E10  28964378.007   152209334.750       -2588.600          47.000    28964377.122   116628187.268       -1983.415          49.000  
E25  27096173.906   142391661.834        -547.623          48.000    27096173.959   109105455.311        -419.459          52.000  
E12  31088542.229   163371759.305       -3341.787          41.000    31088538.861   125181178.559       -2560.490          43.000  
G31  26650495.355   140049248.165        1801.030          44.000    26650491.490   109129360.109        1403.476          42.000  
E14  31258184.436   164263006.205       -3922.570          44.000    31258182.646   125863918.576       -3005.729          43.000  
G11                                                                  28694433.408                3      -3227.174          20.000  
> 2024 04 15 03 42 30.0120000  0 25                     
S33  43341800.246   227762834.137        -720.563          42.000  
E02  28913922.958   151943707.105        1215.659          43.000    28913923.647   116424430.327         931.574          50.000  
G28  24920265.191   130956863.542        -316.414          46.000    24920261.338   102044294.376        -246.724          48.000  
E36  28008930.031   147188261.170        1427.396          46.000    28008933.146   112780824.707        1093.751          51.000  
R20  26173534.840   139961771.830        2943.944          37.000    26173540.246   108859108.196        2289.991          39.000  
R09  23998745.686   128151964.896        2075.047          52.000    23998739.861    99674014.468        1614.056          49.000  
R16  23101311.928   123403223.752       -1695.874          52.000    23101307.202    95980199.779       -1319.014          49.000  
G20  27520576.680   144621603.494       -1104.828          35.000                                                                  
E11  26441721.945   138952596.228       -1209.321          44.000    26441718.208   106470400.213        -926.952          48.000  
G18  25465999.259   133825066.223        2261.041          49.000    25465995.367   104279380.119        1761.864          47.000  
G29  24402521.938   128236529.719       -1396.936          46.000    24402517.923    99924840.365       -1088.550          45.000  
S31  42387995.700   222750534.446        -719.907          44.000  
R15  26588019.210   142078506.681       -4345.490          49.000    26588019.303   110505667.820       -3379.880          45.000  
R18  24211541.608   129242955.867       -3769.288          51.000    24211539.248   100522593.160       -2931.642          50.000  
R19  22869922.662   122339022.912        -810.687          42.000    22869917.570    95152176.359        -630.475          48.000  
G05  27524929.951   144644547.085         711.237          43.000    27524926.287   112710044.944         554.346          42.000  
E24  29794422.510   156570863.973       -2424.234          45.000    29794421.980   119969941.069       -1857.551          49.000  
G12  26355988.656   138501958.430       -2665.200          47.000    26355984.112   107923729.925       -2076.847          44.000  
G25  24242310.775   127394433.917       -1282.370          49.000    24242307.551    99268462.655        -999.135          45.000  
E10  28979183.087   152287137.448       -2598.093          47.000    28979182.529   116687802.340       -1990.885          49.000  
E25  27099316.129   142408175.073        -553.245          48.000    27099316.275   109118108.330        -423.944          52.000  
E12  31107635.024   163472090.927       -3346.762          41.000    31107631.450   125258056.037       -2564.540          42.000  
G31  26640251.215   139995412.031        1788.190          45.000    26640247.260   109087409.872        1393.133          42.000  
E14  31280545.237   164380521.066       -3911.527          43.000    31280545.217   125953962.430       -2997.016          42.000  
G11                                                                  28718090.799                3      -3232.338          19.000  
> 2024 04 15 03 43 00.0120000  0 26                     
S33  43345913.155   227784449.060        -720.121          42.000  
E02  28906985.834   151907249.229        1215.252          43.000    28906985.974   116396495.078         931.083          50.000  
G28  24922129.104   130966653.199        -335.741          47.000    24922124.314   102051922.654        -261.738          47.000  
E36  28000810.483   147145594.188        1417.464          46.000    28000814.036   112748131.871        1086.069          52.000  
R20  26157048.331   139873614.289        2933.360          37.000    26157053.865   108790541.734        2281.454          41.000  
R09  23987121.459   128089891.956        2063.365          51.000    23987115.383    99625735.560        1604.833          49.000  
R16  23110894.708   123454414.867       -1716.534          52.000    23110890.632    96020015.074       -1335.071          49.000  
G20  27526936.580   144655008.565       -1121.808          36.000                                                                  
E11  26448667.093   138989091.544       -1223.066          45.000    26448663.149   106498364.155        -937.245          48.000  
G18  25453125.898   133757422.430        2248.985          48.000    25453123.351   104226670.776        1752.380          47.000  
G29  24410520.202   128278560.987       -1404.712          47.000    24410515.885    99957591.998       -1094.446          44.000  
S31  42392105.851   222772133.099        -719.508          44.000  
R15  26612443.745   142209016.707       -4354.677          49.000    26612442.205   110607175.454       -3387.079          45.000  
R18  24232756.984   129356208.651       -3780.402          50.000    24232755.575   100610678.667       -2940.456          49.000  
R19  22874533.679   122363687.359        -833.091          42.000    22874527.989    95171359.850        -648.055          48.000  
G05  27520904.400   144623387.906         699.640          43.000    27520899.931   112693557.293         545.264          42.000  
E24  29808277.946   156643680.315       -2429.462          44.000    29808277.944   120025735.403       -1861.598          48.000  
G12  26371226.220   138582034.770       -2672.798          47.000    26371222.113   107986127.016       -2082.904          44.000  
G25  24249662.683   127433069.944       -1293.123          50.000    24249659.451    99298568.655       -1007.649          45.000  
E10  28994044.671   152365235.434       -2607.623          48.000    28994044.079   116747643.653       -1998.302          49.000  
E25  27102492.306   142424866.014        -559.122          48.000    27102492.558   109130897.485        -428.331          53.000  
E12  31126756.993   163572577.382       -3351.805          41.000    31126753.546   125335052.129       -2568.211          42.000  
G31  26630082.151   139941971.537        1775.060          45.000    26630077.437   109045767.876        1383.234          42.000  
E14  31302845.327   164497705.759       -3900.209          43.000    31302843.538   126043753.279       -2988.578          41.000  
G26                                                                  28096921.816                3       1857.223          26.000  
G11                                                                  28741765.815                3      -3238.057          17.000  
> 2024 04 15 03 43 30.0120000  0 26                     
S33  43350025.378   227806057.513        -720.431          42.000  
E02  28900052.383   151870812.007        1214.067          43.000    28900051.961   116368575.658         930.331          50.000  
G28  24924103.675   130977026.734        -355.583          47.000    24924098.557   102060005.911        -277.135          48.000  
E36  27992750.034   147103234.385        1406.788          46.000    27992753.192   112715674.405        1077.926          52.000  
R20  26140623.252   139785785.092        2922.190          36.000    26140628.898   108722230.601        2272.798          41.000  
R09  23975564.396   128028177.044        2051.029          51.000    23975558.691    99577735.061        1595.285          50.000  
R16  23120594.493   123506229.692       -1737.630          53.000    23120589.964    96060315.488       -1351.425          48.000  
G20  27533392.098   144688932.259       -1139.380          36.000                                                                  
E11  26455689.063   139025989.603       -1236.888          45.000    26455684.593   106526636.675        -947.634          48.000  
G18  25440323.742   133690148.329        2236.267          48.000    25440320.977   104174249.476        1742.417          47.000  
G29  24418564.858   128320831.837       -1413.049          47.000    24418559.179    99990530.313       -1101.184          44.000  
S31  42396214.336   222793724.352        -719.398          44.000  
R15  26636919.512   142339805.279       -4364.349          49.000    26636916.870   110708899.680       -3394.216          45.000  
R18  24254036.246   129469800.043       -3792.030          50.000    24254034.448   100699027.529       -2949.397          49.000  
R19  22879271.444   122389033.138        -856.281          41.000    22879266.062    95191073.225        -665.970          48.000  
G05  27516944.092   144602578.362         687.836          44.000    27516940.269   112677342.112         535.785          42.000  
E24  29822164.877   156716655.625       -2435.260          44.000    29822164.596   120081651.526       -1865.936          48.000  
G12  26386511.584   138662351.724       -2681.277          48.000    26386505.612   108048711.646       -2089.479          44.000  
G25  24257078.675   127472040.770       -1304.738          50.000    24257075.858    99328935.532       -1016.726          45.000  
E10  29008962.454   152443626.524       -2618.024          48.000    29008961.633   116807709.533       -2006.014          49.000  
E25  27105702.372   142441735.023        -565.334          48.000    27105702.666   109143823.094        -433.153          53.000  
E12  31145908.048   163673216.460       -3357.180          41.000    31145904.365   125412165.186       -2572.278          41.000  
G31  26619988.266   139888928.277        1761.334          45.000    26619983.433   109004435.465        1372.373          42.000  
E14  31325081.255   164614559.271       -3889.661          43.000    31325080.279   126133290.420       -2980.222          40.000  
G26                                                                  28083313.267                3       1857.203          25.000  
G11                                                                  28765478.472                3      -3247.976          14.000  
> 2024 04 15 03 44 00.0120000  0 25                     
S33  43354136.441   227827660.907        -719.755          43.000  
E02  28893123.636   151834399.284        1213.279          44.000    28893122.887   116340675.028         929.788          50.000  
G28  24926189.039   130987987.570        -375.117          47.000    24926184.542   102068546.784        -292.285          48.000  
E36  27984748.785   147061185.925        1396.517          46.000    27984751.581   112683455.504        1069.971          52.000  
R20  26124261.211   139698290.544        2911.110          35.000    26124266.220   108654179.741        2264.280          41.000  
R09  23964075.613   127966826.870        2039.037          52.000    23964070.250    99530018.290        1585.993          50.000  
R16  23130411.502   123558672.230       -1758.337          53.000    23130407.336    96101104.125       -1367.718          48.000  
G20  27539943.329   144723377.908       -1157.361          33.000                                                                  
E11  26462787.356   139063292.526       -1249.894          46.000    26462783.059   106555219.463        -957.755          48.000  
G18  25427593.331   133623249.350        2223.778          48.000    25427591.007   104122120.461        1732.762          47.000  
G29  24426654.927   128363344.231       -1421.027          47.000    24426648.806   100023656.875       -1107.458          43.000  
S31  42400322.157   222815311.781        -719.271          44.000  
R15  26661446.360   142470873.341       -4373.344          48.000    26661444.136   110810841.330       -3401.718          45.000  
R18  24275379.857   129583729.205       -3803.045          51.000    24275376.198   100787639.104       -2957.953          49.000  
R19  22884136.569   122415061.452        -879.056          40.000    22884132.069    95211317.466        -683.470          48.000  
G05  27513052.023   144582123.624         675.964          44.000    27513047.230   112661403.390         526.965          40.000  
E24  29836083.752   156789793.078       -2440.508          45.000    29836082.573   120137691.896       -1869.974          48.000  
G12  26401840.590   138742912.388       -2689.360          46.000    26401836.117   108111486.172       -2095.542          44.000  
G25  24264558.843   127511350.266       -1315.840          50.000    24264555.907    99359566.303       -1025.596          45.000  
E10  29023936.303   152522311.993       -2627.639          48.000    29023934.907   116868000.986       -2013.319          49.000  
E25  27108946.965   142458786.060        -571.254          48.000    27108947.485   109156888.180        -437.688          53.000  
E12  31165088.029   163774009.244       -3362.054          41.000    31165085.088   125489396.026       -2576.201          43.000  
G31  26609971.064   139836287.972        1748.001          44.000    26609965.547   108963417.051        1362.219          41.000  
E14  31347255.849   164731084.257       -3878.607          43.000    31347254.433   126222575.821       -2971.954          40.000  
G26                                                                  28069712.904                3       1859.163          25.000  
> 2024 04 15 03 44 30.0120000  0 25                     
S33  43358246.304   227849259.464        -719.817          43.000  
E02  28886198.885   151798010.735        1212.460          43.000    28886198.275   116312792.934         929.031          50.000  
G28  24928386.342   130999534.746        -394.694          47.000    24928381.913   102077544.584        -307.617          48.000  
E36  27976806.155   147019448.787        1386.047          46.000    27976809.141   112651475.133        1062.005          52.000  
R20  26107960.738   139611131.111        2899.325          35.000    26107966.756   108586389.536        2255.215          41.000  
R09  23952655.369   127905843.563        2026.576          50.000    23952650.296    99482586.843        1576.323          50.000  
R16  23140346.096   123611741.223       -1779.505          52.000    23140342.085    96142380.001       -1384.041          48.000  
G20  27546600.657   144758344.077       -1174.390          35.000                                                                  
E11  26469962.500   139100998.357       -1263.692          45.000    26469958.370   106584110.948        -968.299          48.000  
G18  25414935.163   133556726.694        2210.964          49.000    25414932.630   104070284.669        1722.889          47.000  
G29  24434789.489   128406095.642       -1429.059          47.000    24434784.653   100056969.677       -1113.489          44.000  
S31  42404429.121   222836893.798        -719.438          44.000  
R15  26686025.511   142602217.591       -4382.843          48.000    26686024.155   110912997.727       -3408.892          46.000  
R18  24296785.165   129697991.215       -3814.300          52.000    24296781.954   100876509.530       -2966.736          50.000  
R19  22889128.729   122441769.620        -901.460          40.000    22889125.209    95232090.521        -701.274          49.000  
G05  27509226.920   144562025.982         663.965          44.000    27509222.075   112645742.913         517.108          39.000  
E24  29850031.501   156863091.634       -2446.052          44.000    29850031.295   120193855.715       -1874.252          49.000  
G12  26417217.065   138823715.557       -2697.565          46.000    26417213.455   108174449.642       -2101.983          45.000  
G25  24272103.192   127550998.144       -1327.193          49.000    24272100.435    99390460.740       -1034.212          45.000  
E10  29038964.250   152601288.936       -2637.551          48.000    29038963.563   116928515.783       -2020.807          49.000  
E25  27112225.973   142476018.871        -577.575          48.000    27112226.777   109170092.554        -442.478          53.000  
E12  31184297.064   163874952.782       -3367.415          41.000    31184294.083   125566742.344       -2580.092          43.000  
G31  26600030.874   139784051.592        1734.405          44.000    26600025.619   108922713.395        1351.427          41.000  
E14  31369366.010   164847279.104       -3867.610          42.000    31369365.864   126311608.229       -2963.456          40.000  
G26                                                                  28056082.061                3       1860.846          22.000  
