     3.00           OBSERVATION DATA    M: Mixed            RINEX VERSION / TYPE
CONVBIN 2.4.3                           20240415 192942 UTC PGM / RUN BY / DATE 
format: u-blox UBX                                          COMMENT             
log: /home/regis/git/gnsspwv/obsdata/VERT00CHL/2024-04-15/VECOMMENT             
{self.marker}                                               MARKER NAME         
                                                            MARKER NUMBER       
GEODETIC                                                    MARKER TYPE         
{self.observer}     {self.institution}                      OBSERVER / AGENCY   
UNKNOWN             UBLOX-ZED-F9P                           REC # / TYPE / VERS 
UNKNOWN             TWIVSP6037L                             ANT # / TYPE        
  1713381.0000 -5047934.0000 -3490983.0000                  APPROX POSITION XYZ 
        0.0000        0.0000        0.0000                  ANTENNA: DELTA H/E/N
G    8 C1C L1C D1C S1C C2L L2L D2L S2L                      SYS / # / OBS TYPES 
R    8 C1C L1C D1C S1C C2C L2C D2C S2C                      SYS / # / OBS TYPES 
E    8 C1C L1C D1C S1C C7Q L7Q D7Q S7Q                      SYS / # / OBS TYPES 
S    4 C1C L1C D1C S1C                                      SYS / # / OBS TYPES 
  2024    04    15    19    15   00.4910000     GPS         TIME OF FIRST OBS   
  2024    04    15    19    29   30.4910000     GPS         TIME OF LAST OBS    
                                                            END OF HEADER       
> 2024 04 15 19 15 00.4910000  0 22                     
G05  19005426.080    99874163.0041        757.874          49.000    19005426.471    77824019.1931        590.476          45.000  
E19  23932393.732   125765576.2331       1282.402          36.000    23932402.309    96365894.2731        982.484          38.000  
G09  20861922.529   109629954.5291      -3240.243          45.000    20861933.944    85425890.5871      -2524.626          42.000  
E27  21002144.695   110367193.2281        111.176          50.000    21002151.523    84567211.1131         85.221          53.000  
R13  17369735.506    92753564.1881      -3381.532          41.000    17369738.241    72141756.8261      -2630.067          43.000  
R02  19055059.571   101681309.6391      -3705.626          51.000    19055069.543    79085435.1051      -2882.251          47.000  
R04  18378419.686    98415637.8401       2432.333          49.000    18378420.101    76545496.7701       1891.698          50.000  
R03  16544380.825    88563485.2931       -581.152          52.000    16544380.204    68882753.3271       -452.065          50.000  
E33  24625165.570                       -2945.143          30.000    24625180.670    99155217.0391      -2257.164          33.000  
G07  19573805.281   102860986.3751      -3699.120          41.000    19573809.563    80151407.1491      -2882.487          43.000  
S31  36006850.881   189217204.4361       -800.381          44.000  
S33  36955382.222   194201762.1971       -800.542          41.000  
G14  17717735.610    93107529.3891        533.202          48.000    17717737.679    72551439.9911        415.385          47.000  
G20  18188877.200    95583232.0851      -1915.790          49.000                                                                  
R14  16960559.883    90409539.1321       1080.552          53.000    16960565.323    70318697.5381        840.458          50.000  
E07  21850111.755   114823057.4801      -1849.690          46.000    21850121.243    87981302.8081      -1417.368          53.000  
G13  19639416.500   103205879.3431       1449.354          45.000                                                                  
G22  19130289.705   100530553.1141       2271.707          46.000                                                                  
G30  17922177.674    94181732.0411      -2098.638          50.000    17922179.711    73388403.4061      -1635.389          46.000  
E21  23481288.890   123395168.7651       2115.789          45.000    23481303.396    94549683.1071       1621.169          48.000  
E30  22873720.864   120202290.5961      -2571.385          43.000    22873729.516    92103123.7661      -1970.266          48.000  
E18  19519961.613   102578115.4941       -689.996          40.000                                                                  
> 2024 04 15 19 15 30.4910000  0 23                     
G05  19001147.574    99851684.024         740.689          48.000    19001148.956    77806503.113         577.106          45.000  
E19  23925068.398   125727091.205        1282.853          36.000    23925078.929    96336405.830         983.530          38.000  
G09  20880436.681   109727247.041       -3246.130          44.000    20880448.905    85501702.569       -2529.431          43.000  
E27  21001547.009   110364055.297          97.887          50.000    21001554.248    84564806.799          74.969          53.000  
R13  17388775.202    92855236.589       -3396.627          41.000    17388778.996    72220835.398       -2641.954          43.000  
R02  19075929.271   101792676.278       -3718.772          50.000    19075939.597    79172053.253       -2892.454          47.000  
R04  18364810.788    98342758.317        2426.278          50.000    18364809.889    76488812.774        1887.099          49.000  
R03  16547690.972    88581204.542        -600.073          52.000    16547689.889    68896534.946        -466.773          49.000  
R15  20885503.598                3       3226.853          14.000                                                                  
G07  19594932.619   102972005.300       -3702.128          44.000    19594934.456    80237915.282       -2884.901          42.000  
S31  36011421.256   189241222.016        -800.432          43.000  
S33  36959952.589   194225779.707        -800.884          42.000  
G14  17714745.249    93091813.187         514.403          48.000    17714746.617    72539193.657         400.853          48.000  
G20  18199865.195    95640978.661       -1933.954          47.000                                                                  
R14  16954538.580    90377438.793        1059.247          53.000    16954543.620    70293730.734         823.905          50.000  
E07  21860686.826   114878631.027       -1855.311          46.000    21860696.706    88023885.059       -1421.581          53.000  
G13  19631144.842   103162409.799        1448.276          46.000                                                                  
G22  19117351.716   100462561.769        2261.097          47.000                                                                  
G30  17934182.648    94244819.381       -2107.135          49.000    17934185.526    73437562.371       -1641.907          46.000  
E21  23469221.436   123331761.572        2111.413          44.000    23469237.262    94501098.645        1617.597          48.000  
E30  22888426.513   120279581.249       -2581.827          41.000    22888437.678    92162346.486       -1978.077          49.000  
E18  19523963.853   102599143.940        -711.998          41.000                                                                  
E33                                                                  24642008.980                       -2261.228          31.000  
> 2024 04 15 19 16 00.4910000  0 23                     
G05  18996968.456    99829719.583         723.400          48.000    18996969.344    77789387.938         563.749          46.000  
E19  23917739.944   125688570.042        1284.598          36.000    23917748.214    96306889.750         984.701          38.000  
G09  20898986.089   109824723.132       -3252.603          44.000    20898997.214    85577657.560       -2534.537          41.000  
E27  21001025.374   110361315.727          84.546          49.000    21001032.662    84562707.733          64.722          52.000  
R13  17407902.300    92957372.173       -3412.112          42.000    17407905.331    72300274.172       -2654.104          44.000  
R02  19096872.748   101904432.711       -3731.843          51.000    19096883.055    79258974.569       -2902.450          47.000  
R04  18351234.193    98270057.677        2420.240          50.000    18351233.881    76432267.886        1882.341          49.000  
R03  16551106.879    88599486.953        -618.932          52.000    16551106.222    68910754.567        -481.492          50.000  
R15  20867491.318                3       3221.656          14.000    20867179.611                1       2501.021          26.000  
G07  19616073.584   103083103.707       -3704.791          44.000    19616076.082    80324485.384       -2886.958          42.000  
S31  36015990.868   189265235.289        -800.592          43.000  
S33  36964522.508   194249792.775        -800.861          41.000  
G14  17711860.708    93076656.219         495.695          48.000    17711862.461    72527383.128         386.259          48.000  
G20  18210956.331    95699264.885       -1952.032          47.000                                                                  
R14  16948634.250    90345973.212        1038.174          53.000    16948640.069    70269257.650         807.385          50.000  
E07  21871292.954   114934366.083       -1860.696          46.000    21871302.843    88066591.078       -1425.720          53.000  
G13  19622878.362   103118969.579        1447.281          46.000                                                                  
G22  19104473.159   100394885.427        2250.381          47.000                                                                  
G30  17946235.163    94308157.471       -2115.558          49.000    17946237.535    73486916.712       -1648.388          45.000  
E21  23457180.040   123268488.127        2106.624          44.000    23457197.018    94452616.639        1614.207          49.000  
E30  22903194.613   120357177.615       -2591.566          42.000    22903203.767    92221803.459       -1985.788          49.000  
E18  19528088.603   102620827.576        -733.755          40.000                                                                  
E33                                                                  24658864.287                       -2264.325          28.000  
> 2024 04 15 19 16 30.4910000  0 23                     
G05  18992887.242    99808273.307         706.327          49.000    18992888.246    77772676.604         550.272          46.000  
E19  23910400.732   125650015.166        1285.629          34.000    23910410.945    96277347.836         985.349          38.000  
G09  20917570.571   109922384.678       -3258.313          43.000    20917582.403    85653757.138       -2539.001          42.000  
E27  21000580.173   110358977.184          71.286          49.000    21000587.860    84560915.934          54.653          53.000  
R13  17427115.610    93059969.179       -3427.560          41.000    17427118.981    72380071.811       -2665.835          45.000  
R02  19117889.474   102016579.570       -3744.639          51.000    19117899.293    79346199.538       -2912.468          47.000  
R04  18337691.828    98197541.354        2414.203          50.000    18337692.151    76375866.424        1877.704          50.000  
R03  16554627.403    88618337.271        -637.747          51.000    16554627.406    68925415.886        -496.127          50.000  
R15  20849067.628                3       3211.677          25.000                                                                  
G07  19637231.093   103194282.558       -3707.211          46.000    19637232.136    80411118.163       -2888.500          41.000  
S31  36020559.895   189289245.168        -799.980          43.000  
S33  36969091.716   194273803.872        -800.255          42.000  
G14  17709083.734    93062062.039         477.283          49.000    17709085.405    72516011.142         371.956          48.000  
G20  18222151.072    95758091.659       -1969.665          47.000                                                                  
R14  16942851.448    90315145.178        1017.039          53.000    16942857.301    70245280.395         790.962          50.000  
E07  21881930.280   114990265.424       -1865.926          46.000    21881940.015    88109422.969       -1429.839          52.000  
G13  19614618.550   103075561.651        1446.339          46.000                                                                  
G22  19091655.115   100327528.907        2240.075          48.000                                                                  
G30  17958335.551    94371746.868       -2123.719          48.000    17958337.849    73536466.928       -1654.859          46.000  
E21  23445165.497   123205352.208        2102.343          44.000    23445181.959    94404240.049        1610.778          48.000  
E30  22918020.703   120435080.550       -2601.792          42.000    22918028.132    92281495.318       -1993.632          48.000  
E18  19532340.219   102643170.404        -755.303          40.000                                                                  
E33                                                                  24675746.221    99358817.097       -2267.401          31.000  
> 2024 04 15 19 17 00.4910000  0 23                     
G05  18988904.220    99787344.162         689.036          49.000    18988905.815    77756368.176         536.894          46.000  
E19  23903059.863   125611424.848        1286.941          37.000    23903067.399    96247778.753         986.131          37.000  
G09  20936190.233   110020229.013       -3264.465          43.000    20936202.542    85729999.113       -2543.774          42.000  
E27  21000211.127   110357037.512          58.017          50.000    21000218.248    84559429.783          44.525          53.000  
R13  17446413.576    93163021.453       -3442.710          41.000    17446416.727    72460223.513       -2677.439          44.000  
R02  19138978.721   102129113.300       -3757.577          52.000    19138988.585    79433725.419       -2922.424          47.000  
R04  18324183.835    98125210.205        2408.084          51.000    18324185.165    76319608.898        1872.853          50.000  
R03  16558255.190    88637754.742        -656.661          52.000    16558255.664    68940518.322        -510.799          51.000  
R15  20831027.355                1       3202.759          30.000    20831053.447                3       2491.224          26.000  
G07  19658401.788   103305537.593       -3709.794          46.000    19658403.805    80497810.375       -2890.758          42.000  
S31  36025127.874   189313250.501        -800.016          44.000  
S33  36973659.631   194297809.087        -800.248          43.000  
G14  17706413.904    93048029.318         458.379          49.000    17706414.024    72505076.641         357.246          46.000  
G20  18233447.562    95817454.964       -1987.646          47.000                                                                  
R14  16937187.676    90284953.261         995.739          53.000    16937192.682    70221797.932         774.488          50.000  
E07  21892598.789   115046326.994       -1871.357          46.000    21892608.247    88152379.172       -1433.957          52.000  
G13  19606364.230   103032184.509        1445.233          46.000                                                                  
G22  19078899.126   100260492.468        2229.312          48.000                                                                  
G30  17970483.531    94435583.533       -2131.896          50.000    17970485.838    73586209.774       -1661.292          45.000  
E21  23433176.100   123142352.917        2097.494          44.000    23433193.684    94355968.129        1607.212          49.000  
E30  22932900.227   120513285.838       -2611.830          40.000    22932910.195    92341418.858       -2001.413          48.000  
E18  19536716.899   102666171.449        -777.552          41.000                                                                  
E33                                                                  24692653.333                       -2271.313          28.000  
> 2024 04 15 19 17 30.4910000  0 22                     
G05  18985019.533    99766933.539         671.542          48.000    18985021.723    77740463.812         523.299          46.000  
E19  23895710.061   125572799.014        1288.106          37.000    23895716.911    96218182.442         986.964          38.000  
G09  20954845.108   110118255.541       -3270.674          44.000    20954857.300    85806383.009       -2548.609          43.000  
E27  20999917.681   110355496.798          44.699          49.000    20999925.023    84558249.301          34.196          53.000  
R13  17465796.416    93266525.079       -3457.756          41.000    17465799.554    72540726.282       -2689.351          45.000  
R02  19160139.993   102242032.116       -3770.485          51.000    19160149.658    79521550.809       -2932.560          47.000  
R04  18310711.014    98053066.755        2401.455          51.000    18310712.142    76263497.406        1867.794          49.000  
R03  16561988.712    88657740.082        -675.797          53.000    16561988.617    68956062.451        -525.598          51.000  
G07  19679587.146   103416867.394       -3712.286          46.000    19679590.150    80584560.770       -2892.612          43.000  
S31  36029695.344   189337249.664        -799.873          44.000  
S33  36978226.657   194321808.626        -799.882          42.000  
G14  17703850.528    93034558.920         439.580          49.000    17703851.424    72494580.321         342.522          47.000  
G20  18244845.698    95877352.984       -2005.573          47.000                                                                  
R14  16931642.784    90255397.996         974.399          53.000    16931649.498    70198810.604         757.937          51.000  
E07  21903297.002   115102550.965       -1877.084          45.000    21903307.629    88195459.805       -1438.143          52.000  
G13  19598115.561   102988838.541        1443.944          44.000                                                                  
G22  19066203.953   100193778.764        2218.242          48.000                                                                  
G30  17982678.392    94499665.549       -2140.286          50.000    17982680.274    73636143.816       -1667.695          45.000  
E21  23421215.164   123079491.552        2092.965          45.000    23421231.394    94307801.894        1603.802          49.000  
E30  22947839.240   120591791.647       -2621.693          39.000    22947849.941    92401572.672       -2008.925          49.000  
E18  19541219.078   102689832.135        -799.821          43.000                                                                  
E33                                                                  24709585.978                       -2274.158          26.000  
> 2024 04 15 19 18 00.4910000  0 23                     
G05  18981234.330    99747040.999         654.199          49.000    18981236.131    77724963.117         509.780          46.000  
E19  23888351.852   125534135.346        1288.966          37.000    23888359.315    96188557.159         987.800          38.000  
G09  20973533.323   110216461.486       -3276.746          44.000    20973545.092    85882906.751       -2553.265          43.000  
E27  20999699.208   110354352.890          31.315          48.000    20999707.326    84557372.856          24.117          53.000  
R13  17485262.887    93370473.309       -3472.598          41.000    17485266.082    72621574.918       -2700.750          45.000  
R02  19181372.479   102355332.303       -3783.221          51.000    19181383.297    79609672.745       -2942.443          48.000  
R04  18297274.369    97981111.916        2395.208          51.000    18297275.081    76207532.573        1862.967          49.000  
R03  16565827.504    88678293.348        -694.722          52.000    16565828.667    68972048.329        -540.385          51.000  
R15  20795133.560   111122872.2731       3189.554          33.000                                                                  
G07  19700785.371   103528267.215       -3714.758          46.000    19700789.245    80671365.705       -2894.408          43.000  
S31  36034260.606   189361240.971        -799.909          44.000  
S33  36982792.038   194345800.990        -799.875          41.000  
G14  17701393.387    93021649.525         420.856          48.000    17701394.925    72484521.153         327.905          47.000  
G20  18256344.830    95937781.694       -2023.248          47.000                                                                  
R14  16926217.632    90226477.596         953.278          52.000    16926222.701    70176317.103         741.302          50.000  
E07  21914027.546   115158935.271       -1882.378          46.000    21914037.231    88238663.290       -1442.222          53.000  
G13  19589872.665   102945521.920        1443.074          44.000                                                                  
G22  19053569.886   100127387.518        2207.481          48.000                                                                  
G30  17994918.804    94563988.784       -2148.303          50.000    17994920.070    73686265.826       -1674.042          45.000  
E21  23409278.779   123016767.139        2088.251          45.000    23409294.512    94259740.583        1600.105          48.000  
E30  22962836.112   120670593.882       -2631.746          40.000    22962844.917    92461953.591       -2016.580          49.000  
E18  19545846.205   102714151.575        -821.637          42.000                                                                  
E33                                                                  24726540.894                3      -2276.887          24.000  
> 2024 04 15 19 18 30.4910000  0 23                     
G05  18977549.593    99727674.548         636.575          50.000    18977551.151    77709872.373         496.053          46.000  
E19  23880989.056   125495441.203        1290.108          37.000    23880996.412    96158908.492         988.598          38.000  
G09  20992256.369   110314853.362       -3282.941          42.000    20992268.807    85959575.326       -2558.191          43.000  
E27  20999558.980   110353612.838          17.890          49.000    20999566.514    84556805.884          13.618          53.000  
R13  17504812.844    93474869.480       -3487.408          40.000    17504816.201    72702771.860       -2712.399          44.000  
R02  19202677.814   102469019.344       -3796.103          52.000    19202688.708    79698095.638       -2952.559          47.000  
R04  18283875.545    97909355.978        2388.397          52.000    18283875.299    76151722.428        1857.715          49.000  
R03  16569775.127    88699422.628        -714.006          52.000    16569775.976    68988482.197        -555.409          51.000  
R15  20777240.937   111027282.811        3183.123          35.000                                                                  
G07  19721999.616   103639742.652       -3717.257          47.000    19722001.695    80758229.587       -2896.531          43.000  
S31  36038825.534   189385230.164        -799.733          43.000  
S33  36987357.327   194369791.160        -799.859          41.000  
G14  17699044.138    93009308.979         401.789          48.000    17699046.540    72474905.260         313.130          47.000  
G20  18267946.773    95998746.096       -2041.095          48.000                                                                  
R14  16920911.881    90198199.531         931.792          52.000    16920918.045    70154323.144         724.720          50.000  
E07  21924788.077   115215487.097       -1887.961          45.000    21924798.936    88281995.171       -1446.756          53.000  
G13  19581637.335   102902242.417        1441.804          45.000                                                                  
G22  19040998.932   100061328.067        2196.366          48.000                                                                  
G30  18007205.681    94628558.394       -2156.494          51.000    18007208.328    73736579.808       -1680.334          46.000  
E21  23397370.061   122954187.932        2083.489          45.000    23397385.745    94211790.583        1596.387          49.000  
E30  22977889.211   120749697.762       -2641.986          41.000    22977898.511    92522565.591       -2024.327          50.000  
E18  19550600.771   102739138.063        -844.025          43.000                                                                  
E33                                                                  24743525.935                       -2281.882          26.000  
> 2024 04 15 19 19 00.4910000  0 23                     
G05  18973965.366    99708839.468         618.777          49.000    18973967.134    77695195.682         482.173          46.000  
E19  23873620.552   125456721.288        1291.217          37.000    23873628.514    96129240.082         989.040          39.000  
G09  21011016.057   110413434.954       -3289.368          43.000    21011028.385    86036391.761       -2563.190          43.000  
E27  20999495.953   110353281.095           4.240          49.000    20999503.310    84556551.752           3.171          52.000  
R13  17524447.300    93579713.717       -3502.311          42.000    17524450.146    72784317.393       -2724.087          44.000  
R02  19224056.553   102583095.927       -3809.059          52.000    19224066.637    79786821.491       -2962.629          47.000  
R04  18270513.533    97837805.874        2381.403          52.000    18270514.049    76096072.402        1852.228          50.000  
R03  16573830.721    88721133.941        -733.517          52.000    16573831.033    69005368.743        -570.510          50.000  
R15  20759391.282   110931908.749        3175.365          37.000    20759417.316                1       2469.528          30.000  
G07  19743226.988   103751295.853       -3720.028          45.000    19743228.958    80845154.053       -2898.640          42.000  
S31  36043391.263   189409222.603        -800.177          44.000  
S33  36991923.551   194393784.522        -800.202          41.000  
G14  17696805.569    92997542.545         382.511          48.000    17696806.629    72465736.683         297.928          46.000  
G20  18279649.797    96060248.959       -2059.058          47.000                                                                  
R14  16915729.315    90170569.118         910.087          53.000    16915734.108    70132832.945         707.881          49.000  
E07  21935583.138   115272211.024       -1893.521          46.000    21935593.581    88325458.889       -1451.015          53.000  
G13  19573409.326   102859004.704        1440.279          45.000                                                                  
G22  19028492.887    99995607.293        2184.911          49.000                                                                  
G30  18019539.958    94693376.876       -2164.960          50.000    18019543.332    73787087.711       -1686.774          47.000  
E21  23385490.441   122891759.674        2078.348          46.000    23385506.025    94163956.207        1592.515          49.000  
E30  22992998.429   120829105.642       -2652.068          41.000    22993008.642    92583410.553       -2032.064          50.000  
E18  19555483.784   102764797.237        -866.646          41.000                                                                  
E33                                                                  24760535.261                3      -2285.630          24.000  
> 2024 04 15 19 19 30.4910000  0 23                     
G05  18970481.359    99690530.893         601.366          49.000    18970482.097    77680929.262         468.643          45.000  
E19  23866245.920   125417968.388        1292.018          37.000    23866253.529    96099546.427         990.001          38.000  
G09  21029810.532   110512198.769       -3295.288          44.000    21029822.450    86113350.182       -2567.694          42.000  
E27  20999508.638   110353350.824          -9.140          48.000    20999516.498    84556605.237          -6.990          52.000  
R13  17544162.956    93684995.081       -3516.615          42.000    17544166.058    72866202.814       -2735.258          44.000  
R02  19245506.086   102697553.562       -3821.743          52.000    19245516.356    79875843.724       -2972.552          47.000  
R04  18257190.145    97766457.823        2374.701          52.000    18257190.093    76040579.524        1846.985          49.000  
R03  16577994.372    88743422.089        -752.724          52.000    16577994.346    69022703.951        -585.395          51.000  
R15  20741579.710   110836745.479        3168.375          40.000    20741606.961    86206473.6931       2463.704          34.000  
G07  19764468.216   103862918.649       -3721.901          45.000    19764469.555    80932132.791       -2900.283          41.000  
S31  36047955.509   189433209.723        -799.691          44.000  
S33  36996488.019   194417773.186        -799.677          42.000  
G14  17694675.129    92986344.108         363.614          49.000    17694675.772    72457010.701         283.317          46.000  
G20  18291453.990    96122281.411       -2076.695          47.000                                                                  
R14  16910666.184    90143579.593         888.801          53.000    16910670.620    70111841.188         691.212          49.000  
E07  21946408.829   115329100.380       -1899.170          46.000    21946419.323    88369049.354       -1455.173          53.000  
G13  19565188.138   102815802.426        1439.218          44.000                                                                  
G22  19016049.809    99930220.848        2173.762          48.000                                                                  
G30  18031920.510    94758435.468       -2172.742          50.000    18031923.591    73837782.733       -1693.158          46.000  
E21  23373638.111   122829476.759        2073.503          45.000    23373653.910    94116233.199        1588.806          49.000  
E30  23008164.379   120908808.923       -2661.908          40.000    23008176.190    92644481.848       -2039.527          50.000  
E18  19560492.591   102791123.397        -888.876          40.000                                                                  
E33                                                                  24777567.059                3      -2291.253          20.000  
> 2024 04 15 19 20 00.4910000  0 23                     
G05  18967098.802    99672757.520         583.360          49.000    18967100.925    77667079.892         454.493          46.000  
E19  23858866.224   125379190.426        1292.544          36.000    23858874.186    96069833.519         990.397          38.000  
G09  21048641.010   110611151.855       -3301.739          43.000    21048653.424    86190456.109       -2572.852          42.000  
E27  20999599.239   110353829.589         -23.017          48.000    20999607.551    84556972.141         -17.696          53.000  
R13  17563961.831    93790717.023       -3531.741          42.000    17563964.568    72948430.924       -2746.685          45.000  
R02  19267027.713   102812398.152       -3834.893          50.000    19267038.691    79965166.916       -2982.723          48.000  
R04  18243906.065    97695322.602        2367.371          52.000    18243905.784    75985252.181        1841.254          49.000  
R03  16582267.599    88766295.945        -772.453          52.000    16582267.911    69040494.692        -600.736          50.000  
R15  20723809.728   110741802.620        3160.680          38.000    20723835.644    86132630.059        2458.130          35.000  
G07  19785723.755   103974616.380       -3724.680          46.000    19785724.975    81019169.819       -2902.315          41.000  
S31  36052520.970   189457199.397        -800.087          43.000  
S33  37001053.261   194441763.479        -799.974          42.000  
G14  17692654.023    92975722.036         344.231          49.000    17692654.063    72448733.862         268.181          46.000  
G20  18303360.895    96184849.011       -2094.581          48.000                                                                  
R14  16905724.115    90117238.714         867.003          53.000    16905728.283    70091353.961         674.275          48.000  
E07  21957268.122   115386162.872       -1905.236          47.000    21957278.267    88412772.481       -1459.855          53.000  
G13  19556975.819   102772643.935        1437.654          44.000                                                                  
G22  19003671.989    99865178.495        2162.098          47.000                                                                  
G30  18044347.181    94823739.948       -2181.091          49.000    18044350.072    73888669.314       -1699.445          46.000  
E21  23361815.570   122767347.962        2068.188          45.000    23361830.923    94068628.284        1584.659          49.000  
E30  23023389.500   120988813.222       -2671.954          41.000    23023400.083    92705783.761       -2047.393          50.000  
E18  19565630.027   102818125.270        -911.438          40.000                                                                  
E33                                                                  24794624.010                3      -2291.399          26.000  
> 2024 04 15 19 20 30.4910000  0 23                     
G05  18963818.425    99655518.699         565.915          49.000    18963820.189    77653647.040         440.998          46.000  
E19  23851482.278   125340385.971        1294.178          36.000    23851489.290    96040100.342         991.727          38.000  
G09  21067506.952   110710292.141       -3307.635          43.000    21067519.272    86267707.860       -2577.179          43.000  
E27  20999768.878   110354715.930         -36.218          48.000    20999776.088    84557651.338         -27.780          52.000  
R13  17583841.403    93896873.681       -3545.810          42.000    17583844.197    73030997.162       -2757.659          45.000  
R02  19288620.955   102927626.619       -3847.050          50.000    19288632.826    80054788.654       -2992.249          48.000  
R04  18230661.631    97624401.722        2360.663          52.000    18230662.201    75930091.561        1836.054          50.000  
R03  16586650.292    88789755.473        -791.623          53.000    16586649.859    69058740.955        -615.811          50.000  
R15  20706083.313   110647081.045        3153.697          45.000    20706106.725    86058958.601        2453.130          31.000  
G07  19806992.436   104086385.742       -3726.710          44.000    19806994.656    81106262.734       -2904.014          42.000  
S31  36057085.763   189481190.391        -799.683          43.000  
S33  37005619.054   194465755.851        -799.762          42.000  
G14  17690742.062    92965675.549         325.569          49.000    17690742.188    72440905.518         253.422          47.000  
G20  18315367.903    96247948.355       -2111.962          47.000                                                                  
R14  16900904.236    90091545.516         845.855          54.000    16900908.807    70071370.433         657.950          49.000  
E07  21968159.761   115443397.160       -1910.468          47.000    21968169.299    88456627.273       -1463.965          53.000  
G13  19548771.003   102729528.236        1436.542          44.000                                                                  
G22  18991360.806    99800481.338        2150.884          49.000                                                                  
G30  18056820.654    94889286.956       -2188.708          49.000    18056823.392    73939744.878       -1705.420          46.000  
E21  23350021.278   122705373.091        2063.451          44.000    23350037.613    94021141.332        1581.073          50.000  
E30  23038670.635   121069115.202       -2681.671          42.000    23038681.213    92767313.777       -2054.707          50.000  
E18  19570896.698   102845802.464        -933.484          39.000                                                                  
E33                                                                  24811704.071                       -2293.529          27.000  
> 2024 04 15 19 21 00.4910000  0 23                     
G05  18960638.765    99638810.395         547.858          48.000    18960640.312    77640627.579         426.820          46.000  
E19  23844091.408   125301549.736        1294.649          34.000    23844099.326    96010342.829         991.935          39.000  
G09  21086405.996   110809613.300       -3313.831          40.000    21086420.338    86345100.626       -2582.330          44.000  
E27  21000013.838   110356004.084         -49.947          48.000    21000021.170    84558638.422         -38.226          52.000  
R13  17603800.735    94003455.316       -3559.986          43.000    17603803.722    73113893.968       -2768.961          45.000  
R02  19310286.062   103043231.270       -3860.133          51.000    19310297.458    80144702.957       -3002.160          48.000  
R04  18217456.954    97553692.123        2353.186          52.000    18217457.243    75875095.273        1830.268          49.000  
R03  16591141.858    88813796.025        -811.282          53.000    16591140.993    69077439.142        -630.981          50.000  
R15  20688397.842   110552577.451        3146.252          44.000    20688421.294    85985456.552        2447.287          36.000  
G07  19828274.207   104198218.828       -3729.063          44.000    19828275.075    81193405.334       -2905.913          38.000  
S31  36061649.964   189505175.039        -799.611          45.000  
S33  37010183.154   194489742.182        -799.588          42.000  
G14  17688938.867    92956199.730         306.164          49.000    17688938.817    72433521.855         238.617          46.000  
G20  18327475.375    96311571.978       -2129.712          47.000                                                                  
R14  16896205.227    90066494.699         824.055          54.000    16896209.853    70051886.568         640.919          49.000  
E07  21979082.784   115500797.731       -1916.320          47.000    21979092.085    88500609.443       -1468.326          52.000  
G13  19540573.233   102686450.003        1435.030          45.000                                                                  
G22  18979114.250    99736125.473        2139.248          49.000                                                                  
G30  18069338.385    94955068.854       -2196.857          49.000    18069341.399    73991003.515       -1711.963          46.000  
E21  23338256.303   122643547.694        2058.086          45.000    23338271.875    93973768.929        1576.972          49.000  
E30  23054006.447   121149707.094       -2691.559          41.000    23054017.424    92829065.996       -2062.278          50.000  
E18  19576291.815   102874150.413        -956.204          40.000                                                                  
E33                                                                  24828806.396                3      -2298.266          25.000  
> 2024 04 15 19 21 30.4910000  0 23                     
G05  18957561.308    99622635.728         529.947          49.000    18957562.368    77628023.940         412.841          46.000  
E19  23836695.089   125262684.091        1294.923          35.000    23836703.403    95980562.678         992.813          39.000  
G09  21105342.755   110909117.284       -3320.251          42.000    21105356.154    86422635.790       -2587.158          44.000  
E27  21000336.422   110357696.581         -63.412          49.000    21000343.633    84559935.315         -48.539          53.000  
R13  17623839.559    94110460.191       -3574.159          43.000    17623842.327    73197119.919       -2779.943          45.000  
R02  19332021.596   103159212.989       -3872.518          52.000    19332033.322    80234910.550       -3011.946          49.000  
R04  18204292.601    97483199.453        2345.996          51.000    18204293.492    75820267.696        1824.591          50.000  
R03  16595741.857    88838421.863        -830.962          53.000    16595740.711    69096592.547        -646.187          50.000  
R15  20670753.103   110458296.424        3138.560          42.000    20670775.351    85912127.567        2441.014          38.000  
G07  19849567.416   104310116.945       -3731.354          43.000    19849568.952    81280598.506       -2907.423          41.000  
S31  36066213.938   189529157.028        -799.857          44.000  
S33  37014747.703   194513725.317        -799.686          43.000  
G14  17687244.345    92947297.805         286.940          49.000    17687244.794    72426585.350         223.493          46.000  
G20  18339682.682    96375720.197       -2147.263          47.000                                                                  
R14  16891626.200    90042089.084         802.535          53.000    16891631.083    70032904.527         624.228          49.000  
E07  21990038.356   115558367.236       -1922.086          47.000    21990047.408    88544721.057       -1472.670          52.000  
G13  19532382.550   102643412.603        1433.475          44.000                                                                  
G22  18966933.389    99672116.516        2127.618          49.000                                                                  
G30  18081901.009    95021086.352       -2204.785          49.000    18081904.428    74042445.680       -1717.908          47.000  
E21  23326520.242   122581875.579        2052.862          45.000    23326535.866    93926513.942        1572.967          49.000  
E30  23069399.269   121230589.701       -2700.974          42.000    23069409.069    92891040.948       -2069.669          50.000  
E18  19581814.195   102903172.732        -978.969          41.000                                                                  
E33                                                                  24845932.852                3      -2302.009          23.000  
> 2024 04 15 19 22 00.4910000  0 23                     
G05  18954585.788    99606997.814         512.308          50.000    18954586.659    77615838.505         399.148          45.000  
E19  23829294.468   125223790.576        1296.816          36.000    23829301.981    95950761.300         993.830          40.000  
G09  21124312.643   111008804.865       -3325.763          41.000    21124327.052    86500314.013       -2591.687          44.000  
E27  21000734.608   110359794.759         -76.809          48.000    21000742.540    84561543.065         -58.784          53.000  
R13  17643957.417    94217886.082       -3587.822          43.000    17643960.310    73280673.336       -2790.644          45.000  
R02  19353827.580   103275571.457       -3884.885          51.000    19353839.124    80325411.186       -3021.662          48.000  
R04  18191169.372    97412928.274        2338.562          51.000    18191170.918    75765612.367        1818.872          50.000  
R03  16600451.639    88863635.685        -850.396          53.000    16600451.069    69116203.278        -661.388          51.000  
R15  20653151.670   110364241.575        3131.131          40.000    20653173.768    85838974.583        2435.098          38.000  
G07  19870873.114   104422079.761       -3733.315          46.000    19870874.674    81367842.176       -2909.079          41.000  
S31  36070776.832   189553136.821        -799.714          44.000  
S33  37019310.769   194537706.213        -799.271          42.000  
G14  17685659.500    92938971.795         267.927          48.000    17685660.142    72420097.631         208.691          46.000  
G20  18351989.102    96440392.451       -2164.600          47.000                                                                  
R14  16887169.120    90018330.208         781.069          53.000    16887173.729    70014425.499         607.587          48.000  
E07  22001025.245   115616107.219       -1927.717          47.000    22001034.721    88588963.315       -1477.003          52.000  
G13  19524200.233   102600417.922        1432.139          45.000                                                                  
G22  18954819.138    99608457.574        2115.999          49.000                                                                  
G30  18094508.115    95087338.914       -2212.317          47.000    18094511.837    74094071.028       -1723.914          47.000  
E21  23314813.469   122520359.316        2047.849          44.000    23314829.255    93879378.415        1569.078          49.000  
E30  23084846.171   121311762.500       -2710.585          44.000    23084855.830    92953238.220       -2077.011          50.000  
E18  19587464.773   102932871.737       -1001.311          41.000                                                                  
E33                                                                  24863079.286                3      -2298.077          23.000  
> 2024 04 15 19 22 30.4910000  0 23                     
G05  18951711.735    99591893.096         494.521          50.000    18951712.636    77604068.592         385.376          46.000  
E19  23821886.963   125184864.995        1298.283          35.000    23821894.619    95920935.275         994.645          39.000  
G09  21143316.896   111108670.837       -3331.854          42.000    21143331.001    86578131.247       -2596.399          44.000  
E27  21001210.372   110362293.979         -90.014          49.000    21001218.124    84563458.102         -68.996          53.000  
R13  17664151.433    94325723.612       -3601.598          42.000    17664154.442    73364546.910       -2801.100          44.000  
R02  19375702.586   103392300.384       -3897.108          51.000    19375713.632    80416199.916       -3031.136          46.000  
R04  18178088.743    97342876.892        2331.317          51.000    18178089.224    75711128.038        1813.196          49.000  
R03  16605270.412    88889434.030        -869.759          52.000    16605270.011    69136268.634        -676.521          49.000  
R15  20635592.608   110270410.726        3123.595          41.000    20635612.999    85765995.824        2429.351          35.000  
G07  19892189.477   104534100.534       -3735.076          44.000    19892193.327    81455130.975       -2910.386          43.000  
S31  36075338.898   189577109.200        -798.883          43.000  
S33  37023873.074   194561680.567        -799.133          43.000  
G14  17684184.118    92931217.754         248.880          48.000    17684185.384    72414055.617         193.913          47.000  
G20  18364394.673    96505581.625       -2181.779          48.000                                                                  
R14  16882832.401    89995213.810         759.799          53.000    16882836.673    69996446.180         590.904          47.000  
E07  22012045.170   115674013.296       -1932.989          48.000    22012053.966    88633332.821       -1481.113          52.000  
G13  19516026.752   102557461.908        1431.171          44.000                                                                  
G22  18942771.791    99545146.268        2104.611          49.000                                                                  
G30  18107159.915    95153820.199       -2219.958          50.000    18107162.720    74145874.571       -1729.828          47.000  
E21  23303137.808   122458995.718        2042.793          46.000    23303152.050    93832359.780        1565.297          49.000  
E30  23100348.171   121393218.921       -2720.053          45.000    23100356.859    93015652.802       -2084.137          50.000  
E18  19593244.686   102963243.986       -1023.773          43.000                                                                  
E33                                                                  24880247.625                3      -2310.084          20.000  
> 2024 04 15 19 23 00.4910000  0 23                     
G05  18948938.511    99577323.180         476.506          49.000    18948940.573    77592715.400         371.371          46.000  
E19  23814473.403   125145907.013        1298.920          36.000    23814481.466    95891084.463         995.241          39.000  
G09  21162354.977   111208714.421       -3337.714          44.000    21162368.678    86656086.910       -2601.141          44.000  
E27  21001763.529   110365194.039        -103.540          49.000    21001769.717    84565680.266         -79.300          53.000  
R13  17684422.326    94433968.820       -3615.108          43.000    17684425.148    73448737.531       -2811.680          44.000  
R02  19397647.036   103509397.645       -3909.509          51.000    19397657.909    80507275.115       -3040.792          46.000  
R04  18165048.804    97273048.248        2323.669          52.000    18165048.789    75656816.886        1807.343          49.000  
R03  16610199.810    88915817.899        -889.364          53.000    16610199.173    69156789.405        -691.760          49.000  
R15  20618073.809   110176805.584        3115.883          40.000    20618094.505    85693192.551        2423.819          39.000  
G07  19913516.670   104646177.075       -3737.054          45.000    19913520.433    81542463.205       -2912.064          42.000  
S31  36079899.160   189601074.066        -799.094          44.000  
S33  37028433.613   194585647.758        -799.217          42.000  
G14  17682817.300    92924036.225         229.755          49.000    17682818.558    72408459.687         178.890          47.000  
G20  18376897.748    96571286.260       -2198.936          48.000                                                                  
R14  16878616.736    89972739.860         738.246          54.000    16878621.019    69978966.559         574.229          49.000  
E07  22023095.925   115732085.393       -1938.635          47.000    22023104.787    88677829.546       -1485.479          51.000  
G13  19507859.795   102514544.977        1429.526          43.000                                                                  
G22  18930790.686    99482185.004        2092.778          49.000                                                                  
G30  18119854.339    95220528.102       -2227.515          49.000    18119856.512    74197854.707       -1735.571          47.000  
E21  23291489.178   122397785.731        2037.627          45.000    23291504.037    93785458.916        1561.195          49.000  
E30  23115903.791   121474956.902       -2729.359          46.000    23115910.921    93078283.157       -2091.388          50.000  
E18  19599152.103   102994290.156       -1046.208          43.000                                                                  
E33                                                                  24897436.498                3      -2299.427          20.000  
> 2024 04 15 19 23 30.4910000  0 22                     
G05  18946267.908    99563287.910         458.873          48.000    18946269.513    77581778.787         357.802          46.000  
E19  23807055.045   125106916.713        1300.173          36.000    23807062.265    95861208.822         996.337          40.000  
G09  21181427.289   111308934.580       -3343.671          45.000    21181440.100    86734180.141       -2605.676          44.000  
E27  21002391.698   110368494.378        -116.781          49.000    21002397.778    84568209.155         -89.460          52.000  
R13  17704768.851    94542617.144       -3628.390          43.000    17704771.542    73533241.689       -2822.036          44.000  
R02  19419659.409   103626861.131       -3921.546          51.000    19419670.809    80598635.167       -3050.094          47.000  
R04  18152050.757    97203444.963        2316.333          52.000    18152050.670    75602681.064        1801.477          48.000  
R03  16615238.709    88942787.768        -908.818          53.000    16615237.463    69177765.970        -706.851          50.000  
R15  20600600.068   110083428.004        3109.020          41.000    20600618.116    85620566.255        2417.855          37.000  
G07  19934855.048   104758307.261       -3738.503          46.000    19934859.078    81629837.287       -2913.336          43.000  
S31  36084457.863   189625030.809        -798.317          43.000  
S33  37032992.823   194609605.811        -798.282          42.000  
G14  17681560.298    92917427.363         210.721          49.000    17681561.049    72403309.999         164.063          47.000  
G20  18389498.567    96637503.802       -2215.924          47.000                                                                  
R14  16874520.654    89950907.838         717.048          53.000    16874525.221    69961986.188         557.521          49.000  
E07  22034177.227   115790323.233       -1944.159          46.000    22034186.866    88722453.270       -1489.615          51.000  
G13  19499700.674   102471667.462        1428.271          43.000                                                                  
G22  18918875.901    99419575.352        2080.990          48.000                                                                  
G30  18132590.945    95287460.466       -2234.979          49.000    18132593.178    74250009.747       -1741.431          47.000  
E21  23279871.074   122336730.240        2032.508          45.000    23279885.203    93738676.389        1557.404          49.000  
E30  23131510.371   121556974.093       -2738.633          46.000    23131518.586    93141127.463       -2098.403          50.000  
E18  19605188.445   103026010.719       -1068.698          43.000                                                                  
> 2024 04 15 19 24 00.4910000  0 22                     
G05  18943698.690    99549785.382         440.932          49.000    18943699.639    77571257.318         343.563          44.000  
E19  23799628.097   125067891.124        1300.803          36.000    23799635.630    95831306.179         997.183          40.000  
G09  21200531.745   111409327.711       -3349.719          45.000    21200544.681    86812408.119       -2610.071          44.000  
E27  21003095.126   110372191.938        -130.125          49.000    21003101.533    84571042.407         -99.757          53.000  
R13  17725188.871    94651660.980       -3641.635          43.000    17725192.022    73618053.500       -2832.530          43.000  
R02  19441739.657   103744685.783       -3933.815          49.000    19441752.215    80690276.145       -3059.699          47.000  
R04  18139094.669    97134066.980        2308.533          52.000    18139095.032    75548720.461        1795.538          48.000  
R03  16620385.866    88970342.756        -928.522          53.000    16620385.054    69199197.615        -722.228          50.000  
R15  20583166.750   109990277.045        3100.885          42.000    20583185.609    85548116.184        2411.477          41.000  
G07  19956203.081   104870486.571       -3740.324          46.000    19956206.306    81717249.634       -2914.716          43.000  
S31  36089014.043   189648975.226        -798.278          44.000  
S33  37037549.795   194633552.742        -798.194          42.000  
G14  17680410.988    92911388.738         191.581          49.000    17680412.295    72398604.634         149.191          48.000  
G20  18402196.568    96704228.900       -2232.950          47.000                                                                  
R14  16870545.488    89929715.440         695.404          54.000    16870549.516    69945503.334         540.900          49.000  
E07  22045289.534   115848724.007       -1949.634          45.000    22045300.097    88767201.841       -1493.864          51.000  
G13  19491548.381   102428826.866        1427.106          44.000                                                                  
G22  18907028.850    99357316.789        2069.278          48.000                                                                  
G30  18145369.649    95354612.413       -2242.303          49.000    18145372.571    74302335.921       -1747.272          47.000  
E21  23268279.950   122275827.458        2027.166          44.000    23268295.891    93692010.906        1553.323          50.000  
E30  23147169.547   121639265.551       -2747.847          46.000    23147177.846    93204181.908       -2105.538          50.000  
E18  19611351.732   103058403.644       -1091.292          41.000                                                                  
> 2024 04 15 19 24 30.4910000  0 22                     
G05  18941230.299    99536814.359         423.229          49.000    18941231.396    77561149.990         330.087          45.000  
E19  23792195.389   125028827.907        1302.586          37.000    23792202.417    95801374.716         997.975          40.000  
G09  21219667.659   111509890.697       -3355.163          42.000    21219681.725    86890768.442       -2614.429          43.000  
E27  21003874.013   110376284.150        -143.167          49.000    21003880.451    84574178.044        -109.666          53.000  
R13  17745682.161    94761094.238       -3654.464          42.000    17745685.538    73703168.164       -2842.047          44.000  
R02  19463886.488   103862867.772       -3945.501          50.000    19463899.463    80782195.016       -3068.778          46.000  
R04  18126180.771    97064914.752        2301.154          52.000    18126181.149    75494935.483        1789.801          49.000  
R03  16625642.030    88998480.869        -947.872          52.000    16625641.496    69221082.791        -737.202          50.000  
R15  20565778.388   109897352.511        3093.878          36.000    20565795.849    85475842.194        2405.860          41.000  
G07  19977557.830   104982710.710       -3741.757          45.000    19977561.385    81804696.869       -2915.607          43.000  
S31  36093568.455   189672905.015        -797.693          45.000  
S33  37042103.901   194657484.909        -797.819          42.000  
G14  17679370.048    92905918.458         172.689          48.000    17679371.091    72394342.141         134.518          48.000  
G20  18414988.863    96771456.958       -2249.338          46.000                                                                  
R14  16866689.296    89909159.920         674.445          53.000    16866693.589    69929515.797         524.454          49.000  
E07  22056434.742   115907285.379       -1954.790          47.000    22056443.875    88812073.459       -1497.878          50.000  
G13  19483402.535   102386021.330        1425.953          44.000                                                                  
G22  18895247.790    99295409.146        2057.633          49.000                                                                  
G30  18158188.973    95421979.626       -2249.243          49.000    18158191.840    74354829.802       -1752.722          47.000  
E21  23256720.055   122215076.177        2022.342          45.000    23256734.741    93645461.515        1549.545          50.000  
E30  23162880.852   121721826.934       -2756.623          46.000    23162888.774    93267443.154       -2112.235          50.000  
E18  19617644.442   103091467.209       -1113.361          43.000                                                                  
> 2024 04 15 19 25 00.4910000  0 22                     
G05  18938863.043    99524374.917         405.562          49.000    18938864.438    77551456.873         315.964          45.000  
E19  23784753.528   124989726.189        1303.642          36.000    23784761.392    95771413.746         999.233          40.000  
G09  21238836.500   111610621.750       -3360.883          44.000    21238850.223    86969259.725       -2618.744          43.000  
E27  21004726.810   110380769.774        -156.126          49.000    21004733.609    84577615.150        -119.633          53.000  
R13  17766247.428    94870911.503       -3667.368          42.000    17766250.444    73788581.505       -2852.483          43.000  
R02  19486102.116   103981403.616       -3957.214          51.000    19486114.585    80874389.104       -3077.857          48.000  
R04  18113309.721    96995990.472        2293.414          52.000    18113310.167    75441327.770        1783.795          49.000  
R03  16631008.597    89027202.328        -967.323          53.000    16631007.489    69243421.686        -752.371          50.000  
R15  20548431.528   109804655.615        3086.413          38.000    20548447.631    85403745.260        2399.953          40.000  
G07  19998922.188   105094976.853       -3743.048          47.000    19998925.266    81892176.869       -2916.730          44.000  
S31  36098119.235   189696818.769        -797.031          44.000  
S33  37046655.168   194681401.327        -797.301          40.000  
G14  17678436.855    92901015.942         153.831          48.000    17678437.347    72390522.063         119.845          47.000  
G20  18427876.821    96839184.787       -2266.053          45.000                                                                  
R14  16862952.111    89889240.224         653.203          54.000    16862956.702    69914022.774         508.006          49.000  
E07  22067608.607   115966006.409       -1960.217          46.000    22067618.305    88857067.396       -1501.926          51.000  
G13  19475263.546   102343250.701        1424.984          45.000                                                                  
G22  18883533.708    99233853.321        2045.709          48.000                                                                  
G30  18171048.727    95489559.207       -2256.378          49.000    18171052.140    74407489.191       -1758.362          47.000  
E21  23245188.068   122154476.559        2017.354          45.000    23245202.961    93599028.301        1545.742          50.000  
E30  23178641.657   121804655.133       -2765.393          46.000    23178650.611    93330908.867       -2118.993          50.000  
E18  19624062.947   103125201.139       -1135.847          41.000                                                                  
> 2024 04 15 19 25 30.4910000  0 22                     
G05  18936598.083    99512472.756         387.446          49.000    18936600.124    77542182.458         301.768          45.000  
E19  23777305.352   124950591.081        1304.599          36.000    23777313.757    95741427.205         999.825          40.000  
G09  21258038.695   111711525.015       -3366.565          45.000    21258051.256    87047885.272       -2623.303          42.000  
E27  21005655.757   110385653.529        -169.792          49.000    21005662.670    84581357.306        -130.043          53.000  
R13  17786885.603    94981113.389       -3680.013          44.000    17786888.057    73874294.009       -2862.344          43.000  
R02  19508382.729   104100296.494       -3969.293          51.000    19508394.735    80966860.887       -3087.348          47.000  
R04  18100483.271    96927302.332        2285.278          52.000    18100482.736    75387903.717        1777.478          49.000  
R03  16636483.190    89056513.278        -987.206          52.000    16636483.191    69266219.076        -767.860          50.000  
R15  20531127.409   109712193.149        3077.735          35.000    20531143.463    85331830.592        2393.986          41.000  
G07  20020294.297   105207288.462       -3744.642          46.000    20020296.938    81979692.269       -2917.740          43.000  
S31  36102667.132   189720721.635        -796.622          43.000  
S33  37051203.969   194705306.572        -797.112          43.000  
G14  17677612.089    92896686.513         134.407          48.000    17677613.238    72387148.557         104.707          47.000  
G20  18440860.310    96907415.133       -2283.136          45.000                                                                  
R14  16859336.069    89869961.353         631.670          53.000    16859339.911    69899028.186         491.252          49.000  
E07  22078814.342   116024892.055       -1965.957          45.000    22078824.216    88902187.448       -1506.335          51.000  
G13  19467132.312   102300520.149        1423.261          45.000                                                                  
G22  18871888.547    99172657.049        2033.506          49.000                                                                  
G30  18183949.646    95557354.177       -2263.708          49.000    18183952.630    74460316.404       -1763.837          46.000  
E21  23233685.270   122094034.648        2011.782          44.000    23233701.084    93552715.939        1541.475          49.000  
E30  23194453.617   121887753.163       -2774.769          45.000    23194463.232    93394581.342       -2126.050          49.000  
E18  19630609.061   103159610.957       -1158.291          40.000                                                                  
> 2024 04 15 19 26 00.4910000  0 22                     
G05  18934434.732    99501103.386         370.129          49.000    18934436.321    77533323.128         288.438          44.000  
E19  23769851.036   124911417.095        1306.909          35.000    23769859.166    95711410.811        1000.853          41.000  
G09  21277271.167   111812594.425       -3371.649          43.000    21277284.954    87126640.186       -2627.252          42.000  
E27  21006659.734   110390929.735        -182.471          49.000    21006666.766    84585400.175        -139.760          53.000  
R13  17807592.943    95091690.309       -3692.158          43.000    17807596.228    73960298.144       -2871.546          44.000  
R02  19530729.204   104219539.017       -3980.605          51.000    19530741.680    81059604.570       -3095.944          48.000  
R04  18087699.173    96858847.367        2277.869          52.000    18087698.715    75334661.018        1771.778          49.000  
R03  16642067.981    89086409.227       -1006.282          52.000    16642067.283    69289471.457        -782.612          49.000  
R15  20513866.196   109619961.824        3070.141          37.000    20513883.256    85260095.691        2387.984          43.000  
G07  20041674.194   105319637.986       -3745.633          44.000    20041676.435    82067237.241       -2918.594          42.000  
S31  36107211.983   189744606.137        -795.769          44.000  
S33  37055749.653   194729194.219        -796.242          41.000  
G14  17676897.121    92892925.195         115.792          49.000    17676897.128    72384217.723          90.281          47.000  
G20  18453938.893    96976140.419       -2299.068          46.000                                                                  
R14  16855837.528    89851317.636         610.853          53.000    16855843.169    69884527.569         475.117          50.000  
E07  22090049.567   116083936.853       -1970.869          46.000    22090060.638    88947429.494       -1510.071          52.000  
G13  19459006.998   102257825.129        1422.381          44.000                                                                  
G22  18860310.919    99111816.537        2022.076          49.000                                                                  
G30  18196890.284    95625357.165       -2270.148          49.000    18196893.411    74513305.683       -1769.073          47.000  
E21  23222212.616   122033746.144        2007.033          44.000    23222228.021    93506521.111        1537.799          49.000  
E30  23210316.318   121971113.496       -2783.055          45.000    23210326.354    93458454.784       -2132.374          49.000  
E18  19637285.028   103194692.015       -1180.632          40.000                                                                  
> 2024 04 15 19 26 30.4910000  0 22                     
G05  18932374.024    99490274.609         351.868          49.000    18932375.105    77524885.075         274.480          44.000  
E19  23762390.258   124872211.112        1307.135          35.000    23762398.170    95681369.872        1001.939          40.000  
G09  21296537.127   111913835.680       -3377.589          44.000    21296551.254    87205529.023       -2631.890          42.000  
E27  21007739.283   110396604.610        -195.806          49.000    21007746.225    84589748.513        -150.018          52.000  
R13  17828370.632    95202644.644       -3704.724          42.000    17828374.624    74046595.899       -2881.569          43.000  
R02  19553141.049   104339135.638       -3992.497          50.000    19553154.392    81152623.666       -3105.271          47.000  
R04  18074960.843    96790635.549        2269.684          51.000    18074960.263    75281607.456        1765.338          48.000  
R03  16647763.209    89116897.920       -1026.110          53.000    16647762.496    69313184.875        -798.095          49.000  
R15  20496651.053   109527970.151        3062.541          39.000    20496667.847    85188547.188        2381.710          42.000  
G07  20063062.201   105432029.753       -3747.040          46.000    20063064.320    82154815.084       -2919.778          42.000  
S31  36111755.169   189768479.975        -795.695          44.000  
S33  37060293.256   194753069.964        -795.741          42.000  
G14  17676290.617    92889738.784          96.616          48.000    17676291.326    72381734.876          75.248          48.000  
G20  18467111.456    97045364.656       -2315.914          45.000                                                                  
R14  16852459.932    89833315.766         589.350          52.000    16852465.700    69870526.204         458.393          50.000  
E07  22101318.087   116143147.457       -1976.323          46.000    22101327.950    88992798.568       -1514.524          51.000  
G13  19450890.514   102215172.398        1421.033          44.000                                                                  
G22  18848802.192    99051340.468        2009.731          48.000                                                                  
G30  18209871.028    95693572.754       -2277.332          48.000    18209874.339    74566460.626       -1774.548          47.000  
E21  23210770.505   121973618.670        2001.627          45.000    23210785.831    93460449.656        1533.619          49.000  
E30  23226232.064   122054740.592       -2791.985          46.000    23226240.069    93522532.646       -2139.268          50.000  
E18  19644089.957   103230451.186       -1203.318          41.000                                                                  
> 2024 04 15 19 27 00.4910000  0 22                     
G05  18930416.914    99479987.843         333.650          50.000    18930417.492    77516869.416         259.969          45.000  
E19  23754924.446   124832974.238        1308.213          36.000    23754931.467    95651305.335        1002.372          40.000  
G09  21315836.196   112015249.042       -3383.414          44.000    21315850.845    87284551.978       -2636.590          42.000  
E27  21008894.980   110402679.031        -209.399          48.000    21008902.073    84594402.986        -160.355          52.000  
R13  17849219.448    95313972.936       -3717.297          43.000    17849222.211    74133184.583       -2891.112          43.000  
R02  19575620.268   104459085.698       -4004.337          51.000    19575632.683    81245917.646       -3114.352          47.000  
R04  18062269.576    96722670.732        2261.286          52.000    18062268.407    75228745.973        1758.801          48.000  
R03  16653570.595    89147981.407       -1046.106          53.000    16653569.130    69337360.877        -813.576          50.000  
R15  20479482.006   109436221.478        3054.157          44.000    20479498.019    85117187.663        2375.429          44.000  
G07  20084456.948   105544463.380       -3748.597          46.000    20084459.837    82242425.603       -2921.119          43.000  
S31  36116295.973   189792342.843        -795.367          44.000  
S33  37064834.687   194776935.999        -795.414          42.000  
G14  17675793.359    92887128.737          77.332          48.000    17675794.997    72379701.147          60.267          48.000  
G20  18480379.906    97115086.664       -2332.522          46.000                                                                  
R14  16849203.844    89815956.728         567.805          53.000    16849209.034    69857024.807         441.675          50.000  
E07  22112617.845   116202524.957       -1982.205          47.000    22112627.164    89038295.509       -1518.879          51.000  
G13  19442783.268   102172563.593        1419.255          46.000                                                                  
G22  18837363.636    98991232.138        1997.380          48.000                                                                  
G30  18222892.337    95762000.194       -2284.546          48.000    18222895.079    74619780.671       -1780.206          46.000  
E21  23199359.214   121913654.439        1995.760          45.000    23199375.015    93414503.303        1529.239          49.000  
E30  23242196.119   122138633.521       -2801.094          46.000    23242204.452    93586814.195       -2146.255          50.000  
E18  19651023.367   103266890.263       -1226.193          40.000                                                                  
> 2024 04 15 19 27 30.4910000  0 22                     
G05  18928562.343    99470243.257         315.441          49.000    18928563.582    77509276.208         245.962          45.000  
E19  23747453.274   124793705.303        1309.208          37.000    23747458.769    95621216.218        1003.265          41.000  
G09  21335167.375   112116832.712       -3389.220          44.000    21335182.264    87363707.650       -2641.007          43.000  
E27  21010126.871   110409151.564        -222.641          49.000    21010133.783    84599362.510        -170.614          53.000  
R13  17870136.899    95425670.292       -3729.714          43.000    17870139.957    74220060.160       -2901.010          44.000  
R02  19598165.528   104579385.996       -4016.138          51.000    19598177.214    81339484.086       -3123.748          47.000  
R04  18049623.311    96654955.201        2252.802          51.000    18049622.078    75176078.383        1752.100          49.000  
R03  16659487.513    89179659.548       -1066.175          52.000    16659487.576    69361999.418        -829.234          51.000  
R15  20462357.152   109344716.338        3045.880          44.000    20462373.057    85046017.614        2368.774          41.000  
G07  20105859.115   105656936.147       -3749.931          46.000    20105861.540    82330066.623       -2922.113          41.000  
S31  36120834.897   189816193.347        -795.063          44.000  
S33  37069373.956   194800789.436        -795.135          42.000  
G14  17675406.059    92885094.238          57.933          48.000    17675408.519    72378115.907          45.178          49.000  
G20  18493741.338    97185303.096       -2348.941          46.000                                                                  
R14  16846066.740    89799238.740         546.274          52.000    16846073.155    69844022.014         424.849          50.000  
E07  22123948.418   116262068.251       -1987.787          47.000    22123957.867    89083919.508       -1523.126          51.000  
G13  19434683.528   102129998.379        1417.693          46.000                                                                  
G22  18825996.008    98931492.352        1985.006          47.000                                                                  
G30  18235952.986    95830636.461       -2291.522          48.000    18235955.976    74673263.444       -1785.706          46.000  
E21  23187981.888   121853853.463        1990.302          47.000    23187994.592    93368682.001        1525.024          49.000  
E30  23258209.491   122222789.103       -2809.853          45.000    23258219.350    93651296.970       -2152.994          51.000  
E18  19658086.323   103304008.582       -1248.834          38.000                                                                  
> 2024 04 15 19 28 00.4910000  0 22                     
G05  18926815.492    99461063.759         296.554          49.000    18926817.049    77502123.344         231.219          46.000  
E19  23739978.857   124754426.745        1309.385          37.000    23739984.393    95591119.692        1003.410          41.000  
G09  21354534.898   112218608.145       -3395.667          44.000    21354550.220    87443012.691       -2646.114          43.000  
E27  21011438.619   110416044.166        -236.781          49.000    21011445.497    84604643.912        -181.443          53.000  
R13  17891126.288    95537754.952       -3742.549          42.000    17891129.590    74307237.044       -2910.804          42.000  
R02  19620779.455   104700057.137       -4028.578          51.000    19620791.604    81433338.913       -3133.265          47.000  
R04  18037029.508    96587514.356        2243.463          51.000    18037028.325    75123624.445        1744.812          49.000  
R03  16665520.818    89211955.800       -1086.862          52.000    16665520.941    69387118.710        -845.325          51.000  
R15  20445282.477   109253479.541        3036.790          45.000    20445299.549    84975056.294        2362.086          41.000  
G07  20127273.183   105769468.340       -3752.086          44.000    20127277.014    82417753.897       -2923.560          42.000  
S31  36125374.918   189840052.948        -795.544          43.000  
S33  37073915.156   194824652.923        -795.667          43.000  
G14  17675132.971    92883657.819          37.961          48.000    17675134.880    72376996.683          29.562          48.000  
G20  18507200.980    97256033.800       -2366.184          46.000                                                                  
R14  16843055.209    89783184.677         524.058          53.000    16843061.319    69831535.622         407.491          51.000  
E07  22135314.533   116321799.616       -1994.125          47.000    22135324.125    89129687.596       -1528.063          51.000  
G13  19426596.230   102087499.523        1415.491          46.000                                                                  
G22  18814702.147    98872145.619        1971.551          48.000                                                                  
G30  18249058.491    95899501.871       -2299.274          48.000    18249061.248    74726924.760       -1791.663          46.000  
E21  23176636.396   121794239.110        1984.005          45.000    23176650.348    93323003.712        1520.190          49.000  
E30  23274278.498   122307227.508       -2819.294          45.000    23274286.986    93715996.475       -2160.215          50.000  
E18  19665281.260   103341828.848       -1272.312          37.000                                                                  
> 2024 04 15 19 28 30.4910000  0 22                     
G05  18925174.145    99452437.483         278.321          48.000    18925175.826    77495401.571         216.582          45.000  
E19  23732499.131   124715126.589        1310.226          36.000    23732506.204    95561006.609        1003.896          41.000  
G09  21373936.123   112320562.217       -3401.628          43.000    21373951.554    87522456.939       -2650.557          42.000  
E27  21012828.016   110423344.283        -250.358          48.000    21012834.419    84610237.543        -191.692          53.000  
R13  17912186.264    95650210.117       -3754.707          41.000    17912188.579    74394702.146       -2920.363          43.000  
R02  19643459.542   104821084.487       -4040.347          50.000    19643473.658    81527470.750       -3142.450          48.000  
R04  18024485.297    96520338.887        2234.705          51.000    18024483.933    75071376.924        1738.013          50.000  
R03  16671667.753    89244858.575       -1106.800          52.000    16671667.235    69412709.752        -860.981          50.000  
R15  20428257.056   109162500.940        3028.320          45.000    20428273.337    84904295.726        2355.208          39.000  
G07  20148696.940   105882045.911       -3753.314          46.000    20148698.671    82505476.581       -2925.029          40.000  
S31  36129915.139   189863909.972        -795.110          44.000  
S33  37078455.458   194848513.294        -795.518          42.000  
G14  17674971.439    92882807.466          18.583          48.000    17674972.652    72376334.132          14.512          48.000  
G20  18520756.090    97327264.098       -2382.622          47.000                                                                  
R14  16840166.190    89767781.693         502.428          53.000    16840170.642    69819555.617         390.702          49.000  
E07  22146714.640   116381706.801       -1999.958          47.000    22146724.352    89175590.413       -1532.411          51.000  
G13  19418519.324   102045055.540        1413.807          47.000                                                                  
G22  18803482.763    98813181.890        1959.122          48.000                                                                  
G30  18262204.021    95968582.280       -2306.305          48.000    18262206.953    74780753.583       -1797.034          47.000  
E21  23165324.506   121734800.182        1978.292          44.000    23165338.860    93277459.869        1515.830          49.000  
E30  23290397.739   122391934.410       -2828.025          45.000    23290406.697    93780901.685       -2166.984          51.000  
E18  19672610.852   103380339.293       -1295.405          38.000                                                                  
> 2024 04 15 19 29 00.4910000  0 22                     
G05  18923636.798    99444360.638         259.757          49.000    18923639.067    77489107.864         202.512          46.000  
E19  23725015.244   124675799.555        1311.262          35.000    23725021.908    95530872.979        1004.804          41.000  
G09  21393370.544   112422688.792       -3407.383          44.000    21393386.213    87602035.622       -2654.990          43.000  
E27  21014293.252   110431046.148        -263.711          48.000    21014300.360    84616139.021        -202.072          53.000  
R13  17933312.969    95763026.256       -3766.559          43.000    17933315.957    74482447.902       -2929.592          43.000  
R02  19666205.992   104942460.442       -4051.851          51.000    19666219.024    81621873.740       -3151.417          47.000  
R04  18011989.876    96453426.363        2225.745          52.000    18011988.763    75019333.910        1731.256          49.000  
R03  16677926.522    89278363.162       -1127.134          52.000    16677925.901    69438768.825        -876.690          50.000  
R15  20411278.082   109071776.769        3019.419          43.000    20411296.457    84833733.082        2348.564          42.000  
G07  20170126.290   105994661.744       -3754.668          45.000    20170130.386    82593229.035       -2925.932          42.000  
S31  36134452.986   189887757.703        -795.353          45.000  
S33  37082994.050   194872363.485        -795.024          42.000  
G14  17674919.808    92882538.034          -0.964          48.000    17674921.794    72376124.275          -0.766          48.000  
G20  18534403.833    97398986.117       -2399.256          46.000                                                                  
R14  16837397.628    89753024.001         480.820          53.000    16837402.430    69808077.475         374.091          50.000  
E07  22158146.886   116441784.429       -2005.694          47.000    22158156.903    89221623.841       -1536.816          51.000  
G13  19410451.956   102002661.601        1411.878          47.000                                                                  
G22  18792333.644    98754597.748        1946.277          47.000                                                                  
G30  18275388.748    96037870.384       -2313.416          48.000    18275391.971    74834744.296       -1802.570          47.000  
E21  23154047.050   121675532.469        1972.574          46.000    23154060.633    93232047.163        1511.482          49.000  
E30  23306566.528   122476902.381       -2836.747          44.000    23306575.177    93846006.976       -2173.613          50.000  
E18  19680068.943   103419534.933       -1318.220          38.000                                                                  
> 2024 04 15 19 29 30.4910000  0 22                     
G05  18922206.951    99436846.464         241.335          47.000    18922208.584    77483252.595         187.982          45.000  
E19  23717529.714   124636458.823        1311.699          37.000    23717535.571    95500728.743        1005.306          39.000  
G09  21412840.226   112525000.009       -3413.091          43.000    21412855.329    87681758.106       -2659.742          43.000  
E27  21015838.197   110439162.401        -277.287          49.000    21015844.719    84622358.024        -212.476          53.000  
R13  17954509.098    95876212.404       -3778.490          42.000    17954512.146    74570481.534       -2939.051          42.000  
R02  19689019.668   105064196.254       -4063.594          49.000    19689032.316    81716556.611       -3160.468          47.000  
R04  17999546.595    96386793.184        2216.748          52.000    17999545.418    74967508.153        1724.121          49.000  
R03  16684301.006    89312484.165       -1147.324          52.000    16684300.464    69465307.339        -892.394          50.000  
R15  20394350.536   108981322.318        3010.968          42.000    20394366.602    84763380.370        2341.279          41.000  
G07  20191566.192   106107327.045       -3756.086          44.000    20191568.087    82681020.072       -2926.979          40.000  
S31  36138992.193   189911608.897        -794.975          44.000  
S33  37087533.574   194896218.179        -794.911          44.000  
G14  17674981.370    92882862.654         -20.436          48.000    17674983.406    72376377.290         -16.018          48.000  
G20  18548148.148    97471210.550       -2415.499          47.000                                                                  
R14  16834752.564    89738924.459         459.369          54.000    16834756.878    69797111.261         357.262          50.000  
E07  22169614.817   116502045.484       -2011.405          47.000    22169624.506    89267797.805       -1541.348          51.000  
G13  19402396.595   101960331.310        1410.151          47.000                                                                  
G22  18781259.954    98696408.352        1933.296          47.000                                                                  
G30  18288615.578    96107377.309       -2320.264          47.000    18288618.971    74888905.473       -1807.985          47.000  
E21  23142803.516   121616449.975        1966.674          45.000    23142817.304    93186776.411        1506.762          49.000  
E30  23322786.564   122562142.269       -2845.382          44.000    23322796.081    93911320.611       -2180.337          51.000  
E18  19687659.966   103459428.943       -1341.298          39.000                                                                  
