     3.00           OBSERVATION DATA    M: Mixed            RINEX VERSION / TYPE
CONVBIN 2.4.3                           20240415 204442 UTC PGM / RUN BY / DATE 
format: u-blox UBX                                          COMMENT             
log: /home/regis/git/gnsspwv/obsdata/VERT00CHL/2024-04-15/VECOMMENT             
{self.marker}                                               MARKER NAME         
                                                            MARKER NUMBER       
GEODETIC                                                    MARKER TYPE         
{self.observer}     {self.institution}                      OBSERVER / AGENCY   
UNKNOWN             UBLOX-ZED-F9P                           REC # / TYPE / VERS 
UNKNOWN             TWIVSP6037L                             ANT # / TYPE        
  1713381.0000 -5047934.0000 -3490983.0000                  APPROX POSITION XYZ 
        0.0000        0.0000        0.0000                  ANTENNA: DELTA H/E/N
G    8 C1C L1C D1C S1C C2L L2L D2L S2L                      SYS / # / OBS TYPES 
R    8 C1C L1C D1C S1C C2C L2C D2C S2C                      SYS / # / OBS TYPES 
E    8 C1C L1C D1C S1C C7Q L7Q D7Q S7Q                      SYS / # / OBS TYPES 
S    4 C1C L1C D1C S1C                                      SYS / # / OBS TYPES 
  2024    04    15    20    30   00.4930000     GPS         TIME OF FIRST OBS   
  2024    04    15    20    44   30.4930000     GPS         TIME OF LAST OBS    
                                                            END OF HEADER       
> 2024 04 15 20 30 00.4930000  0 24                     
G05  19550871.781   102740476.1661      -2043.319          48.000    19550874.941    80057502.8191      -1592.370          44.000  
E19  22822710.429   119934198.6931       1190.241          43.000    22822715.826    91897708.1871        912.106          45.000  
E27  21752232.260   114308954.9661      -1809.067          48.000    21752238.186    87587527.3741      -1386.169          53.000  
G07  22782703.181                1      -3696.123          30.000                                                                  
R13  20815785.005   111155145.2291      -4391.142          38.000    20815789.754    86454156.6001      -3415.602          38.000  
R04  17068897.530    91403233.0381        234.392          51.000    17068895.877    71091410.6151        182.324          48.000  
R03  18314162.938    98037219.1891      -3628.648          52.000    18314166.080    76251200.5261      -2822.320          50.000  
R15  18820306.569   100570133.5091       1484.100          50.000    18820312.699    78221495.8211       1154.217          50.000  
R05  20108064.900   107489147.3931       3087.022          47.000    20108067.394    83602560.5241       2400.860          44.000  
G19  21869264.789   114923806.3761       2211.224          44.000                                                                  
S31  36677935.161   192743769.6371       -774.653          45.000  
S33  37626719.850   197729746.3201       -775.406          42.000  
G14  18493511.202    97184282.0301      -2286.419          47.000    18493511.908    75728136.4431      -1781.604          50.000  
G20  20762479.015   109107492.8701      -3781.432          43.000                                                                  
R14  17366879.168    92575485.1051      -1902.639          53.000    17366882.847    72003331.0481      -1479.747          50.000  
E07  23818170.704   125165200.5991      -2783.697          46.000    23818185.156    95905782.3061      -2132.923          51.000  
G13  18580027.531    97638784.1861        830.865          48.000                                                                  
G17  21215328.982   111487539.7021       1987.444          45.000    21215340.341    86873565.3221       1548.643          43.000  
G15  20786584.466   109234241.9141       2059.135          45.000    20786587.196    85117612.9341       1604.645          41.000  
G22  18101137.667    95122387.9031        -99.251          46.000                                                                  
G30  20109506.578   105676201.3561      -2876.877          45.000    20109510.246    82345127.2871      -2241.976          42.000  
E21  22106186.500   116169073.1021        932.406          49.000    22106194.342    89012834.4181        714.380          51.000  
E30  25556086.853   134298138.0431      -3494.058          41.000    25556095.899   102903881.3561      -2677.127          41.000  
E18  21550594.453   113249122.1381      -3946.841          36.000                                                                  
> 2024 04 15 20 30 30.4930000  0 24                     
G05  19562588.948   102802051.190       -2061.417          48.000    19562592.307    80105483.264       -1606.475          44.000  
E19  22815927.720   119898554.724        1186.080          43.000    22815933.094    91870396.652         908.844          45.000  
E27  21762594.046   114363405.852       -1820.876          48.000    21762600.035    87629249.526       -1395.181          53.000  
G07  22803806.964                       -3696.458          28.000                                                                  
R13  20840456.096   111286889.261       -4391.287          38.000    20840460.811    86556624.147       -3415.731          38.000  
R04  17067651.792    91396563.374         210.454          50.000    17067650.327    71086223.115         163.726          49.000  
R03  18334554.218    98146371.793       -3647.931          52.000    18334555.838    76336096.842       -2837.281          49.000  
R15  18812020.741   100525856.006        1467.956          52.000    18812026.268    78187057.973        1141.839          50.000  
R05  20090762.479   107396652.080        3079.680          47.000    20090764.539    83530619.845        2395.225          45.000  
G19  21856642.653   114857483.254        2210.559          42.000                                                                  
S31  36682361.371   192767029.521        -775.992          44.000  
S33  37631148.970   197753023.194        -776.244          42.000  
G14  18506613.181    97253130.288       -2303.289          48.000    18506613.384    75781784.485       -1794.831          50.000  
G20  20784084.146   109221029.217       -3787.727          43.000                                                                  
R14  17377633.678    92632811.485       -1919.065          52.000    17377637.976    72047918.303       -1492.525          51.000  
E07  23834084.540   125248822.877       -2791.054          46.000    23834098.052    95969856.279       -2138.682          51.000  
G13  18575310.219    97613995.070         821.636          48.000                                                                  
G17  21204003.699   111428025.324        1980.476          45.000    21204013.704    86827191.015        1543.064          43.000  
G15  20774843.036   109172542.577        2054.199          45.000    20774845.084    85069535.642        1600.827          40.000  
G22  18101762.492    95125671.338        -119.423          46.000                                                                  
G30  20125942.741   105762571.495       -2880.843          46.000    20125945.236    82412428.694       -2244.800          42.000  
E21  22100896.453   116141274.337         920.954          48.000    22100904.849    88991534.183         705.659          52.000  
E30  25576043.621   134403007.065       -3496.992          42.000    25576052.247   102984235.614       -2679.807          42.000  
E18  21573178.162   113367801.980       -3965.433          39.000                                                                  
> 2024 04 15 20 31 00.4930000  0 23                     
G05  19574408.750   102864159.838       -2079.329          49.000    19574411.389    80153879.523       -1620.258          44.000  
E19  22809167.197   119863028.463        1182.130          43.000    22809172.572    91843175.321         905.601          45.000  
E27  21773021.447   114418201.475       -1832.431          48.000    21773027.099    87671235.824       -1404.113          53.000  
R13  20865126.814   111418628.782       -4391.329          39.000    20865132.101    86659088.189       -3415.884          39.000  
R04  17066539.739    91390605.840         186.619          51.000    17066537.614    71081589.515         145.063          48.000  
R03  18355050.469    98256092.392       -3666.792          51.000    18355053.036    76421434.912       -2852.034          50.000  
R15  18803823.160   100482053.388        1452.142          51.000    18803828.783    78152989.474        1129.303          50.000  
R05  20073499.141   107304371.959        3072.245          49.000    20073501.430    83458846.501        2389.531          45.000  
G19  21844022.957   114791171.005        2210.040          42.000                                                                  
S31  36686791.124   192790305.038        -776.445          43.000  
S33  37635581.619   197776316.285        -776.897          42.000  
G14  18519809.012    97322478.730       -2320.088          47.000    18519810.269    75835822.236       -1807.924          50.000  
G20  20805723.770   109334747.080       -3793.790          43.000                                                                  
R14  17388478.619    92690619.958       -1935.109          53.000    17388482.930    72092880.495       -1505.140          51.000  
E07  23850037.447   125332658.819       -2798.267          46.000    23850050.909    96034094.039       -2144.167          50.000  
G13  18570644.676    97589476.882         812.480          49.000                                                                  
G17  21192717.151   111368711.451        1973.667          46.000    21192726.498    86780972.862        1537.783          43.000  
G15  20763128.867   109110984.083        2049.429          45.000    20763130.886    85021568.086        1596.837          41.000  
G22  18102500.160    95129547.685        -139.399          46.000                                                                  
G30  20142397.105   105849045.724       -2884.313          45.000    20142401.283    82479811.166       -2247.509          43.000  
E21  22095670.033   116113811.715         909.698          48.000    22095678.845    88970491.525         697.003          52.000  
E30  25596015.250   134507956.656       -3499.907          43.000    25596022.822   103064651.551       -2681.513          41.000  
E18  21595867.007   113487025.279       -3983.336          40.000                                                                  
> 2024 04 15 20 31 30.4930000  0 24                     
G05  19586329.718   102926805.561       -2097.231          49.000    19586332.567    80202694.299       -1634.358          44.000  
E19  22802430.562   119827627.171        1177.958          43.000    22802435.858    91816049.740         902.496          46.000  
E27  21783514.874   114473346.656       -1844.149          48.000    21783520.926    87713489.950       -1413.056          53.000  
G07  22846008.939   120056579.1763      -3694.816          28.000    22846008.319                3      -2879.122          24.000  
R13  20889797.481   111550368.162       -4391.462          40.000    20889802.884    86761552.119       -3415.680          38.000  
R04  17065562.395    91385369.296         162.434          51.000    17065560.193    71077516.653         126.306          49.000  
R03  18375655.013    98366384.648       -3685.963          52.000    18375656.851    76507217.619       -2867.007          50.000  
R15  18795716.132   100438732.353        1435.938          51.000    18795721.379    78119295.556        1116.840          48.000  
R05  20056278.798   107212316.476        3064.620          49.000    20056280.374    83387247.906        2383.312          43.000  
G19  21831407.436   114724878.487        2209.271          43.000                                                                  
S31  36691223.595   192813601.081        -777.166          45.000  
S33  37640018.399   197799630.318        -777.351          42.000  
G14  18533101.364    97392331.301       -2336.885          46.000    18533103.160    75890252.831       -1821.047          51.000  
G20  20827399.441   109448649.233       -3799.799          43.000                                                                  
R14  17399414.259    92748913.294       -1951.210          52.000    17399418.242    72138219.798       -1517.703          51.000  
E07  23866033.107   125416714.398       -2805.676          47.000    23866046.430    96098500.069       -2149.758          50.000  
G13  18566031.957    97565238.039         802.988          49.000                                                                  
G17  21181469.126   111309607.621        1966.465          47.000    21181479.755    86734918.421        1532.379          45.000  
G15  20751442.600   109049574.652        2044.398          45.000    20751445.714    84973716.698        1593.060          42.000  
G22  18103352.436    95134023.555        -159.260          47.000                                                                  
G30  20158873.162   105935629.520       -2888.001          45.000    20158877.720    82547279.059       -2250.624          42.000  
E21  22090508.891   116086691.927         898.150          49.000    22090517.848    88949711.578         688.152          52.000  
E30  25616002.667   134612991.357       -3502.626          43.000    25616010.609   103145132.715       -2683.813          42.000  
E18  21618659.267   113606795.200       -4001.695          40.000                                                                  
> 2024 04 15 20 32 00.4930000  0 24                     
G05  19598353.647   102989995.980       -2115.569          48.000    19598358.334    80251933.484       -1648.670          45.000  
E19  22795719.355   119792360.590        1173.347          42.000    22795724.305    91789027.357         899.008          45.000  
E27  21794075.430   114528848.594       -1856.038          48.000    21794082.562    87756017.466       -1422.139          53.000  
G07  22867099.436                3      -3693.790          25.000    22867087.624                3      -2877.407          23.000  
R13  20914469.012   111682113.713       -4391.523          39.000    20914474.692    86864020.852       -3416.133          38.000  
R04  17064721.568    91380864.494         137.847          51.000    17064718.931    71074012.943         107.339          49.000  
R03  18396366.630    98477255.221       -3705.313          51.000    18396369.243    76593450.110       -2881.923          50.000  
R15  18787700.851   100395902.209        1419.427          51.000    18787705.502    78085983.397        1104.102          49.000  
R05  20039101.159   107120498.822        3056.623          47.000    20039103.092    83315834.304        2377.310          44.000  
G19  21818798.285   114658617.231        2208.038          45.000                                                                  
S31  36695662.336   192836927.430        -778.239          44.000  
S33  37644460.486   197822974.437        -778.755          42.000  
G14  18546491.322    97462694.427       -2353.938          47.000    18546492.507    75945081.270       -1834.286          50.000  
G20  20849110.706   109562741.520       -3806.251          43.000                                                                  
R14  17410442.217    92807698.091       -1967.670          53.000    17410445.514    72183941.335       -1530.453          49.000  
E07  23882071.127   125500997.862       -2813.250          46.000    23882085.166    96163080.723       -2155.639          50.000  
G13  18561474.623    97541288.721         793.277          49.000                                                                  
G17  21170264.197   111250725.625        1958.856          46.000    21170274.489    86689036.862        1526.264          45.000  
G15  20739786.836   108988324.978        2038.976          45.000    20739790.030    84925989.752        1588.882          41.000  
G22  18104319.890    95139107.589        -179.656          48.000                                                                  
G30  20175372.857   106022330.910       -2892.081          46.000    20175377.188    82614838.523       -2253.497          43.000  
E21  22085415.903   116059924.098         886.358          49.000    22085424.205    88929201.294         679.167          52.000  
E30  25636007.929   134718118.200       -3505.733          43.000    25636016.200   103225684.517       -2686.344          41.000  
E18  21641554.405   113727117.274       -4019.925          39.000                                                                  
> 2024 04 15 20 32 30.4930000  0 24                     
G05  19610480.693   103053724.681       -2133.291          48.000    19610485.094    80301592.119       -1662.444          44.000  
E19  22789033.385   119757225.067        1168.854          43.000    22789038.279    91762105.418         895.543          45.000  
E27  21804703.645   114584701.101       -1867.619          47.000    21804710.884    87798813.591       -1431.055          53.000  
R13  20939140.407   111813857.930       -4391.621          39.000    20939146.171    86966488.544       -3415.503          37.000  
R04  17064015.853    91377089.177         113.633          51.000    17064013.584    71071076.606          88.328          49.000  
R03  18417185.182    98588696.926       -3724.177          52.000    18417186.836    76680126.827       -2896.571          50.000  
R15  18779776.283   100353558.207        1403.326          51.000    18779782.391    78053049.364        1091.418          50.000  
R05  20021967.861   107028917.215        3048.753          46.000    20021970.009    83244604.297        2371.140          46.000  
G19  21806194.445   114592385.359        2206.976          44.000                                                                  
S31  36700106.111   192860279.360        -779.010          44.000  
S33  37648907.774   197846343.793        -779.591          43.000  
G14  18559976.743    97533561.086       -2370.643          47.000    18559977.882    76000302.063       -1847.273          50.000  
G20  20870856.175   109677016.033       -3812.318          43.000                                                                  
R14  17421561.431    92866966.308       -1983.670          53.000    17421564.077    72230038.887       -1542.945          49.000  
E07  23898152.237   125585504.073       -2820.548          46.000    23898166.164    96227832.035       -2161.286          49.000  
G13  18556972.007    97517625.901         783.750          50.000                                                                  
G17  21159099.892   111192063.875        1951.635          45.000    21159110.456    86643326.933        1520.676          44.000  
G15  20728161.582   108927231.957        2033.743          45.000    20728164.509    84878384.890        1584.695          42.000  
G22  18105401.544    95144794.895        -199.667          47.000                                                                  
G30  20191892.426   106109144.328       -2895.677          45.000    20191896.992    82682485.296       -2256.484          42.000  
E21  22080388.911   116033503.860         874.845          50.000    22080396.451    88908957.348         670.377          52.000  
E30  25656028.823   134823330.785       -3508.680          43.000    25656037.123   103306301.986       -2688.516          41.000  
E18  21664552.774   113847983.662       -4038.062          38.000                                                                  
G07                                                                  22888179.199                3      -2876.638          23.000  
> 2024 04 15 20 33 00.4930000  0 24                     
G05  19622709.688   103117990.375       -2151.300          47.000    19622714.643    80351669.171       -1676.393          44.000  
E19  22782372.350   119722223.477        1164.535          43.000    22782377.777    91735286.103         892.277          46.000  
E27  21815399.268   114640904.399       -1879.331          47.000    21815405.855    87841878.501       -1440.085          53.000  
R13  20963811.736   111945600.135       -4391.676          40.000    20963816.844    87068954.746       -3415.927          37.000  
R04  17063447.722    91374047.128          89.089          51.000    17063446.033    71068710.587          69.232          49.000  
R03  18438109.898    98700709.258       -3743.295          52.000    18438111.894    76767247.312       -2911.440          50.000  
R15  18771943.870   100311702.272        1386.957          52.000    18771948.855    78020494.937        1078.729          49.000  
R05  20004881.181   106937577.158        3040.427          48.000    20004882.847    83173562.181        2364.635          45.000  
G19  21793595.496   114526187.447        2205.939          44.000                                                                  
S31  36704554.077   192883656.771        -779.665          44.000  
S33  37653359.628   197869739.250        -780.492          43.000  
G14  18573558.012    97604930.658       -2387.497          46.000    18573559.096    76055914.717       -1860.305          50.000  
G20  20892635.599   109791471.285       -3818.309          42.000                                                                  
R14  17432769.300    92926716.960       -1999.847          52.000    17432772.855    72276511.673       -1555.468          49.000  
E07  23914275.564   125670234.279       -2828.051          46.000    23914289.932    96292754.979       -2167.079          49.000  
G13  18552524.048    97494253.298         774.106          49.000                                                                  
G17  21147979.214   111133627.185        1943.984          46.000    21147989.434    86597792.348        1514.611          43.000  
G15  20716566.669   108866299.179        2028.301          45.000    20716569.516    84830904.891        1580.286          43.000  
G22  18106598.070    95151087.089        -219.916          46.000                                                                  
G30  20208434.012   106196070.732       -2899.364          44.000    20208439.549    82750220.117       -2259.358          44.000  
E21  22075427.441   116007433.288         863.088          50.000    22075435.364    88888981.338         661.304          52.000  
E30  25676065.424   134928629.067       -3511.266          41.000    25676075.067   103386985.155       -2690.716          41.000  
E18  21687656.140   113969392.897       -4056.483          38.000                                                                  
G07                                                                  22909272.675                3      -2876.019          26.000  
> 2024 04 15 20 33 30.4930000  0 24                     
G05  19635042.481   103182796.941       -2169.287          48.000    19635045.995    80402167.717       -1690.265          43.000  
E19  22775739.105   119687363.491        1159.687          43.000    22775744.011    91708575.276         888.604          46.000  
E27  21826162.534   114697463.176       -1891.159          47.000    21826168.451    87885215.778       -1449.139          53.000  
R13  20988483.448   112077344.429       -4391.494          40.000    20988488.650    87171422.462       -3415.651          38.000  
R04  17063017.647    91371746.693          64.338          51.000    17063016.140    71066921.376          49.963          49.000  
R03  18459141.621    98813295.475       -3762.423          51.000    18459144.440    76854814.165       -2926.253          50.000  
R15  18764203.633   100270341.096        1370.538          52.000    18764208.620    77988325.354        1065.936          49.000  
R05  19987841.074   106846488.633        3031.976          48.000    19987843.041    83102715.703        2358.228          45.000  
G19  21781006.261   114460032.614        2204.364          45.000                                                                  
S31  36709009.397   192907067.051        -780.808          44.000  
S33  37657817.720   197893167.402        -781.465          43.000  
G14  18587235.040    97676806.948       -2404.194          47.000    18587236.617    76111922.296       -1873.389          49.000  
G20  20914451.419   109906110.036       -3824.394          42.000                                                                  
R14  17444069.284    92986953.216       -2015.968          52.000    17444072.565    72323362.150       -1567.924          48.000  
E07  23930443.899   125755194.291       -2835.715          46.000    23930457.419    96357853.985       -2172.849          49.000  
G13  18548133.198    97471178.837         764.061          49.000                                                                  
G17  21136903.764   111075424.910        1936.173          47.000    21136913.250    86552440.440        1508.597          43.000  
G15  20705003.783   108805534.926        2022.613          45.000    20705006.456    84783556.189        1576.311          43.000  
G22  18107911.909    95157990.160        -240.052          46.000                                                                  
G30  20224997.497   106283115.589       -2903.382          44.000    20225003.286    82818047.233       -2262.467          43.000  
E21  22070533.798   115981718.901         851.307          49.000    22070541.931    88869278.260         652.246          52.000  
E30  25696121.206   135034017.604       -3514.414          42.000    25696130.003   103467737.432       -2692.748          41.000  
E18  21710865.108   114091348.077       -4074.141          39.000                                                                  
G07                                                                  22930363.909                       -2877.229          26.000  
> 2024 04 15 20 34 00.4930000  0 24                     
G05  19647477.924   103248138.124       -2187.007          50.000    19647480.325    80453082.814       -1704.054          42.000  
E19  22769131.575   119652641.573        1154.915          42.000    22769136.685    91681970.227         885.076          46.000  
E27  21836992.021   114754371.708       -1902.638          47.000    21836997.897    87928821.072       -1457.935          53.000  
R13  21013154.107   112209084.096       -4391.290          41.000    21013159.094    87273886.596       -3415.609          38.000  
R04  17062726.433    91370186.024          39.703          51.000    17062725.190    71065707.542          30.903          49.000  
R03  18480279.796    98926448.694       -3781.173          52.000    18480281.973    76942822.057       -2940.938          50.000  
R15  18756555.569   100229470.302        1354.230          52.000    18756559.832    77956537.154        1053.204          49.000  
R05  19970847.566   106755650.789        3023.685          48.000    19970849.726    83032064.184        2351.926          45.000  
G19  21768424.984   114393919.485        2203.058          46.000                                                                  
S31  36713469.758   192930505.516        -781.777          44.000  
S33  37662281.701   197916624.607        -782.345          43.000  
G14  18601007.927    97749183.505       -2420.740          46.000    18601009.564    76168319.645       -1886.395          50.000  
G20  20936300.764   110020924.754       -3830.068          44.000                                                                  
R14  17455458.930    93047668.031       -2031.777          52.000    17455462.543    72370584.827       -1580.331          48.000  
E07  23946654.583   125840379.389       -2843.275          46.000    23946668.306    96423125.451       -2178.605          50.000  
G13  18543798.616    97448400.008         754.270          49.000                                                                  
G17  21125872.061   111017455.653        1928.345          47.000    21125881.964    86507270.107        1502.491          43.000  
G15  20693472.639   108744936.875        2016.975          46.000    20693474.442    84736337.035        1571.866          43.000  
G22  18109341.410    95165499.882        -260.622          47.000                                                                  
G30  20241583.757   106370273.993       -2907.293          43.000    20241588.238    82885962.753       -2265.050          43.000  
E21  22065707.528   115956356.878         839.473          49.000    22065715.462    88849845.163         643.259          52.000  
E30  25716192.633   135139490.459       -3517.213          42.000    25716200.547   103548554.303       -2695.000          40.000  
E18  21734176.764   114213841.795       -4092.029          39.000                                                                  
G07                                                                  22951443.744                3      -2880.286          19.000  
> 2024 04 15 20 34 30.4930000  0 23                     
G05  19660014.041   103314018.552       -2205.261          48.000    19660017.559    80504418.089       -1718.272          44.000  
E19  22762551.883   119618065.740        1149.952          42.000    22762557.369    91655477.149         880.976          47.000  
E27  21847887.595   114811635.128       -1914.799          46.000    21847894.508    87972698.297       -1467.200          52.000  
R13  21037824.676   112340823.532       -4391.483          41.000    21037828.557    87376350.564       -3415.666          36.000  
R04  17062575.450    91369373.766          14.361          52.000    17062572.931    71065075.821          11.192          49.000  
R03  18501525.532    99040173.464       -3800.564          53.000    18501526.682    77031274.485       -2955.891          50.000  
R15  18748999.706   100189097.039        1337.244          52.000    18749004.155    77925135.916        1040.057          48.000  
R05  19953903.739   106665074.301        3014.704          49.000    19953906.015    82961615.983        2344.735          46.000  
G19  21755852.849   114327857.429        2200.891          46.000                                                                  
S31  36717936.512   192953977.919        -783.354          44.000  
S33  37666751.341   197940115.826        -784.031          42.000  
G14  18614876.604    97822064.597       -2437.939          46.000    18614878.242    76225110.140       -1899.646          49.000  
G20  20958183.827   110135918.999       -3836.192          43.000                                                                  
R14  17466940.424    93108865.173       -2048.207          53.000    17466942.357    72418182.645       -1593.000          48.000  
E07  23962908.053   125925795.758       -2851.220          46.000    23962922.710    96488574.149       -2184.734          50.000  
G13  18539522.178    97425925.197         743.748          50.000                                                                  
G17  21114887.303   110959729.373        1919.845          46.000    21114896.251    86462289.084        1495.849          43.000  
G15  20681974.130   108684513.442        2010.839          45.000    20681975.809    84689253.944        1566.974          43.000  
G22  18110887.167    95173622.815        -281.179          47.000                                                                  
G30  20258192.415   106457551.813       -2911.411          44.000    20258195.910    82953971.388       -2268.669          42.000  
E21  22060949.625   115931354.179         827.374          49.000    22060957.016    88830687.404         633.874          51.000  
E30  25736279.973   135245052.522       -3520.409          40.000    25736288.495   103629439.599       -2697.549          41.000  
E18  21757585.060   114336877.543       -4110.277          35.000                                                                  
> 2024 04 15 20 35 00.4930000  0 23                     
G05  19672653.347   103380437.599       -2222.673          49.000    19672655.760    80556173.131       -1731.759          43.000  
E19  22756000.087   119583638.235        1145.257          42.000    22756005.763    91629097.713         877.405          46.000  
E27  21858851.163   114869253.113       -1926.386          45.000    21858858.659    88016847.185       -1475.982          53.000  
R13  21062495.090   112472561.843       -4391.004          41.000    21062498.799    87478813.689       -3415.490          36.000  
R04  17062563.457    91369313.354         -10.313          51.000    17062562.351    71065028.858          -8.069          50.000  
R03  18522876.916    99154468.343       -3819.119          51.000    18522878.429    77120170.305       -2970.418          50.000  
R15  18741537.406   100149222.376        1320.904          52.000    18741542.597    77894122.476        1027.496          49.000  
R05  19937009.267   106574763.928        3005.883          46.000    19937011.659    82891374.720        2338.156          46.000  
G19  21743291.287   114261850.797        2199.603          44.000                                                                  
S31  36722409.785   192977486.411        -783.929          43.000  
S33  37671229.103   197963642.672        -784.720          43.000  
G14  18628841.253    97895448.981       -2454.260          46.000    18628842.636    76282292.816       -1912.500          50.000  
G20  20980100.650   110251090.779       -3841.732          43.000                                                                  
R14  17478511.177    93170542.943       -2063.772          53.000    17478513.555    72466154.272       -1605.070          49.000  
E07  23979206.216   126011444.150       -2858.625          46.000    23979220.855    96554200.591       -2190.374          49.000  
G13  18535303.553    97403757.376         733.866          49.000                                                                  
G17  21103948.639   110902250.347        1911.959          46.000    21103957.275    86417500.751        1489.927          43.000  
G15  20670510.233   108624267.786        2005.357          45.000    20670511.815    84642309.350        1562.732          43.000  
G22  18112550.358    95182359.985        -301.186          48.000                                                                  
G30  20274824.121   106544949.454       -2914.967          45.000    20274827.943    83022073.420       -2271.570          43.000  
E21  22056259.949   115906712.292         815.712          48.000    22056267.750    88811806.104         624.831          51.000  
E30  25756382.667   135350703.390       -3523.009          38.000    25756392.169   103710392.906       -2699.270          39.000  
E18  21781102.521   114460453.171       -4127.979          37.000                                                                  
> 2024 04 15 20 35 30.4930000  0 23                     
G05  19685391.619   103447377.482       -2239.700          48.000    19685394.387    80608333.947       -1745.328          43.000  
E19  22749474.905   119549345.491        1141.068          43.000    22749480.363    91602821.536         874.315          47.000  
E27  21869880.772   114927209.306       -1937.194          46.000    21869887.741    88061255.230       -1484.344          53.000  
R13  21087161.918   112604281.362       -4390.004          41.000    21087166.357    87581262.225       -3414.510          35.000  
R04  17062689.770    91369991.566         -34.758          51.000    17062689.097    71065556.361         -26.864          49.000  
R03  18544330.725    99269315.756       -3837.031          51.000    18544334.154    77209495.879       -2984.370          51.000  
R15  18734165.757   100109831.576        1305.298          51.000    18734170.806    77863485.405        1015.173          49.000  
R05  19920162.999   106484708.301        2997.796          48.000    19920164.893    82821331.551        2331.584          45.000  
G19  21730737.976   114195887.667        2198.230          43.000                                                                  
S31  36726886.934   193001014.523        -784.379          44.000  
S33  37675709.714   197987190.331        -785.099          42.000  
G14  18642898.792    97969319.548       -2470.172          47.000    18642899.204    76339854.310       -1924.780          48.000  
G20  21002047.119   110366422.281       -3846.749          42.000                                                                  
R14  17490168.169    93232682.978       -2078.627          53.000    17490171.027    72514485.415       -1616.689          48.000  
E07  23995546.683   126097309.287       -2865.561          46.000    23995561.314    96619993.115       -2195.600          50.000  
G13  18531141.123    97381883.555         724.400          49.000                                                                  
G17  21093055.652   110845006.460        1904.622          46.000    21093064.343    86372895.639        1484.040          43.000  
G15  20659076.825   108564187.013        2000.333          46.000    20659078.373    84595493.311        1558.726          44.000  
G22  18114327.048    95191696.519        -320.814          48.000                                                                  
G30  20291474.907   106632451.490       -2918.082          44.000    20291479.901    83090256.751       -2273.980          44.000  
E21  22051636.321   115882416.749         804.441          48.000    22051644.559    88793190.191         616.373          52.000  
E30  25776502.755   135456426.532       -3525.167          38.000    25776510.618   103791401.541       -2700.832          38.000  
E18  21804719.058   114584550.637       -4144.862          41.000                                                                  
> 2024 04 15 20 36 00.4930000  0 23                     
G05  19698229.067   103514838.419       -2257.049          48.000    19698231.294    80660900.809       -1758.710          44.000  
E19  22742975.615   119515190.498        1136.581          43.000    22742980.441    91576650.906         870.882          47.000  
E27  21880974.187   114985503.973       -1948.346          46.000    21880980.667    88105922.605       -1492.953          53.000  
R13  21111825.189   112735981.808       -4389.146          42.000    21111829.241    87683695.887       -3413.951          34.000  
R04  17062955.817    91371412.317         -59.408          51.000    17062953.651    71066661.428         -46.207          49.000  
R03  18565888.442    99384714.923       -3855.672          52.000    18565891.622    77299250.549       -2998.793          51.000  
R15  18726885.307   100070926.817        1288.873          52.000    18726890.069    77833226.336        1002.393          48.000  
R05  19903364.113   106394912.511        2989.221          49.000    19903367.012    82751490.547        2324.864          47.000  
G19  21718194.025   114129972.875        2196.649          44.000                                                                  
S31  36731368.208   193024564.511        -785.164          45.000  
S33  37680195.492   198010760.503        -785.843          42.000  
G14  18657048.339    98043675.565       -2486.273          45.000    18657049.127    76397794.143       -1937.402          49.000  
G20  21024024.970   110481911.953       -3852.070          45.000                                                                  
R14  17501912.156    93295284.944       -2094.111          54.000    17501914.688    72563175.849       -1628.607          49.000  
E07  24011927.721   126183392.454       -2872.728          46.000    24011942.232    96685952.736       -2201.185          50.000  
G13  18527034.929    97360307.552         714.500          49.000                                                                  
G17  21082207.837   110788003.686        1896.261          47.000    21082215.711    86328478.380        1477.691          43.000  
G15  20647675.506   108504275.038        1994.596          45.000    20647677.118    84548808.750        1554.202          44.000  
G22  18116217.278    95201634.050        -340.834          47.000                                                                  
G30  20308146.581   106720058.885       -2921.626          46.000    20308150.315    83158522.191       -2276.736          43.000  
E21  22047078.606   115858469.735         792.698          47.000    22047086.955    88774841.336         607.398          51.000  
E30  25796634.812   135562222.027       -3527.419          37.000    25796643.317   103872465.648       -2702.738          38.000  
E18  21828431.832   114709168.621       -4162.381          39.000                                                                  
> 2024 04 15 20 36 30.4930000  0 23                     
G05  19711163.580   103582808.317       -2274.173          48.000    19711165.838    80713864.248       -1771.918          43.000  
E19  22736500.164   119481164.627        1131.980          42.000    22736505.495    91550579.240         867.325          47.000  
E27  21892130.663   115044126.247       -1959.531          47.000    21892136.005    88150840.952       -1501.481          53.000  
R13  21136483.336   112867651.590       -4388.341          42.000    21136485.407    87786105.707       -3413.502          35.000  
R04  17063358.264    91373568.279         -84.169          51.000    17063356.601    71068338.304         -65.477          50.000  
R03  18587546.846    99500653.040       -3873.584          52.000    18587550.293    77389424.446       -3012.750          51.000  
R15  18719693.343   100032498.088        1272.998          52.000    18719697.736    77803337.505         990.204          48.000  
R05  19886613.326   106305371.608        2980.370          49.000    19886615.839    82681847.709        2318.104          45.000  
G19  21705657.293   114064099.268        2195.215          44.000                                                                  
S31  36735852.436   193048127.680        -785.816          39.000  
S33  37684683.064   198034342.541        -786.318          44.000  
G14  18671287.230    98118505.411       -2502.167          45.000    18671288.567    76456103.120       -1949.738          49.000  
G20  21046029.155   110597546.759       -3856.834          44.000                                                                  
R14  17513740.442    93358335.890       -2109.187          53.000    17513742.943    72612215.525       -1640.339          49.000  
E07  24028347.877   126269683.792       -2879.840          45.000    24028362.790    96752071.825       -2206.636          49.000  
G13  18522983.725    97339021.394         704.583          48.000                                                                  
G17  21071404.267   110731234.848        1888.368          46.000    21071413.601    86284243.405        1471.405          44.000  
G15  20636305.375   108444524.000        1988.932          46.000    20636306.872    84502249.561        1549.963          44.000  
G22  18118220.980    95212162.620        -360.716          48.000                                                                  
G30  20324835.638   106807761.788       -2925.182          46.000    20324839.855    83226862.061       -2279.379          42.000  
E21  22042586.032   115834861.872         781.254          48.000    22042594.509    88756752.317         598.644          51.000  
E30  25816778.395   135668079.065       -3529.112          36.000    25816786.766   103953576.977       -2704.572          36.000  
E18  21852239.870   114834294.542       -4179.227          33.000                                                                  
> 2024 04 15 20 37 00.4930000  0 23                     
G05  19724194.698   103651287.414       -2291.117          49.000    19724197.361    80767224.487       -1785.521          43.000  
E19  22730050.687   119447271.651        1127.655          42.000    22730055.550    91524609.363         863.900          46.000  
E27  21903346.706   115103076.714       -1970.370          46.000    21903354.098    88196010.858       -1509.815          53.000  
R13  21161134.514   112999290.063       -4387.445          42.000    21161137.851    87888491.170       -3412.079          35.000  
R04  17063898.067    91376463.191        -108.733          50.000    17063897.234    71070589.922         -84.555          50.000  
R03  18609306.157    99617130.464       -3891.486          52.000    18609309.115    77480017.754       -3026.789          50.000  
R15  18712591.484    99994547.916        1257.202          52.000    18712596.528    77773820.902         977.734          50.000  
R05  19869911.629   106216090.923        2971.408          48.000    19869913.889    82612407.272        2311.351          46.000  
G19  21693129.705   113998272.267        2193.414          44.000                                                                  
S31  36740339.153   193071704.379        -785.969          44.000  
S33  37689173.268   198057940.114        -786.897          43.000  
G14  18685617.008    98193808.846       -2517.859          47.000    18685618.001    76514781.134       -1962.079          49.000  
G20  21068061.317   110713326.347       -3861.479          42.000                                                                  
R14  17525652.525    93421834.999       -2124.050          52.000    17525655.146    72661603.744       -1652.119          48.000  
E07  24044808.360   126356185.068       -2886.806          46.000    24044824.181    96818351.793       -2212.025          50.000  
G13  18518989.636    97318029.610         694.970          50.000                                                                  
G17  21060647.083   110674705.258        1880.317          47.000    21060655.668    86240194.863        1465.196          43.000  
G15  20624965.673   108384938.190        1983.373          44.000    20624967.474    84455819.210        1545.571          43.000  
G22  18120337.551    95223284.293        -380.614          48.000                                                                  
G30  20341543.443   106895561.503       -2928.215          46.000    20341546.888    83295277.369       -2281.781          42.000  
E21  22038159.375   115811595.950         769.908          48.000    22038167.267    88738925.348         589.898          52.000  
E30  25836934.134   135773997.949       -3531.818          36.000    25836942.337   104034735.701       -2706.015          36.000  
E18  21876147.748   114959927.225       -4196.167          36.000                                                                  
> 2024 04 15 20 37 30.4930000  0 23                     
G05  19737323.680   103720280.886       -2308.262          48.000    19737326.936    80820985.538       -1798.721          44.000  
E19  22723628.252   119413520.708        1122.901          42.000    22723633.152    91498748.370         860.365          47.000  
E27  21914629.385   115162361.881       -1981.656          47.000    21914635.392    88241437.173       -1518.483          53.000  
R13  21185781.342   113130903.574       -4386.628          43.000    21185785.099    87990857.261       -3411.695          34.000  
R04  17064579.327    91380107.458        -133.877          51.000    17064577.299    71073424.359        -104.173          50.000  
R03  18631166.387    99734152.101       -3909.625          50.000    18631169.552    77571034.368       -3040.845          50.000  
R15  18705581.414    99957084.612        1240.759          52.000    18705585.273    77744683.007         964.935          49.000  
R05  19853261.123   106127082.136        2962.474          50.000    19853263.207    82543178.389        2304.062          47.000  
G19  21680613.630   113932502.951        2191.315          46.000                                                                  
S31  36744829.748   193095303.620        -786.796          44.000  
S33  37693667.768   198081559.747        -787.522          44.000  
G14  18700037.617    98269591.380       -2534.045          46.000    18700038.757    76573832.499       -1974.622          48.000  
G20  21090122.450   110829254.911       -3866.669          42.000                                                                  
R14  17537648.886    93485787.331       -2139.279          53.000    17537652.206    72711344.479       -1663.811          49.000  
E07  24061311.282   126442903.761       -2894.142          46.000    24061326.552    96884798.341       -2217.625          50.000  
G13  18515053.049    97297341.576         684.539          50.000                                                                  
G17  21049936.629   110618425.983        1871.792          46.000    21049945.728    86196341.341        1458.661          43.000  
G15  20613660.697   108325527.535        1977.426          45.000    20613662.557    84409525.270        1540.940          43.000  
G22  18122568.424    95235006.916        -400.562          48.000                                                                  
G30  20358270.954   106983465.385       -2931.737          46.000    20358275.274    83363773.875       -2284.418          44.000  
E21  22033798.907   115788680.109         758.087          48.000    22033806.651    88721366.600         580.914          52.000  
E30  25857103.741   135879985.159       -3534.206          35.000    25857111.251   104115946.649       -2707.573          36.000  
E18  21900152.551   115086071.583       -4213.085          36.000                                                                  
> 2024 04 15 20 38 00.4930000  0 23                     
G05  19750549.549   103789784.660       -2325.212          48.000    19750552.819    80875144.231       -1811.945          43.000  
E19  22717232.047   119379909.951        1118.184          43.000    22717237.181    91472994.763         856.756          47.000  
E27  21925973.974   115221977.310       -1992.586          47.000    21925980.279    88287116.588       -1526.797          53.000  
R13  21210423.066   113262487.033       -4385.505          43.000    21210428.219    88093199.988       -3410.863          37.000  
R04  17065399.385    91384499.902        -158.851          51.000    17065397.701    71076840.726        -123.528          50.000  
R03  18653126.534    99851712.752       -3927.423          51.000    18653131.041    77662470.229       -3054.742          49.000  
R15  18698659.260    99920105.061        1224.579          51.000    18698664.620    77715921.348         952.502          48.000  
R05  19836661.512   106038346.433        2953.420          49.000    19836662.873    82474161.864        2296.892          46.000  
G19  21668108.422   113866791.334        2189.484          46.000                                                                  
S31  36749324.060   193118922.378        -787.639          42.000  
S33  37698166.386   198105199.068        -788.232          43.000  
G14  18714549.453    98345847.804       -2549.628          47.000    18714549.583    76633253.108       -1986.737          48.000  
G20  21112209.760   110945327.178       -3871.288          40.000                                                                  
R14  17549730.777    93550187.431       -2154.080          53.000    17549733.682    72761433.490       -1675.345          49.000  
E07  24077854.751   126529836.534       -2901.326          46.000    24077869.725    96951408.890       -2223.003          51.000  
G13  18511173.991    97276956.356         674.438          49.000                                                                  
G17  21039275.006   110562397.628        1863.508          46.000    21039283.277    86152683.289        1452.094          44.000  
G15  20602388.470   108266291.108        1971.685          45.000    20602389.796    84363367.119        1536.259          43.000  
G22  18124912.551    95247326.835        -420.558          47.000                                                                  
G30  20375017.434   107071470.013       -2934.987          47.000    20375021.880    83432348.835       -2287.077          44.000  
E21  22029503.976   115766111.842         746.471          48.000    22029511.741    88704074.179         572.002          52.000  
E30  25877282.189   135986036.057       -3536.182          33.000    25877292.160   104197206.630       -2709.410          35.000  
E18  21924253.799   115212721.374       -4230.035          37.000                                                                  
> 2024 04 15 20 38 30.4930000  0 23                     
G05  19763870.733   103859789.136       -2341.488          48.000    19763874.276    80929693.072       -1824.648          43.000  
E19  22710861.835   119346434.597        1113.768          42.000    22710867.385    91447344.909         853.486          47.000  
E27  21937379.625   115281915.368       -2003.079          46.000    21937386.042    88333043.200       -1534.882          53.000  
R13  21235057.316   113394031.758       -4383.859          42.000    21235062.813    88195512.580       -3409.876          36.000  
R04  17066358.579    91389636.178        -183.392          52.000    17066357.403    71080835.610        -142.694          50.000  
R03  18675187.985    99969803.310       -3944.934          51.000    18675191.698    77754318.242       -3068.354          50.000  
R15  18691828.310    99883603.072        1208.948          52.000    18691833.865    77687531.105         940.204          49.000  
R05  19820112.082   105949881.488        2944.563          50.000    19820113.284    82405355.873        2290.131          46.000  
G19  21655613.565   113801134.079        2187.781          45.000                                                                  
S31  36753821.196   193142553.664        -787.709          43.000  
S33  37702667.012   198128851.770        -788.885          43.000  
G14  18729150.012    98422569.540       -2564.856          47.000    18729149.611    76693036.297       -1998.730          49.000  
G20  21134323.469   111061533.282       -3875.607          40.000                                                                  
R14  17561894.965    93615025.832       -2168.359          53.000    17561897.260    72811863.386       -1686.539          50.000  
E07  24094436.909   126616976.719       -2907.837          46.000    24094452.393    97018178.373       -2228.084          51.000  
G13  18507351.465    97256869.482         664.654          50.000                                                                  
G17  21028660.498   110506616.826        1855.420          47.000    21028668.477    86109218.200        1445.870          44.000  
G15  20591148.949   108207224.725        1966.223          45.000    20591149.792    84317341.450        1532.135          44.000  
G22  18127369.199    95260238.442        -439.964          47.000                                                                  
G30  20391782.991   107159568.447       -2937.940          46.000    20391786.831    83500996.947       -2289.413          44.000  
E21  22025273.774   115743885.201         735.484          48.000    22025282.016    88687043.537         563.396          52.000  
E30  25897475.322   136092142.966       -3537.792          35.000    25897483.778   104278509.401       -2710.772          34.000  
E18  21948448.449   115339867.214       -4246.080          37.000                                                                  
> 2024 04 15 20 39 00.4930000  0 23                     
G05  19777287.396   103930291.596       -2358.476          49.000    19777290.954    80984629.954       -1837.726          44.000  
E19  22704517.174   119313094.856        1109.098          42.000    22704522.456    91421798.959         849.780          47.000  
E27  21948846.800   115342173.671       -2013.937          47.000    21948852.404    88379215.164       -1543.137          53.000  
R13  21259683.931   113525534.621       -4382.934          42.000    21259688.959    88297792.524       -3408.330          36.000  
R04  17067456.969    91395517.078        -208.549          51.000    17067455.284    71085409.657        -162.104          50.000  
R03  18697347.423   100088420.278       -3962.677          52.000    18697350.838    77846575.681       -3082.111          49.000  
R15  18685087.355    99847578.042        1192.920          51.000    18685091.811    77659511.860         927.820          48.000  
R05  19803614.439   105861689.815        2935.047          51.000    19803615.623    82336762.443        2282.980          47.000  
G19  21643129.091   113735533.421        2185.559          45.000                                                                  
S31  36758320.484   193166197.124        -788.457          44.000  
S33  37707170.187   198152515.987        -788.997          43.000  
G14  18743837.535    98499753.305       -2580.487          48.000    18743837.012    76753179.519       -2010.895          49.000  
G20  21156462.348   111177869.175       -3879.937          43.000                                                                  
R14  17574139.180    93680298.784       -2183.002          53.000    17574142.331    72862631.275       -1697.796          49.000  
E07  24111058.854   126704323.018       -2914.981          46.000    24111073.833    97085105.774       -2233.606          50.000  
G13  18503585.961    97237081.954         654.418          49.000                                                                  
G17  21018092.985   110451085.839        1846.806          47.000    21018100.261    86065947.751        1438.993          43.000  
G15  20579941.528   108148329.709        1960.305          45.000    20579942.973    84271449.328        1527.211          44.000  
G22  18129938.447    95273740.296        -459.870          47.000                                                                  
G30  20408564.748   107247759.333       -2941.383          46.000    20408568.100    83569717.048       -2291.982          43.000  
E21  22021109.705   115721999.640         723.870          49.000    22021117.130    88670274.234         554.610          52.000  
E30  25917673.686                       -3538.849          32.000    25917685.344   104359853.155       -2712.185          34.000  
E18  21972735.194   115467505.074       -4262.977          36.000                                                                  
> 2024 04 15 20 39 30.4930000  0 23                     
G05  19790798.124   104001293.132       -2374.185          48.000    19790801.945    81039955.747       -1849.940          42.000  
E19  22698199.013   119279895.281        1105.160          42.000    22698205.522    91396360.426         846.745          47.000  
E27  21960374.638   115402753.851       -2023.812          47.000    21960380.476    88425633.794       -1550.782          52.000  
R13  21284302.490   113656997.006       -4380.583          42.000    21284306.926    88400041.077       -3407.021          37.000  
R04  17068694.621    91402147.997        -232.686          50.000    17068693.504    71090567.071        -181.011          50.000  
R03  18719604.431   100207564.009       -3979.401          52.000    18719608.293    77939242.778       -3095.111          50.000  
R15  18678435.012    99812032.898        1177.661          52.000    18678439.360    77631865.879         916.016          48.000  
R05  19787169.095   105773778.729        2926.471          50.000    19787170.342    82268387.306        2276.136          47.000  
G19  21630656.680   113669995.462        2184.296          44.000                                                                  
S31  36762822.159   193189855.218        -788.037          45.000  
S33  37711676.503   198176195.767        -788.833          42.000  
G14  18758612.766    98577399.919       -2595.148          46.000    18758612.874    76813683.387       -2022.101          48.000  
G20  21178625.614   111294335.136       -3883.412          41.000                                                                  
R14  17586465.961    93746006.475       -2196.700          53.000    17586469.179    72913737.301       -1708.625          49.000  
E07  24127720.005   126791878.187       -2921.204          46.000    24127735.142    97152193.191       -2238.264          50.000  
G13  18499878.374    97217599.155         645.094          50.000                                                                  
G17  21007574.520   110395811.198        1839.024          48.000    21007581.628    86022876.994        1432.955          44.000  
G15  20568767.760   108089610.902        1955.084          46.000    20568769.396    84225694.510        1523.278          45.000  
G22  18132620.302    95287835.319        -478.904          46.000                                                                  
G30  20425364.846   107336045.163       -2943.591          44.000    20425368.444    83638511.146       -2293.666          44.000  
E21  22017010.154   115700458.653         713.122          48.000    22017017.643    88653768.932         546.380          52.000  
E30  25937887.512   136304519.054       -3540.589          32.000    25937896.876   104441239.291       -2712.902          33.000  
E18  21997114.901   115595634.800       -4278.066          34.000                                                                  
> 2024 04 15 20 40 00.4930000  0 24                     
G05  19804403.860   104072793.703       -2391.518          49.000    19804407.752    81095670.413       -1863.443          42.000  
E19  22691908.088   119246839.897        1099.760          42.000    22691914.969    91371032.355         842.616          47.000  
E27  21971962.489   115463657.250       -2035.223          45.000    21971969.907    88472300.050       -1559.414          53.000  
R13  21308913.810   113788419.849       -4380.056          41.000    21308919.050    88502258.896       -3406.730          38.000  
R04  17070074.135    91409533.646        -258.583          51.000    17070072.024    71096311.473        -201.088          50.000  
R03  18741959.822   100327234.436       -3997.626          51.000    18741963.821    78032319.560       -3109.174          50.000  
R15  18671873.843    99776970.671        1160.919          53.000    18671877.623    77604595.460         902.936          48.000  
R05  19770776.778   105686154.913        2916.061          50.000    19770778.529    82200235.529        2268.128          47.000  
G19  21618197.738   113604526.082        2181.348          45.000                                                                  
S31  36767327.287   193213531.182        -789.327          43.000  
S33  37716186.236   198199893.884        -789.992          43.000  
G14  18773476.467    98655509.728       -2611.121          47.000    18773476.584    76874548.202       -2034.631          48.000  
G20  21200813.087   111410930.991       -3888.362          44.000                                                                  
R14  17598874.790    93812149.001       -2211.818          53.000    17598877.000    72965181.548       -1720.275          49.000  
E07  24144422.203   126879644.515       -2928.852          47.000    24144436.546    97219442.428       -2244.079          49.000  
G13  18496229.424    97198425.433         634.092          49.000                                                                  
G17  20997104.577   110340799.065        1829.445          47.000    20997112.290    85980010.776        1425.750          44.000  
G15  20557628.271   108031073.357        1948.421          44.000    20557629.820    84180080.901        1518.334          44.000  
G22  18135415.527    95302525.581        -499.432          47.000                                                                  
G30  20442182.821   107424428.215       -2947.472          42.000    20442187.397    83707381.016       -2296.770          43.000  
E21  22012977.201   115679265.285         700.904          48.000    22012984.488    88637530.003         536.980          52.000  
E30  25958115.462   136410791.045       -3542.625          32.000    25958120.238   104522668.614       -2715.360          31.000  
E18  22021594.698   115724256.017       -4294.963          37.000                                                                  
G24                                                                  22693349.991                1       1050.118          28.000  
> 2024 04 15 20 40 30.4930000  0 24                     
G05  19818102.768   104144781.257       -2407.690          49.000    19818107.367    81151764.499       -1876.313          43.000  
E19  22685644.768   119213919.869        1095.141          43.000    22685650.010    91345808.012         838.979          46.000  
G24  22685653.705                1       1347.004          28.000    22685661.395                        1049.474          29.000  
E27  21983611.860   115524872.131       -2045.673          46.000    21983618.607    88519204.991       -1567.516          52.000  
R13  21333514.716   113919790.378       -4377.979          40.000    21333520.883    88604435.981       -3405.289          38.000  
R04  17071592.678    91417665.096        -283.584          52.000    17071591.016    71102635.954        -220.526          50.000  
R03  18764410.882   100447418.613       -4014.600          51.000    18764415.060    78125795.893       -3122.479          50.000  
R15  18665400.807    99742380.782        1145.117          52.000    18665404.423    77577692.420         890.527          48.000  
R05  19754437.424   105598811.371        2906.598          50.000    19754438.848    82132301.764        2260.722          47.000  
G19  21605750.611   113539118.296        2179.034          45.000                                                                  
S31  36771833.934   193237214.291        -789.797          42.000  
S33  37720696.943   198223599.033        -790.483          43.000  
G14  18788425.443    98734070.146       -2626.208          47.000    18788426.449    76935764.146       -2046.344          49.000  
G20  21223023.326   111527643.016       -3892.381          43.000                                                                  
R14  17611360.402    93878712.888       -2225.844          53.000    17611363.249    73016953.493       -1731.213          49.000  
E07  24161160.800   126967611.319       -2935.560          46.000    24161175.770    97286845.306       -2249.397          49.000  
G13  18492638.408    97179552.499         623.923          50.000                                                                  
G17  20986684.213   110286042.021        1820.963          47.000    20986692.848    85937343.376        1418.726          45.000  
G15  20546522.179   107972708.934        1942.441          46.000    20546523.068    84134602.214        1513.762          43.000  
G22  18138322.631    95317801.022        -518.854          47.000                                                                  
G30  20459018.901   107512897.662       -2950.253          45.000    20459022.797    83776318.173       -2299.089          43.000  
E21  22009007.732   115658409.630         689.503          47.000    22009016.220    88621549.841         528.323          52.000  
E30  25978345.291                       -3544.949          30.000    25978352.426   104604132.107       -2716.185          32.000  
E18  22046161.009   115853355.260       -4311.416          37.000                                                                  
> 2024 04 15 20 41 00.4930000  0 24                     
G05  19831890.435   104217234.430       -2422.966          48.000    19831894.556    81208221.433       -1887.980          43.000  
E19  22679402.136   119181117.526        1091.377          42.000    22679408.180    91320673.833         836.227          47.000  
G24  22677965.777   119173495.7123       1347.401          31.000    22677974.204                        1049.961          32.000  
E27  21995316.554   115586378.347       -2055.040          46.000    21995322.898    88566333.183       -1574.716          53.000  
R13  21358102.901   114051087.422       -4374.971          39.000    21358108.433    88706555.905       -3402.613          39.000  
R04  17073247.466    91426525.180        -307.655          52.000    17073245.236    71109527.135        -239.316          50.000  
R03  18786954.638   100568095.130       -4030.756          51.000    18786958.086    78219655.184       -3135.052          50.000  
R15  18659011.905    99708244.580        1130.133          52.000    18659016.922    77551142.246         879.004          49.000  
R05  19738146.891   105511733.802        2898.013          50.000    19738149.074    82064574.840        2254.011          48.000  
G19  21593311.254   113473756.214        2177.850          44.000                                                                  
S31  36776338.953   193260886.241        -788.750          44.000  
S33  37725205.764   198247293.296        -789.886          42.000  
G14  18803456.856    98813060.154       -2640.149          48.000    18803457.418    76997314.840       -2057.373          49.000  
G20  21245250.743   111644449.718       -3895.143          42.000                                                                  
R14  17623923.201    93945676.384       -2238.837          53.000    17623925.206    73069036.269       -1741.323          48.000  
E07  24177935.763   127055759.547       -2941.378          46.000    24177950.393    97354387.163       -2253.749          49.000  
G13  18489100.836    97160963.509         614.715          50.000                                                                  
G17  20976310.323   110231524.577        1813.096          48.000    20976318.029    85894862.624        1412.712          44.000  
G15  20535445.039   107914501.159        1937.504          45.000    20535446.487    84089245.598        1509.842          43.000  
G22  18141337.231    95333642.360        -537.568          47.000                                                                  
G30  20475865.994   107601434.280       -2952.344          43.000    20475871.568    83845307.764       -2300.670          45.000  
E21  22005100.285   115637873.346         679.234          48.000    22005108.199    88605814.392         520.402          53.000  
E30  25998574.594                       -3544.973          29.000    25998587.683                       -2715.894          29.000  
E18  22070815.368   115982910.615       -4325.982          38.000                                                                  
> 2024 04 15 20 41 30.4930000  0 24                     
G05  19845767.236   104290153.541       -2438.233          48.000    19845770.073    81265041.430       -1899.938          43.000  
E19  22673183.737   119148436.724        1087.322          43.000    22673189.054    91295632.782         833.188          47.000  
G24  22670273.739   119133091.754        1346.781          36.000    22670283.955    92830982.3541       1049.076          34.000  
E27  22007077.342   115648176.980       -2064.563          47.000    22007082.888    88613685.430       -1582.055          53.000  
R13  21382676.724   114182312.094       -4372.724          39.000    21382682.412    88808619.541       -3401.033          40.000  
R04  17075038.315    91436118.400        -331.842          51.000    17075037.294    71116988.543        -258.132          50.000  
R03  18809590.569   100689263.826       -4046.979          51.000    18809593.966    78313897.285       -3147.656          50.000  
R15  18652709.287    99674564.401        1115.265          52.000    18652713.931    77524946.748         867.365          49.000  
R05  19721907.481   105424928.282        2889.137          49.000    19721910.434    81997059.525        2247.041          47.000  
G19  21580882.028   113408445.575        2176.103          44.000                                                                  
S31  36780841.772   193284548.605        -788.555          44.000  
S33  37729712.915   198270978.662        -789.456          43.000  
G14  18818570.039    98892479.928       -2654.401          48.000    18818570.761    77059200.394       -2068.414          49.000  
G20  21267497.523   111761350.344       -3898.101          42.000                                                                  
R14  17636560.528    94013039.375       -2251.981          52.000    17636563.442    73121429.740       -1751.619          49.000  
E07  24194744.065   127144091.301       -2947.324          45.000    24194760.074    97422069.628       -2258.377          49.000  
G13  18485618.293    97142663.118         605.242          49.000                                                                  
G17  20965981.892   110177252.580        1805.164          48.000    20965989.920    85852573.116        1406.516          44.000  
G15  20524398.395   107856454.260        1932.284          45.000    20524400.400    84044014.360        1505.682          44.000  
G22  18144459.338    95350051.916        -556.319          47.000                                                                  
G30  20492727.370   107690040.198       -2954.462          43.000    20492732.195    83914351.296       -2302.144          44.000  
E21  22001253.898   115617659.275         668.476          49.000    22001261.347    88590325.826         512.283          53.000  
E30  26018816.490                       -3545.207          29.000    26018827.998                       -2717.462          26.000  
E18  22095556.516   116112921.467       -4341.163          40.000                                                                  
> 2024 04 15 20 42 00.4930000  0 24                     
G05  19859731.612   104363536.586       -2453.929          49.000    19859735.057    81322222.907       -1912.208          43.000  
E19  22666988.712   119115878.770        1083.033          43.000    22666993.683    91270685.887         829.802          47.000  
G24  22662586.727   119092696.468        1346.459          39.000    22662596.331    92799505.795        1049.286          35.000  
E27  22018892.057   115710266.354       -2074.591          47.000    22018898.021    88661260.460       -1589.626          53.000  
R13  21407236.358   114313461.888       -4370.593          38.000    21407242.710    88910624.958       -3399.304          40.000  
R04  17076967.450    91446446.144        -356.602          52.000    17076965.735    71125021.263        -277.402          49.000  
R03  18832317.899   100810921.092       -4063.452          52.000    18832320.699    78408519.370       -3160.516          50.000  
R15  18646492.182    99641340.169        1099.786          52.000    18646497.124    77499105.872         855.292          50.000  
R05  19705718.866   105338398.265        2879.595          47.000    19705723.286    81929758.546        2239.782          47.000  
G19  21568463.788   113343189.276        2173.985          44.000                                                                  
S31  36785342.338   193308202.251        -788.426          44.000  
S33  37734218.615   198294655.657        -789.420          43.000  
G14  18833764.318    98972326.808       -2668.756          48.000    18833765.238    77121418.779       -2079.523          49.000  
G20  21289760.466   111878341.894       -3901.324          41.000                                                                  
R14  17649272.044    94080798.361       -2265.320          53.000    17649275.307    73174131.197       -1761.992          49.000  
E07  24211588.613   127232605.972       -2953.582          45.000    24211604.394    97489892.259       -2263.169          49.000  
G13  18482191.016    97124653.174         595.293          48.000                                                                  
G17  20955701.055   110123229.108        1796.521          46.000    20955709.238    85810477.297        1399.728          44.000  
G15  20513383.126   107798570.456        1926.799          44.000    20513385.549    83998910.199        1501.088          43.000  
G22  18147690.549    95367029.027        -575.427          47.000                                                                  
G30  20509602.416   107778714.631       -2956.997          44.000    20509606.846    83983448.229       -2304.174          44.000  
E21  21997468.348   115597767.511         657.480          48.000    21997475.979    88575084.209         503.814          52.000  
E30  26039067.329                       -3547.103          28.000    26039074.023                       -2718.093          26.000  
E18  22120379.708   116243384.416       -4356.262          37.000                                                                  
> 2024 04 15 20 42 30.4930000  0 24                     
G05  19873787.577   104437399.913       -2470.234          48.000    19873790.369    81379778.662       -1925.044          42.000  
E19  22660819.361   119083464.158        1077.904          42.000    22660825.324    91245848.793         825.873          47.000  
G24  22654905.427   119052328.665        1345.195          41.000    22654913.476    92768050.635        1048.133          36.000  
E27  22030766.260   115772664.146       -2085.234          48.000    22030771.966    88709071.788       -1597.802          53.000  
R13  21431786.200   114444554.343       -4368.619          38.000    21431791.423    89012585.745       -3398.088          39.000  
R04  17079037.412    91457529.798        -382.239          52.000    17079034.624    71133641.865        -297.325          49.000  
R03  18855138.218   100933084.416       -4080.725          51.000    18855143.081    78503535.030       -3173.853          50.000  
R15  18640363.463    99608591.276        1083.526          53.000    18640368.089    77473634.708         842.645          49.000  
R05  19689588.599   105252167.948        2869.114          48.000    19689591.603    81862690.593        2231.486          48.000  
G19  21556059.464   113278009.607        2171.061          43.000                                                                  
S31  36789845.552   193331865.178        -789.273          45.000  
S33  37738725.998   198318342.290        -789.884          42.000  
G14  18849043.508    99052617.611       -2683.893          48.000    18849044.175    77183983.084       -2091.388          50.000  
G20  21312042.715   111995440.263       -3905.226          42.000                                                                  
R14  17662060.909    94148970.085       -2279.406          53.000    17662064.284    73227153.714       -1772.965          49.000  
E07  24228471.821   127321322.286       -2960.767          46.000    24228486.767    97557869.399       -2268.699          49.000  
G13  18478822.900    97106954.318         584.545          49.000                                                                  
G17  20945472.142   110069476.666        1787.134          46.000    20945479.315    85768592.648        1392.548          43.000  
G15  20502403.486   107740870.971        1920.170          44.000    20502404.821    83953949.650        1496.115          43.000  
G22  18151032.514    95384592.506        -595.314          47.000                                                                  
G30  20526492.732   107867476.291       -2960.330          43.000    20526497.505    84052613.152       -2306.785          44.000  
E21  21993747.365   115578217.528         645.896          47.000    21993755.321    88560104.477         494.819          52.000  
E18  22145294.745   116374315.432       -4372.068          37.000                                                                  
E30                                                                  26059327.178                       -2718.450          26.000  
> 2024 04 15 20 43 00.4930000  0 24                     
G05  19887936.222   104511747.709       -2486.523          49.000    19887938.455    81437711.911       -1937.396          43.000  
E19  22654680.126   119051200.621        1072.907          43.000    22654685.416    91221127.464         822.146          46.000  
G24  22647229.417   119011994.558        1343.763          40.000    22647238.804    92736621.669        1047.423          39.000  
E27  22042699.530   115835375.499       -2095.777          47.000    22042705.559    88757123.377       -1605.771          53.000  
R13  21456324.984   114575594.230       -4367.003          37.000    21456330.710    89114505.681       -3396.538          37.000  
R04  17081250.049    91469377.678        -407.946          52.000    17081248.110    71142856.884        -317.208          50.000  
R03  18878055.711   101055757.333       -4097.748          52.000    18878060.147    78598947.043       -3187.097          50.000  
R15  18634325.778    99576324.408        1067.456          53.000    18634329.697    77448538.467         830.151          49.000  
R05  19673515.030   105166247.144        2858.714          48.000    19673518.651    81795863.414        2223.399          48.000  
G19  21543672.518   113212916.339        2168.032          44.000                                                                  
S31  36794351.631   193355544.918        -789.963          44.000  
S33  37743236.529   198342045.393        -790.717          43.000  
G14  18864407.513    99133356.515       -2698.871          47.000    18864408.442    77246896.563       -2102.979          50.000  
G20  21334347.413   112112649.336       -3909.031          41.000                                                                  
R14  17674928.382    94217558.631       -2293.281          53.000    17674930.863    73280500.430       -1783.618          49.000  
E07  24245393.491   127410246.369       -2967.696          46.000    24245408.257    97626005.747       -2273.874          49.000  
G13  18475515.518    97089575.354         573.771          48.000                                                                  
G17  20935296.210   110016004.841        1777.497          47.000    20935303.898    85726926.672        1385.043          44.000  
G15  20491460.532   107683364.579        1913.469          45.000    20491461.946    83909139.569        1490.979          43.000  
G22  18154487.593    95402748.625        -615.215          47.000                                                                  
G30  20543400.776   107956331.281       -2963.621          41.000    20543406.257    84121850.753       -2309.267          43.000  
E21  21990093.258   115559016.215         634.073          47.000    21990101.405    88545391.903         485.852          52.000  
E18  22170301.125   116505717.778       -4388.132          39.000                                                                  
E30                                                                  26079586.983                3      -2721.498          23.000  
> 2024 04 15 20 43 30.4930000  0 24                     
G05  19902175.328   104586577.607       -2502.477          46.000    19902178.001    81496020.864       -1949.993          42.000  
E19  22648569.498   119019089.521        1067.761          43.000    22648574.892    91196522.938         818.062          47.000  
G24  22639561.089   118971693.643        1342.755          41.000    22639569.157    92705218.644        1045.959          37.000  
E27  22054693.283   115898398.808       -2106.083          47.000    22054698.628    88805413.999       -1613.761          54.000  
R13  21480854.691   114706579.369       -4365.627          37.000    21480859.787    89216383.032       -3395.354          37.000  
R04  17083604.717    91481991.205        -433.316          51.000    17083603.552    71152667.407        -336.986          51.000  
R03  18901066.104   101178936.824       -4114.410          52.000    18901070.871    78694753.082       -3200.086          50.000  
R15  18628377.409    99544539.207        1051.398          53.000    18628380.978    77423816.860         817.810          49.000  
R05  19657500.804   105080640.051        2848.235          49.000    19657504.023    81729280.246        2215.283          48.000  
G19  21531302.177   113147912.235        2165.117          44.000                                                                  
S31  36798860.865   193379240.934        -790.095          44.000  
S33  37747750.422   198365765.213        -790.881          43.000  
G14  18879855.470    99214541.040       -2713.647          46.000    18879857.154    77310157.237       -2114.404          49.000  
G20  21356672.064   112229965.972       -3912.527          41.000                                                                  
R14  17687871.965    94286560.760       -2307.147          52.000    17687874.974    73334168.757       -1794.391          49.000  
E07  24262355.679   127499377.693       -2974.549          47.000    24262369.531    97694300.856       -2279.197          48.000  
G13  18472269.753    97072517.906         563.054          48.000                                                                  
G17  20925174.930   109962817.069        1768.185          47.000    20925182.874    85685482.073        1377.630          45.000  
G15  20480554.703   107626053.417        1907.018          45.000    20480555.683    83864481.615        1485.948          42.000  
G22  18158054.928    95421496.688        -634.798          46.000                                                                  
G30  20560327.899   108045278.919       -2966.385          43.000    20560333.082    84191160.589       -2311.615          44.000  
E21  21986505.774   115540163.673         622.465          47.000    21986513.868    88530946.571         476.969          52.000  
E30  26099856.363                3      -3556.824          22.000    26099862.456                       -2721.386          26.000  
E18  22195394.427   116637588.111       -4403.312          38.000                                                                  
> 2024 04 15 20 44 00.4930000  0 24                     
G05  19916504.170   104661879.206       -2517.939          47.000    19916507.968    81554697.338       -1962.174          43.000  
E19  22642486.999   118987124.423        1063.093          43.000    22642491.773    91172030.287         814.642          46.000  
G24  22631896.431   118931417.736        1341.908          42.000    22631904.311    92673835.077        1045.845          39.000  
E27  22066742.224   115961724.769       -2115.924          45.000    22066748.894    88853936.517       -1621.239          54.000  
R13  21505372.690   114837500.359       -4362.521          36.000    21505378.199    89318210.537       -3393.194          38.000  
R04  17086101.844    91495363.876        -458.421          51.000    17086100.563    71163068.428        -356.533          50.000  
R03  18924170.412   101302612.715       -4130.688          53.000    18924175.384    78790945.211       -3212.741          51.000  
R15  18622516.322    99513227.904        1035.773          51.000    18622521.020    77399463.809         805.542          49.000  
R05  19641544.734   104995342.566        2837.959          50.000    19641546.977    81662937.816        2207.339          48.000  
G19  21518947.416   113082992.709        2162.516          44.000                                                                  
S31  36803371.428   193402944.787        -790.441          42.000  
S33  37752265.652   198389493.502        -791.005          44.000  
G14  18895386.863    99296160.918       -2727.883          46.000    18895388.653    77373757.166       -2125.688          49.000  
G20  21379015.336   112347378.951       -3915.227          39.000                                                                  
R14  17700892.196    94355965.543       -2320.113          53.000    17700894.753    73388150.285       -1804.650          49.000  
E07  24279353.462   127588707.950       -2980.927          46.000    24279369.528    97762748.420       -2284.117          49.000  
G13  18469084.072    97055776.336         552.641          48.000                                                                  
G17  20915106.568   109909908.203        1758.951          47.000    20915113.775    85644254.792        1370.354          44.000  
G15  20469685.182   107568931.537        1900.851          46.000    20469685.621    83819971.151        1481.350          42.000  
G22  18161733.500    95440828.479        -654.172          47.000                                                                  
G30  20577270.244   108134311.041       -2969.085          44.000    20577274.577    84260536.251       -2313.679          44.000  
E21  21982983.762   115521652.370         611.485          48.000    21982991.437    88516762.711         468.332          53.000  
E30  26120135.968                3      -3552.720          22.000    26120138.710                3      -2723.518          25.000  
E18  22220575.260   116769915.436       -4418.733          39.000                                                                  
> 2024 04 15 20 44 30.4930000  0 24                     
G05  19930924.060   104737652.451       -2533.843          47.000    19930927.492    81613741.292       -1974.327          44.000  
E19  22636431.753   118955308.591        1057.832          42.000    22636437.831    91147651.999         810.489          47.000  
G24  22624236.389   118891168.538        1341.066          41.000    22624244.425    92642472.374        1045.261          38.000  
E27  22078851.064   116025353.873       -2126.126          47.000    22078857.374    88902691.348       -1629.149          54.000  
R13  21529878.870   114968357.129       -4361.104          37.000    21529883.660    89419988.062       -3391.892          36.000  
R04  17088741.940    91509499.357        -484.080          52.000    17088741.001    71174062.700        -376.465          50.000  
R03  18947366.980   101426783.601       -4147.406          52.000    18947372.000    78887522.305       -3225.760          51.000  
R15  18616746.454    99482392.162        1019.769          52.000    18616750.398    77375480.661         793.085          49.000  
R05  19625648.034   104910360.782        2827.265          51.000    19625649.580    81596840.965        2198.971          48.000  
G19  21506609.246   113018163.030        2159.247          43.000                                                                  
S31  36807884.137   193426659.821        -790.691          43.000  
S33  37756783.019   198413232.624        -791.667          44.000  
G14  18911002.186    99378215.810       -2742.443          46.000    18911003.520    77437696.048       -2137.189          50.000  
G20  21401377.180   112464887.426       -3918.788          40.000                                                                  
R14  17713987.094    94425772.466       -2333.743          52.000    17713990.773    73442444.587       -1815.035          49.000  
E07  24296390.515   127678238.720       -2987.794          45.000    24296406.666    97831349.612       -2289.454          49.000  
G13  18465958.734    97039354.485         541.876          49.000                                                                  
G17  20905092.881   109857283.584        1749.243          48.000    20905099.223    85603248.984        1363.080          43.000  
G15  20458850.886   107512003.097        1894.235          45.000    20458852.441    83775611.500        1475.775          42.000  
G22  18165523.731    95460745.764        -673.800          48.000                                                                  
G30  20594228.093   108223429.118       -2972.246          43.000    20594232.828    84329978.905       -2315.981          42.000  
E21  21979526.265   115503484.643         599.721          48.000    21979534.151    88502842.108         459.446          53.000  
E18  22245843.080   116902698.560       -4433.997          42.000                                                                  
E30                                                                  26140422.832                3      -2722.681          22.000  
