     3.00           OBSERVATION DATA    M: Mixed            RINEX VERSION / TYPE
CONVBIN 2.4.3                           20240415 044442 UTC PGM / RUN BY / DATE 
format: u-blox UBX                                          COMMENT             
log: /home/regis/git/gnsspwv/obsdata/VERT00CHL/2024-04-15/VECOMMENT             
{self.marker}                                               MARKER NAME         
                                                            MARKER NUMBER       
GEODETIC                                                    MARKER TYPE         
{self.observer}     {self.institution}                      OBSERVER / AGENCY   
UNKNOWN             UBLOX-ZED-F9P                           REC # / TYPE / VERS 
UNKNOWN             TWIVSP6037L                             ANT # / TYPE        
  1713381.0000 -5047934.0000 -3490983.0000                  APPROX POSITION XYZ 
        0.0000        0.0000        0.0000                  ANTENNA: DELTA H/E/N
G    8 C1C L1C D1C S1C C2L L2L D2L S2L                      SYS / # / OBS TYPES 
R    8 C1C L1C D1C S1C C2C L2C D2C S2C                      SYS / # / OBS TYPES 
E    8 C1C L1C D1C S1C C7Q L7Q D7Q S7Q                      SYS / # / OBS TYPES 
S    4 C1C L1C D1C S1C                                      SYS / # / OBS TYPES 
  2024    04    15    04    30   00.0130000     GPS         TIME OF FIRST OBS   
  2024    04    15    04    44   30.0140000     GPS         TIME OF LAST OBS    
                                                            END OF HEADER       
> 2024 04 15 04 30 00.0130000  0 24                     
S33  43726638.529   229785184.3941       -699.708          42.000  
E02  28298591.521   148710117.1841        996.558          47.000    28298590.143   113946746.0611        763.584          51.000  
G28  25587271.059   134461991.1311      -2102.788          47.000    25587267.570   104775560.5161      -1638.546          47.000  
E36  27523730.534   144638525.7741        326.142          47.000    27523731.906   110827133.8621        249.980          51.000  
G26  26813981.783   140908445.1301       2317.312          44.000    26813979.533   109798744.6821       1805.803          37.000  
R20  24935021.100   133338804.3521       1619.537          39.000    24935020.202   103708041.0401       1259.614          43.000  
R10  26102207.233   139139524.7111       3091.187          42.000                                                                  
R09  23285052.725   124340886.5591        431.470          51.000    23285049.159    96709842.2871        335.591          52.000  
R16  24526372.336   131015637.1951      -3599.733          52.000    24526369.493   101900963.6811      -2799.745          50.000  
E11  27415377.829   144069196.8051      -2317.365          44.000    27415375.297   110390912.6131      -1775.633          49.000  
G18  24612930.327   129342182.1921        796.704          47.000    24612926.936   100786227.8451        620.770          48.000  
G29  25333510.697   133128906.5991      -1980.774          49.000    25333506.228   103737082.5401      -1543.336          45.000  
S31  42772564.030   224771460.3211       -699.152          44.000  
R18  26416275.665   141011976.5301      -4321.700          42.000    26416273.509   109676275.7121      -3361.608          48.000  
R19  23818264.582   127412017.8911      -2612.846          42.000    23818258.929    99097840.1191      -2031.960          47.000  
G05  27494593.828   144485135.9791       -684.858          41.000    27494588.276   112585830.9621       -533.507          38.000  
E34  30807091.586   161892485.9831       2134.115          36.000    30807097.658   124047617.7301       1635.143          40.000  
E24  31247697.275   164207857.5611      -2932.703          45.000    31247696.974   125821660.7641      -2247.233          48.000  
G12  28006622.302   147176088.5201      -3410.103          45.000    28006619.689   114682789.4121      -2657.113          41.000  
G25  25244012.129   132658412.9091      -2435.923          46.000    25244011.440   103370263.3241      -1898.278          47.000  
E10  30594148.270   160773845.9691      -3269.556          41.000    30594149.963   123190604.6321      -2505.131          49.000  
E25  27576481.916   144915698.6141      -1250.163          47.000    27576483.103   111039457.0901       -957.906          54.000  
G31  26068195.744   136989236.6681        231.434          48.000    26068190.435   106744935.0821        180.229          44.000  
E14  33111942.726   174004576.0651      -2839.406          37.000    33111941.435   133328238.0071      -2175.799          44.000  
> 2024 04 15 04 30 30.0130000  0 25                     
S33  43730630.672   229806164.292        -699.862          42.000  
E02  28292912.430   148680274.324         992.191          47.000    28292911.255   113923879.467         760.156          51.000  
G28  25599322.746   134525322.015       -2120.023          48.000    25599318.994   104824909.209       -1652.005          47.000  
E36  27521902.398   144628917.137         313.444          47.000    27521903.638   110819771.410         240.358          51.000  
G26  26800762.426   140838974.868        2313.584          44.000    26800759.015   109744612.036        1802.863          38.000  
R20  24925978.454   133290452.117        1603.205          38.000    24925977.780   103670433.804        1246.775          43.000  
R10  26084828.114   139046889.804        3083.558          42.000                                                                  
R09  23282689.587   124328269.445         408.940          52.000    23282685.917    96700028.940         318.007          51.000  
R16  24546637.349   131123888.005       -3617.831          51.000    24546633.629   101985158.723       -2813.770          49.000  
G20  28573298.903                3      -2698.706          25.000                                                                  
E11  27428632.505   144138848.039       -2327.025          44.000    27428629.488   110444281.734       -1782.944          49.000  
G18  24608432.047   129318540.706         778.589          47.000    24608427.882   100767805.935         606.702          48.000  
G29  25344829.686   133188387.957       -1985.475          49.000    25344824.717   103783431.657       -1547.289          45.000  
S31  42776554.098   224792427.614        -699.371          44.000  
R18  26440563.804   141141639.018       -4322.880          40.000    26440563.343   109777124.307       -3362.268          48.000  
R19  23832955.106   127490607.522       -2627.174          41.000    23832950.021    99158965.406       -2043.373          47.000  
G05  27498549.761   144505928.787        -701.979          40.000    27498545.029   112602033.142        -546.788          37.000  
E34  30794920.417   161828532.693        2128.575          35.000    30794927.358   123998614.910        1630.868          40.000  
E24  31264451.867   164295907.189       -2937.984          44.000    31264451.615   125889127.337       -2251.292          47.000  
G12  28026110.735   147278495.690       -3417.677          46.000    28026106.453   114762587.150       -2663.214          40.000  
G25  25257952.997   132731669.412       -2448.738          46.000    25257950.861   103427346.291       -1908.014          46.000  
E10  30612821.808   160871981.867       -3273.834          41.000    30612824.260   123265799.694       -2508.502          48.000  
E25  27583641.906   144953324.267       -1258.929          47.000    27583642.952   111068287.125        -964.643          54.000  
G31  26066926.569   136982568.974         212.365          47.000    26066921.578   106739739.460         165.419          43.000  
E14  33128118.332   174089588.045       -2828.198          36.000    33128119.131   133393377.051       -2167.302          44.000  
> 2024 04 15 04 31 00.0130000  0 24                     
S33  43734620.892   229827133.614        -698.471          42.000  
E02  28287256.581   148650554.173         988.649          47.000    28287255.580   113901106.878         757.463          51.000  
G28  25611469.356   134589152.995       -2135.952          48.000    25611465.475   104874647.592       -1664.438          47.000  
E36  27520143.555   144619675.793         302.037          47.000    27520145.056   110812690.407         231.304          51.000  
G26  26787562.197   140769607.317        2310.572          45.000    26787558.506   109690559.427        1800.505          38.000  
R20  24917024.964   133242578.386        1587.767          38.000    24917024.892   103633198.718        1235.392          42.000  
R10  26067491.795   138954472.835        3077.008          43.000                                                                  
R09  23280451.362   124316316.963         387.488          51.000    23280447.398    96690732.559         301.257          51.000  
R16  24567000.074   131232667.424       -3634.710          51.000    24566996.929   102069764.892       -2826.978          49.000  
E11  27441939.413   144208776.166       -2335.492          44.000    27441936.314   110497863.024       -1789.519          49.000  
G18  24604032.933   129295426.780         761.725          48.000    24604029.151   100749795.136         593.475          48.000  
G29  25356173.466   133247999.206       -1989.145          49.000    25356168.393   103829881.994       -1550.017          45.000  
S31  42780541.549   224813382.790        -698.231          44.000  
R18  26464856.963   141271319.191       -4322.730          39.000    26464856.353   109877986.628       -3362.163          47.000  
R19  23847725.609   127569616.669       -2640.449          43.000    23847720.470    99220416.951       -2053.734          48.000  
G05  27502603.810   144527224.246        -718.138          39.000    27502596.906   112618626.999        -559.607          37.000  
E34  30782778.511   161764723.227        2124.824          35.000    30782784.266   123949722.267        1627.996          39.000  
E24  31281235.594   164384105.218       -2942.319          45.000    31281235.317   125956707.595       -2254.447          47.000  
G12  28045638.613   147381114.320       -3423.969          46.000    28045634.200   114842549.649       -2668.187          41.000  
G25  25271963.974   132805298.406       -2460.509          46.000    25271961.852   103484719.504       -1917.242          46.000  
E10  30631521.009   160970239.454       -3277.173          42.000    30631522.069   123341087.957       -2511.166          48.000  
E25  27590849.991   144991204.016       -1266.823          47.000    27590851.251   111097311.851        -970.695          54.000  
G31  26065762.827   136976459.699         194.334          47.000    26065758.614   106734979.020         151.445          43.000  
E14  33144232.133   174174258.493       -2816.783          35.000    33144230.867   133458254.340       -2158.234          44.000  
> 2024 04 15 04 31 30.0130000  0 25                     
S33  43738609.490   229848093.102        -698.362          42.000  
E02  28281624.825   148620959.027         984.361          47.000    28281623.750   113878430.079         754.281          51.000  
G28  25623710.424   134653483.102       -2152.573          47.000    25623707.484   104924774.937       -1677.375          47.000  
E36  27518454.728   144610802.866         289.667          47.000    27518456.640   110805891.684         222.013          51.000  
G26  26774381.876   140700345.539        2307.086          45.000    26774377.825   109636589.283        1797.267          37.000  
R20  24908162.071   133195184.647        1572.104          38.000    24908161.476   103596336.990        1222.387          42.000  
R10  26050197.124   138862278.804        3069.325          43.000                                                                  
R09  23278338.614   124305032.365         365.033          52.000    23278333.740    96681955.633         283.925          51.000  
R16  24587462.764   131341974.041       -3652.277          51.000    24587460.271   102154781.100       -2840.637          50.000  
G20  28604259.871                3      -2725.088          27.000                                                                  
E11  27455299.032   144278980.497       -2344.660          44.000    27455295.829   110551655.947       -1796.449          49.000  
G18  24599735.222   129272842.204         743.964          49.000    24599731.479   100732196.771         579.797          48.000  
G29  25367541.580   133307740.315       -1993.497          48.000    25367536.946   103876433.504       -1553.351          45.000  
S31  42784527.636   224834329.240        -698.021          44.000  
R18  26489155.333   141401015.739       -4323.334          41.000    26489152.821   109978861.701       -3362.552          48.000  
R19  23862574.488   127649043.326       -2654.439          43.000    23862569.111    99282193.227       -2064.541          48.000  
G05  27506751.496   144549024.540        -735.096          38.000    27506744.992   112635614.300        -572.890          38.000  
E34  30770662.247   161701059.860        2119.708          34.000    30770668.122   123900941.551        1624.283          39.000  
E24  31298047.195   164472452.263       -2947.311          44.000    31298047.611   126024402.083       -2258.383          48.000  
G12  28065206.602   147483944.640       -3430.957          46.000    28065203.303   114922677.136       -2673.757          41.000  
G25  25286046.974   132879300.691       -2472.920          47.000    25286044.214   103542383.588       -1926.953          46.000  
E10  30650242.499   161068618.022       -3281.341          42.000    30650242.703   123416468.930       -2514.188          47.000  
E25  27598106.868   145029339.500       -1275.457          46.000    27598108.345   111126532.540        -977.240          54.000  
G31  26064707.230   136970911.010         175.647          48.000    26064703.023   106730655.363         136.895          43.000  
E14  33160279.155   174258588.404       -2805.169          35.000    33160278.301   133522870.783       -2149.438          44.000  
> 2024 04 15 04 32 00.0130000  0 25                     
S33  43742596.214   229869042.771        -698.275          42.000  
E02  28276017.372   148591491.456         979.937          47.000    28276016.360   113855851.039         750.819          51.000  
G28  25636047.225   134718311.534       -2169.301          47.000    25636045.051   104975290.553       -1690.507          48.000  
E36  27516836.528   144602299.656         277.038          46.000    27516838.732   110799376.252         212.267          51.000  
G26  26761222.070   140631192.927        2303.008          44.000    26761218.154   109582704.152        1794.692          37.000  
R20  24899390.074   133148273.353        1555.841          40.000    24899388.983   103559850.526        1209.556          42.000  
R10  26032944.387   138770312.573        3061.481          43.000                                                                  
R09  23276350.749   124294419.415         342.348          52.000    23276346.743    96673701.099         266.305          51.000  
R16  24608024.280   131451806.819       -3670.056          52.000    24608021.876   102240206.551       -2854.462          51.000  
G20  28619860.320                3      -2741.999          22.000                                                                  
E11  27468710.682   144349460.742       -2353.997          44.000    27468707.778   110605660.298       -1803.835          49.000  
G18  24595538.755   129250788.959         726.068          48.000    24595534.826   100715012.447         565.710          48.000  
G29  25378934.799   133367612.097       -1998.075          49.000    25378930.050   103923086.853       -1557.032          45.000  
S31  42788511.791   224855266.122        -697.891          44.000  
R18  26513455.563   141530727.108       -4323.821          43.000    26513451.404   110079748.331       -3363.143          46.000  
R19  23877499.759   127728885.115       -2668.558          44.000    23877494.544    99344292.405       -2075.496          48.000  
G05  27510996.711   144571330.611        -752.019          39.000    27510990.452   112652995.635        -585.930          38.000  
E34  30758574.295   161637545.108        2114.499          35.000    30758581.570   123852274.684        1620.109          39.000  
E24  31314887.172   164560949.242       -2952.648          43.000    31314888.190   126092211.417       -2262.520          48.000  
G12  28084814.700   147586986.965       -3438.543          45.000    28084810.969   115002969.833       -2679.517          41.000  
G25  25300200.080   132953677.314       -2485.603          47.000    25300197.864   103600339.386       -1937.019          46.000  
E10  30668986.197   161167117.009       -3285.589          41.000    30668986.625   123491942.155       -2517.475          47.000  
E25  27605413.441   145067732.612       -1284.295          47.000    27605414.457   111155950.631        -984.076          54.000  
G31  26063759.010   136965924.335         156.713          49.000    26063754.381   106726769.660         122.071          43.000  
E14  33176260.720   174342579.361       -2794.475          32.000    33176261.526   133587227.469       -2140.944          44.000  
> 2024 04 15 04 32 30.0130000  0 25                     
S33  43746580.494   229889980.478        -697.787          42.000  
E02  28270433.313   148562148.470         975.900          47.000    28270432.571   113833367.467         747.718          52.000  
G28  25648477.671   134783631.975       -2185.914          47.000    25648474.810   105026189.570       -1703.126          48.000  
E36  27515288.488   144594161.930         265.003          47.000    27515290.100   110793140.869         203.032          51.000  
G26  26748082.638   140562147.225        2299.335          44.000    26748079.676   109528902.372        1791.591          37.000  
R20  24890707.341   133101841.153        1539.318          40.000    24890705.931   103523736.668        1197.211          42.000  
R10  26015734.618   138678573.765        3053.756          43.000                                                                  
R09  23274489.004   124284476.266         320.047          51.000    23274485.148    96665967.541         248.957          52.000  
R16  24628683.310   131562159.113       -3687.281          52.000    24628680.072   102326036.088       -2867.932          50.000  
G20  28635560.707                1      -2755.349          27.000                                                                  
E11  27482174.122   144420210.951       -2363.182          45.000    27482171.050   110659871.501       -1810.717          49.000  
G18  24591442.667   129229263.502         708.435          48.000    24591438.912   100698239.391         551.904          49.000  
G29  25390352.179   133427609.355       -2002.266          49.000    25390347.208   103969837.957       -1560.243          45.000  
S31  42792493.599   224876190.743        -697.651          44.000  
R18  26537756.696   141660446.432       -4324.332          44.000    26537753.471   110180641.068       -3363.341          47.000  
R19  23892501.758   127809134.214       -2682.092          44.000    23892495.743    99406708.395       -2085.987          47.000  
G05  27515336.489   144594139.373        -768.301          37.000    27515330.977   112670768.861        -599.135          39.000  
E34  30746517.693   161574175.946        2109.376          36.000    30746522.502   123803719.334        1616.555          41.000  
E24  31331754.643   164649591.475       -2957.397          42.000    31331756.330   126160132.035       -2265.927          48.000  
G12  28104462.441   147690236.472       -3445.468          45.000    28104458.851   115083423.963       -2684.736          41.000  
G25  25314423.443   133028423.793       -2498.020          47.000    25314421.283   103658583.380       -1946.387          46.000  
E10  30687753.200   161265730.450       -3288.899          43.000    30687751.991   123567503.103       -2520.388          46.000  
E25  27612767.362   145106379.655       -1292.735          47.000    27612768.809   111185563.303        -990.522          55.000  
G31  26062916.407   136961496.237         138.039          48.000    26062911.949   106723319.183         107.397          43.000  
E14  33192176.609   174426227.143       -2782.744          32.000    33192179.246   133651321.286       -2132.201          44.000  
> 2024 04 15 04 33 00.0130000  0 24                     
S33  43750562.924   229910907.295        -697.458          42.000  
E02  28264873.907   148532933.201         971.552          47.000    28264873.093   113810981.744         744.473          52.000  
G28  25661000.957   134849444.118       -2201.996          47.000    25660997.578   105077471.721       -1715.799          47.000  
E36  27513809.403   144586391.484         252.812          47.000    27513811.165   110787186.898         193.723          50.000  
G26  26734964.595   140493212.277        2295.709          43.000    26734962.299   109475186.866        1789.260          38.000  
R20  24882114.583   133055889.362        1523.517          42.000    24882112.705   103487996.456        1184.961          42.000  
R10  25998568.408   138587068.004        3046.078          43.000                                                                  
R09  23272752.471   124275206.807         297.581          51.000    23272749.373    96658757.955         231.528          52.000  
R16  24649438.004   131673030.593       -3704.474          52.000    24649435.339   102412269.403       -2881.122          51.000  
E11  27495689.070   144491231.198       -2372.082          45.000    27495685.699   110714289.615       -1817.559          49.000  
G18  24587447.413   129208268.221         690.808          48.000    24587443.609   100681879.451         538.263          49.000  
G29  25401792.969   133487732.884       -2006.366          48.000    25401788.341   104016687.461       -1563.350          45.000  
S31  42796473.244   224897104.182        -696.874          44.000  
R18  26562060.123   141790172.697       -4324.506          44.000    26562055.160   110281539.274       -3363.518          45.000  
R19  23907579.730   127889789.449       -2695.370          44.000    23907573.069    99469440.252       -2096.464          47.000  
G05  27519771.831   144617453.280        -785.508          36.000    27519766.107   112688935.519        -612.184          38.000  
E34  30734486.604   161510955.248        2104.517          36.000    30734491.496   123755277.760        1612.470          41.000  
E24  31348650.191   164738380.338       -2962.170          42.000    31348651.975   126228165.025       -2269.726          47.000  
G12  28124149.272   147793694.102       -3452.060          45.000    28124146.313   115164040.260       -2689.876          41.000  
G25  25328718.356   133103541.670       -2510.214          48.000    25328715.964   103717116.774       -1956.128          46.000  
E10  30706539.858   161364458.333       -3292.895          41.000    30706539.524   123643151.690       -2523.179          47.000  
E25  27620170.600   145145283.005       -1301.350          47.000    27620171.899   111215372.359        -997.049          55.000  
G31  26062180.217   136957628.979         119.362          49.000    26062175.991   106720305.717          92.935          43.000  
E14  33208030.819   174509533.856       -2771.360          32.000    33208032.365   133715153.727       -2123.469          45.000  
> 2024 04 15 04 33 30.0130000  0 25                     
S33  43754543.071   229931824.046        -696.945          42.000  
E02  28259339.539   148503849.555         967.212          47.000    28259338.863   113788696.868         741.057          52.000  
G28  25673619.091   134915748.487       -2218.378          47.000    25673614.456   105129137.434       -1728.666          47.000  
E36  27512401.792   144578990.934         240.464          47.000    27512402.883   110781516.364         184.189          51.000  
G26  26721868.775   140424392.805        2292.182          44.000    26721866.906   109421561.345        1785.874          39.000  
R20  24873611.521   133010420.904        1507.312          41.000    24873610.274   103452632.144        1172.522          43.000  
R10  25981447.234   138495801.501        3038.331          43.000                                                                  
R09  23271144.285   124266616.000         274.964          52.000    23271140.662    96652076.220         213.856          52.000  
R16  24670290.466   131784421.296       -3721.637          52.000    24670288.168   102498906.576       -2894.598          51.000  
G20  28667190.525                1      -2783.861          24.000                                                                  
E11  27509255.216   144562522.502       -2380.962          45.000    27509251.947   110768915.419       -1824.169          48.000  
G18  24583553.483   129187806.438         673.151          47.000    24583550.108   100665935.231         524.493          49.000  
G29  25413258.748   133547984.251       -2010.530          49.000    25413253.485   104063636.590       -1566.649          45.000  
S31  42800451.373   224918008.365        -696.977          44.000  
R18  26586361.981   141919905.984       -4324.638          44.000    26586358.709   110382442.927       -3363.600          46.000  
R19  23922732.159   127970849.885       -2708.976          43.000    23922726.082    99532487.270       -2106.827          47.000  
G05  27524303.453   144641275.194        -802.700          35.000    27524300.678   112707498.054        -625.083          39.000  
E34  30722483.965   161447886.822        2099.960          36.000    30722490.272   123706952.907        1608.667          43.000  
E24  31365574.953   164827318.056       -2966.945          42.000    31365576.452   126296312.052       -2273.647          48.000  
G12  28143876.947   147897361.649       -3459.073          45.000    28143873.991   115244820.131       -2695.550          41.000  
G25  25343083.425   133179033.273       -2522.585          47.000    25343081.613   103775941.379       -1965.554          46.000  
E10  30725349.986   161463301.505       -3296.546          42.000    30725347.997   123718888.671       -2526.059          45.000  
E25  27627623.637   145184445.857       -1309.949          47.000    27627624.350   111245380.242       -1003.642          55.000  
G31  26061551.797   136954326.137         100.670          48.000    26061547.126   106717732.068          78.369          42.000  
E14  33223821.558   174592502.246       -2759.965          34.000    33223820.600   133778726.934       -2114.779          45.000  
> 2024 04 15 04 34 00.0130000  0 25                     
S33  43758521.304   229952730.388        -696.724          42.000  
E02  28253830.176   148474894.615         962.786          47.000    28253829.066   113766510.615         737.724          52.000  
G28  25686328.315   134982538.800       -2234.646          47.000    25686324.478   105181181.768       -1741.137          47.000  
E36  27511063.437   144571956.119         228.128          47.000    27511064.422   110776126.064         174.870          51.000  
G26  26708795.152   140355686.705        2287.971          45.000    26708792.556   109368024.136        1782.876          39.000  
R20  24865198.025   132965432.391        1491.315          40.000    24865198.113   103417641.126        1159.839          43.000  
R10  25964370.093   138404773.753        3029.804          42.000                                                                  
R09  23269661.952   124258702.121         252.160          51.000    23269658.769    96645920.983         196.173          52.000  
R16  24691238.978   131896324.594       -3738.885          52.000    24691236.747   102585942.431       -2908.105          51.000  
G20  28683117.029                3      -2800.212          24.000                                                                  
E11  27522871.655   144634078.921       -2389.740          45.000    27522868.639   110823744.384       -1831.081          48.000  
G18  24579760.686   129167874.585         655.295          47.000    24579757.023   100650403.941         510.637          49.000  
G29  25424747.325   133608359.068       -2014.791          48.000    25424742.654   104110681.908       -1569.998          45.000  
S31  42804427.148   224938900.792        -696.470          44.000  
R18  26610665.109   142049639.578       -4324.646          46.000    26610662.624   110483346.800       -3363.490          47.000  
R19  23937959.421   128052308.187       -2722.355          42.000    23937953.684    99595843.769       -2117.279          46.000  
G05  27528933.751   144665601.597        -819.714          38.000    27528930.332   112726453.735        -638.687          39.000  
E34  30710510.544   161384967.799        2094.622          35.000    30710516.386   123658742.461        1604.966          43.000  
E24  31382526.577   164916399.962       -2972.098          43.000    31382528.205   126364569.566       -2277.146          47.000  
G12  28163643.670   148001234.130       -3466.273          45.000    28163639.502   115325759.658       -2700.679          40.000  
G25  25357519.651   133254894.238       -2535.201          48.000    25357517.516   103835053.779       -1975.302          46.000  
E10  30744178.947   161562254.052       -3300.360          42.000    30744178.788   123794709.440       -2528.838          46.000  
E25  27635124.325   145223864.593       -1318.393          47.000    27635125.457   111275584.204       -1010.244          55.000  
G31  26061030.086   136951584.207          81.840          48.000    26061026.423   106715595.487          63.650          43.000  
E14  33239540.906   174675128.339       -2748.302          31.000    33239543.892   133842037.846       -2106.102          44.000  
> 2024 04 15 04 34 30.0130000  0 24                     
S33  43762497.744   229973625.843        -696.438          42.000  
E02  28248345.149   148446073.626         958.560          47.000    28248344.577   113744427.007         734.409          53.000  
G28  25699130.753   135049816.817       -2250.615          47.000    25699126.569   105233606.169       -1753.823          46.000  
E36  27509795.163   144565290.904         215.982          48.000    27509795.866   110771018.971         165.562          51.000  
G26  26695743.471   140287099.980        2284.216          45.000    26695741.125   109314579.958        1779.881          39.000  
R20  24856875.834   132920928.731        1475.336          40.000    24856875.866   103383027.201        1147.302          43.000  
R10  25947340.200   138313993.019        3021.834          43.000                                                                  
R09  23268307.409   124251471.062         229.839          51.000    23268304.521    96640296.824         178.694          52.000  
R16  24712284.303   132008741.936       -3755.695          52.000    24712281.104   102673378.104       -2921.118          50.000  
E11  27536539.596   144705902.778       -2398.367          45.000    27536536.443   110878778.255       -1837.840          49.000  
G18  24576069.560   129148477.161         637.757          48.000    24576065.833   100635289.079         496.948          49.000  
G29  25436260.065   133668860.239       -2018.760          47.000    25436256.003   104157825.661       -1573.029          46.000  
S31  42808400.899   224959783.557        -695.726          44.000  
R18  26634969.406   142179374.716       -4324.478          46.000    26634966.309   110584251.920       -3363.450          47.000  
R19  23953261.898   128134164.490       -2735.032          43.000    23953255.804    99659509.773       -2127.333          47.000  
G05  27533661.504   144690436.468        -836.137          41.000    27533656.377   112745805.580        -651.635          40.000  
E34  30698567.736   161322203.160        2089.922          36.000    30698572.757   123610650.330        1601.207          44.000  
E24  31399506.014   165005629.539       -2976.692          43.000    31399507.798   126432940.246       -2280.834          47.000  
G12  28183449.435   148105313.874       -3472.621          44.000    28183446.081   115406860.704       -2706.030          41.000  
G25  25372026.707   133331128.107       -2547.180          47.000    25372024.298   103894456.762       -1984.655          46.000  
E10  30763029.334   161661318.153       -3303.807          42.000    30763029.238   123870615.694       -2531.558          45.000  
E25  27642673.700   145263543.737       -1326.977          46.000    27642676.147   111305987.678       -1016.757          55.000  
G31  26060615.642   136949407.465          63.067          47.000    26060612.086   106713899.272          49.371          43.000  
E14  33255202.995   174757416.311       -2737.378          33.000    33255202.587   133905089.600       -2097.304          44.000  
> 2024 04 15 04 35 00.0130000  0 24                     
S33  43766472.389   229994513.083        -696.128          42.000  
E02  28242886.540   148417388.291         954.020          47.000    28242886.162   113722447.350         730.950          53.000  
G28  25712025.373   135117580.789       -2266.731          47.000    25712021.510   105286409.223       -1766.261          46.000  
E36  27508596.731   144558995.675         203.681          47.000    27508597.825   110766195.367         156.181          50.000  
G26  26682715.361   140218635.152        2280.331          45.000    26682712.656   109261230.804        1776.550          39.000  
R20  24848643.725   132876910.491        1459.290          40.000    24848644.186   103348790.856        1135.028          44.000  
R10  25930357.677   138223463.269        3013.567          43.000                                                                  
R09  23267082.705   124244925.824         206.800          52.000    23267078.626    96635206.055         160.848          51.000  
R16  24733424.356   132121671.488       -3772.736          51.000    24733421.913   102761212.152       -2934.296          50.000  
E11  27550258.517   144777992.820       -2407.466          46.000    27550254.548   110934016.068       -1844.668          48.000  
G18  24572480.632   129129615.183         619.866          49.000    24572476.520   100620591.461         483.050          48.000  
G29  25447797.539   133729487.255       -2022.844          48.000    25447792.680   104205067.498       -1576.403          46.000  
S31  42812373.046   224980657.989        -695.763          44.000  
R18  26659274.341   142309109.281       -4324.466          49.000    26659269.905   110685156.589       -3363.423          47.000  
R19  23968637.817   128216415.826       -2748.183          43.000    23968632.872    99723483.034       -2137.471          48.000  
G05  27538485.926   144715781.336        -853.254          39.000    27538479.368   112765554.856        -664.918          40.000  
E34  30686655.623   161259594.609        2084.489          36.000    30686658.565   123562677.766        1597.115          45.000  
E24  31416515.032   165095006.815       -2981.635          44.000    31416515.790   126501424.082       -2284.636          47.000  
G12  28203294.522   148209602.002       -3479.485          44.000    28203290.968   115488124.152       -2711.466          40.000  
G25  25386604.850   133407735.007       -2559.906          47.000    25386602.646   103954150.423       -1994.635          46.000  
E10  30781902.935   161760492.460       -3307.604          43.000    30781901.780   123946606.397       -2534.345          44.000  
E25  27650275.211   145303484.192       -1335.660          46.000    27650276.763   111336591.389       -1023.416          55.000  
G31  26060309.636   136947796.944          44.317          47.000    26060305.733   106712644.320          34.590          43.000  
E14  33270791.617   174839366.565       -2725.883          33.000    33270797.359   133967882.667       -2088.762          44.000  
> 2024 04 15 04 35 30.0130000  0 24                     
S33  43770445.676   230015391.708        -696.200          42.000  
E02  28237453.402   148388839.441         949.061          47.000    28237453.623   113700572.266         727.180          53.000  
G28  25725012.479   135185828.035       -2283.320          47.000    25725008.993   105339588.885       -1779.286          47.000  
E36  27507469.120   144553069.865         191.080          47.000    27507469.919   110761654.834         146.414          50.000  
G26  26669709.993   140150293.851        2275.616          45.000    26669707.812   109207977.865        1773.530          40.000  
R20  24840503.339   132833377.893        1442.560          40.000    24840503.150   103314932.224        1122.003          44.000  
R10  25913423.244   138133188.273        3004.532          43.000                                                                  
R09  23265985.454   124239067.927         183.359          51.000    23265981.862    96630649.908         142.554          52.000  
R16  24754659.570   132235110.352       -3790.180          51.000    24754658.057   102849442.314       -2947.925          50.000  
E11  27564027.443   144850346.769       -2416.760          46.000    27564022.971   110989456.103       -1851.696          48.000  
G18  24568993.216   129111288.655         601.695          48.000    24568988.965   100606311.070         468.729          48.000  
G29  25459358.401   133790238.654       -2027.504          48.000    25459353.916   104252406.221       -1579.750          46.000  
S31  42816343.671   225001523.558        -695.820          44.000  
R18  26683576.100   142438840.210       -4324.558          48.000    26683572.260   110786058.409       -3363.594          47.000  
R19  23984086.556   128299058.838       -2761.657          42.000    23984082.598    99787760.938       -2147.948          48.000  
G05  27543404.614   144741635.911        -870.631          37.000    27543398.919   112785701.290        -678.506          40.000  
E34  30674769.022   161197142.653        2078.753          36.000    30674774.338   123514825.277        1592.692          45.000  
E24  31433551.244   165184530.778       -2987.100          44.000    31433551.564   126570020.327       -2288.606          47.000  
G12  28223178.424   148314096.877       -3486.973          43.000    28223175.882   115569548.680       -2717.028          40.000  
G25  25401253.373   133484714.067       -2572.560          47.000    25401251.372   104014134.093       -2004.754          47.000  
E10  30800795.751   161859774.687       -3311.494          43.000    30800794.438   124022679.792       -2537.441          44.000  
E25  27657924.807   145343686.031       -1344.804          46.000    27657926.874   111367395.388       -1030.416          55.000  
G31  26060111.457   136946752.724          24.892          47.000    26060106.410   106711830.621          19.428          43.000  
E14  33286326.200   174920978.930       -2715.659          34.000    33286327.009   134030416.808       -2080.406          43.000  
> 2024 04 15 04 36 00.0130000  0 25                     
S33  43774417.068   230036262.687        -695.716          42.000  
E02  28232047.280   148360430.865         944.245          47.000    28232047.666   113678804.658         723.543          53.000  
G28  25738090.854   135254558.828       -2299.356          46.000    25738088.198   105393145.308       -1791.565          47.000  
E36  27506412.509   144547515.924         178.587          47.000    27506412.692   110757399.225         136.857          50.000  
G26  26656729.266   140082080.619        2271.547          45.000    26656727.181   109154824.740        1769.703          40.000  
R20  24832453.800   132790333.473        1426.343          41.000    24832453.592   103281453.295        1109.338          43.000  
R10  25896536.624   138043174.048        2995.862          42.000                                                                  
R09  23265018.218   124233901.967         160.300          51.000    23265014.379    96626631.914         124.795          52.000  
R16  24775990.990   132349058.273       -3807.001          51.000    24775989.788   102938068.433       -2960.999          50.000  
G20  28747659.469                3      -2853.777          26.000                                                                  
E11  27577846.150   144922965.460       -2425.220          46.000    27577841.757   111045099.008       -1858.280          48.000  
G18  24565608.251   129093500.649         583.671          49.000    24565604.413   100592450.296         454.913          49.000  
G29  25470942.675   133851116.088       -2031.561          48.000    25470938.413   104299843.159       -1582.892          46.000  
S31  42820312.712   225022381.741        -695.606          44.000  
R18  26707879.014   142568567.509       -4324.385          50.000    26707874.667   110886957.392       -3363.431          47.000  
R19  23999608.571   128382092.480       -2774.466          42.000    23999604.854    99852342.684       -2157.992          48.000  
G05  27548420.080   144768002.848        -887.741          36.000    27548415.688   112806246.945        -691.898          38.000  
E34  30662915.919   161134851.072        2073.256          38.000    30662919.746   123467095.592        1588.690          45.000  
E24  31450615.424   165274203.487       -2991.880          44.000    31450615.927   126638730.549       -2292.583          47.000  
G12  28243103.316   148418799.808       -3493.956          44.000    28243099.714   115651135.325       -2722.324          40.000  
G25  25415972.776   133562067.479       -2585.052          47.000    25415971.192   104074409.479       -2014.323          47.000  
E10  30819709.704   161959165.607       -3315.011          44.000    30819708.379   124098836.482       -2540.247          44.000  
E25  27665626.378   145384152.265       -1353.570          47.000    27665627.299   111398401.966       -1037.149          55.000  
G31  26060020.430   136946277.626           6.009          47.000    26060015.086   106711460.423           4.691          41.000  
E14  33301796.263   175002256.019       -2703.790          35.000    33301793.725   134092694.062       -2071.698          43.000  
> 2024 04 15 04 36 30.0130000  0 25                     
S33  43778387.858   230057129.893        -695.691          42.000  
E02  28226668.232   148332165.943         939.916          46.000    28226668.945   113657147.135         720.065          53.000  
G28  25751262.120   135323773.027       -2315.075          46.000    25751259.073   105447078.422       -1803.963          46.000  
E36  27505425.887   144542335.806         166.482          47.000    27505427.388   110753430.060         127.588          50.000  
G26  26643773.620   140013999.718        2267.100          45.000    26643771.636   109101774.696        1766.740          40.000  
R20  24824496.053   132747779.836        1410.223          40.000    24824496.042   103248356.060        1096.954          44.000  
R10  25879698.718   137953426.875        2987.097          40.000                                                                  
R09  23264181.058   124229432.190         137.446          51.000    23264177.137    96623155.427         107.007          51.000  
R16  24797417.912   132463514.836       -3823.505          52.000    24797416.680   103027090.168       -2973.853          51.000  
E11  27591714.869   144995849.316       -2433.703          45.000    27591710.927   111100945.091       -1864.718          48.000  
G18  24562326.356   129076253.695         565.955          48.000    24562322.169   100579011.143         441.090          48.000  
G29  25482551.714   133912120.958       -2035.586          49.000    25482546.684   104347379.421       -1586.048          46.000  
S31  42824281.233   225043235.618        -695.051          44.000  
R18  26732180.222   142698290.662       -4323.951          50.000    26732176.926   110987853.187       -3363.115          47.000  
R19  24015204.412   128465515.226       -2787.191          42.000    24015199.870    99917227.029       -2167.698          48.000  
G05  27553536.814   144794885.435        -904.756          41.000    27553531.589   112827194.408        -704.691          37.000  
E34  30651092.242   161072723.076        2068.284          39.000    30651097.061   123419491.253        1584.620          45.000  
E24  31467708.407   165364026.537       -2996.408          44.000    31467708.479   126707555.968       -2296.004          47.000  
G12  28263067.787   148523711.939       -3500.422          45.000    28263063.446   115732884.997       -2727.545          40.000  
G25  25430763.949   133639796.960       -2597.213          47.000    25430763.095   104134977.898       -2023.790          47.000  
E10  30838643.704   162058665.516       -3318.398          44.000    30838642.811   124175076.673       -2542.711          45.000  
E25  27673378.131   145424885.515       -1362.133          47.000    27673378.556   111429613.156       -1043.716          55.000  
G31  26060037.764   136946374.425         -12.720          46.000    26060033.628   106711535.850         -10.071          42.000  
E14  33317199.899   175083200.162       -2692.531          36.000    33317197.034   134154716.197       -2063.059          43.000  
G23                                                                  28549772.596                3       2090.897          25.000  
> 2024 04 15 04 37 00.0130000  0 25                     
S33  43782358.638   230077994.696        -695.576          42.000  
E02  28221317.965   148304049.308         934.664          46.000    28221318.502   113635603.233         716.101          53.000  
G28  25764525.820   135393471.723       -2331.476          47.000    25764522.305   105501389.052       -1816.678          46.000  
E36  27504512.130   144537532.761         153.653          47.000    27504513.550   110749749.828         117.729          51.000  
G26  26630843.882   139946056.492        2262.433          45.000    26630842.582   109048831.966        1762.775          40.000  
R20  24816631.440   132705721.048        1393.243          41.000    24816630.826   103215643.744        1083.844          44.000  
R10  25862911.952   137863953.467        2977.693          41.000                                                                  
R09  23263474.680   124225663.882         113.756          50.000    23263471.349    96620224.522          88.488          51.000  
R16  24818941.068   132578481.037       -3840.833          53.000    24818937.789   103116508.285       -2987.292          50.000  
E11  27605634.266   145068999.900       -2442.982          45.000    27605630.953   111156995.552       -1871.882          48.000  
G18  24559148.103   129059551.585         547.428          48.000    24559144.011   100565996.533         426.566          49.000  
G29  25494185.246   133973255.713       -2040.140          48.000    25494179.864   104395016.927       -1589.721          46.000  
S31  42828249.301   225064088.550        -695.274          44.000  
R18  26756481.243   142828010.543       -4323.985          51.000    26756477.794   111088746.404       -3363.123          47.000  
R19  24030872.246   128549327.277       -2800.376          42.000    24030867.310    99982414.179       -2178.023          48.000  
G05  27558751.567   144822286.950        -921.965          42.000    27558745.806   112848546.260        -718.531          38.000  
G23  28534429.164                1       2686.286          30.000    28534433.604                        2092.180          28.000  
E34  30639301.089   161010763.101        2062.575          39.000    30639306.347   123372015.656        1580.226          46.000  
E24  31484830.984   165454002.804       -3001.859          43.000    31484830.497   126776498.776       -2300.260          47.000  
G12  28283072.689   148628835.323       -3507.756          45.000    28283068.653   115814799.232       -2733.191          40.000  
G25  25445627.196   133717905.449       -2609.927          47.000    25445626.780   104195841.643       -2033.795          47.000  
E10  30857598.009   162158276.013       -3322.244          44.000    30857597.608   124251401.578       -2545.591          44.000  
E25  27681180.072   145465889.592       -1371.392          46.000    27681181.569   111461031.863       -1050.885          55.000  
G31  26060166.716   136947047.139         -32.093          46.000    26060161.978   106712060.035         -25.019          42.000  
E14  33332536.941   175163814.846       -2681.787          34.000    33332537.499   134216485.885       -2054.884          43.000  
> 2024 04 15 04 37 30.0130000  0 25                     
S33  43786328.822   230098859.923        -695.730          42.000  
E02  28215996.362   148276083.788         929.499          46.000    28215996.713   113614175.112         712.270          53.000  
G28  25777881.470   135463654.125       -2347.390          47.000    25777877.544   105556076.583       -1829.188          46.000  
E36  27503669.709   144533108.210         141.047          46.000    27503671.588   110746359.597         108.160          51.000  
G26  26617941.713   139878254.676        2257.594          44.000    26617940.578   108995999.397        1759.370          40.000  
R20  24808857.870   132664158.987        1377.155          41.000    24808858.055   103183317.771        1070.892          44.000  
R10  25846180.417   137774759.514        2968.553          43.000                                                                  
R09  23262900.936   124222600.949          90.239          50.000    23262898.108    96617842.239          70.224          51.000  
R16  24840557.042   132693955.933       -3857.684          52.000    24840554.491   103206322.036       -3000.372          50.000  
E11  27619605.172   145142417.045       -2451.898          45.000    27619601.951   111213250.240       -1878.608          48.000  
G18  24556073.889   129043396.293         529.388          48.000    24556069.668   100553408.001         412.604          49.000  
G29  25505842.920   134034521.357       -2044.353          48.000    25505839.018   104442756.412       -1593.122          46.000  
S31  42832217.369   225084941.014        -695.141          44.000  
R18  26780780.554   142957726.231       -4323.753          50.000    26780777.595   111189636.408       -3362.926          46.000  
R19  24046612.417   128633526.465       -2813.006          43.000    24046607.123   100047902.454       -2188.028          47.000  
G05  27564063.928   144850208.766        -939.608          43.000    27564059.316   112870303.585        -731.847          38.000  
G23  28519089.398   149868840.9971       2688.943          35.000    28519097.747                        2094.995          32.000  
E34  30627544.289   160948973.875        2056.541          42.000    30627548.280   123324670.866        1575.903          47.000  
E24  31501981.356   165544133.299       -3006.910          42.000    31501981.789   126845559.756       -2304.097          47.000  
G12  28303117.554   148734171.347       -3514.788          45.000    28303113.478   115896879.192       -2738.727          40.000  
G25  25460563.147   133796394.131       -2622.688          47.000    25460562.180   104257001.614       -2043.641          46.000  
E10  30876574.283   162257996.876       -3325.928          44.000    30876573.058   124327811.097       -2548.539          43.000  
E25  27689034.984   145507166.547       -1380.544          46.000    27689036.492   111492659.663       -1057.840          56.000  
G31  26060405.339   136948297.447         -51.297          47.000    26060399.758   106713034.261         -39.933          43.000  
E14  33347817.788   175244101.760       -2670.929          37.000    33347815.923   134278004.450       -2046.549          42.000  
> 2024 04 15 04 38 00.0130000  0 25                     
S33  43790298.821   230119722.252        -695.488          42.000  
E02  28210703.562   148248266.947         924.700          47.000    28210703.151   113592860.918         708.553          52.000  
G28  25791327.460   135534314.258       -2363.311          47.000    25791323.858   105611136.411       -1841.543          45.000  
E36  27502898.604   144529058.287         128.630          46.000    27502901.090   110743256.437          98.627          51.000  
G26  26605066.105   139810592.622        2253.025          45.000    26605065.291   108943275.751        1755.538          41.000  
R20  24801178.130   132623089.078        1360.767          41.000    24801177.021   103151374.545        1058.313          43.000  
R10  25829501.633   137685844.896        2959.131          44.000                                                                  
R09  23262459.423   124220241.242          66.857          51.000    23262456.685    96616006.905          52.024          51.000  
R16  24862268.280   132809932.783       -3874.274          51.000    24862265.701   103296526.202       -3013.288          50.000  
E11  27633626.468   145216095.342       -2460.286          45.000    27633622.606   111269705.042       -1885.135          48.000  
G18  24553102.480   129027784.550         511.463          48.000    24553098.360   100541243.044         398.560          48.000  
G29  25517525.555   134095913.355       -2048.457          47.000    25517521.602   104490594.306       -1596.240          46.000  
S31  42836184.943   225105790.103        -695.070          44.000  
R18  26805078.363   143087431.386       -4323.292          50.000    26805076.072   111290518.160       -3362.586          47.000  
R19  24062423.487   128718105.379       -2825.782          43.000    24062418.580   100113686.071       -2197.683          48.000  
G05  27569475.910   144878648.170        -956.711          41.000    27569471.855   112892464.184        -745.552          39.000  
G23  28503731.261   149788138.715        2691.469          38.000    28503733.950   116718031.3171       2097.162          35.000  
E34  30615817.248   160887352.748        2051.133          42.000    30615822.314   123277454.884        1571.677          47.000  
E24  31519161.115   165634413.827       -3011.828          42.000    31519162.143   126914735.664       -2307.813          48.000  
G12  28323202.208   148839715.444       -3521.675          47.000    28323197.485   115979121.275       -2743.949          39.000  
G25  25475571.058   133875258.806       -2635.140          47.000    25475569.484   104318454.599       -2053.313          46.000  
E10  30895570.558   162357822.645       -3329.349          44.000    30895570.345   124404300.953       -2551.008          44.000  
E25  27696940.277   145548713.171       -1389.350          46.000    27696942.529   111524494.087       -1064.628          55.000  
G31  26060752.353   136950121.950         -70.373          47.000    26060747.135   106714455.935         -54.864          43.000  
E14  33363030.762   175324057.441       -2660.006          36.000    33363031.421   134339269.210       -2037.905          42.000  
> 2024 04 15 04 38 30.0140000  0 25                     
S33  43794268.671   230140583.281        -695.276          42.000  
E02  28205439.518   148220600.982         919.683          47.000    28205438.540   113571662.333         704.771          53.000  
G28  25804865.387   135605453.972       -2379.161          47.000    25804861.969   105666569.908       -1853.835          46.000  
E36  27502199.667   144525384.509         116.319          46.000    27502202.072   110740441.489          89.103          51.000  
G26  26592217.484   139743072.032        2248.169          44.000    26592216.710   108890662.310        1752.120          42.000  
R20  24793589.979   132582513.503        1344.228          41.000    24793588.784   103119815.807        1045.740          41.000  
R10  25812875.313   137597212.745        2949.583          44.000                                                                  
R09  23262150.412   124218589.098          43.454          51.000    23262147.281    96614721.906          33.741          51.000  
R16  24884074.028   132926414.918       -3890.887          52.000    24884072.071   103387123.360       -3026.331          50.000  
E11  27647696.449   145290037.276       -2468.719          45.000    27647693.466   111326361.844       -1891.606          48.000  
G18  24550235.803   129012718.051         493.240          48.000    24550230.765   100529502.943         384.366          48.000  
G29  25529232.439   134157434.530       -2052.625          47.000    25529228.787   104538532.885       -1599.460          46.000  
S31  42840152.060   225126637.980        -694.779          44.000  
R18  26829375.436   143217129.820       -4322.801          50.000    26829372.285   111391394.714       -3362.017          45.000  
R19  24078306.625   128803065.953       -2838.029          43.000    24078300.777   100179766.535       -2207.407          48.000  
G05  27574987.542   144907608.139        -974.044          42.000    27574982.323   112915030.393        -758.732          39.000  
G23  28488357.399   149707350.020        2694.208          41.000    28488360.314   116655079.812        2099.474          39.000  
E34  30604122.064   160825900.565        2045.402          41.000    30604128.308   123230368.376        1567.330          47.000  
E24  31536371.037   165724848.694       -3016.782          43.000    31536370.925   126984029.870       -2311.545          48.000  
G12  28343326.666   148945471.501       -3528.669          45.000    28343322.370   116061528.541       -2749.430          39.000  
G25  25490651.259   133954503.522       -2647.598          48.000    25490649.538   104380203.713       -2063.242          47.000  
E10  30914587.259   162457756.683       -3332.827          44.000    30914587.039   124480873.791       -2553.507          43.000  
E25  27704899.202   145590533.131       -1398.449          47.000    27704900.476   111556537.942       -1071.485          55.000  
G31  26061209.836   136952522.793         -89.542          47.000    26061203.606   106716326.705         -69.755          42.000  
E14  33378184.082   175403686.511       -2648.386          36.000    33378184.647   134400283.694       -2029.595          42.000  
> 2024 04 15 04 39 00.0140000  0 25                     
S33  43798235.302   230161428.723        -694.588          42.000  
E02  28200201.729   148193077.363         915.399          47.000    28200200.960   113550572.824         701.411          53.000  
G28  25818489.817   135677054.546       -2394.126          47.000    25818486.769   105722362.536       -1865.528          45.000  
E36  27501570.056   144522075.321         104.502          46.000    27501572.363   110737905.895          80.089          51.000  
G26  26579394.834   139675687.906        2244.028          44.000    26579393.973   108838155.237        1748.638          42.000  
R20  24786093.524   132542422.905        1328.374          41.000    24786091.522   103088634.279        1033.048          41.000  
R10  25796301.210   137508860.793        2940.635          44.000                                                                  
R09  23261972.582   124217634.318          20.316          52.000    23261968.373    96613979.274          15.943          51.000  
R16  24905971.122   133043380.056       -3906.750          52.000    24905968.405   103478096.189       -3038.568          51.000  
E11  27661813.526   145364224.541       -2476.810          45.000    27661810.650   111383206.633       -1897.834          48.000  
G18  24547470.660   128998186.526         475.683          47.000    24547465.723   100518179.682         370.622          48.000  
G29  25540960.895   134219068.520       -2056.080          47.000    25540957.067   104586559.391       -1602.219          46.000  
S31  42844116.374   225147471.018        -693.985          44.000  
R18  26853666.728   143346798.584       -4321.592          50.000    26853663.687   111492248.186       -3361.299          45.000  
R19  24094256.120   128888386.882       -2849.923          42.000    24094250.055   100246127.247       -2216.453          46.000  
G05  27580595.791   144937074.744        -990.362          43.000    27580589.619   112937991.378        -771.511          38.000  
G23  28472966.316   149626471.402        2697.477          43.000    28472969.228   116592058.196        2102.132          41.000  
E34  30592460.078   160764610.921        2040.408          41.000    30592465.210   123183406.401        1563.586          48.000  
E24  31553605.942   165815419.701       -3020.972          44.000    31553606.058   127053428.392       -2314.859          48.000  
G12  28363487.570   149051420.075       -3534.677          45.000    28363483.106   116144085.827       -2754.306          38.000  
G25  25505800.338   134034110.913       -2659.393          48.000    25505798.366   104442235.409       -2072.233          46.000  
E10  30933621.243   162557778.907       -3335.281          44.000    30933621.259   124557514.224       -2555.578          44.000  
E25  27712906.291   145632612.464       -1406.814          47.000    27712907.816   111588780.533       -1077.852          55.000  
G31  26061773.954   136955488.737        -108.076          47.000    26061768.159   106718637.781         -84.272          43.000  
E14  33393270.271   175482972.187       -2636.810          35.000    33393272.367   134461035.048       -2020.443          42.000  
> 2024 04 15 04 39 30.0140000  0 25                     
S33  43802198.873   230182257.135        -693.779          42.000  
E02  28194990.262   148165692.542         910.817          47.000    28194989.929   113529589.666         697.872          53.000  
G28  25832202.151   135749112.045       -2409.265          47.000    25832198.992   105778511.217       -1877.402          46.000  
E36  27501009.753   144519126.505          92.251          47.000    27501011.392   110735646.417          70.825          51.000  
G26  26566597.161   139608436.172        2239.639          44.000    26566596.030   108785751.325        1745.193          43.000  
R20  24778685.768   132502811.727        1312.456          40.000    24778684.047   103057825.654        1020.812          41.000  
R10  25779778.860   137420786.207        2931.362          44.000                                                                  
R09  23261924.212   124217374.538          -2.699          51.000    23261918.800    96613777.219          -2.071          51.000  
R16  24927957.119   133160825.419       -3922.638          52.000    24927954.638   103569442.543       -3050.879          51.000  
E11  27675976.962   145438653.948       -2484.983          45.000    27675974.115   111440236.959       -1904.037          48.000  
G18  24544805.754   128984185.774         458.000          47.000    24544801.501   100507270.030         357.033          49.000  
G29  25552710.885   134280812.578       -2059.664          48.000    25552706.805   104634671.603       -1605.006          45.000  
S31  42848077.653   225168286.381        -693.228          44.000  
R18  26877953.043   143476435.260       -4320.434          52.000    26877949.561   111593076.699       -3360.258          45.000  
R19  24110272.176   128974063.818       -2861.515          41.000    24110266.766   100312764.890       -2225.589          47.000  
G05  27586298.432   144967046.062       -1007.406          44.000    27586293.148   112961345.651        -785.023          37.000  
G23  28457557.209   149545498.902        2700.772          43.000    28457560.425   116528963.451        2104.363          40.000  
E34  30580826.532   160703478.884        2035.436          42.000    30580832.036   123136565.216        1559.486          48.000  
E24  31570867.357   165906125.343       -3025.602          45.000    31570867.041   127122930.067       -2318.264          48.000  
G12  28383685.568   149157560.123       -3541.003          44.000    28383681.794   116226792.326       -2759.177          40.000  
G25  25521017.960   134114079.169       -2671.537          48.000    25521015.167   104504548.313       -2081.599          46.000  
E10  30952670.907   162657887.013       -3338.193          45.000    30952670.148   124634220.422       -2557.739          43.000  
E25  27720963.131   145674949.087       -1415.433          47.000    27720964.216   111621220.267       -1084.450          55.000  
G31  26062444.705   136959015.944        -126.626          47.000    26062439.820   106721386.249         -98.849          43.000  
E14  33408291.889   175561913.429       -2625.280          36.000    33408294.450   134521522.511       -2011.839          41.000  
> 2024 04 15 04 40 00.0140000  0 25                     
S33  43806160.094   230203074.045        -693.561          42.000  
E02  28189806.885   148138454.010         905.612          47.000    28189806.606   113508718.595         693.850          53.000  
G28  25846002.083   135821630.289       -2424.699          48.000    25845998.667   105835018.884       -1889.351          46.000  
E36  27500518.382   144516544.003          80.203          47.000    27500519.933   110733667.638          61.419          51.000  
G26  26553826.360   139541325.173        2234.792          44.000    26553825.423   108733457.079        1741.441          43.000  
R20  24771368.718   132463686.606        1296.419          41.000    24771367.585   103027395.070        1008.234          42.000  
R10  25763309.607   137332998.980        2921.603          44.000                                                                  
R09  23262006.130   124217818.305         -26.418          50.000    23262001.909    96614122.364         -20.549          51.000  
R16  24950033.966   133278754.656       -3938.690          52.000    24950031.558   103661165.232       -3063.452          50.000  
E11  27690188.350   145513329.968       -2493.168          45.000    27690184.365   111497456.247       -1910.352          48.000  
G18  24542244.063   128970722.394         439.963          47.000    24542239.272   100496779.120         342.976          48.000  
G29  25564482.827   134342672.078       -2063.721          48.000    25564478.037   104682873.805       -1608.224          45.000  
S31  42852036.346   225189090.581        -692.934          44.000  
R18  26902232.831   143606043.950       -4319.627          52.000    26902229.431   111693883.476       -3359.674          44.000  
R19  24126355.958   129060099.675       -2873.630          42.000    24126350.934   100379681.628       -2235.002          47.000  
G05  27592098.346   144997527.759       -1024.304          43.000    27592093.128   112985097.629        -798.224          38.000  
G23  28442131.495   149464441.536        2703.373          42.000    28442134.248   116465802.520        2106.781          39.000  
E34  30569223.828   160642511.788        2029.657          42.000    30569230.157   123089850.369        1555.139          48.000  
E24  31588153.778   165996971.354       -3030.310          44.000    31588154.254   127192539.305       -2322.065          48.000  
G12  28403921.029   149263896.489       -3547.467          45.000    28403917.969   116309651.768       -2764.465          40.000  
G25  25536304.977   134194414.033       -2683.608          48.000    25536303.392   104567146.889       -2091.271          46.000  
E10  30971737.839   162758085.362       -3341.216          45.000    30971737.573   124710995.816       -2560.057          43.000  
E25  27729069.694   145717549.633       -1424.366          47.000    27729070.761   111653862.240       -1091.273          55.000  
G31  26063224.030   136963111.213        -145.824          47.000    26063219.665   106724577.323        -113.662          43.000  
E14  33423250.674   175640516.645       -2614.287          36.000    33423251.676   134581750.900       -2003.041          41.000  
> 2024 04 15 04 40 30.0140000  0 25                     
S33  43810120.046   230223881.979        -693.489          42.000  
E02  28184651.968   148111365.657         900.711          47.000    28184651.707   113487962.581         690.174          53.000  
G28  25859890.275   135894609.453       -2440.199          48.000    25859886.079   105891885.746       -1901.405          45.000  
E36  27500097.127   144514330.244          67.812          47.000    27500098.565   110731971.394          52.018          51.000  
G26  26541083.470   139474359.628        2229.743          44.000    26541082.050   108681276.149        1737.685          43.000  
R20  24764143.645   132425050.555        1279.647          41.000    24764142.300   102997344.823         995.562          42.000  
R10  25746894.988   137245505.563        2911.762          43.000                                                                  
R09  23262221.679   124218969.932         -50.096          51.000    23262217.765    96615018.030         -38.931          51.000  
R16  24972200.049   133397167.605       -3954.975          51.000    24972198.060   103753264.156       -3076.129          50.000  
E11  27704445.920   145588253.408       -2501.279          45.000    27704441.839   111554865.119       -1916.568          48.000  
G18  24539784.672   128957799.268         421.857          48.000    24539780.010   100486709.184         328.662          48.000  
G29  25576276.451   134404648.713       -2067.638          48.000    25576271.947   104731167.310       -1611.226          45.000  
S31  42855993.707   225209885.969        -693.363          44.000  
R18  26926507.794   143735624.819       -4318.840          52.000    26926504.857   111794668.617       -3358.958          46.000  
R19  24142506.051   129146493.520       -2885.703          43.000    24142500.922   100446876.855       -2244.418          47.000  
G05  27597995.645   145028522.805       -1041.524          42.000    27597991.323   113009249.573        -811.347          37.000  
G23  28426691.843   149383304.628        2705.972          42.000    28426692.941   116402579.591        2108.521          39.000  
E34  30557653.444   160581713.312        2024.023          42.000    30557660.266   123043264.715        1550.864          48.000  
E24  31605468.093   166087959.730       -3035.222          42.000    31605468.637   127262257.622       -2325.581          47.000  
G12  28424193.877   149370431.157       -3554.370          44.000    28424189.961   116392665.757       -2769.761          40.000  
G25  25551662.376   134275117.614       -2696.224          48.000    25551660.584   104630032.769       -2101.055          46.000  
E10  30990822.049   162858374.905       -3344.314          45.000    30990821.434   124787841.052       -2562.737          43.000  
E25  27737227.372   145760417.169       -1433.126          47.000    27737228.342   111686708.795       -1098.183          55.000  
G31  26064111.794   136967777.106        -165.019          46.000    26064107.548   106728213.084        -128.612          43.000  
E14  33438145.906   175718784.571       -2603.306          37.000    33438144.644   134641722.438       -1994.700          39.000  
> 2024 04 15 04 41 00.0140000  0 25                     
S33  43814077.493   230244679.659        -693.147          42.000  
E02  28179526.205   148084428.398         895.481          46.000    28179525.874   113467322.358         686.077          53.000  
G28  25873865.234   135968046.785       -2455.476          48.000    25873860.677   105949109.601       -1913.328          45.000  
E36  27499745.785   144512484.610          55.358          46.000    27499747.178   110730557.226          42.435          51.000  
G26  26528368.013   139407541.291        2225.120          44.000    26528366.651   108629209.982        1733.781          43.000  
R20  24757009.860   132386903.908        1263.549          40.000    24757008.266   102967675.279         982.356          42.000  
R10  25730536.956   137158309.812        2901.678          43.000                                                                  
R09  23262569.888   124220831.044         -73.844          51.000    23262566.568    96616465.559         -57.481          51.000  
R16  24994457.392   133516060.939       -3971.009          52.000    24994455.192   103845736.683       -3088.629          50.000  
E11  27718749.417   145663422.209       -2509.637          45.000    27718745.799   111612461.998       -1922.909          48.000  
G18  24537428.406   128945416.262         403.855          46.000    24537423.593   100477060.084         314.689          48.000  
G29  25588092.422   134466741.325       -2071.681          49.000    25588087.859   104779551.169       -1614.187          46.000  
S31  42859948.744   225230671.523        -692.588          44.000  
R18  26950776.758   143865174.945       -4317.753          52.000    26950773.479   111895429.829       -3358.314          44.000  
R19  24158722.664   129233241.573       -2897.330          42.000    24158717.509   100514347.584       -2253.489          47.000  
G05  27603991.139   145060031.196       -1058.551          42.000    27603988.385   113033801.610        -825.032          38.000  
G23  28411236.983   149302090.520        2708.661          44.000    28411237.110   116339296.556        2110.177          38.000  
E34  30546116.464   160521084.115        2018.365          42.000    30546122.320   122996808.773        1546.340          47.000  
E24  31622808.951   166179089.631       -3040.003          41.000    31622809.491   127332084.378       -2329.335          46.000  
G12  28444503.965   149477162.705       -3560.856          44.000    28444499.592   116475833.145       -2774.640          39.000  
G25  25567089.487   134356189.004       -2708.540          48.000    25567087.553   104693205.262       -2110.508          46.000  
E10  31009924.401   162958753.440       -3347.267          47.000    31009922.921   124864754.477       -2564.679          43.000  
E25  27745435.703   145803551.742       -1442.110          47.000    27745436.804   111719759.958       -1105.046          55.000  
G31  26065107.909   136973013.726        -183.943          46.000    26065104.085   106732293.522        -143.460          43.000  
E14  33452974.290   175796717.041       -2591.783          36.000    33452975.313   134701436.959       -1986.248          39.000  
> 2024 04 15 04 41 30.0140000  0 25                     
S33  43818034.061   230265471.444        -693.155          42.000  
E02  28174429.293   148057646.664         890.026          46.000    28174429.533   113446801.304         681.961          53.000  
G28  25887927.212   136041942.950       -2470.927          49.000    25887922.316   106006690.979       -1925.352          45.000  
E36  27499464.939   144511009.980          43.011          46.000    27499466.408   110729427.339          32.864          51.000  
G26  26515681.807   139340875.513        2219.657          44.000    26515680.549   108577262.662        1729.448          43.000  
R20  24749968.562   132349248.852        1246.946          40.000    24749966.605   102938388.056         969.909          42.000  
R10  25714236.009   137071418.420        2891.239          43.000                                                                  
R09  23263052.206   124223406.117         -97.905          51.000    23263048.784    96618468.375         -76.028          51.000  
R16  25016804.954   133635435.564       -3987.201          52.000    25016802.234   103938583.565       -3101.148          49.000  
E11  27733100.240   145738837.648       -2517.955          45.000    27733096.883   111670247.863       -1929.443          48.000  
G18  24535174.984   128933576.734         385.418          46.000    24535170.922   100467834.499         300.397          49.000  
G29  25599930.556   134528952.845       -2075.825          48.000    25599925.958   104828027.673       -1617.513          45.000  
S31  42863903.130   225251450.565        -692.645          44.000  
R18  26975039.603   143994695.273       -4316.958          50.000    26975036.164   111996167.904       -3357.642          43.000  
R19  24175005.537   129320343.706       -2909.460          43.000    24175000.811   100582093.681       -2262.734          47.000  
G05  27610085.566   145092056.314       -1076.156          42.000    27610082.908   113058756.277        -838.584          37.000  
G23  28395768.265   149220805.147        2710.704          43.000    28395768.347   116275957.895        2112.511          39.000  
E34  30534612.618   160460628.399        2012.281          42.000    30534617.628   122950485.743        1541.775          47.000  
E24  31640177.953   166270363.536       -3044.857          42.000    31640177.946   127402021.517       -2333.046          45.000  
G12  28464852.904   149584093.449       -3567.682          45.000    28464848.850   116559155.747       -2780.024          41.000  
G25  25582587.272   134437630.755       -2720.944          48.000    25582585.362   104756666.359       -2120.259          46.000  
E10  31029042.606   163059222.379       -3350.458          46.000    31029041.734   124941737.183       -2567.065          44.000  
E25  27753696.231   145846956.924       -1451.425          48.000    27753696.694   111753018.455       -1112.168          55.000  
G31  26066213.718   136978824.351        -203.346          45.000    26066209.432   106736821.259        -158.287          43.000  
E14  33467741.678   175874317.453       -2581.118          36.000    33467742.502   134760897.017       -1977.856          39.000  
> 2024 04 15 04 42 00.0140000  0 25                     
S33  43821988.086   230286250.888        -692.517          42.000  
E02  28169361.417   148031016.536         885.521          46.000    28169361.856   113426396.420         678.535          53.000  
G28  25902075.132   136116290.300       -2485.516          48.000    25902070.696   106064623.945       -1936.687          45.000  
E36  27499253.150   144509900.897          31.134          46.000    27499255.657   110728577.547          23.878          51.000  
G26  26503023.975   139274359.180        2215.007          44.000    26503022.606   108525431.782        1726.066          43.000  
R20  24743017.792   132312081.439        1230.917          40.000    24743015.907   102909480.117         957.623          41.000  
R10  25697993.320   136984830.152        2881.486          44.000                                                                  
R09  23263667.346   124226691.860        -121.115          50.000    23263663.974    96621023.972         -94.123          51.000  
R16  25039240.125   133755283.053       -4002.466          51.000    25039237.399   104031798.245       -3113.007          49.000  
E11  27747497.381   145814492.810       -2525.614          45.000    27747493.594   111728217.403       -1935.124          48.000  
G18  24533024.306   128922275.654         368.046          46.000    24533020.684   100459028.503         286.764          49.000  
G29  25611790.024   134591276.880       -2079.178          48.000    25611785.629   104876591.877       -1619.995          45.000  
S31  42867855.026   225272217.805        -691.628          44.000  
R18  26999296.413   144124178.015       -4315.076          50.000    26999293.696   112096876.723       -3356.223          43.000  
R19  24191352.980   129407791.089       -2920.371          42.000    24191347.787   100650108.327       -2271.361          48.000  
G05  27616277.379   145124593.089       -1092.714          44.000    27616272.700   113084109.586        -851.392          35.000  
G23  28380285.400   149139446.014        2713.516          42.000    28380285.768   116212561.809        2114.204          38.000  
E34  30523140.750   160400341.968        2007.055          43.000    30523145.931   122904292.446        1537.833          47.000  
E24  31657573.850   166361775.643       -3048.870          43.000    31657573.863   127472064.558       -2336.256          46.000  
G12  28485237.733   149691216.301       -3573.644          44.000    28485233.991   116642628.104       -2784.567          40.000  
G25  25598154.994   134519437.158       -2732.702          48.000    25598153.414   104820411.591       -2129.357          47.000  
E10  31048177.375   163159774.746       -3352.859          47.000    31048177.089   125018783.821       -2569.009          45.000  
E25  27762005.314   145890627.843       -1459.715          47.000    27762006.960   111786480.591       -1118.572          55.000  
G31  26067427.400   136985203.804        -221.903          45.000    26067423.003   106741792.272        -172.953          42.000  
E14  33482444.606   175951580.708       -2569.409          37.000    33482444.445   134820098.743       -1968.914          37.000  
> 2024 04 15 04 42 30.0140000  0 25                     
S33  43825940.008   230307018.171        -691.932          42.000  
E02  28164322.797   148004538.313         880.119          46.000    28164323.168   113406107.927         674.480          53.000  
G28  25916308.216   136191085.322       -2500.511          48.000    25916303.870   106122905.742       -1948.420          46.000  
E36  27499112.047   144509156.087          18.840          46.000    27499113.992   110728006.864          14.503          52.000  
G26  26490394.979   139207993.449        2209.724          43.000    26490393.533   108473718.262        1721.896          44.000  
R20  24736157.736   132275399.839        1214.833          40.000    24736155.961   102880950.030         944.775          42.000  
R10  25681806.903   136898548.053        2871.122          43.000                                                                  
R09  23264416.022   124230688.893        -144.980          50.000    23264412.222    96624132.780        -112.715          51.000  
R16  25061763.911   133875599.635       -4018.146          51.000    25061761.243   104125377.750       -3125.330          49.000  
E11  27761939.020   145890384.933       -2533.540          44.000    27761935.562   111786368.506       -1941.284          48.000  
G18  24530976.327   128911512.238         349.950          48.000    24530972.476   100450641.455         272.643          49.000  
G29  25623670.920   134653711.688       -2082.793          47.000    25623666.488   104925242.381       -1623.010          44.000  
S31  42871804.470   225292971.898        -691.700          44.000  
R18  27023545.035   144253619.772       -4313.940          50.000    27023542.255   112197553.655       -3355.302          43.000  
R19  24207764.145   129495578.841       -2931.485          42.000    24207758.352   100718387.718       -2280.198          47.000  
G05  27622565.748   145157640.001       -1109.851          42.000    27622559.918   113109860.431        -864.880          36.000  
G23  28364788.858   149058014.924        2715.677          42.000    28364789.109   116149109.562        2116.356          39.000  
E34  30511701.025   160340224.874        2001.062          44.000    30511705.774   122858228.900        1533.338          47.000  
E24  31674995.024   166453324.400       -3053.677          43.000    31674995.546   127542212.271       -2339.869          47.000  
G12  28505658.765   149798530.437       -3580.300          45.000    28505654.811   116726249.459       -2789.812          40.000  
G25  25613790.690   134601606.622       -2744.796          48.000    25613789.276   104884439.743       -2138.937          46.000  
E10  31067327.308   163260407.791       -3355.552          46.000    31067326.531   125095892.273       -2571.106          45.000  
E25  27770365.873   145934563.977       -1468.865          47.000    27770367.459   111820145.924       -1125.458          55.000  
G31  26068749.356   136992151.150        -240.980          45.000    26068744.980   106747205.801        -187.870          42.000  
E14  33497083.235   176028506.081       -2558.558          36.000    33497083.250   134879041.546       -1960.247          37.000  
> 2024 04 15 04 43 00.0140000  0 25                     
S33  43829890.052   230327775.620        -691.660          42.000  
E02  28159314.298   147978216.854         874.800          46.000    28159314.550   113385939.553         670.273          53.000  
G28  25930625.738   136266329.108       -2515.578          47.000    25930622.939   106181537.241       -1960.032          47.000  
E36  27499041.097   144508778.881           6.459          47.000    27499042.216   110727717.843           5.031          52.000  
G26  26477795.653   139141784.126        2204.276          44.000    26477794.307   108422126.612        1717.528          44.000  
R20  24729389.397   132239207.930        1198.056          38.000    24729387.296   102852800.795         931.889          42.000  
R10  25665678.496   136812579.803        2860.469          43.000                                                                  
R09  23265299.179   124235402.933        -169.064          51.000    23265295.654    96627799.232        -131.400          52.000  
R16  25084376.772   133996386.241       -4034.003          52.000    25084372.919   104219322.848       -3137.537          49.000  
E11  27776426.511   145966515.796       -2541.453          44.000    27776422.656   111844702.533       -1947.319          48.000  
G18  24529031.658   128901290.251         331.817          48.000    24529027.292   100442676.281         258.487          49.000  
G29  25635573.584   134716260.138       -2086.912          47.000    25635568.754   104973981.435       -1626.078          45.000  
S31  42875752.103   225313716.946        -691.426          44.000  
R18  27047786.124   144383021.741       -4312.715          50.000    27047783.275   112298199.627       -3354.383          42.000  
R19  24224238.603   129583707.764       -2943.304          42.000    24224233.823   100786932.411       -2289.167          48.000  
G05  27628952.505   145191201.129       -1127.240          43.000    27628946.569   113136011.978        -878.505          34.000  
G23  28349279.648   148976518.257        2717.517          43.000    28349280.837   116085606.231        2117.549          39.000  
E34  30500294.061   160280281.766        1995.161          44.000    30500298.664   122812298.668        1528.796          47.000  
E24  31692443.091   166545012.810       -3058.540          44.000    31692443.243   127612466.977       -2343.587          46.000  
G12  28526117.604   149906038.009       -3586.871          46.000    28526112.028   116810021.572       -2795.129          39.000  
G25  25629496.463   134684142.200       -2757.300          48.000    25629494.562   104948753.145       -2148.701          45.000  
E10  31086492.967   163361123.409       -3358.803          46.000    31086491.897   125173063.975       -2573.531          45.000  
E25  27778778.925   145978769.291       -1477.936          48.000    27778779.436   111854017.518       -1132.444          55.000  
G31  26070179.828   136999670.278        -260.124          46.000    26070176.507   106753064.825        -202.610          43.000  
E14  33511657.030   176105097.332       -2547.174          36.000    33511658.746   134937728.364       -1951.614          38.000  
> 2024 04 15 04 43 30.0140000  0 25                     
S33  43833839.426   230348529.239        -691.782          42.000  
E02  28154337.138   147952059.295         869.071          47.000    28154336.926   113365896.766         665.905          53.000  
G28  25945030.492   136342024.994       -2530.845          47.000    25945027.648   106240521.026       -1972.120          47.000  
E36  27499039.762   144508774.748          -6.280          47.000    27499041.422   110727714.700          -4.761          52.000  
G26  26465228.113   139075739.130        2198.476          43.000    26465226.525   108370662.987        1713.209          43.000  
R20  24722713.930   132203511.259        1182.039          39.000    24722712.315   102825036.792         918.968          43.000  
R10  25649610.902   136726934.470        2849.230          43.000                                                                  
R09  23266317.576   124240840.985        -193.439          51.000    23266314.424    96632028.835        -150.554          52.000  
R16  25107077.469   134117645.996       -4050.037          52.000    25107073.376   104313635.942       -3150.000          49.000  
E11  27790959.353   146042889.429       -2549.839          44.000    27790956.028   111903222.601       -1953.875          48.000  
G18  24527190.612   128891615.632         313.170          47.000    24527186.311   100435137.627         244.106          49.000  
G29  25647498.976   134778927.354       -2091.017          47.000    25647494.446   105022813.037       -1629.349          45.000  
S31  42879698.824   225334458.442        -691.213          44.000  
R18  27072021.347   144512387.511       -4311.705          51.000    27072016.883   112398817.448       -3353.479          40.000  
R19  24240777.862   129672179.986       -2954.708          42.000    24240772.631   100855744.137       -2298.318          48.000  
G05  27635438.346   145225282.115       -1144.895          43.000    27635432.453   113162568.605        -892.042          37.000  
G23  28333760.462   148894964.602        2719.234          43.000    28333761.576   116022058.433        2119.082          41.000  
E34  30488921.355   160220519.495        1988.941          44.000    30488925.758   122766506.983        1524.052          47.000  
E24  31709919.218   166636846.098       -3063.558          44.000    31709919.022   127682832.704       -2347.379          47.000  
G12  28546612.480   150013743.125       -3593.454          45.000    28546608.027   116893947.593       -2800.236          39.000  
G25  25645273.297   134767049.048       -2769.812          48.000    25645271.450   105013355.877       -2158.542          45.000  
E10  31105675.182   163461925.600       -3361.547          46.000    31105674.058   125250302.037       -2575.756          45.000  
E25  27787242.439   146023249.965       -1487.365          47.000    27787243.874   111888100.114       -1139.688          55.000  
G31  26071721.053   137007767.072        -279.577          46.000    26071717.691   106759374.001        -218.006          43.000  
E14  33526169.812   176181360.542       -2536.666          36.000    33526171.343   134996163.802       -1943.764          38.000  
> 2024 04 15 04 44 00.0140000  0 25                     
S33  43837788.056   230369279.979        -691.709          42.000  
E02  28149391.542   147926067.790         863.531          47.000    28149390.682   113345981.213         661.663          53.000  
G28  25959520.393   136418171.283       -2545.837          47.000    25959517.463   106299855.794       -1983.704          46.000  
E36  27499109.831   144509144.277         -18.513          47.000    27499111.693   110727997.864         -14.185          52.000  
G26  26452692.086   139009861.530        2193.141          44.000    26452690.537   108319329.853        1708.640          43.000  
R20  24716131.451   132168311.313        1164.630          40.000    24716130.559   102797659.089         906.238          44.000  
R10  25633605.617   136641617.447        2838.372          42.000                                                                  
R09  23267472.047   124247005.745        -217.820          51.000    23267468.724    96636823.620        -169.308          52.000  
R16  25129864.528   134239376.603       -4065.619          52.000    25129861.235   104408315.232       -3162.134          49.000  
E11  27805539.159   146119504.976       -2558.058          44.000    27805535.756   111961928.017       -1959.987          48.000  
G18  24525453.250   128882489.356         294.811          48.000    24525449.095   100428026.265         229.829          48.000  
G29  25659446.771   134841713.290       -2094.882          47.000    25659442.838   105071737.129       -1632.505          46.000  
S31  42883645.331   225355196.654        -691.041          44.000  
R18  27096248.518   144641715.823       -4310.354          50.000    27096242.856   112499406.188       -3352.059          37.000  
R19  24257379.917   129760993.413       -2966.245          42.000    24257374.948   100924821.277       -2307.100          47.000  
G05  27642023.803   145259884.504       -1162.172          43.000    27642017.387   113189531.463        -905.396          38.000  
G23  28318230.882   148813357.611        2721.041          44.000    28318232.473   115958469.095        2120.000          42.000  
E34  30477581.782   160160939.892        1983.055          42.000    30477587.833   122720855.293        1519.352          47.000  
E24  31727421.827   166728824.553       -3068.314          43.000    31727421.856   127753309.637       -2351.139          47.000  
G12  28567145.735   150121646.951       -3600.243          44.000    28567142.017   116978028.441       -2805.133          40.000  
G25  25661121.357   134850327.469       -2782.250          49.000    25661118.978   105078248.098       -2167.985          45.000  
E10  31124873.195   163562813.541       -3364.432          46.000    31124872.975   125327605.806       -2577.897          47.000  
E25  27795759.486   146068007.271       -1496.548          47.000    27795760.948   111922394.672       -1146.727          55.000  
G31  26073372.692   137016442.182        -298.931          47.000    26073368.173   106766133.806        -233.114          44.000  
E14  33540621.348   176257296.775       -2525.705          37.000    33540620.473   135054348.693       -1935.181          36.000  
> 2024 04 15 04 44 30.0140000  0 25                     
S33  43841738.278   230390038.626        -692.648          42.000  
E02  28144479.812   147900254.410         857.306          48.000    28144478.571   113326202.140         656.843          52.000  
G28  25974097.315   136494776.277       -2561.236          46.000    25974094.292   106359547.967       -1995.830          46.000  
E36  27499252.680   144509897.926         -31.739          46.000    27499254.970   110728575.352         -24.355          51.000  
G26  26440190.670   138944164.391        2186.590          44.000    26440188.625   108268137.298        1703.760          43.000  
R20  24709644.321   132133619.243        1147.685          40.000    24709643.237   102770676.422         892.643          44.000  
R10  25617665.391   136556643.457        2826.539          44.000                                                                  
R09  23268764.816   124253909.499        -242.508          51.000    23268760.691    96642193.211        -188.651          51.000  
R16  25152742.101   134361586.539       -4081.763          52.000    25152739.453   104503367.326       -3174.689          49.000  
E11  27820166.944   146196371.407       -2566.560          45.000    27820163.228   112020825.676       -1966.653          48.000  
G18  24523822.615   128873922.299         276.051          46.000    24523817.492   100421350.660         215.115          47.000  
G29  25671419.301   134904628.340       -2099.421          47.000    25671414.962   105120761.834       -1635.975          46.000  
S31  42887592.998   225375943.582        -691.783          44.000  
R18  27120470.987   144771015.263       -4309.598          50.000    27120466.411   112599972.417       -3352.090          42.000  
R19  24274047.804   129850155.287       -2978.170          43.000    24274042.446   100994169.376       -2316.204          48.000  
G05  27648707.993   145295018.348       -1180.234          43.000    27648703.359   113216908.486        -919.595          39.000  
G23  28302693.679   148731710.867        2721.955          44.000    28302694.957   115894848.751        2121.056          43.000  
E34  30466280.700   160101554.835        1976.013          42.000    30466287.039   122675352.638        1514.053          46.000  
E24  31744953.599   166820958.351       -3074.085          42.000    31744954.700   127823905.581       -2355.266          47.000  
G12  28587717.278   150229758.435       -3607.457          42.000    28587714.599   117062271.119       -2811.149          39.000  
G25  25677041.318   134933987.587       -2795.060          48.000    25677038.925   105143437.780       -2178.004          45.000  
E10  31144089.077   163663796.286       -3367.865          45.000    31144088.944   125404982.196       -2580.543          47.000  
E25  27804331.364   146113052.374       -1506.351          48.000    27804332.814   111956909.740       -1154.365          55.000  
G31  26075136.207   137025706.719        -318.853          48.000    26075132.015   106773352.890        -248.511          44.000  
E14  33555011.240   176332916.998       -2515.898          37.000    33555011.986   135112291.467       -1927.278          36.000  
