     3.00           OBSERVATION DATA    M: Mixed            RINEX VERSION / TYPE
CONVBIN 2.4.3                           20240415 094442 UTC PGM / RUN BY / DATE 
format: u-blox UBX                                          COMMENT             
log: /home/regis/git/gnsspwv/obsdata/VERT00CHL/2024-04-15/VECOMMENT             
{self.marker}                                               MARKER NAME         
                                                            MARKER NUMBER       
GEODETIC                                                    MARKER TYPE         
{self.observer}     {self.institution}                      OBSERVER / AGENCY   
UNKNOWN             UBLOX-ZED-F9P                           REC # / TYPE / VERS 
UNKNOWN             TWIVSP6037L                             ANT # / TYPE        
  1713381.0000 -5047934.0000 -3490983.0000                  APPROX POSITION XYZ 
        0.0000        0.0000        0.0000                  ANTENNA: DELTA H/E/N
G    8 C1C L1C D1C S1C C2L L2L D2L S2L                      SYS / # / OBS TYPES 
R    8 C1C L1C D1C S1C C2C L2C D2C S2C                      SYS / # / OBS TYPES 
E    8 C1C L1C D1C S1C C7Q L7Q D7Q S7Q                      SYS / # / OBS TYPES 
S    4 C1C L1C D1C S1C                                      SYS / # / OBS TYPES 
  2024    04    15    09    30   00.0000000     GPS         TIME OF FIRST OBS   
  2024    04    15    09    44   30.5000000     GPS         TIME OF LAST OBS    
                                                            END OF HEADER       
> 2024 04 15 09 30 00.0000000  0 27                     
S33  39710176.873   208678587.9251       -645.040          42.000  
E05  23699715.063   124542875.7811         75.738          47.000    23699715.082    95428974.6771         58.053          50.000  
E36  27249357.162   143196301.7691      -2266.388          40.000    27249357.102   109722350.2601      -1736.673          40.000  
G02  23631131.190   124182432.1601       2045.526          45.000                                                                  
R20  23300505.930   124598340.3601      -2986.299          40.000    23300502.548    96909909.6501      -2322.651          39.000  
R06  19720993.305   105235055.2851      -1419.417          42.000                                                                  
R05  23897884.772                3      -4749.773          15.000                                                                  
R22  21098119.988   112623158.9131       1549.752          49.000    21098115.511    87595864.4681       1205.307          47.000  
G16  22945882.022   120581435.5591      -3802.605          42.000                                                                  
G08  20675335.859   108649787.4031       1154.425          47.000    20675332.422    84662112.1801        899.449          44.000  
S31  38756192.865   203665323.8031       -645.476          44.000  
E30  25501502.970   134011411.5961      -2877.710          46.000    25501502.198   102683963.8201      -2205.049          49.000  
R21  20208901.369   108142231.9031       -775.301          50.000    20208894.888    84110465.0251       -602.905          51.000  
R12  22876537.154   122202360.0421      -2533.890          47.000    22876535.705    95046256.9141      -1970.672          45.000  
E15  24885517.996   130774349.8151        438.536          46.000    24885518.867   100203772.3471        336.073          50.000  
G23  24229902.802                3      -4049.570          33.000    24229900.558    99217556.6391      -3155.223          43.000  
E34  24146610.986   126891527.6411      -1141.282          47.000    24146611.152    97228727.3051       -874.457          52.000  
G27  20172531.453   106007348.2111      -1091.705          47.000    20172528.747    82603224.4431       -850.634          48.000  
E09  27778144.558   145975135.9151      -2283.562          41.000    27778144.040   111851084.5591      -1749.700          41.000  
G10  21207833.817   111448060.8821      -3154.701          47.000    21207831.433    86842614.2671      -2458.270          48.000  
E03  25845898.023   135821148.9691       2029.723          44.000    25845899.345   104070771.5451       1555.281          49.000  
G21  22539717.056   118447036.1031       1932.319          46.000                                                                  
E27  26002656.517   136644746.7301       -624.284          45.000    26002656.142   104701930.3031       -478.326          47.000  
E18  25655777.650   134822060.1661      -1453.505          43.000                                                                  
G32  21861465.058   114882807.0941        872.681          51.000    21861462.500    89519079.9191        679.965          46.000  
R07                                                                  20375504.378                3       1893.477          18.000  
R13                                                                  23854063.664                3       -295.023          12.000  
> 2024 04 15 09 30 30.5000000  0 26                     
S33  39713919.881   208698258.463        -644.812          42.000  
E05  23699313.581   124540768.173          62.378          46.000    23699313.890    95427359.818          47.860          49.000  
E36  27262512.566   143265431.800       -2266.741          40.000    27262512.181   109775320.041       -1737.123          40.000  
G02  23619260.876   124120054.561        2044.780          45.000                                                                  
R20  23317558.673   124689529.020       -2993.005          38.000    23317555.362    96980834.162       -2327.829          39.000  
R06  19729184.524   105278763.414       -1446.444          42.000                                                                  
R22  21089270.464   112575922.810        1547.486          50.000    21089265.884    87559125.318        1203.665          48.000  
G16  22967967.515   120697494.305       -3808.038          44.000                                                                  
G08  20668677.183   108614795.892        1140.057          47.000    20668674.139    84634846.120         888.317          45.000  
S31  38759939.221   203685011.193        -645.205          44.000  
E30  25518225.495   134099295.196       -2885.154          45.000    25518225.593   102751303.272       -2210.587          48.000  
R21  20213345.412   108166017.592        -784.462          49.000    20213339.751    84128965.023        -610.108          50.000  
R12  22891054.634   122279910.666       -2551.523          48.000    22891053.373    95106574.113       -1984.595          44.000  
E15  24882974.281   130760982.989         437.948          46.000    24882974.928   100193530.308         335.400          50.000  
G23  24253408.797   127452500.8091      -4049.223          39.000    24253401.657    99313790.881       -3155.178          43.000  
E34  24153239.416   126926358.674       -1142.777          47.000    24153239.230    97255416.041        -875.708          52.000  
G27  20178919.882   106040919.090       -1109.615          48.000    20178917.313    82629383.606        -864.645          48.000  
E09  27791431.431   146044953.878       -2294.667          40.000    27791430.550   111904581.473       -1758.438          41.000  
G10  21226173.972   111544437.511       -3165.171          47.000    21226171.228    86917712.945       -2466.378          48.000  
E03  25834130.225   135759305.601        2025.511          45.000    25834131.190   104023385.097        1551.996          50.000  
G21  22528505.475   118388117.916        1931.152          46.000                                                                  
E27  26006318.475   136663999.759        -638.170          44.000    26006319.926   104716682.692        -489.025          48.000  
E18  25664215.769   134866402.845       -1454.318          43.000                                                                  
G32  21856449.943   114856452.773         855.196          50.000    21856447.723    89498544.112         666.329          46.000  
R07                                                                  20364348.282                3       1885.430          18.000  
R05                                                                  23924973.619                3      -3699.599          16.000  
> 2024 04 15 09 31 00.5000000  0 26                     
S33  39717599.025   208717593.571        -644.038          41.000  
E05  23698992.999   124539083.923          49.930          46.000    23698993.041    95426069.299          38.203          49.000  
E36  27275452.737   143333430.627       -2266.445          39.000    27275452.047   109827423.018       -1736.584          41.000  
G02  23607587.502   124058710.695        2044.664          44.000                                                                  
R20  23334366.654   124779412.040       -2998.902          39.000    23334364.043    97050743.167       -2332.889          38.000  
R06  19737388.950   105322547.116       -1472.327          42.000                                                                  
R22  21080577.961   112529518.478        1546.092          49.000    21080573.549    87523033.170        1202.504          48.000  
G16  22989720.118   120811806.599       -3812.834          43.000                                                                  
G08  20662207.662   108580799.859        1126.507          47.000    20662204.939    84608355.737         877.739          45.000  
S31  38763621.486   203704363.128        -644.784          44.000  
E30  25534713.885   134185946.488       -2891.510          45.000    25534714.667   102817698.466       -2215.698          48.000  
R21  20217765.599   108189680.934        -793.045          47.000    20217761.379    84147369.878        -616.736          50.000  
R12  22905430.897   122356705.050       -2568.175          48.000    22905429.540    95166303.104       -1997.283          44.000  
E15  24880474.020   130747850.145         437.707          45.000    24880475.904   100183467.567         335.445          50.000  
G23  24276524.106   127573971.840       -4048.568          38.000    24276517.088    99408443.625       -3154.768          43.000  
E34  24159765.702   126960654.560       -1143.563          47.000    24159765.571    97281694.725        -876.222          52.000  
G27  20185303.056   106074463.386       -1126.639          48.000    20185300.001    82655522.042        -877.946          47.000  
E09  27804561.829   146113952.937       -2304.994          40.000    27804560.359   111957450.909       -1766.190          42.000  
G10  21244270.003   111639531.005       -3174.435          50.000    21244267.218    86991811.803       -2473.550          48.000  
E03  25822576.733   135698593.132        2021.993          44.000    25822577.674   103976865.189        1549.318          50.000  
G21  22517482.524   118330168.8491       1930.642          45.000                                                                  
E27  26009999.556   136683343.755        -651.179          44.000    26010001.206   104731504.733        -499.007          48.000  
E18  25672518.029   134910031.476       -1454.287          44.000                                                                  
G32  21851616.129   114831046.569         838.569          52.000    21851611.762    89478747.085         653.424          44.000  
R07                                                                  20344461.185                3       1887.417          18.000  
R05                                                                  23951712.942                3      -3700.314          18.000  
> 2024 04 15 09 31 30.5000000  0 26                     
S33  39721275.656   208736914.678        -643.951          42.000  
E05  23698746.437   124537783.283          36.973          48.000    23698745.631    95425072.726          28.305          50.000  
E36  27288391.160   143401429.230       -2267.125          38.000    27288391.375   109879525.822       -1736.802          40.000  
G02  23595915.231   123997375.393        2044.402          45.000                                                                  
R20  23351209.575   124869479.968       -3005.483          38.000    23351206.996    97120795.975       -2337.647          38.000  
R06  19745740.349   105367112.125       -1498.551          42.000                                                                  
R22  21071895.220   112483169.765        1544.149          49.000    21071890.910    87486984.236        1200.996          49.000  
G16  23011501.311   120926268.234       -3817.832          43.000                                                                  
G08  20655818.086   108547221.842        1112.340          47.000    20655815.067    84582191.109         866.717          45.000  
S31  38767301.126   203723699.508        -644.166          44.000  
E30  25551241.448   134272799.736       -2898.359          45.000    25551242.377   102884248.394       -2221.040          49.000  
R21  20222237.182   108213608.377        -801.935          48.000    20222234.018    84165980.139        -623.832          51.000  
R12  22919901.128   122434003.832       -2584.926          48.000    22919898.930    95226424.350       -2010.453          42.000  
E15  24877976.988   130734729.115         437.105          45.000    24877979.145   100173413.835         334.967          50.000  
G23  24299635.863   127695433.231       -4048.480          37.000    24299630.993    99503088.883       -3154.818          44.000  
E34  24166296.754   126994983.477       -1144.894          46.000    24166298.242    97307998.734        -877.215          52.000  
G27  20191784.558   106108524.933       -1144.004          47.000    20191781.904    82682063.538        -891.502          47.000  
E09  27817751.748   146183270.965       -2315.860          39.000    27817751.012   112010564.739       -1774.430          41.000  
G10  21262420.119   111734913.400       -3183.882          48.000    21262417.867    87066135.804       -2481.214          47.000  
E03  25811045.870   135637996.081        2017.986          45.000    25811046.651   103930433.696        1546.201          50.000  
G21  22506463.934   118272267.970        1929.561          44.000                                                                  
E27  26013756.733   136703087.890        -664.795          44.000    26013758.547   104746633.404        -509.395          49.000  
E18  25680821.480   134953669.563       -1454.720          44.000                                                                  
G32  21846878.260   114806151.647         821.276          51.000    21846874.578    89459348.489         640.048          45.000  
R07                                                                  20330531.630                3       1873.344          12.000  
R05                                                                  23978471.236                3      -3695.373          18.000  
> 2024 04 15 09 32 00.5000000  0 26                     
S33  39724950.983   208756228.124        -644.073          42.000  
E05  23698574.418   124536877.668          23.482          48.000    23698573.668    95424378.855          18.056          50.000  
E36  27301334.026   143469438.693       -2267.142          38.000    27301333.409   109931636.957       -1737.420          40.000  
G02  23584247.039   123936059.525        2043.371          45.000                                                                  
R20  23368089.260   124959744.373       -3012.208          40.000    23368086.462    97191001.586       -2342.949          39.000  
R07  20319943.246                3       2698.727          12.000    20317941.878                3       1867.141          17.000  
R06  19754240.332   105412467.507       -1524.909          43.000                                                                  
R22  21063224.156   112436888.673        1541.411          49.000    21063220.718    87450987.906        1198.892          48.000  
G16  23033312.835   121040886.471       -3823.447          42.000                                                                  
G08  20649510.454   108514074.813        1097.521          48.000    20649507.144    84556362.267         855.223          45.000  
S31  38770980.314   203743031.873        -644.637          44.000  
E30  25567809.662   134359863.596       -2905.655          45.000    25567809.969   102950959.680       -2226.503          49.000  
R21  20226759.671   108237812.752        -811.599          47.000    20226756.721    84184805.803        -631.163          51.000  
R12  22934468.222   122511814.086       -2602.304          48.000    22934464.146    95286943.508       -2024.001          40.000  
E15  24875484.810   130721630.308         436.195          45.000    24875486.675   100163377.119         334.322          51.000  
G23  24322747.941   127816893.767       -4048.734          37.000    24322743.956    99597733.433       -3154.991          44.000  
E34  24172838.073   127029356.238       -1146.617          47.000    24172839.249    97334336.332        -878.582          52.000  
G27  20198366.184   106143114.870       -1161.816          47.000    20198364.073    82709016.759        -905.454          47.000  
E09  27831005.362   146252917.317       -2327.207          39.000    27831003.948   112063930.101       -1783.171          39.000  
G10  21280627.607   111830592.735       -3194.364          49.000    21280624.467    87140691.136       -2489.181          48.000  
E03  25799538.503   135577526.960        2013.445          45.000    25799539.432   103884100.257        1542.720          49.000  
G21  22495452.635   118214402.571        1928.079          44.000                                                                  
E27  26017592.348   136723242.509        -678.737          44.000    26017593.717   104762076.587        -520.069          49.000  
E18  25689128.989   134997327.066       -1455.777          44.000                                                                  
G32  21842240.085   114781780.896         803.346          50.000    21842237.154    89440358.311         625.972          45.000  
R05                                                                  24005252.561                3      -3713.126          17.000  
> 2024 04 15 09 32 30.0000000  0 25                     
S33  39728565.343   208775222.868        -644.181          42.000  
E05  23698478.831   124536378.576          10.195          47.000    23698478.963    95423996.452           7.719          51.000  
E36  27314061.320   143536330.996       -2268.006          37.000    27314062.675   109982892.060       -1737.592          41.000  
G02  23572778.318   123875790.215        2042.412          45.000                                                                  
R20  23384724.586   125048701.169       -3019.346          40.000    23384722.134    97260190.157       -2347.967          38.000  
R06  19762744.177   105457841.697       -1551.317          43.000                                                                  
R22  21054712.398   112391451.881        1538.536          50.000    21054708.273    87415648.253        1196.726          48.000  
G16  23054789.687   121153749.051       -3828.724          42.000                                                                  
G08  20643389.195   108481908.160        1082.964          48.000    20643386.019    84531297.368         843.920          45.000  
S31  38774597.496   203762041.753        -644.685          44.000  
E30  25584140.693   134445685.195       -2912.929          45.000    25584141.606   103016719.125       -2231.977          49.000  
R21  20231260.230   108261890.473        -821.110          49.000    20231255.720    84203532.923        -638.688          50.000  
R12  22948885.831   122588828.185       -2619.267          49.000    22948882.176    95346843.384       -2037.195          44.000  
E15  24873039.173   130708776.776         434.905          45.000    24873040.700   100153528.354         333.254          50.000  
G23  24345476.831   127936332.686       -4048.889          38.000    24345472.508    99690802.717       -3154.849          44.000  
E34  24179279.446   127063204.470       -1148.364          47.000    24179280.188    97360272.006        -879.946          52.000  
G27  20204939.115   106177649.515       -1179.761          48.000    20204936.430    82735926.869        -919.292          48.000  
E09  27844097.738   146321727.211       -2338.135          37.000    27844098.645   112116654.613       -1791.527          39.000  
G10  21298586.980   111924969.615       -3204.447          49.000    21298583.913    87214231.593       -2497.054          48.000  
E03  25788249.092   135518197.845        2008.542          45.000    25788250.152   103838640.318        1539.086          50.000  
G21  22484632.453   118157542.429        1926.393          45.000                                                                  
E27  26021441.615   136743466.654        -692.656          45.000    26021442.245   104777573.034        -530.669          49.000  
E18  25697303.030   135040280.691       -1456.842          44.000                                                                  
G32  21837778.777   114758335.019         785.816          50.000    21837775.990    89422088.842         612.256          45.000  
R05                                                                  24031638.072                3      -3708.447          14.000  
> 2024 04 15 09 33 00.0000000  0 25                     
S33  39732242.015   208794542.520        -644.069          42.000  
E05  23698458.891   124536272.375          -3.225          48.000    23698458.630    95423915.086          -2.465          50.000  
E36  27327009.194   143604376.746       -2268.586          34.000    27327010.957   110035030.990       -1738.248          40.000  
G02  23561120.586   123814527.645        2041.656          46.000                                                                  
R20  23401680.614   125139369.068       -3025.783          40.000    23401677.169    97330709.681       -2353.357          37.000  
R06  19771538.207   105504773.567       -1577.597          43.000                                                                  
R22  21046071.622   112345323.019        1536.340          50.000    21046067.309    87379770.329        1194.984          49.000  
G16  23076660.775   121268681.652       -3833.603          41.000                                                                  
G08  20637248.232   108449636.382        1068.316          48.000    20637245.166    84506150.575         832.543          45.000  
S31  38778277.242   203781378.147        -644.705          44.000  
E30  25600789.565   134533174.348       -2919.818          44.000    25600790.586   103083756.292       -2237.394          50.000  
R21  20235890.285   108286661.941        -830.451          50.000    20235884.806    84222799.645        -645.881          50.000  
R12  22963642.265   122667655.628       -2636.012          49.000    22963638.978    95408153.598       -2050.211          43.000  
E15  24870557.984   130695735.125         434.176          46.000    24870558.717   100143535.466         332.671          50.000  
G23  24368590.596   128057799.568       -4049.166          37.000    24368586.948    99785452.226       -3154.902          44.000  
E34  24185840.031   127097678.342       -1149.846          47.000    24185840.302    97386687.082        -881.189          52.000  
G27  20211724.774   106213302.501       -1197.370          49.000    20211720.435    82763708.424        -933.027          48.000  
E09  27857476.807   146392034.541       -2348.941          36.000    27857477.139   112170526.476       -1800.039          38.000  
G10  21316907.444   112021243.235       -3214.044          49.000    21316904.443    87289249.987       -2504.460          48.000  
E03  25776792.599   135458002.012        2004.191          44.000    25776794.506   103792516.279        1535.744          49.000  
G21  22473637.044   118099763.554        1925.360          44.000                                                                  
E27  26025433.928   136764448.124        -706.397          44.000    26025434.649   104793649.789        -541.245          48.000  
E18  25705620.815   135083988.418       -1457.299          44.000                                                                  
G32  21833342.966   114735023.954         768.137          50.000    21833339.728    89403924.428         598.402          44.000  
R07                                                                  20286655.106                3       1862.374          14.000  
> 2024 04 15 09 33 30.0000000  0 25                     
S33  39735918.587   208813864.196        -643.959          41.000  
E05  23698515.768   124536569.919         -16.648          48.000    23698514.923    95424143.096         -12.750          50.000  
E36  27339961.493   143672440.947       -2269.454          34.000    27339962.874   110087184.100       -1738.618          41.000  
G02  23549467.942   123753292.097        2040.918          46.000                                                                  
R20  23418673.633   125230240.693       -3032.466          38.000    23418670.187    97401387.589       -2358.648          38.000  
R06  19780482.029   105552497.455       -1603.978          43.000                                                                  
R22  21037444.607   112299272.615        1533.781          51.000    21037440.694    87343953.397        1192.890          49.000  
G16  23098560.648   121383767.941       -3838.611          42.000                                                                  
G08  20631191.696   108417808.963        1053.594          48.000    20631188.638    84481350.041         820.892          45.000  
S31  38781956.800   203800715.816        -644.438          44.000  
E30  25617477.338   134620874.556       -2926.642          44.000    25617479.266   103150955.177       -2242.537          50.000  
R21  20240573.131   108311721.178        -840.122          49.000    20240568.152    84242290.210        -653.227          50.000  
R12  22978493.686   122746990.091       -2652.906          44.000    22978491.504    95469858.204       -2063.433          42.000  
E15  24868081.523   130682721.576         433.380          45.000    24868082.160   100133564.101         332.027          50.000  
G23  24391704.938   128179266.413       -4048.892          38.000    24391701.116    99880101.748       -3155.148          43.000  
E34  24192410.613   127132203.095       -1151.564          48.000    24192409.995    97413141.140        -882.446          52.000  
G27  20218611.449   106249491.748       -1215.281          50.000    20218606.901    82791907.877        -946.783          47.000  
E09  27870918.337   146462672.807       -2360.448          35.000    27870918.891   112224651.870       -1808.066          39.000  
G10  21335284.643   112117812.028       -3223.843          49.000    21335280.589    87364498.408       -2511.981          48.000  
E03  25765364.881   135397946.547        1999.519          44.000    25765366.102   103746499.767        1532.057          49.000  
G21  22462650.885   118042028.681        1923.789          46.000                                                                  
E27  26029504.854   136785845.629        -720.116          43.000    26029506.054   104810045.303        -551.846          48.000  
E18  25713943.048   135127720.138       -1457.968          45.000                                                                  
G32  21829009.450   114712250.004         750.221          50.000    21829006.643    89386178.520         584.481          45.000  
R07                                                                  20276630.435                3       1842.003          19.000  
> 2024 04 15 09 34 00.5000000  0 24                     
S33  39739655.676   208833503.218        -644.107          42.000  
E05  23698651.557   124537282.448         -30.451          48.000    23698650.800    95424689.086         -23.317          50.000  
E36  27353136.181   143741654.378       -2270.070          34.000    27353133.962   110140217.769       -1738.966          42.000  
G02  23537625.287   123691059.594        2039.929          45.000                                                                  
R20  23435988.460   125322831.678       -3039.246          40.000    23435985.978    97473402.746       -2363.972          39.000  
R06  19789725.070   105601822.265       -1630.571          42.000                                                                  
R22  21028688.477   112252532.028        1531.045          50.000    21028685.127    87307599.659        1190.792          49.000  
G16  23120854.517   121500921.266       -3843.648          42.000                                                                  
G08  20625120.187   108385904.388        1038.377          48.000    20625117.220    84456489.378         809.160          45.000  
S31  38785697.602   203820372.578        -644.676          44.000  
E30  25634484.359   134710246.109       -2933.842          44.000    25634486.363   103219434.701       -2247.978          50.000  
R21  20245389.048   108337490.341        -849.968          50.000    20245383.654    84262332.910        -661.007          50.000  
R12  22993688.113   122828157.885       -2669.776          41.000    22993687.015    95532988.677       -2076.237          42.000  
E15  24865568.467   130669515.134         432.374          46.000    24865569.049   100123444.912         331.361          50.000  
G23  24415203.397   128302751.235       -4048.843          37.000    24415199.993    99976323.636       -3154.870          43.000  
E34  24199098.903   127167351.014       -1153.356          48.000    24199098.325    97440072.687        -883.712          52.000  
G27  20225715.671   106286829.750       -1233.373          48.000    20225711.874    82821002.449        -961.036          47.000  
E09  27884647.036   146534821.592       -2371.033          33.000    27884648.317   112279934.747       -1816.732          39.000  
G10  21354023.077   112216285.521       -3233.701          49.000    21354019.669    87441231.048       -2519.797          48.000  
E03  25753773.806   135337031.408        1994.863          45.000    25753774.372   103699824.550        1528.490          49.000  
G21  22451489.383   117983372.8821       1922.361          46.000                                                                  
E27  26033724.926   136808021.255        -734.112          43.000    26033725.630   104827037.041        -562.498          48.000  
E18  25722407.252   135172200.074       -1458.784          45.000                                                                  
G32  21824707.736   114689644.691         731.895          49.000    21824704.200    89368563.981         570.408          45.000  
> 2024 04 15 09 34 30.5000000  0 24                     
S33  39743331.133   208852818.438        -643.847          42.000  
E05  23698861.093   124538387.223         -43.438          48.000    23698861.019    95425535.639         -33.349          50.000  
E36  27366094.057   143809748.099       -2270.020          35.000    27366091.603   110192393.488       -1739.585          42.000  
G02  23525981.206   123629870.631        2039.116          46.000                                                                  
R20  23453058.158   125414106.129       -3045.952          39.000    23453055.397    97544394.011       -2368.956          39.000  
R06  19798964.538   105651128.523       -1656.560          42.000    19799186.071                3      -1251.829          14.000  
R22  21020090.970   112206634.949        1528.529          52.000    21020086.714    87271902.005        1188.958          49.000  
G16  23142809.482   121616297.675       -3848.379          42.000                                                                  
G08  20619234.265   108354970.958        1023.607          48.000    20619230.551    84432385.432         797.613          45.000  
S31  38789376.575   203839704.925        -644.527          44.000  
E30  25651252.950   134798356.629       -2940.385          45.000    25651252.530   103286947.969       -2253.102          49.000  
R21  20250180.004   108363125.518        -859.277          51.000    20250174.173    84282271.419        -668.353          50.000  
R12  23008726.440   122908493.773       -2685.864          39.000    23008726.132    95595472.276       -2089.054          39.000  
E15  24863100.692   130656548.562         431.784          45.000    24863101.664   100113509.549         330.882          51.000  
G23  24438315.188   128424203.304       -4048.717          38.000    24438311.174   100070961.613       -3154.390          42.000  
E34  24205686.877   127201969.804       -1154.810          47.000    24205686.377    97466598.811        -884.937          52.000  
G27  20232806.190   106324092.625       -1250.950          49.000    20232802.815    82850038.468        -974.812          47.000  
E09  27898215.336   146606114.030       -2381.782          34.000    27898215.579   112334561.398       -1824.906          38.000  
G10  21372509.160   112313432.284       -3243.020          49.000    21372506.268    87516929.839       -2527.056          48.000  
E03  25742399.163   135277255.742        1990.213          45.000    25742399.371   103654022.434        1524.896          49.000  
G21  22440518.369   117925719.711        1920.920          46.000                                                                  
E27  26037953.796   136830247.451        -747.715          42.000    26037955.398   104844067.526        -572.973          48.000  
E18  25730736.090   135215969.096       -1459.318          45.000                                                                  
G32  21820579.069   114667951.201         714.106          49.000    21820575.849    89351659.971         556.566          45.000  
> 2024 04 15 09 35 00.5000000  0 25                     
S33  39747006.339   208872131.599        -643.679          41.000  
E05  23699148.718   124539894.959         -57.061          48.000    23699147.707    95426690.912         -43.637          50.000  
E36  27379050.809                       -2270.456          29.000    27379052.404   110244582.028       -1739.674          41.000  
G02  23514341.621   123568707.039        2038.183          45.000                                                                  
R20  23470165.014   125505582.285       -3052.452          38.000    23470161.871    97615542.107       -2374.249          38.000  
R06  19808351.405   105701218.138       -1682.776          42.000                                                                  
R22  21011507.558   112160817.634        1525.852          51.000    21011502.924    87236266.393        1186.746          48.000  
G16  23164791.829   121731814.472       -3852.996          41.000                                                                  
G08  20613432.714   108324485.828        1008.605          48.000    20613429.839    84408630.827         785.931          45.000  
S31  38793054.091   203859035.387        -644.464          43.000  
E30  25668057.857   134886669.065       -2947.281          45.000    25668057.809   103354615.971       -2258.199          49.000  
R21  20255024.016   108389050.104        -869.191          50.000    20255018.098    84302434.988        -676.008          50.000  
R12  23023858.837   122989322.026       -2702.819          39.000    23023857.630    95658338.713       -2102.382          38.000  
E15  24860637.619   130643606.583         430.870          45.000    24860639.212   100103593.023         330.127          51.000  
G23  24461425.543   128545646.823       -4047.951          38.000    24461420.981   100165592.936       -3154.211          41.000  
E34  24212283.708   127236637.100       -1156.494          47.000    24212283.369    97493162.095        -886.159          53.000  
G27  20239999.177   106361889.994       -1269.021          49.000    20239995.621    82879490.977        -988.790          48.000  
E09  27911841.447   146677730.415       -2393.197          31.000    27911842.925   112389436.289       -1833.383          37.000  
G10  21391050.123   112410863.067       -3252.479          50.000    21391046.148    87592849.936       -2534.453          48.000  
E03  25731050.514   135217623.344        1985.323          44.000    25731051.759   103608330.098        1521.232          49.000  
G21  22429555.134   117868110.478        1919.567          45.000                                                                  
E27  26042262.150   136852885.526        -761.482          42.000    26042263.388   104861413.622        -583.602          48.000  
E18  25739068.274   135259757.243       -1459.977          45.000                                                                  
G32  21816554.071   114646798.199         696.006          49.000    21816551.136    89335177.142         542.615          45.000  
R07                                                                  20231807.968                3       1817.492          14.000  
> 2024 04 15 09 35 30.0000000  0 26                     
S33  39750620.805   208891127.421        -644.009          41.000  
E05  23699506.559   124541776.997         -70.643          48.000    23699505.588    95428133.001         -54.291          50.000  
E36  27391798.139                1      -2271.296          29.000    27391802.111   110295918.204       -1740.714          42.000  
G02  23502902.550   123508593.464        2037.219          45.000                                                                  
R20  23487024.861   125595736.569       -3059.572          40.000    23487021.253    97685662.100       -2379.812          38.000  
R06  19817725.840   105751240.927       -1708.577          42.000                                                                  
R22  21003082.589   112115849.136        1522.915          51.000    21003078.852    87201290.956        1184.452          49.000  
G16  23186433.813   121845545.355       -3857.513          40.000                                                                  
G08  20607812.832   108294954.040         993.393          49.000    20607810.542    84385619.079         774.095          46.000  
S31  38796672.471   203878047.570        -644.517          43.000  
E30  25684620.693   134973710.494       -2954.081          45.000    25684621.086   103421310.098       -2263.547          48.000  
R21  20259843.054   108414832.659        -878.896          51.000    20259836.582    84322488.126        -683.576          50.000  
R12  23038827.614   123069285.557       -2719.127          35.000    23038825.993    95720532.607       -2114.467          36.000  
E15  24858221.705   130630909.996         429.803          45.000    24858223.476   100093864.509         329.282          51.000  
G23  24484150.202   128665062.117       -4047.717          38.000    24484144.606   100258643.825       -3154.100          39.000  
E34  24218780.457   127270780.006       -1158.200          47.000    24218780.344    97519323.585        -887.603          52.000  
G27  20247172.585   106399584.899       -1286.684          49.000    20247168.535    82908863.651       -1002.682          48.000  
E09  27925304.690   146748473.654       -2403.654          33.000    27925304.230   112443642.097       -1841.542          35.000  
G10  21409334.720   112506950.277       -3261.915          50.000    21409330.730    87667723.108       -2541.697          47.000  
E03  25719920.751   135159132.319        1980.219          44.000    25719921.494   103563512.323        1517.307          50.000  
G21  22418783.521   117811509.741        1917.824          45.000                                                                  
E27  26046575.933   136875553.480        -775.159          42.000    26046577.420   104878782.599        -594.127          49.000  
E18  25747266.331   135302839.546       -1460.731          45.000                                                                  
G32  21812697.918   114626532.673         677.707          49.000    21812694.453    89319385.855         528.031          44.000  
R07                                                                  20223511.601                3       1827.593          14.000  
R08                                                                  23965410.980                3       3041.992          15.000  
> 2024 04 15 09 36 00.0000000  0 24                     
S33  39754297.020   208910445.214        -644.088          41.000  
E05  23699946.077   124544092.802         -84.067          47.000    23699946.581    95429907.489         -64.365          50.000  
E36  27404774.708                       -2271.898          30.000    27404771.680   110348138.667       -1740.993          43.000  
G02  23491274.128   123447487.912        2036.229          44.000                                                                  
R20  23504206.592   125687620.688       -3066.087          39.000    23504204.521    97757127.480       -2384.856          39.000  
R06  19827404.535   105802885.654       -1734.525          42.000                                                                  
R22  20994531.481   112070201.512        1520.015          52.000    20994527.447    87165787.315        1182.328          48.000  
G16  23208468.096   121961337.509       -3861.840          41.000                                                                  
G08  20602183.594   108265371.796         978.393          49.000    20602181.499    84362567.998         762.476          46.000  
S31  38800351.542   203897381.807        -644.522          44.000  
E30  25701501.170   135062424.476       -2960.609          44.000    25701502.952   103489285.788       -2268.501          48.000  
R21  20264796.430   108441343.268        -888.759          51.000    20264791.089    84343107.494        -691.212          51.000  
R12  23054142.004                       -2734.786          30.000    23054138.300                       -2126.402          31.000  
E15  24855769.236   130618023.362         429.192          45.000    24855770.726   100083990.388         328.709          51.000  
G23  24507257.328   128786490.351       -4047.405          37.000    24507252.064   100353263.268       -3153.828          39.000  
E34  24225396.738   127305551.174       -1160.012          47.000    24225396.953    97545966.468        -888.835          52.000  
G27  20254568.083   106438450.465       -1304.531          49.000    20254564.425    82939148.539       -1016.399          48.000  
E09  27939057.072   146820735.485       -2413.484          32.000    27939056.133   112499011.637       -1849.858          36.000  
G10  21427982.259   112604943.483       -3271.180          50.000    21427978.002    87744081.467       -2549.062          47.000  
E03  25708629.174   135099796.857        1975.174          44.000    25708630.241   103518047.540        1513.472          50.000  
G21  22407839.239   117753995.430        1916.248          45.000                                                                  
E27  26051040.463   136899014.328        -789.032          42.000    26051041.491   104896759.134        -604.588          48.000  
E18  25755607.357   135346670.826       -1461.642          45.000                                                                  
G32  21808879.059   114606464.707         659.591          50.000    21808874.784    89303748.506         514.051          44.000  
> 2024 04 15 09 36 30.0000000  0 24                     
S33  39757972.314   208929758.207        -644.198          41.000  
E05  23700463.593   124546810.165         -97.807          47.000    23700463.796    95431989.654         -74.871          50.000  
E36  27417744.569                       -2273.080          31.000    27417743.775   110400370.400       -1741.699          43.000  
G02  23479651.248   123386405.479        2035.154          44.000                                                                  
R20  23521426.510   125779703.637       -3073.342          42.000    23521423.580    97828747.499       -2390.175          37.000  
R06  19837227.132   105855304.640       -1760.558          41.000                                                                  
R22  20985995.935   112024634.679        1517.064          52.000    20985991.304    87130346.518        1179.937          49.000  
G16  23230527.292   122077257.879       -3866.691          42.000                                                                  
G08  20596640.058   108236241.264         963.085          49.000    20596638.054    84339868.905         750.377          46.000  
S31  38804029.944   203916711.721        -644.733          43.000  
E30  25718419.778   135151331.002       -2967.071          44.000    25718421.298   103557408.998       -2273.656          48.000  
R21  20269805.338   108468144.800        -898.709          51.000    20269799.639    84363953.149        -698.971          50.000  
R12  23069544.115                       -2750.223          31.000    23069542.581                       -2139.411          28.000  
E15  24853320.506   130605157.447         428.105          45.000    24853322.242   100074132.161         327.918          51.000  
G23  24530361.528   128907901.351       -4047.319          36.000    24530355.625   100447869.199       -3153.529          37.000  
E34  24232022.333   127340368.185       -1161.876          47.000    24232022.694    97572644.462        -890.316          53.000  
G27  20262065.069   106477848.279       -1322.612          48.000    20262061.494    82969848.135       -1030.605          48.000  
E09  27952865.240                       -2424.923          29.000    27952865.966                       -1858.556          31.000  
G10  21446682.208   112703209.355       -3280.573          51.000    21446678.142    87820652.307       -2556.273          48.000  
E03  25697365.887   135040607.191        1970.080          44.000    25697366.916   103472694.448        1509.572          50.000  
G21  22396903.492   117696523.452        1914.487          47.000                                                                  
E27  26055582.715   136922882.509        -802.992          43.000    26055583.557   104915047.793        -615.341          49.000  
E18  25763950.390   135390516.058       -1462.360          45.000                                                                  
G32  21805163.367   114586939.989         641.189          50.000    21805158.805    89288534.443         499.717          43.000  
> 2024 04 15 09 37 00.5000000  0 25                     
S33  39761708.374   208949393.155        -644.035          41.000  
E05  23701069.030   124549991.888        -111.174          46.000    23701068.998    95434427.608         -85.191          50.000  
E36  27430934.708   144150532.9431      -2273.501          32.000    27430935.454   110453489.750       -1741.759          42.000  
G02  23467839.836   123324336.021        2034.508          45.000                                                                  
R20  23538972.758   125873532.570       -3079.866          41.000    23538969.739    97901725.522       -2395.849          37.000  
R06  19847363.851   105909395.726       -1786.409          41.000                                                                  
R22  20977334.462   111978399.657        1514.300          51.000    20977329.738    87094386.036        1177.814          49.000  
G16  23252979.827   122195244.412       -3870.554          41.000                                                                  
G08  20591094.894   108207097.368         947.703          49.000    20591092.446    84317159.383         738.388          46.000  
S31  38807769.706   203936365.004        -644.312          44.000  
E30  25735658.148   135241921.280       -2973.622          44.000    25735659.895   103626822.360       -2278.322          48.000  
R21  20274953.896   108495699.141        -908.555          52.000    20274948.610    84385384.311        -706.595          50.000  
R12  23085296.684                       -2766.599          28.000    23085295.009                       -2151.911          28.000  
E15  24850836.592   130592104.963         427.438          45.000    24850838.325   100064130.944         327.554          51.000  
G23  24553848.503   129031323.034       -4046.821          36.000    24553842.085   100544041.903       -3152.875          37.000  
E34  24238767.924   127375819.406       -1163.261          46.000    24238768.928    97599808.407        -891.327          53.000  
G27  20269792.053   106518455.277       -1340.502          48.000    20269789.527    83001489.973       -1044.643          48.000  
E09  27966966.229                       -2435.403          29.000    27966969.981                       -1866.019          30.000  
G10  21465746.436   112803396.475       -3289.503          51.000    21465742.886    87898720.204       -2563.176          47.000  
E03  25685943.469   134980589.167        1965.180          43.000    25685945.785   103426706.661        1505.828          49.000  
G21  22385794.137   117638144.190        1913.153          47.000                                                                  
E27  26060281.292   136947572.328        -816.487          42.000    26060281.657   104933966.010        -625.705          48.000  
E18  25772437.742   135435112.466       -1462.571          45.000                                                                  
G32  21801493.245   114567655.529         622.878          49.000    21801489.486    89273507.608         485.393          44.000  
R07                                                                  20179959.293                3       1793.766          17.000  
> 2024 04 15 09 37 30.5000000  0 25                     
S33  39765383.740   208968706.556        -643.885          42.000  
E05  23701741.648   124553532.022        -125.105          46.000    23701742.723    95437140.197         -95.849          50.000  
E36  27443916.072   144218741.747       -2274.204          33.000    27443915.330   110505753.709       -1742.611          43.000  
G02  23456227.173   123263312.793        2033.441          45.000                                                                  
R20  23556269.752   125966029.323       -3086.727          40.000    23556267.579    97973667.404       -2400.942          38.000  
R06  19857480.305   105963380.783       -1812.371          41.000                                                                  
R22  20968831.584   111933011.656        1511.273          51.000    20968827.499    87059084.295        1175.415          50.000  
G16  23275087.130   122311423.162       -3874.917          42.000                                                                  
G08  20585728.452   108178895.612         932.127          50.000    20585725.607    84295184.019         726.206          46.000  
S31  38811448.217   203955695.224        -644.594          43.000  
E30  25752651.327   135331220.854       -2980.014          44.000    25752652.821   103695246.735       -2283.287          48.000  
R21  20280075.427   108523102.670        -918.616          52.000    20280069.360    84406698.195        -714.472          50.000  
R12  23100879.167                       -2782.979          25.000    23100879.455                1      -2163.643          29.000  
E15  24848398.450   130579291.435         426.478          45.000    24848399.780   100054312.827         326.685          51.000  
G23  24576946.788   129152704.684       -4045.498          36.000    24576940.220   100638625.044       -3152.974          37.000  
E34  24245412.961   127410740.532       -1165.010          46.000    24245414.168    97626566.166        -892.697          53.000  
G27  20277496.585   106558938.206       -1358.652          48.000    20277493.089    83033035.125       -1058.733          48.000  
E09  27980900.596   147040655.705       -2446.304          30.000    27980904.785                       -1874.607          28.000  
G10  21484551.221   112902215.043       -3298.552          51.000    21484546.771    87975721.699       -2570.564          47.000  
E03  25674740.739   134921710.397        1959.809          44.000    25674740.621   103381591.761        1501.737          48.000  
G21  22374876.312   117580770.695        1911.467          48.000                                                                  
E27  26064980.961   136972271.589        -830.281          43.000    26064981.894   104952891.460        -636.155          49.000  
E18  25780788.501   135478994.968       -1463.126          46.000                                                                  
G32  21797989.889   114549243.371         604.348          49.000    21797987.034    89259160.466         470.935          45.000  
R07                                                                  20168197.401                3       1793.836          11.000  
> 2024 04 15 09 38 00.5000000  0 25                     
S33  39769058.800   208988019.971        -643.924          41.000  
E05  23702491.978   124557480.332        -138.676          45.000    23702494.091    95440165.555        -106.240          50.000  
E36  27456897.489                       -2275.281          31.000    27456898.995   110558033.548       -1743.121          44.000  
G02  23444619.730   123202318.651        2032.552          45.000                                                                  
R20  23573605.361   126058730.621       -3093.484          40.000    23573603.057    98045768.399       -2406.246          37.000  
R06  19867742.092   106018138.628       -1838.325          41.000                                                                  
R22  20960345.602   111887713.852        1508.282          52.000    20960341.737    87023852.757        1173.090          50.000  
G16  23297217.566   122427724.365       -3878.725          40.000                                                                  
G08  20580450.111   108151157.069         916.618          50.000    20580446.482    84273569.589         714.337          45.000  
S31  38815126.643   203975025.871        -644.482          44.000  
E30  25769681.209   135420711.579       -2986.503          44.000    25769682.524   103763817.577       -2288.245          49.000  
R21  20285252.511   108550806.350        -928.601          52.000    20285246.032    84428245.545        -722.241          50.000  
R12  23116586.899                3      -2797.819          26.000    23116547.355                3      -2172.160          21.000  
E15  24845963.979   130566502.965         425.683          45.000    24845965.971   100044513.904         326.134          51.000  
G23  24600040.614   129274068.525       -4045.402          33.000    24600035.746   100733194.209       -3152.082          37.000  
E34  24252068.017   127445712.937       -1166.755          46.000    24252069.090    97653363.229        -894.049          53.000  
G27  20285302.264   106599958.916       -1376.665          48.000    20285299.433    83064999.323       -1072.688          49.000  
E09  27994898.243                       -2456.909          29.000    27994897.536                3      -1884.741          23.000  
G10  21503407.184   113001302.892       -3307.550          52.000    21503402.174    88052933.037       -2577.378          47.000  
E03  25663566.390   134862987.999        1954.542          44.000    25663565.945   103336596.700        1497.610          47.000  
G21  22363967.784   117523445.936        1910.055          47.000                                                                  
E27  26069759.359   136997381.570        -843.991          43.000    26069760.175   104972131.627        -646.800          49.000  
E18  25789142.365   135522894.396       -1463.749          46.000                                                                  
G32  21794591.278   114531385.129         585.872          49.000    21794588.711    89245244.994         456.426          45.000  
R07                                                                  20152463.502                3       1784.172          14.000  
> 2024 04 15 09 38 30.5000000  0 25                     
S33  39772734.089   209007334.109        -643.551          41.000  
E05  23703322.520   124561839.005        -152.089          46.000    23703323.397    95443505.339        -116.486          50.000  
E36  27469880.799                       -2274.953          31.000    27469887.278   110610330.825       -1743.498          44.000  
G02  23433019.447   123141355.363        2031.743          46.000                                                                  
R20  23590979.337   126151638.951       -3100.430          40.000    23590976.563    98118030.357       -2411.029          37.000  
R06  19878148.937   106073668.948       -1863.595          41.000                                                                  
R22  20951877.082   111842509.392        1505.426          52.000    20951873.426    86988693.803        1170.850          50.000  
G16  23319373.057   122544146.506       -3882.446          43.000                                                                  
G08  20575260.231   108123885.504         901.463          49.000    20575257.066    84252319.057         702.274          45.000  
S31  38818805.327   203994357.372        -644.188          44.000  
E30  25786748.469   135510392.919       -2992.418          45.000    25786748.367   103832534.471       -2292.804          49.000  
R21  20290485.838   108578813.460        -938.436          51.000    20290480.215    84450028.866        -729.953          50.000  
R12  23132371.484                3      -2813.713          25.000    23132308.024                3      -2186.482          19.000  
E15  24843535.047   130553740.963         425.194          45.000    24843537.297   100034735.279         325.795          50.000  
G23  24623131.499   129395414.239       -4044.657          32.000    24623127.695   100827749.271       -3151.329          37.000  
E34  24258733.139   127480738.438       -1168.224          45.000    24258734.208    97680200.964        -895.122          54.000  
G27  20293210.991   106641519.189       -1394.150          48.000    20293207.552    83097383.951       -1086.342          48.000  
E09  28008955.535                       -2467.640          26.000    28008955.727                       -1890.599          27.000  
G10  21522313.559   113100658.961       -3316.163          51.000    21522308.925    88130353.368       -2584.132          47.000  
E03  25652422.844   134804425.513        1949.593          45.000    25652422.285   103291724.171        1493.843          48.000  
G21  22353069.254   117466173.211        1908.456          47.000                                                                  
E27  26074615.224   137022903.333        -857.399          43.000    26074616.976   104991687.329        -656.999          48.000  
E18  25797499.777   135566811.670       -1464.032          46.000                                                                  
G32  21791299.221   114514084.328         567.665          50.000    21791296.502    89231763.881         442.332          45.000  
R07                                                                  20142444.020                3       1772.000          15.000  
> 2024 04 15 09 39 00.0000000  0 25                     
S33  39776347.784   209026322.266        -643.795          42.000  
E05  23704214.209   124566520.053        -165.649          46.000    23704214.088    95447092.128        -126.977          50.000  
G02  23421616.494   123081433.317        2030.513          46.000                                                                  
R20  23608100.901   126243194.244       -3107.387          40.000    23608098.129    98189240.020       -2416.885          39.000  
R06  19888521.259   106129018.894       -1889.306          41.000                                                                  
R22  20943566.003   111798145.124        1502.167          52.000    20943562.104    86954188.309        1168.335          49.000  
G16  23341179.288   122658737.221       -3886.459          43.000                                                                  
G08  20570242.956   108097520.279         885.736          49.000    20570239.818    84231774.766         690.191          46.000  
S31  38822421.726   204013362.419        -644.386          43.000  
E30  25803563.780   135598757.757       -2998.677          45.000    25803563.757   103900242.611       -2297.740          50.000  
R21  20295686.551   108606645.132        -948.730          51.000    20295681.567    84471675.735        -737.859          50.000  
R12  23147908.483                2      -2829.406          27.000    23147881.193                       -2200.876          27.000  
E15  24841151.600   130541211.667         424.063          46.000    24841153.145   100025134.949         325.050          50.000  
G23  24645832.653   129514712.525       -4043.565          32.000    24645829.153   100920708.934       -3151.113          37.000  
E34  24265296.293   127515226.502       -1170.326          45.000    24265297.252    97706626.895        -896.683          54.000  
G27  20301086.336   106682907.450       -1412.091          47.000    20301083.794    83129634.572       -1100.311          48.000  
G10  21540953.443   113198612.327       -3324.996          50.000    21540949.478    88206680.676       -2590.956          47.000  
E03  25641493.786   134746991.210        1944.037          46.000    25641493.028   103247716.084        1489.673          49.000  
G21  22342360.268   117409900.094        1906.381          46.000                                                                  
E27  26079466.398   137048395.081        -871.121          43.000    26079467.472   105011220.023        -667.553          48.000  
E18  25805719.074   135610008.121       -1464.810          46.000                                                                  
G32  21788164.725   114497611.582         549.134          50.000    21788160.940    89218927.980         427.784          44.000  
E36                                                                  27482661.729   110661769.437       -1744.349          42.000  
E09                                                                  28022833.782                       -1898.271          26.000  
R07                                                                  20128850.041                3       1769.094          11.000  
> 2024 04 15 09 39 30.0000000  0 25                     
S33  39780022.546   209045634.861        -644.028          41.000  
E05  23705198.458   124571690.511        -179.304          46.000    23705198.070    95451053.929        -137.436          50.000  
E36  27495657.985   144490610.7391      -2277.696          33.000    27495657.541   110714099.367       -1744.785          41.000  
G02  23410026.764   123020529.451        2029.344          45.000                                                                  
R20  23625551.966   126336508.701       -3114.317          40.000    23625548.890    98261817.931       -2422.150          39.000  
R06  19899213.253   106186070.595       -1914.526          40.000                                                                  
R22  20935132.595   111753126.530        1498.877          52.000    20935128.237    86919173.937        1165.741          49.000  
G16  23363376.742   122775385.453       -3890.228          44.000                                                                  
G08  20565229.715   108071177.631         870.203          48.000    20565227.108    84211248.068         678.021          46.000  
S31  38826100.267   204032692.527        -644.659          43.000  
E30  25820699.568   135688807.272       -3005.010          44.000    25820699.457   103969241.602       -2302.467          50.000  
R21  20301032.482   108635254.334        -958.993          50.000    20301027.957    84493927.342        -745.851          50.000  
R12  23163823.338                3      -2842.866          24.000    23163841.912                3      -2211.834          27.000  
R07  20113316.802                3       2547.836          12.000    20113630.768                3       1758.719          16.000  
E15  24838733.357   130528498.057         423.227          47.000    24838734.100   100015393.417         324.225          51.000  
G23  24668916.741   129636013.388       -4043.276          32.000    24668911.741   101015229.132       -3150.479          36.000  
E34  24271979.958   127550354.212       -1171.841          45.000    24271981.876    97733542.976        -898.020          54.000  
G27  20309198.049   106725534.682       -1429.918          47.000    20309195.169    83162850.599       -1114.252          47.000  
G10  21559959.168   113298488.622       -3333.600          51.000    21559955.471    88284506.401       -2597.505          47.000  
E03  25630410.742   134688747.855        1938.743          46.000    25630410.050   103203088.089        1485.427          49.000  
G21  22331480.301   117352727.624        1904.595          47.000                                                                  
E27  26084477.731   137074728.270        -884.734          44.000    26084478.632   105031397.450        -677.892          48.000  
E18  25814081.782   135653955.270       -1465.423          46.000                                                                  
G32  21785084.034   114481418.154         530.343          50.000    21785079.245    89206309.741         413.186          44.000  
E09                                                                  28037006.878                       -1906.945          28.000  
> 2024 04 15 09 40 00.5000000  0 25                     
S33  39783760.538   209065278.243        -644.380          41.000  
E05  23706281.253   124577377.206        -193.671          47.000    23706279.978    95455411.290        -148.460          50.000  
E36  27508876.139   144560076.250       -2278.274          36.000    27508876.798   110767326.235       -1745.616          42.000  
G02  23398251.753   122958651.708        2027.948          45.000                                                                  
R20  23643334.101   126431598.600       -3121.404          39.000    23643331.105    98335776.668       -2427.641          38.000  
R06  19910230.623   106244865.853       -1940.771          40.000                                                                  
R22  20926578.865   111707466.046        1495.178          52.000    20926574.116    86883660.280        1163.019          49.000  
G16  23385967.349   122894099.445       -3894.490          44.000                                                                  
G08  20560227.351   108044889.038         853.625          49.000    20560224.559    84190763.462         665.210          46.000  
S31  38829841.375   204052353.749        -644.917          43.000  
E30  25838157.887   135780554.371       -3011.591          43.000    25838158.454   104039541.341       -2307.538          50.000  
R21  20306529.140   108664663.925        -969.751          51.000    20306524.029    84516801.485        -754.342          50.000  
R12  23180113.432                3      -2867.355          23.000    23180114.945                3      -2231.677          21.000  
R07  20102642.711                3       2537.797          14.000    20101056.168                3       1747.195          13.000  
E15  24836279.800   130515606.939         421.895          47.000    24836281.021   100005515.866         323.296          51.000  
G23  24692380.205   129759319.716       -4042.475          31.000    24692376.344   101111311.995       -3150.117          35.000  
E34  24278788.416   127586130.301       -1174.183          45.000    24278789.951    97760955.835        -899.688          54.000  
G27  20317551.823   106769433.763       -1448.719          46.000    20317548.995    83197057.679       -1128.864          48.000  
G10  21579334.080   113400303.930       -3342.834          51.000    21579330.226    88363843.016       -2604.723          47.000  
E03  25619176.029   134629711.335        1932.574          46.000    25619175.949   103157852.344        1480.784          50.000  
G21  22320432.348   117294665.945        1902.492          47.000                                                                  
E27  26089653.637   137101928.571        -898.984          44.000    26089654.836   105052239.283        -688.841          48.000  
E18  25822588.292   135698659.016       -1466.336          45.000                                                                  
G32  21782062.631   114465539.702         510.886          49.000    21782058.324    89193936.948         398.066          45.000  
E09                                                                  28051481.081                       -1914.247          27.000  
> 2024 04 15 09 40 30.5000000  0 26                     
S33  39787436.364   209084595.316        -644.095          41.000  
E05  23707423.073   124583381.346        -207.007          47.000    23707422.652    95460011.882        -158.722          50.000  
E36  27521880.716   144628422.398       -2278.683          36.000    27521882.666   110819695.292       -1745.728          42.000  
G02  23386674.645   122897816.180        2027.312          44.000                                                                  
R20  23660862.584   126525332.839       -3127.881          40.000    23660859.628    98408681.067       -2432.695          38.000  
R06  19921210.911   106303461.422       -1965.598          40.000                                                                  
R22  20918182.819   111662649.148        1492.303          51.000    20918178.536    86848802.750        1160.638          49.000  
G16  23408207.552   123010970.860       -3897.455          44.000                                                                  
G08  20555397.329   108019505.692         838.109          49.000    20555394.505    84170984.250         653.044          46.000  
S31  38833520.989   204071688.619        -644.546          43.000  
E30  25855364.768   135870975.924       -3016.996          44.000    25855365.070   104108825.425       -2311.794          50.000  
R21  20311991.945   108693897.922        -979.572          51.000    20311987.416    84539539.026        -761.885          50.000  
R12  23196247.004                3      -2876.486          16.000                                                                  
R07  20392485.131                3       2527.474          11.000                                                                  
E15  24833871.312   130502947.933         421.463          47.000    24833872.113    99995816.152         323.016          51.000  
G23  24715456.954   129880574.212       -4040.900          29.000    24715449.901   101205795.953       -3149.404          34.000  
E34  24285493.756   127621369.085       -1175.669          46.000    24285495.619    97787956.982        -900.714          54.000  
G27  20325870.955   106813152.517       -1466.200          47.000    20325868.007    83231124.268       -1142.525          47.000  
G10  21598439.796   113500704.411       -3350.831          51.000    21598435.155    88442077.178       -2611.136          46.000  
E03  25608156.467   134571806.308        1927.377          45.000    25608156.751   103113483.578        1476.838          49.000  
G21  22309574.468   117237605.917        1901.082          48.000                                                                  
E27  26094821.974   137129090.656        -912.202          43.000    26094823.622   105073051.843        -698.958          48.000  
E18  25830957.942   135742640.191       -1466.391          46.000                                                                  
G32  21779196.884   114450485.747         492.385          49.000    21779193.107    89182206.607         383.682          45.000  
E09                                                                  28065771.166                       -1922.204          29.000  
R08                                                                  23746395.713                3       3029.245          25.000  
> 2024 04 15 09 41 00.5000000  0 25                     
S33  39791112.398   209103910.789        -643.791          42.000  
E05  23708643.654   124589795.448        -220.718          46.000    23708643.441    95464926.595        -169.127          51.000  
E36  27534891.550   144696790.312       -2279.775          37.000    27534891.798   110872081.050       -1746.442          41.000  
G02  23375103.606   122837010.799        2026.079          44.000                                                                  
R20  23678430.003   126619271.705       -3134.802          40.000    23678427.773    98481744.599       -2437.966          38.000  
R08  23724561.400                3       3892.661          27.000    23724590.001                3       3027.191          26.000  
R06  19932333.607   106362814.698       -1991.145          39.000                                                                  
R22  20909806.417   111617930.297        1488.843          52.000    20909801.166    86814021.480        1158.008          49.000  
G16  23430466.932   123127943.847       -3900.859          45.000                                                                  
G08  20550656.877   107994597.045         822.253          49.000    20550654.939    84151574.925         640.760          47.000  
S31  38837199.412   204091021.156        -644.409          43.000  
E30  25872605.242   135961574.632       -3022.981          44.000    25872605.173   104178245.230       -2316.381          50.000  
R21  20317511.933   108723439.823        -989.975          51.000    20317507.803    84562516.079        -770.000          50.000  
E15  24831466.887   130490311.627         420.669          47.000    24831467.369    99986133.836         322.281          51.000  
G23  24738521.466   130001808.7201      -4040.732          28.000    24738519.187   101300256.568       -3148.442          34.000  
E34  24292210.377   127656659.069       -1177.280          46.000    24292210.735    97814997.387        -902.128          54.000  
G27  20334292.392   106857408.550       -1484.345          47.000    20334289.351    83265609.501       -1156.561          48.000  
G10  21617592.908   113601356.632       -3359.308          51.000    21617588.458    88520507.493       -2617.690          45.000  
E03  25597168.760   134514067.725        1921.724          44.000    25597169.458   103069242.351        1472.465          49.000  
G21  22298725.924   117180598.399        1899.492          48.000                                                                  
E27  26100067.511   137156658.754        -925.936          43.000    26100069.395   105094175.467        -709.468          48.000  
E18  25839329.179   135786633.130       -1466.735          46.000                                                                  
G32  21776439.020   114435995.316         473.509          48.000    21776435.566    89170915.360         369.068          44.000  
E09                                                                  28080124.979                       -1930.245          28.000  
R12                                                                  23212389.853                3      -2249.399          21.000  
> 2024 04 15 09 41 30.5000000  0 25                     
S33  39794786.835   209123224.949        -643.944          42.000  
E05  23709941.057   124596620.738        -234.418          45.000    23709942.174    95470156.388        -179.648          51.000  
E36  27547906.232   144765181.193       -2280.236          37.000    27547906.436   110924484.441       -1747.178          40.000  
G02  23363539.652   122776236.999        2025.170          46.000                                                                  
R20  23696035.318   126713415.552       -3141.443          40.000    23696033.287    98554967.581       -2443.536          37.000  
R08  23702752.902                3       3891.268          26.000    23702817.817                        3026.154          25.000  
R06  19943597.947   106422924.307       -2016.620          39.000                                                                  
R22  20901447.117   111573311.944        1485.474          51.000    20901441.867    86779318.347        1155.396          48.000  
G16  23452745.067   123245016.291       -3904.151          44.000                                                                  
G08  20546007.979   107970165.985         806.181          49.000    20546005.706    84132537.751         628.209          46.000  
S31  38840878.241   204110352.776        -644.510          44.000  
E30  25889877.128   136052349.136       -3028.764          41.000    25889878.964   104247799.729       -2320.757          50.000  
R21  20323091.442   108753291.642       -1000.456          51.000    20323085.527    84585734.203        -778.072          49.000  
E15  24829066.560   130477698.652         420.025          47.000    24829067.110    99976469.381         321.884          51.000  
G23  24761580.755   130122999.382       -4039.658          30.000    24761581.022   101394693.198       -3147.346          32.000  
E34  24298935.863   127692001.313       -1179.032          46.000    24298936.116    97842077.827        -903.408          54.000  
G27  20342816.270   106902202.651       -1502.163          47.000    20342813.453    83300514.002       -1170.384          48.000  
G10  21636793.685   113702258.619       -3367.529          50.000    21636789.866    88599132.443       -2624.170          45.000  
E03  25586213.939   134456498.283        1916.147          45.000    25586214.547   103025130.724        1468.135          49.000  
G21  22287887.511   117123644.655        1897.338          47.000                                                                  
E27  26105391.055   137184632.978        -939.222          43.000    26105392.435   105115610.311        -719.764          47.000  
E18  25847702.849   135830638.029       -1467.169          46.000                                                                  
G32  21773790.113   114422070.996         454.562          49.000    21773785.741    89160065.267         354.175          45.000  
E09                                                                  28094532.652                       -1937.345          25.000  
R12                                                                  23228671.395                3      -2262.195          17.000  
> 2024 04 15 09 42 00.0000000  0 25                     
S33  39798400.003   209142211.144        -643.838          41.000  
E05  23711294.983   124603729.814        -247.942          46.000    23711294.690    95475603.607        -189.953          51.000  
E36  27560706.751   144832451.033       -2280.859          39.000    27560707.567   110976028.860       -1747.868          39.000  
G02  23352172.243   122716503.289        2024.232          46.000                                                                  
R20  23713383.844   126806186.772       -3148.242          40.000    23713381.487    98627122.896       -2448.706          36.000  
R08  23681328.624                1       3888.400          31.000    23681376.611                3       3023.629          25.000  
R06  19954812.183   106482763.015       -2041.066          40.000                                                                  
R22  20893246.202   111529532.745        1482.220          52.000    20893240.611    86745267.934        1152.795          49.000  
G16  23474669.195   123360226.935       -3907.179          44.000                                                                  
G08  20541525.000   107946605.963         790.581          49.000    20541522.336    84114179.316         616.034          46.000  
S31  38844494.258   204129356.369        -644.382          43.000  
E30  25906895.006   136141776.223       -3034.405          42.000    25906896.375   104316321.797       -2325.116          50.000  
R21  20328632.500   108782945.727       -1010.512          52.000    20328627.137    84608798.504        -785.938          49.000  
E15  24826708.956   130465314.605         419.153          46.000    24826710.393    99966980.337         321.213          51.000  
G23  24784254.586   130242137.530       -4037.679          31.000    24784251.498                       -3146.868          28.000  
E34  24305557.066   127726801.770       -1180.772          46.000    24305558.381    97868743.147        -904.718          54.000  
G27  20351296.627   106946771.015       -1519.903          46.000    20351294.404    83335242.615       -1184.299          48.000  
G10  21655720.474   113801715.982       -3375.646          51.000    21655716.556    88676631.709       -2630.416          46.000  
E03  25575472.621   134400051.154        1910.334          45.000    25575472.401   102981879.045        1463.930          49.000  
G21  22277239.495   117067690.112        1895.645          46.000                                                                  
E27  26110700.101   137212532.527        -952.644          42.000    26110701.371   105136987.922        -729.943          47.000  
E18  25855938.226   135873916.671       -1467.458          45.000                                                                  
G32  21771288.676   114408928.484         436.136          49.000    21771284.956    89149824.375         339.812          45.000  
E09                                                                  28108759.943                3      -1946.776          24.000  
R07                                                                  20051911.933                3       1725.000          13.000  
> 2024 04 15 09 42 30.0000000  0 25                     
S33  39802073.465   209161515.439        -643.628          42.000  
E05  23712748.179   124611365.728        -261.701          46.000    23712747.633    95481454.505        -200.541          50.000  
E36  27573728.122   144900882.128       -2281.336          38.000    27573728.438   111028463.066       -1748.093          39.000  
G02  23340617.542   122655787.289        2023.040          44.000                                                                  
R20  23731064.463   126900732.211       -3155.334          40.000    23731062.164    98700658.132       -2453.632          37.000  
R08  23659549.842   126695801.9701       3885.716          36.000    23659543.377                        3022.212          30.000  
R06  19966354.835   106544358.521       -2065.969          39.000                                                                  
R22  20884924.466   111485112.037        1478.693          52.000    20884919.384    86710718.539        1150.043          49.000  
G16  23496981.776   123477479.891       -3910.138          44.000                                                                  
G08  20537056.120   107923121.971         774.530          50.000    20537053.102    84095880.116         603.625          46.000  
S31  38848171.127   204148678.333        -644.235          43.000  
E30  25924232.856   136232886.863       -3040.267          41.000    25924233.977   104386133.850       -2329.367          50.000  
R21  20334325.451   108813410.406       -1021.004          52.000    20334319.131    84632493.240        -794.057          49.000  
E15  24824316.716   130452741.163         418.426          47.000    24824317.546    99957346.168         320.644          50.000  
G23  24807304.730   130363258.741       -4036.914          28.000    24807300.048                3      -3147.638          20.000  
E34  24312302.378   127762242.028       -1182.547          46.000    24312302.349    97895898.683        -906.025          54.000  
G27  20360023.202   106992626.082       -1537.777          47.000    20360020.661    83370973.824       -1198.125          48.000  
G10  21675013.039   113903099.128       -3383.804          51.000    21675008.741    88755631.569       -2636.726          46.000  
E03  25564580.714   134342816.422        1904.710          45.000    25564581.000   102938023.862        1459.490          49.000  
G21  22266420.519   117010840.108        1893.738          46.000                                                                  
E27  26116176.736   137241304.118        -966.033          44.000    26116176.228   105159033.739        -740.087          46.000  
E18  25864314.428   135917937.193       -1467.734          45.000                                                                  
G32  21768852.158   114396125.605         417.015          48.000    21768848.077    89139848.112         324.991          44.000  
E09                                                                  28123284.319                       -1953.641          29.000  
R12                                                                  23261149.583                3      -2275.271          21.000  
> 2024 04 15 09 43 00.0000000  0 26                     
S33  39805746.773   209180817.759        -643.653          42.000  
E05  23714279.136   124619413.691        -275.274          45.000    23714278.890    95487621.147        -211.019          50.000  
E36  27586755.476   144969336.949       -2282.598          38.000    27586755.970   111080915.384       -1748.674          41.000  
G02  23329069.862   122595103.691        2022.047          45.000                                                                  
R20  23748782.907   126995482.272       -3161.963          38.000    23748781.338    98774352.589       -2459.393          37.000  
R08  23637782.756   126579260.003        3883.671          38.000    23637777.204    98450678.3451       3020.461          33.000  
R06  19978038.277   106606702.413       -2090.704          38.000                                                                  
R22  20876622.678   111440796.159        1475.317          52.000    20876618.255    86676250.695        1147.437          50.000  
G16  23519311.529   123594821.905       -3913.227          44.000                                                                  
G08  20532678.940   107900121.321         758.330          50.000    20532676.434    84077957.546         590.984          46.000  
S31  38851847.306   204167998.166        -644.357          43.000  
E30  25941602.022   136324166.538       -3045.532          40.000    25941603.751   104456075.427       -2333.706          50.000  
R21  20340077.218   108844189.202       -1031.459          52.000    20340071.110    84656432.316        -802.255          48.000  
R07  20027144.549                3       2476.422          10.000                                                                  
E15  24821928.990   130440190.185         417.739          47.000    24821929.189    99947729.211         320.092          51.000  
G23  24830344.450   130484343.511       -4036.140          27.000                                                                  
E34  24319056.726   127797734.765       -1184.069          46.000    24319056.424    97923094.449        -907.418          54.000  
G27  20368851.614   107039018.751       -1555.560          48.000    20368849.323    83407123.971       -1212.109          49.000  
G10  21694351.128   114004723.587       -3391.649          50.000    21694347.380    88834819.479       -2643.104          46.000  
E03  25553722.733   134285755.963        1898.911          45.000    25553722.456   102894302.220        1455.109          48.000  
G21  22255613.234   116954046.116        1891.911          46.000                                                                  
E27  26121727.735   137270479.518        -979.650          44.000    26121728.464   105181388.977        -750.615          47.000  
E18  25872692.794   135961967.398       -1468.181          45.000                                                                  
G32  21766523.955   114383893.396         397.930          47.000    21766521.657    89130316.538         310.233          45.000  
E09                                                                  28137864.209   113299526.8051      -1961.317          29.000  
R12                                                                  23277668.124                3      -2294.644          20.000  
> 2024 04 15 09 43 30.5000000  0 26                     
S33  39809479.962   209200437.690        -643.561          42.000  
E05  23715916.549   124628016.720        -289.505          45.000    23715916.216    95494213.082        -221.771          51.000  
E36  27600003.848   145038955.324       -2283.747          38.000    27600005.032   111134259.299       -1749.661          42.000  
G02  23317336.197   122533440.861        2020.879          46.000                                                                  
R20  23766836.037   127092020.221       -3169.244          40.000    23766834.413    98849437.545       -2464.667          36.000  
R08  23615670.022   126460854.693        3880.209          39.000    23615663.768    98358585.383        3017.331          35.000  
R06  19990059.528   106670847.925       -2115.939          39.000                                                                  
R22  20868203.119   111395848.837        1471.484          52.000    20868198.756    86641291.721        1144.543          50.000  
G16  23542029.940   123714205.548       -3916.073          44.000                                                                  
G08  20528323.586   107877232.979         741.640          49.000    20528321.065    84060122.481         577.889          46.000  
S31  38855584.609   204187636.362        -644.250          43.000  
E30  25959294.261   136417136.668       -3051.629          41.000    25959295.261   104527312.291       -2338.110          49.000  
R21  20345985.073   108875802.302       -1042.277          52.000    20345978.954    84681020.322        -810.573          49.000  
R07  20019944.977                3       2464.961          12.000                                                                  
E15  24819505.516   130427450.945         416.869          48.000    24819505.314    99937968.010         319.465          51.000  
G23  24853761.390   130607405.294       -4034.196          28.000    24853763.462                       -3143.314          26.000  
E34  24325933.139   127833871.193       -1186.147          46.000    24325932.752    97950783.419        -908.844          53.000  
G27  20377931.263   107086733.813       -1573.868          48.000    20377928.974    83444304.572       -1226.431          48.000  
G10  21714058.830   114108284.497       -3399.937          51.000    21714053.843    88915516.294       -2649.341          45.000  
E03  25542718.682   134227923.153        1892.633          46.000    25542717.354   102849988.795        1450.278          48.000  
G21  22244636.378   116896361.622        1889.914          47.000                                                                  
E27  26127450.547   137300552.430        -993.256          45.000    26127451.093   105204431.930        -760.981          47.000  
E18  25881212.539   136006738.800       -1468.543          44.000                                                                  
G32  21764270.108   114372042.065         378.353          48.000    21764266.501    89121081.738         294.917          45.000  
E09                                                                  28152747.765                3      -1968.265          25.000  
R12                                                                  23294538.742                3      -2309.469          19.000  
> 2024 04 15 09 44 00.5000000  0 25                     
S33  39813152.314   209219737.146        -643.475          41.000  
E05  23717606.924   124636899.205        -303.225          46.000    23717606.505    95501019.146        -232.335          51.000  
E36  27613039.393   145107461.269       -2284.376          35.000    27613041.267   111186750.764       -1750.333          42.000  
G02  23305801.228   122472826.362        2019.658          46.000                                                                  
R20  23784633.218   127187187.381       -3175.598          39.000    23784630.915    98923456.386       -2469.971          36.000  
R08  23593937.020   126344477.582        3877.853          43.000    23593930.835    98268069.882        3016.238          37.000  
R06  20002024.036   106734695.558       -2140.991          39.000                                                                  
R22  20859941.725   111351751.713        1467.688          52.000    20859937.587    86606993.993        1141.528          51.000  
G16  23564391.183   123831719.289       -3918.695          41.000                                                                  
G08  20524133.793   107855215.500         725.537          50.000    20524130.578    84042966.044         565.350          46.000  
S31  38859260.339   204206953.765        -643.853          43.000  
E30  25976729.238   136508752.948       -3056.770          42.000    25976729.372   104597511.831       -2342.401          49.000  
R21  20351856.403   108907220.935       -1052.883          52.000    20351850.413    84705457.026        -818.897          48.000  
E15  24817125.565   130414947.104         416.084          47.000    24817125.554    99928387.191         318.898          51.000  
G23  24876791.725                       -4033.299          26.000    24876796.991                1      -3143.103          27.000  
E34  24332707.801   127869472.867       -1187.927          45.000    24332707.509    97978062.643        -910.209          54.000  
G27  20386966.924   107134212.919       -1591.859          47.000    20386963.738    83481301.251       -1240.394          48.000  
G10  21733489.136   114210389.744       -3407.703          51.000    21733484.148    88995078.824       -2655.352          45.000  
E03  25531927.499   134171222.137        1886.677          45.000    25531927.702   102806542.592        1445.697          48.000  
G21  22233851.436   116839685.327        1887.986          46.000                                                                  
E27  26133157.312   137330542.303       -1006.611          44.000    26133157.964   105227411.221        -771.305          47.000  
E18  25889595.609   136050788.996       -1468.757          45.000                                                                  
G32  21762162.321   114360967.913         359.194          48.000    21762159.090    89112452.567         279.714          45.000  
E09                                                                  28167443.553                3      -1977.967          18.000  
R12                                                                  23311202.411                3      -2310.936          20.000  
> 2024 04 15 09 44 30.5000000  0 26                     
S33  39816826.102   209239041.230        -643.479          41.000  
E05  23719377.241   124646201.379        -316.936          46.000    23719377.018    95508146.813        -242.859          51.000  
E36  27626080.828   145175998.435       -2285.195          35.000    27626082.936   111239266.167       -1750.624          40.000  
G02  23294273.711   122412252.155        2018.443          45.000                                                                  
R20  23802469.372   127282565.807       -3183.136          38.000    23802467.667    98997639.553       -2475.598          37.000  
R08  23572221.401   126228193.226        3874.584          46.000    23572214.815    98177626.567        3013.882          41.000  
R06  20014128.510   106799290.211       -2165.487          39.000                                                                  
R22  20851702.004   111307770.901        1464.130          51.000    20851697.850    86572786.759        1138.623          50.000  
G16  23586769.929   123949318.697       -3921.531          40.000                                                                  
G08  20520038.330   107833693.912         709.123          49.000    20520034.852    84026196.014         552.334          45.000  
S31  38862937.349   204226275.484        -644.136          43.000  
E30  25994195.310   136600538.299       -3062.297          42.000    25994195.149   104667840.843       -2346.390          49.000  
R21  20357789.358   108938964.366       -1063.603          52.000    20357782.964    84730146.370        -827.194          49.000  
R07  19995288.939                3       2448.147          12.000    19995019.769                3       1675.359          12.000  
E15  24814751.383   130402471.738         415.425          48.000    24814751.684    99918828.187         318.296          51.000  
G23  24899821.120                3      -4032.136          25.000    24899813.166                3      -3147.452          23.000  
E34  24339491.945   127905134.211       -1189.906          44.000    24339493.564    98005387.594        -911.555          54.000  
G27  20396105.777   107182235.867       -1609.786          48.000    20396102.034    83518721.762       -1254.371          48.000  
G10  21752963.911   114312734.691       -3415.510          51.000    21752959.419    89074828.133       -2661.397          43.000  
E03  25521173.448   134114707.466        1880.816          45.000    25521172.853   102763239.175        1441.035          48.000  
G21  22223078.836   116783073.835        1885.976          47.000                                                                  
E27  26138942.604   137360940.296       -1019.956          44.000    26138942.441   105250703.225        -781.575          47.000  
E18  25897981.145   136094853.478       -1468.890          45.000                                                                  
G32  21760165.853   114350475.756         339.982          48.000    21760162.186    89104276.868         264.902          45.000  
E09                                                                  28182197.229                3      -1984.872          25.000  
R12                                                                  23327953.885                3      -2338.284          18.000  
