     3.00           OBSERVATION DATA    M: Mixed            RINEX VERSION / TYPE
CONVBIN 2.4.3                           20240415 221442 UTC PGM / RUN BY / DATE 
format: u-blox UBX                                          COMMENT             
log: /home/regis/git/gnsspwv/obsdata/VERT00CHL/2024-04-15/VECOMMENT             
{self.marker}                                               MARKER NAME         
                                                            MARKER NUMBER       
GEODETIC                                                    MARKER TYPE         
{self.observer}     {self.institution}                      OBSERVER / AGENCY   
UNKNOWN             UBLOX-ZED-F9P                           REC # / TYPE / VERS 
UNKNOWN             TWIVSP6037L                             ANT # / TYPE        
  1713381.0000 -5047934.0000 -3490983.0000                  APPROX POSITION XYZ 
        0.0000        0.0000        0.0000                  ANTENNA: DELTA H/E/N
G    8 C1C L1C D1C S1C C2L L2L D2L S2L                      SYS / # / OBS TYPES 
R    8 C1C L1C D1C S1C C2C L2C D2C S2C                      SYS / # / OBS TYPES 
E    8 C1C L1C D1C S1C C7Q L7Q D7Q S7Q                      SYS / # / OBS TYPES 
S    4 C1C L1C D1C S1C                                      SYS / # / OBS TYPES 
  2024    04    15    22    00   00.4960000     GPS         TIME OF FIRST OBS   
  2024    04    15    22    14   30.4960000     GPS         TIME OF LAST OBS    
                                                            END OF HEADER       
> 2024 04 15 22 00 00.4960000  0 24                     
G05  22798820.426   119808371.3981      -3748.111          43.000    22798834.214    93357113.2601      -2920.677          35.000  
E19  22181588.686   116565033.5941       -192.028          44.000    22181591.032    89316211.7231       -147.255          48.000  
G24  21481805.688   112887758.4041       1291.653          45.000    21481807.984    87964516.3651       1006.346          44.000  
E27  24373622.271   128084252.4201      -3019.491          46.000    24373627.656    98142802.2851      -2313.694          52.000  
R16  21157958.489   113021983.1651       1400.723          48.000    21157964.689    87906156.4121       1089.426          47.000  
R17  22501524.100   120410261.7241       2712.457          48.000    22501548.513    93652503.9041       2109.564          46.000  
R04  19102186.949   102291374.2561      -4105.343          52.000    19102187.299    79559956.9571      -3193.063          49.000  
R15  18662822.095    99728673.4721       -987.758          52.000    18662822.122    77567050.0791       -768.288          50.000  
R05  18308453.038    97869237.1961       -172.415          53.000    18308452.336    76120420.7361       -134.147          49.000  
G19  20167785.082   105982867.7371        553.650          49.000                                                                  
S31  37484458.499   196982164.0211       -790.365          45.000  
S33  38434367.960   201973973.4681       -791.787          42.000  
G14  21916850.563   115174065.7811      -3939.798          44.000    21916850.244    89746153.4941      -3069.893          44.000  
R24  21726579.101   116181959.0351        886.500          45.000    21726581.760    90363820.3311        689.478          43.000  
R14  20234980.546   107864088.4691      -3313.409          51.000    20234982.318    83894471.0611      -2577.103          47.000  
G12  22318280.272   117283394.9001       1986.659          44.000    22318285.416    91389791.3631       1547.720          40.000  
G13  18863275.698    99127279.4011      -1652.936          48.000                                                                  
G17  20310087.076   106730652.6681       -675.631          45.000    20310086.481    83166946.5221       -526.404          42.000  
G15  19469073.140   102310714.5151        118.255          49.000    19469072.193    79722667.8631         92.237          47.000  
G22  19858112.520   104355387.8821      -3042.567          47.000                                                                  
G30  23292123.159   122400942.5321      -3291.234          40.000    23292129.174    95377386.8721      -2564.514          41.000  
E21  22170834.607   116508525.5491       -998.410          48.000    22170839.113    89273214.5681       -765.067          52.000  
E04                                                                  26087976.722   105045485.1381       1451.577          33.000  
G23                                                                  22966236.137    94042911.5801       -203.877          33.000  
> 2024 04 15 22 00 30.4960000  0 24                     
G05  22820217.851   119920811.932       -3748.322          41.000    22820231.754    93444728.360       -2920.119          36.000  
E19  22182717.982   116570968.324        -203.917          44.000    22182720.334    89320759.127        -156.280          48.000  
G24  21474432.925   112849017.125        1290.674          44.000    21474435.218    87934328.503        1005.791          44.000  
E27  24390865.210   128174868.267       -3021.966          45.000    24390871.293    98212235.290       -2315.571          52.000  
R16  21150114.106   112980078.645        1392.472          49.000    21150120.483    87873564.374        1082.938          48.000  
R17  22486316.030   120328893.369        2711.670          48.000    22486339.297    93589219.510        2109.064          46.000  
R04  19125236.222   102414802.618       -4123.614          51.000    19125237.228    79655956.690       -3207.177          49.000  
R15  18668394.111    99758449.527        -997.640          52.000    18668394.390    77590209.306        -776.006          50.000  
R05  18309496.797    97874815.176        -199.803          53.000    18309496.287    76124759.159        -155.446          50.000  
G19  20164674.380   105966521.084         535.759          49.000                                                                  
S31  37488971.821   197005878.671        -790.845          44.000  
S33  38438888.628   201997730.486        -792.031          43.000  
G14  21939347.004   115292287.663       -3941.970          44.000    21939346.721    89838274.543       -3071.664          43.000  
R24  21721656.047   116155636.802         867.832          44.000    21721658.516    90343347.672         674.831          43.000  
R14  20253629.511   107963504.478       -3314.790          50.000    20253630.371    83971794.684       -2578.198          46.000  
G12  22306962.426   117223919.666        1978.163          45.000    22306967.008    91343447.439        1541.159          40.000  
G13  18872758.644    99177115.924       -1670.114          47.000                                                                  
G17  20314003.332   106751230.054        -696.443          46.000    20314002.292    83182980.992        -542.767          42.000  
G15  19468445.234   102307414.637         101.306          49.000    19468444.248    79720096.556          79.017          47.000  
G22  19875512.225   104446820.813       -3053.352          48.000                                                                  
G30  23310917.168   122499705.428       -3293.534          41.000    23310923.114    95454344.944       -2566.462          41.000  
E21  22176558.365   116538609.278       -1007.593          47.000    22176563.653    89296265.797        -772.053          52.000  
E04                                                                  26077170.508   105001974.845        1449.166          33.000  
G23                                                                  22967781.938    94049242.166        -217.922          33.000  
> 2024 04 15 22 01 00.4960000  0 24                     
G05  22841619.337   120033270.010       -3748.783          43.000    22841632.912    93532357.285       -2921.007          38.000  
E19  22183915.179   116577262.116        -215.942          43.000    22183918.125    89325581.664        -165.475          48.000  
G24  21467067.525   112810312.403        1289.457          44.000    21467069.498    87904169.156        1004.608          43.000  
E27  24408123.886   128265561.589       -3024.593          46.000    24408129.418    98281727.622       -2317.616          52.000  
R16  21142316.756   112938431.218        1383.856          47.000    21142323.467    87841172.271        1076.218          48.000  
R17  22471114.292   120247556.219        2710.233          47.000    22471136.818    93525959.468        2107.915          45.000  
R04  19148388.664   102538782.730       -4142.012          52.000    19148388.865    79752385.522       -3221.708          48.000  
R15  18674021.732    99788525.882       -1007.761          52.000    18674022.739    77613602.078        -783.816          50.000  
R05  18310694.662    97881219.693        -227.521          53.000    18310694.105    76129740.473        -177.041          50.000  
G23  22969438.342                3       -297.256          23.000    22969429.382                        -231.414          30.000  
G19  20161665.214   105950713.465         517.751          49.000                                                                  
S31  37493486.007   197029604.187        -791.206          44.000  
S33  38443411.427   202021497.896        -792.571          43.000  
G14  21961858.337   115410585.053       -3944.741          44.000    21961858.129    89930454.386       -3073.891          43.000  
R24  21716840.058   116129886.083         848.558          45.000    21716842.157    90323319.572         659.756          42.000  
R14  20272288.363   108062968.670       -3316.547          49.000    20272291.957    84049155.745       -2579.458          47.000  
G12  22295693.670   117164702.379        1969.477          44.000    22295697.742    91297304.483        1534.453          41.000  
G13  18882342.819    99227477.456       -1687.943          48.000                                                                  
G17  20318040.072   106772437.111        -717.754          47.000    20318038.191    83199506.065        -559.342          41.000  
G15  19467914.376   102304627.476          84.124          49.000    19467913.578    79717924.764          65.483          47.000  
G22  19892973.885   104538580.888       -3064.375          49.000                                                                  
G30  23329725.286   122598542.029       -3296.346          40.000    23329730.486    95531360.437       -2568.424          40.000  
E21  22182336.322   116568970.493       -1016.812          47.000    22182341.287    89319529.645        -779.155          52.000  
E04                                                                  26066380.633   104958528.401        1447.304          34.000  
> 2024 04 15 22 01 30.4960000  0 24                     
G05  22863023.609   120145745.467       -3749.707          42.000    22863037.161    93619999.647       -2921.727          37.000  
E19  22185181.619   116583919.042        -228.239          43.000    22185184.737    89330682.442        -174.845          48.000  
G24  21459710.320   112771647.891        1287.762          45.000    21459711.117    87874041.091        1003.441          43.000  
E27  24425397.329   128356334.084       -3027.382          46.000    24425402.997    98351280.618       -2319.634          51.000  
R16  21134570.032   112897043.825        1374.983          50.000    21134575.061    87808982.426        1069.341          48.000  
R17  22455920.723   120166257.781        2708.910          46.000    22455942.065    93462729.473        2106.964          46.000  
R04  19171645.179   102663313.974       -4160.483          52.000    19171644.714    79849242.987       -3235.946          49.000  
R15  18679706.839    99818904.054       -1017.869          52.000    18679707.376    77637229.633        -791.733          50.000  
R05  18312047.308    97888455.448        -255.417          52.000    18312047.091    76135368.288        -198.527          48.000  
G19  20158761.312   105935449.709         499.235          49.000                                                                  
S31  37498003.278   197053342.474        -791.751          44.000  
S33  38447936.564   202045278.960        -793.450          43.000  
G14  21984384.443   115528959.269       -3947.229          44.000    21984383.088    90022694.170       -3076.188          42.000  
R24  21712132.389   116104713.375         828.912          45.000    21712133.529    90303741.069         644.645          39.000  
R14  20290957.688   108162482.808       -3318.339          51.000    20290960.951    84126555.682       -2580.955          47.000  
G12  22284474.741   117105746.607        1960.601          44.000    22284478.721    91251365.326        1527.795          41.000  
G13  18892027.199    99278367.474       -1705.416          48.000                                                                  
G17  20322196.342   106794277.206        -738.888          47.000    20322193.779    83216524.423        -576.063          42.000  
G15  19467482.138   102302357.516          66.734          48.000    19467481.670    79716156.004          52.075          47.000  
G22  19910497.328   104630668.811       -3075.262          48.000                                                                  
G30  23348548.012   122697455.318       -3298.589          42.000    23348553.509    95608435.709       -2570.469          41.000  
E21  22188167.032   116599611.196       -1026.227          48.000    22188171.658    89343007.654        -786.450          51.000  
E04                                                                  26055608.237   104915149.446        1444.386          36.000  
G23                                                                  22971179.793                1       -245.182          26.000  
> 2024 04 15 22 02 00.4960000  0 24                     
G05  22884430.295   120258232.341       -3749.847          44.000    22884443.384    93707650.951       -2921.746          37.000  
E19  22186517.330   116590937.196        -240.038          43.000    22186520.346    89336060.024        -184.014          48.000  
G24  21452359.590   112733020.874        1286.630          46.000    21452360.519    87843942.294        1002.630          43.000  
E27  24442684.077   128447181.220       -3029.625          45.000    24442690.208    98420890.832       -2321.359          52.000  
R16  21126869.152   112855912.736        1366.627          50.000    21126874.966    87776991.921        1062.890          48.000  
R17  22440733.446   120084999.190        2707.744          47.000    22440755.142    93399530.466        2106.061          46.000  
R04  19195002.021   102788389.311       -4178.303          51.000    19195002.800    79946523.609       -3249.714          49.000  
R15  18685447.922    99849578.892       -1027.502          52.000    18685447.292    77661087.903        -799.252          50.000  
R05  18313555.539    97896520.148        -282.782          52.000    18313555.762    76141640.881        -219.974          49.000  
G23  22973032.716                3       -333.855          24.000    22973034.883                3       -265.539          19.000  
G19  20155960.197   105920729.097         481.495          49.000                                                                  
S31  37502522.425   197077091.737        -791.750          44.000  
S33  38452463.835   202069069.999        -793.407          42.000  
G14  22006923.517   115647405.110       -3949.576          44.000    22006923.673    90114989.713       -3077.732          44.000  
R24  21707531.751   116080118.507         810.105          43.000    21707533.318    90284611.900         630.053          42.000  
R14  20309634.595   108262042.581       -3319.553          51.000    20309637.423    84203991.161       -2581.909          48.000  
E04  26044856.854                3       1882.726          25.000    26044851.809   104871836.595        1442.588          37.000  
G12  22273305.335   117047050.065        1952.094          45.000    22273309.555    91205628.175        1521.050          43.000  
G13  18901810.947    99329782.502       -1722.844          47.000                                                                  
G17  20326471.482   106816747.474        -759.512          47.000    20326470.074    83234033.809        -591.957          43.000  
G15  19467148.027   102300602.772          49.847          47.000    19467147.754    79714788.705          38.713          46.000  
G22  19928081.684   104723078.935       -3085.715          48.000                                                                  
G30  23367384.703   122796442.207       -3301.008          41.000    23367390.210    95685568.285       -2572.169          42.000  
E21  22194051.266   116630527.173       -1035.104          48.000    22194054.873    89366696.568        -793.223          51.000  
> 2024 04 15 22 02 30.4960000  0 24                     
G05  22905837.502   120370724.547       -3749.544          42.000    22905851.155    93795306.432       -2921.923          37.000  
E19  22187920.768   116598314.115        -251.815          42.000    22187924.318    89341712.487        -192.988          48.000  
G24  21445015.556   112694428.829        1285.895          45.000    21445016.551    87813870.731        1001.973          44.000  
E27  24459985.996   128538098.665       -3031.565          46.000    24459991.418    98490554.894       -2322.868          51.000  
R16  21119216.646   112815034.080        1358.507          50.000    21119221.987    87745197.763        1056.763          47.000  
R17  22425555.286   120003781.541        2706.621          46.000    22425576.042    93336363.334        2105.003          46.000  
R04  19218458.789   102914001.308       -4195.777          52.000    19218459.447    80044221.695       -3263.479          48.000  
R15  18691242.532    99880545.645       -1036.904          52.000    18691242.140    77685173.217        -806.442          49.000  
R05  18315219.205    97905411.693        -310.106          52.000    18315219.635    76148556.536        -241.125          49.000  
G23  22974991.632                        -350.563          27.000    22974976.343                        -273.150          29.000  
G19  20153261.788   105906550.193         463.761          50.000                                                                  
S31  37507042.991   197100846.707        -791.826          44.000  
S33  38456992.298   202092867.524        -792.992          42.000  
G14  22029476.417   115765917.608       -3951.345          44.000    22029475.598    90207337.159       -3078.969          44.000  
R24  21703040.209   116056101.903         790.990          45.000    21703042.696    90265932.507         615.245          42.000  
R14  20328317.996   108361643.569       -3320.539          48.000    20328322.951    84281458.600       -2582.742          47.000  
E04  26034125.650                3       1880.794          23.000    26034111.369   104828588.662        1440.405          37.000  
G12  22262183.083   116988610.635        1943.921          42.000    22262188.125    91160091.324        1514.906          42.000  
G13  18911693.337    99381719.560       -1739.875          47.000                                                                  
G17  20330867.309   106839845.456        -780.032          47.000    20330865.661    83252032.329        -608.336          42.000  
G15  19466911.893   102299361.717          32.946          48.000    19466911.485    79713821.657          25.615          46.000  
G22  19945727.785   104815805.917       -3095.969          49.000                                                                  
G30  23386235.010   122895499.585       -3303.083          41.000    23386240.575    95762755.772       -2573.727          41.000  
E21  22199985.789   116661714.247       -1043.928          48.000    22199989.410    89390593.226        -799.930          52.000  
> 2024 04 15 22 03 00.4960000  0 24                     
G05  22927244.668   120483217.114       -3749.155          41.000    22927259.150    93882962.150       -2921.413          38.000  
E19  22189393.335   116606049.310        -263.618          43.000    22189396.221    89347639.483        -202.060          48.000  
G24  21437678.075   112655870.465        1284.692          45.000    21437679.105    87783825.398        1001.222          44.000  
E27  24477301.059   128629083.219       -3033.664          46.000    24477305.228    98560270.353       -2324.627          52.000  
R16  21111610.133   112774405.455        1350.227          50.000    21111615.727    87713598.078        1050.045          48.000  
R17  22410384.423   119922607.192        2705.071          47.000    22410404.857    93273229.841        2103.856          45.000  
R04  19242015.341   103040144.397       -4213.417          52.000    19242014.432    80142332.797       -3277.119          48.000  
R15  18697090.402    99911800.540       -1046.511          51.000    18697090.669    77709482.649        -813.922          49.000  
R05  18317037.470    97915129.387        -337.535          52.000    18317037.764    76156114.755        -262.515          49.000  
G23  22977032.567                        -368.332          26.000    22977031.078                        -287.359          26.000  
G19  20150667.078   105892913.028         445.605          50.000                                                                  
S31  37511564.308   197124607.648        -792.126          44.000  
S33  38461521.985   202116671.108        -793.780          42.000  
G14  22052040.006   115884492.933       -3953.301          42.000    22052039.441    90299733.643       -3080.691          44.000  
R24  21698658.140   116032664.535         771.644          46.000    21698659.804    90247703.675         600.093          42.000  
R14  20347010.478   108461282.033       -3321.792          48.000    20347015.779    84358955.243       -2583.585          49.000  
G12  22251109.875   116930427.414        1935.314          43.000    22251116.961    91114754.189        1508.020          44.000  
G13  18921676.848    99434177.317       -1757.335          47.000                                                                  
G17  20335381.923   106863569.994        -801.139          47.000    20335380.190    83270519.043        -624.254          42.000  
G15  19466772.866   102298633.385          15.789          47.000    19466772.639    79713254.137          12.310          46.000  
G22  19963432.273   104908845.611       -3106.398          49.000                                                                  
G30  23405098.263   122994625.504       -3305.186          40.000    23405103.734    95839996.729       -2575.575          40.000  
E21  22205971.782   116693169.451       -1052.739          47.000    22205975.177    89414695.341        -806.751          52.000  
E04                                                                  26023386.034   104785405.236        1438.334          36.000  
> 2024 04 15 22 03 30.4960000  0 24                     
G05  22948648.779   120595696.849       -3748.969          38.000    22948663.782    93970607.913       -2921.785          38.000  
E19  22190930.851   116614133.247        -275.338          43.000    22190934.413    89353833.717        -210.951          48.000  
G24  21430345.162   112617336.381        1284.163          45.000    21430346.501    87753799.004        1000.470          45.000  
E27  24494624.258   128720123.625       -3035.584          46.000    24494629.387    98630028.624       -2326.048          51.000  
R16  21104049.100   112734016.378        1342.203          50.000    21104054.387    87682184.684        1043.767          48.000  
R17  22395219.378   119841470.415        2703.907          47.000    22395240.685    93210125.554        2102.961          45.000  
R04  19265668.805   103166804.893       -4230.651          52.000    19265668.358    80240846.354       -3290.472          49.000  
R15  18702991.219    99943332.072       -1055.775          51.000    18702991.149    77734007.223        -821.130          49.000  
R05  18319008.384    97925664.073        -364.839          53.000    18319008.582    76164308.401        -283.817          49.000  
G23  22979182.590                3       -387.706          23.000    22979200.961                3       -300.590          24.000  
G19  20148173.359   105879809.369         427.825          49.000                                                                  
S31  37516085.015   197148363.603        -791.763          44.000  
S33  38466050.801   202140468.962        -792.970          42.000  
G14  22074614.213   116003119.239       -3955.008          42.000    22074613.859    90392169.806       -3082.057          44.000  
R24  21694382.616   116009799.508         752.477          46.000    21694384.019    90229919.983         585.038          43.000  
R14  20365707.205   108560946.802       -3322.826          48.000    20365709.971    84436472.378       -2584.403          46.000  
E04  26012679.605                        1874.659          28.000    26012675.171   104742279.997        1436.331          35.000  
G12  22240084.904   116872491.366        1927.243          44.000    22240091.269    91069609.578        1501.748          43.000  
G13  18931755.757    99487145.465       -1774.282          47.000                                                                  
G17  20340013.918   106887911.119        -821.704          48.000    20340011.403    83289486.253        -640.197          42.000  
G15  19466732.989   102298409.324          -1.081          47.000    19466729.805    79713079.563          -0.817          46.000  
G22  19981193.852   105002185.560       -3116.405          49.000                                                                  
G30  23423971.813   123093810.194       -3307.160          38.000    23423978.032    95917283.477       -2577.487          41.000  
E21  22212005.392   116724881.788       -1061.462          47.000    22212009.704    89438994.475        -813.394          52.000  
> 2024 04 15 22 04 00.4960000  0 24                     
G05  22970049.738   120708162.780       -3748.455          37.000    22970067.103    94058242.924       -2921.316          38.000  
E19  22192536.142   116622568.834        -287.143          43.000    22192539.511    89360297.387        -220.071          48.000  
G24  21423017.262   112578828.667        1283.318          46.000    21423019.063    87723793.144         999.783          45.000  
E27  24511959.886   128811220.149       -3037.464          46.000    24511964.746    98699829.887       -2327.491          52.000  
R16  21096532.896   112693867.940        1334.181          50.000    21096539.002    87650958.471        1037.744          48.000  
R17  22380064.746   119760377.219        2702.264          49.000    22380084.620    93147055.126        2101.690          45.000  
R04  19289418.925   103293979.773       -4247.687          52.000    19289418.989    80339759.977       -3303.847          51.000  
R15  18708944.229    99975139.831       -1064.886          52.000    18708943.194    77758746.638        -828.241          48.000  
R05  18321131.979    97937018.081        -392.209          52.000    18321132.741    76173139.319        -304.962          50.000  
G23  22981416.676                3       -396.267          22.000                                                                  
G19  20145781.458   105867242.487         409.934          49.000                                                                  
S31  37520604.566   197172115.121        -791.464          44.000  
S33  38470578.351   202164263.661        -793.090          42.000  
G14  22097197.859   116121796.185       -3956.849          42.000    22097197.685    90484645.376       -3083.173          44.000  
R24  21690214.063   115987512.026         733.159          45.000    21690215.597    90212585.483         570.519          41.000  
R14  20384408.519   108660638.156       -3323.456          49.000    20384412.723    84514010.120       -2584.974          47.000  
E04  26001989.978   136641394.0411       1871.905          31.000    26001979.301   104699215.123        1434.387          35.000  
G12  22229106.897   116814804.774        1918.800          44.000    22229114.031    91024659.375        1495.087          44.000  
G13  18941933.479    99540625.447       -1791.296          48.000                                                                  
G17  20344763.837   106912870.964        -842.295          48.000    20344761.247    83308935.575        -656.624          42.000  
G15  19466784.794   102298692.184         -17.957          48.000    19466783.861    79713299.986         -14.058          47.000  
G22  19999013.293   105095825.008       -3126.308          50.000                                                                  
G30  23442857.808   123193055.096       -3309.149          36.000    23442863.350    95994617.125       -2578.688          40.000  
E21  22218088.995   116756851.685       -1070.079          47.000    22218093.254    89463490.960        -819.924          52.000  
> 2024 04 15 22 04 30.4960000  0 24                     
G05  22991448.168   120820611.743       -3748.051          37.000    22991465.766    94145864.609       -2920.135          37.000  
E19  22194208.382   116631356.654        -298.540          43.000    22194211.633    89367030.970        -228.893          47.000  
G24  21415694.038   112540347.944        1282.476          45.000    21415696.564    87693808.315         999.297          45.000  
E27  24529306.133   128902371.471       -3039.148          46.000    24529310.025    98769673.132       -2328.743          52.000  
R16  21089062.561   112653959.663        1326.401          50.000    21089067.467    87619919.006        1031.661          48.000  
R17  22364917.960   119679331.717        2700.812          49.000    22364937.123    93084021.766        2100.648          45.000  
R04  19313262.580   103421665.446       -4264.508          52.000    19313263.317    80439070.908       -3316.772          50.000  
R15  18714947.838   100007222.131       -1073.852          52.000    18714947.582    77783699.582        -835.184          49.000  
R05  18323409.781    97949192.670        -419.310          52.000    18323409.299    76182608.464        -326.152          48.000  
G19  20143492.098   105855214.388         392.061          49.000                                                                  
S31  37525123.671   197195863.548        -791.641          44.000  
S33  38475105.201   202188054.283        -792.840          42.000  
G14  22119790.534   116240521.825       -3958.233          42.000    22119789.455    90577158.941       -3084.222          43.000  
R24  21686155.188   115965804.747         714.046          46.000    21686155.253    90195702.291         555.371          42.000  
R14  20403116.741   108760354.380       -3324.120          49.000    20403118.510    84591567.291       -2585.449          47.000  
E04  25991310.248                        1868.703          29.000    25991298.749   104656211.807        1433.003          35.000  
G12  22218176.951   116757368.181        1910.491          44.000    22218183.347    90979903.944        1488.722          44.000  
G13  18952208.059    99594617.409       -1808.172          48.000                                                                  
G17  20349631.225   106938449.524        -862.822          48.000    20349629.103    83328867.056        -672.522          41.000  
G15  19466935.534   102299483.385         -34.654          48.000    19466933.776    79713916.527         -27.007          45.000  
G22  20016888.606   105189761.469       -3135.918          49.000                                                                  
G30  23461754.155   123292360.157       -3311.036          37.000    23461761.110    96071997.689       -2580.023          41.000  
E21  22224221.701   116789078.053       -1078.340          47.000    22224225.700    89488183.960        -826.274          52.000  
G23                                                                  22983774.924                3       -329.118          23.000  
> 2024 04 15 22 05 00.4960000  0 24                     
G05  23012843.032   120933037.025       -3747.322          39.000    23012860.185    94233467.832       -2919.854          38.000  
E19  22195946.794   116640494.164        -310.619          42.000    22195950.470    89374032.456        -238.041          47.000  
G24  21408376.164   112501890.925        1281.108          45.000    21408378.972    87663841.936         998.323          45.000  
E27  24546658.810   128993572.405       -3041.185          45.000    24546664.837    98839554.417       -2330.255          52.000  
R16  21081634.891   112614286.971        1318.252          50.000    21081640.909    87589062.797        1025.316          50.000  
R17  22349780.716   119598334.269        2699.007          48.000    22349799.051    93021025.729        2099.066          46.000  
R04  19337201.243   103549854.116       -4281.483          52.000    19337201.178    80538773.049       -3330.043          49.000  
R15  18721001.971   100039573.495       -1083.127          52.000    18721001.072    77808861.819        -842.448          48.000  
R05  18325839.824    97962184.644        -446.912          52.000    18325839.338    76192713.360        -347.701          48.000  
G23  22986205.538                3       -435.111          23.000    22986206.167                3       -345.097          23.000  
G19  20141305.054   105843722.912         373.873          49.000                                                                  
S31  37529641.452   197219604.841        -791.415          43.000  
S33  38479631.367   202211838.209        -792.754          42.000  
G14  22142390.421   116359290.484       -3959.908          41.000    22142390.064    90669706.059       -3085.516          44.000  
R24  21682203.097   115944676.958         694.326          45.000    21682204.452    90179269.805         540.163          42.000  
R14  20421829.438   108860090.747       -3325.073          51.000    20421827.643    84669140.091       -2586.235          45.000  
E04  25980636.308                        1866.902          28.000    25980633.722   104613268.291        1430.221          36.000  
G12  22207294.827   116700178.699        1902.144          46.000    22207300.577    90935341.105        1481.981          44.000  
G13  18962578.869    99649117.443       -1825.512          48.000                                                                  
G17  20354615.559   106964643.604        -883.625          48.000    20354612.599    83349278.111        -688.396          42.000  
G15  19467182.646   102300780.160         -51.967          47.000    19467180.443    79714926.985         -40.308          46.000  
G22  20034819.389   105283988.914       -3145.907          50.000                                                                  
G30  23480661.346   123391721.658       -3313.358          40.000    23480668.959    96149422.200       -2581.590          41.000  
E21  22230401.769   116821555.936       -1086.947          47.000    22230406.111    89513069.675        -832.917          52.000  
> 2024 04 15 22 05 30.4960000  0 24                     
G05  23034231.669   121045431.857       -3745.544          37.000    23034250.264    94321047.270       -2918.583          39.000  
E19  22197751.534   116649978.442        -321.775          42.000    22197754.909    89381299.656        -246.500          47.000  
G24  21401062.118   112463454.575        1281.342          45.000    21401064.629    87633891.661         998.215          45.000  
E27  24564023.963   129084818.211       -3042.023          45.000    24564028.458    98909470.067       -2330.849          52.000  
R16  21074250.758   112574845.946        1311.003          49.000    21074257.009    87558386.788        1019.764          49.000  
R17  22334652.688   119517385.628        2697.644          49.000    22334669.839    92958067.655        2097.990          46.000  
R04  19361231.766   103678538.005       -4297.413          52.000    19361232.686    80638860.345       -3342.432          49.000  
R15  18727105.718   100072188.360       -1091.335          52.000    18727104.587    77834228.968        -848.661          49.000  
R05  18328422.228    97975991.142        -473.589          51.000    18328421.590    76203451.723        -368.324          47.000  
G19  20139219.798   105832766.163         356.506          49.000                                                                  
S31  37534157.287   197243334.668        -790.319          44.000  
S33  38484155.355   202235610.753        -792.077          42.000  
G14  22164998.888   116478096.783       -3960.601          41.000    22164998.357    90762282.461       -3086.251          43.000  
R24  21678360.919   115924128.258         675.471          46.000    21678361.468    90163287.716         525.439          42.000  
R14  20440541.856   108959841.844       -3325.082          51.000    20440540.583    84746724.255       -2585.904          44.000  
E04  25969982.561                        1864.689          30.000    25969982.714   104570382.932        1428.602          35.000  
G12  22196457.951   116643233.632        1894.354          45.000    22196463.361    90890968.690        1476.172          43.000  
G13  18973045.969    99704121.729       -1841.681          48.000                                                                  
G17  20359715.724   106991449.886        -903.439          47.000    20359714.152    83370166.236        -704.032          42.000  
G15  19467525.110   102302580.261         -68.073          48.000    19467522.491    79716329.685         -52.891          45.000  
G22  20052804.525   105378501.382       -3154.840          51.000                                                                  
G30  23499580.539   123491135.936       -3314.415          40.000    23499586.716    96226887.863       -2582.967          41.000  
E21  22236629.012   116854280.700       -1094.668          47.000    22236633.502    89538144.559        -838.772          52.000  
G23                                                                  22988766.630                3       -352.667          22.000  
> 2024 04 15 22 06 00.4960000  0 23                     
G05  23055614.050   121157789.110       -3744.540          39.000    23055632.815    94408597.430       -2917.614          39.000  
E19  22199621.250   116659806.043        -333.483          42.000    22199624.956    89388829.928        -255.368          47.000  
G24  21393751.057   112425035.289        1280.521          45.000    21393753.230    87603954.652         997.798          44.000  
E27  24581394.832   129176103.280       -3043.312          45.000    24581399.212    98979415.799       -2331.855          52.000  
R16  21066910.095   112535631.370        1303.594          49.000    21066915.282    87527886.900        1013.823          48.000  
R17  22319532.162   119436486.190        2696.107          47.000    22319550.006    92895147.782        2096.832          47.000  
R04  19385353.062   103807708.690       -4313.532          51.000    19385354.573    80739326.268       -3355.025          49.000  
R15  18733257.602   100105060.867       -1099.857          53.000    18733256.546    77859796.523        -855.396          49.000  
R05  18331157.191    97990608.692        -500.535          53.000    18331155.149    76214820.947        -389.348          46.000  
G19  20137236.626   105822341.595         338.867          49.000                                                                  
S31  37538670.346   197267049.477        -790.283          44.000  
S33  38488675.789   202259368.041        -791.599          42.000  
G14  22187612.085   116596934.496       -3961.332          39.000    22187611.058    90854883.366       -3087.099          42.000  
R24  21674623.839   115904157.392         655.956          42.000    21674627.755    90147755.067         510.420          42.000  
R14  20459253.947   109059602.154       -3325.245          48.000    20459256.367    84824315.660       -2586.436          48.000  
E04  25959337.531                1       1861.920          27.000    25959345.538   104527553.587        1426.562          35.000  
G12  22185667.765   116586529.472        1886.285          45.000    22185672.769    90846784.001        1469.854          43.000  
G13  18983607.581    99759626.126       -1858.333          48.000                                                                  
G17  20364931.818   107018864.253        -923.623          47.000    20364931.474    83391528.172        -719.875          44.000  
G15  19467962.786   102304880.426         -84.809          48.000    19467959.938    79718122.064         -66.003          44.000  
G22  20070842.836   105473292.177       -3164.084          50.000                                                                  
G30  23518508.130   123590598.691       -3315.846          39.000    23518514.054    96304391.279       -2584.181          42.000  
E21  22242902.666   116887246.934       -1102.733          47.000    22242906.602    89563404.475        -844.972          52.000  
> 2024 04 15 22 06 30.4960000  0 23                     
G05  23076985.327   121270099.940       -3743.005          38.000    23077005.158    94496111.403       -2916.329          37.000  
E19  22201556.142   116669971.906        -344.813          42.000    22201559.632    89396619.375        -263.928          47.000  
G24  21386441.945   112386627.436        1279.960          45.000    21386443.786    87574026.588         997.625          44.000  
E27  24598770.740   129267420.117       -3044.412          44.000    24598776.587    99049385.884       -2332.700          52.000  
R16  21059610.754   112496636.661        1296.117          50.000    21059615.282    87497557.990        1007.977          48.000  
R17  22304422.076   119355633.642        2694.207          49.000    22304439.116    92832264.320        2095.440          48.000  
R04  19409564.277   103937356.182       -4329.487          52.000    19409564.772    80840162.983       -3367.440          48.000  
R15  18739455.494   100138182.698       -1108.239          52.000    18739454.896    77885558.006        -861.960          49.000  
R05  18334042.653    98006031.501        -527.535          52.000    18334041.000    76226816.468        -410.366          48.000  
G19  20135353.703   105812444.875         321.108          49.000                                                                  
S31  37543178.615   197290742.281        -789.453          44.000  
S33  38493192.425   202283103.827        -790.758          42.000  
G14  22210231.301   116715795.638       -3962.398          41.000    22210230.923    90947502.495       -3087.735          45.000  
R24  21670997.958   115884761.048         637.002          45.000    21671000.481    90132669.271         495.564          42.000  
R14  20477969.898   109159364.261       -3325.438          48.000    20477971.731    84901908.452       -2586.514          48.000  
E04  25948716.582                        1859.999          27.000    25948722.358   104484776.718        1425.109          36.000  
G12  22174921.217   116530060.925        1878.323          45.000    22174926.184    90802782.929        1463.776          42.000  
G13  18994262.875    99815624.106       -1874.842          47.000                                                                  
G17  20370264.097   107046880.742        -943.866          48.000    20370262.968    83413359.263        -735.568          44.000  
G15  19468494.712   102307675.143        -101.399          48.000    19468491.593    79720299.788         -79.029          45.000  
G22  20088932.422   105568352.641       -3173.115          50.000                                                                  
G30  23537443.952   123690103.794       -3317.364          39.000    23537449.730    96381927.683       -2585.035          41.000  
E21  22249220.257   116920447.310       -1110.594          47.000    22249224.462    89588843.801        -850.871          52.000  
> 2024 04 15 22 07 00.4960000  0 23                     
G05  23098348.020   121382357.005       -3741.122          39.000    23098367.321    94583583.427       -2914.626          37.000  
E19  22203554.270   116680472.476        -355.415          42.000    22203557.509    89404665.318        -272.384          47.000  
G24  21379134.882   112348227.619        1280.027          45.000    21379136.046    87544104.775         997.552          44.000  
E27  24616153.467   129358763.459       -3045.126          45.000    24616158.381    99119376.273       -2333.216          52.000  
R16  21052349.644   112457856.930        1289.242          48.000    21052354.599    87467396.259        1002.634          48.000  
R17  22289320.704   119274828.420        2692.786          49.000    22289335.870    92769417.670        2094.330          47.000  
R04  19433863.764   104067471.826       -4344.836          52.000    19433862.841    80941363.856       -3379.279          49.000  
R15  18745699.134   100171548.293       -1116.087          52.000    18745699.121    77911509.083        -868.053          49.000  
R05  18337078.101    98022256.477        -554.110          53.000    18337077.072    76239435.881        -431.049          48.000  
G19  20133570.405   105803073.372         303.669          49.000                                                                  
S31  37547682.017   197314408.708        -788.226          44.000  
S33  38497703.998   202306813.635        -789.659          42.000  
G14  22232853.520   116834674.284       -3962.843          42.000    22232853.396    91040135.218       -3087.805          45.000  
R24  21667480.956   115865938.063         618.104          46.000    21667480.238    90118029.444         480.822          42.000  
R14  20496685.336   109259122.657       -3325.037          50.000    20496686.810    84979498.343       -2586.142          50.000  
E04  25938104.637                        1857.660          27.000    25938110.365   104442050.307        1423.616          36.000  
G12  22164220.233   116473824.659        1870.745          45.000    22164223.912    90758962.828        1457.914          42.000  
G13  19005011.647    99872111.592       -1891.047          47.000                                                                  
G17  20375709.875   107075495.453        -963.687          49.000    20375707.886    83435656.525        -750.929          45.000  
G15  19469120.107   102310961.907        -117.609          49.000    19469117.769    79722860.913         -91.638          46.000  
G22  20107072.080   105663676.498       -3181.754          51.000                                                                  
G30  23556386.176   123789647.132       -3318.484          39.000    23556392.179    96459493.891       -2585.919          41.000  
E21  22255580.683   116953876.688       -1117.963          46.000    22255585.839    89614458.587        -856.571          52.000  
> 2024 04 15 22 07 30.4960000  0 24                     
G05  23119701.015   121494562.711       -3739.049          39.000    23119720.682    94671015.392       -2913.605          37.000  
E19  22205617.752   116691314.558        -367.010          42.000    22205620.382    89412972.919        -281.173          46.000  
G24  21371830.116   112309842.017        1279.381          46.000    21371831.481    87514194.036         997.013          44.000  
E27  24633542.324   129450137.590       -3046.210          45.000    24633546.121    99189390.239       -2334.091          52.000  
R16  21045130.408   112419297.217        1281.863          49.000    21045136.293    87437405.664         996.931          48.000  
R17  22274228.704   119194080.557        2690.809          49.000    22274243.839    92706615.566        2092.706          46.000  
R04  19458250.305   104198057.596       -4360.468          53.000    19458248.436    81042930.378       -3391.493          48.000  
R15  18751989.732   100205161.351       -1124.434          53.000    18751988.970    77937652.615        -874.500          49.000  
R05  18340264.681    98039289.791        -581.194          53.000    18340264.461    76252683.983        -451.922          49.000  
G23  22999889.693                3       -524.749          22.000                                                                  
G19  20131886.713   105794234.592         285.809          48.000                                                                  
S31  37552181.867   197338055.831        -787.823          44.000  
S33  38502212.015   202330502.971        -789.173          42.000  
G14  22255480.118   116953574.162       -3963.433          41.000    22255479.072    91132784.533       -3088.403          45.000  
R24  21664068.811   115847697.274         598.323          46.000    21664067.636    90103842.419         465.327          42.000  
R14  20515399.260   109358881.822       -3325.223          50.000    20515398.906    85057088.849       -2586.297          48.000  
E04  25927495.829                1       1854.935          27.000    25927512.883   104399379.801        1421.595          36.000  
G12  22153563.466   116417826.799        1862.676          43.000    22153567.712    90715328.516        1451.422          42.000  
G13  19015855.889    99929094.235       -1907.564          48.000                                                                  
G17  20381269.662   107104714.563        -983.834          48.000    20381267.985    83458424.758        -766.707          44.000  
G15  19469839.888   102314747.676        -134.177          47.000    19469838.761    79725810.891        -104.701          46.000  
G22  20125261.991   105759266.650       -3190.648          51.000                                                                  
G30  23575336.843   123889234.251       -3320.133          39.000    23575342.726    96537094.199       -2587.084          41.000  
E21  22261986.444   116987539.511       -1125.908          46.000    22261991.557    89640252.236        -862.674          52.000  
> 2024 04 15 22 08 00.4960000  0 23                     
G05  23141044.838   121606713.064       -3737.467          39.000    23141062.976    94758404.195       -2912.466          37.000  
E19  22207746.324   116702497.611        -378.347          43.000    22207748.337    89421541.788        -290.075          46.000  
G24  21364528.099   112271470.076        1278.606          45.000    21364529.817    87484293.906         996.504          45.000  
E27  24650935.659   129541539.995       -3047.041          45.000    24650939.291    99259425.909       -2334.877          52.000  
R16  21037953.420   112380956.213        1274.486          48.000    21037959.471    87407585.162         991.212          50.000  
R17  22259149.602   119113393.091        2688.458          49.000    22259164.846    92643860.370        2091.041          47.000  
R04  19482722.015   104329108.317       -4376.031          52.000    19482722.875    81144858.530       -3403.590          49.000  
R15  18758324.854   100239019.262       -1132.728          52.000    18758325.760    77963986.602        -880.994          49.000  
R05  18343602.117    98057130.681        -608.125          53.000    18343600.977    76266560.244        -472.979          48.000  
G19  20130306.124   105785928.949         267.936          49.000                                                                  
S31  37556677.671   197361680.723        -787.189          44.000  
S33  38506716.040   202354171.384        -788.619          42.000  
G14  22278109.178   117072492.281       -3964.264          41.000    22278108.056    91225448.054       -3088.810          43.000  
R24  21660764.687   115830039.849         578.633          43.000    21660765.328    90090109.145         450.168          42.000  
R14  20534113.709   109458639.144       -3325.268          48.000    20534113.695    85134677.915       -2586.291          48.000  
E04  25916923.014                        1852.889          29.000    25916929.272   104356765.419        1419.801          35.000  
G12  22142951.165   116362066.977        1854.553          42.000    22142957.004    90671879.667        1445.217          43.000  
G13  19026793.378    99986570.233       -1924.284          48.000                                                                  
G17  20386943.927   107134536.218       -1004.054          47.000    20386941.444    83481662.506        -782.565          43.000  
G15  19470654.818   102319032.057        -151.142          47.000    19470654.487    79729149.382        -117.786          47.000  
G22  20143502.192   105855119.836       -3199.504          51.000                                                                  
G30  23594296.150   123988863.912       -3321.660          40.000    23594301.276    96614727.640       -2588.192          40.000  
E21  22268437.030   117021433.446       -1133.523          47.000    22268441.407    89666222.973        -868.604          52.000  
> 2024 04 15 22 08 30.4960000  0 24                     
G05  23162377.018   121718808.477       -3735.261          39.000    23162394.807    94845750.210       -2910.899          37.000  
E19  22209940.331   116714025.659        -390.227          43.000    22209942.008    89430374.989        -298.885          46.000  
G24  21357229.302   112233115.606        1278.092          46.000    21357230.887    87454407.405         995.920          45.000  
E27  24668334.272   129632972.696       -3048.422          45.000    24668338.279    99329484.757       -2335.784          52.000  
R16  21030815.358   112342835.995        1266.617          46.000    21030822.794    87377936.391         985.264          49.000  
R17  22244082.045   119032773.707        2685.963          48.000    22244097.107    92581158.123        2089.094          47.000  
R04  19507280.808   104460622.804       -4391.645          53.000    19507282.326    81247147.376       -3415.766          50.000  
R06  22334704.348                3       3053.045          26.000                                                                  
R15  18764706.375   100273123.327       -1140.965          51.000    18764707.394    77990512.058        -887.525          48.000  
R05  18347091.229    98075783.141        -635.413          53.000    18347090.400    76281067.718        -494.181          48.000  
G19  20128828.504   105778161.016         249.852          49.000                                                                  
S31  37561169.240   197385286.773        -786.573          44.000  
S33  38511216.688   202377821.114        -788.224          42.000  
G14  22300742.365   117191429.966       -3965.026          40.000    22300741.401    91318126.867       -3089.642          44.000  
R24  21657572.531   115812972.606         558.936          41.000    21657573.879    90076834.744         434.785          42.000  
R14  20552826.857   109558396.509       -3325.428          49.000    20552829.303    85212266.980       -2586.540          49.000  
E04  25906346.824                        1849.375          29.000    25906360.512   104314210.792        1417.420          36.000  
G12  22132387.159   116306549.302        1846.381          41.000    22132392.114    90628619.483        1438.833          42.000  
G13  19037824.743   100044542.732       -1940.906          48.000                                                                  
G17  20392734.256   107164964.090       -1024.424          48.000    20392731.253    83505372.644        -798.260          43.000  
G15  19471566.600   102323819.169        -168.139          48.000    19471565.025    79732879.620        -131.025          46.000  
G22  20161793.311   105951237.062       -3208.378          51.000                                                                  
G30  23613263.642   124088539.407       -3323.583          39.000    23613268.842    96692396.796       -2589.338          39.000  
E21  22274930.959   117055560.559       -1141.597          47.000    22274935.442    89692372.370        -874.741          52.000  
> 2024 04 15 22 09 00.4960000  0 24                     
G05  23183700.068   121830859.631       -3734.032          39.000    23183717.964    94933061.698       -2909.766          36.000  
E19  22212201.301   116725913.216        -402.136          42.000    22212204.443    89439483.640        -308.128          47.000  
G24  21349936.459   112194792.738        1277.055          45.000    21349937.575    87424545.502         995.048          44.000  
E27  24685740.871   129724447.859       -3049.724          44.000    24685745.519    99399576.158       -2336.703          52.000  
R16  21023722.902   112304950.084        1259.195          46.000    21023730.104    87348469.862         979.428          49.000  
R17  22229030.140   118952240.834        2683.111          47.000    22229045.587    92518523.075        2086.748          45.000  
R04  19531929.563   104592610.987       -4407.355          53.000    19531929.623    81349804.679       -3427.881          50.000  
R06  22317576.231                1       3042.300          27.000                                                                  
R15  18771137.122   100307485.659       -1149.625          52.000    18771136.919    78017238.358        -894.082          48.000  
R05  18350735.125    98095261.287        -662.911          53.000    18350734.436    76296217.418        -515.564          49.000  
G19  20127455.962   105770945.831         231.436          50.000                                                                  
S31  37565660.904   197408888.643        -786.655          44.000  
S33  38515715.991   202401465.824        -788.193          40.000  
G14  22323380.847   117310399.022       -3966.181          38.000    22323379.879    91410830.055       -3090.535          43.000  
R24  21654494.166   115796511.682         538.719          40.000    21654495.930    90064032.053         419.116          43.000  
R14  20571543.939   109658166.712       -3325.717          50.000    20571546.050    85289866.063       -2586.630          50.000  
E04  25895792.710                1       1846.699          28.000    25895810.365   104271727.418        1415.385          36.000  
G12  22121870.053   116251287.886        1837.937          37.000    22121875.755    90585559.043        1432.422          42.000  
G13  19048953.995   100103025.347       -1957.821          48.000                                                                  
G17  20398642.294   107196011.528       -1045.134          48.000    20398640.530    83529565.580        -814.480          45.000  
G15  19472575.535   102329123.539        -185.383          46.000    19472574.065    79737012.920        -144.526          46.000  
G22  20180136.059   106047629.260       -3217.444          52.000                                                                  
G30  23632242.004   124188274.027       -3325.375          37.000    23632247.784    96770112.092       -2591.303          41.000  
E21  22281472.228   117089933.222       -1149.783          47.000    22281476.321    89718709.904        -880.927          52.000  
> 2024 04 15 22 09 30.4960000  0 24                     
G05  23205014.644   121942865.315       -3732.701          40.000    23205033.081    95020337.766       -2909.174          36.000  
E19  22214532.895   116738162.532        -414.538          42.000    22214535.220    89448869.497        -317.653          46.000  
G24  21342650.987   112156503.756        1275.470          45.000    21342651.620    87394709.986         993.906          44.000  
E27  24703155.808   129815965.823       -3051.492          44.000    24703160.635    99469700.388       -2338.152          51.000  
R16  21016675.594   112267299.188        1250.894          48.000    21016680.618    87319186.074         972.977          48.000  
R17  22213997.558   118871800.135        2679.491          47.000    22214012.797    92455959.644        2083.902          47.000  
R04  19556665.439   104725070.197       -4423.236          52.000    19556666.832    81452828.330       -3440.302          50.000  
R06  22300497.318                        3032.280          29.000                                                                  
R15  18777615.895   100342106.033       -1158.549          51.000    18777616.023    78044165.410        -901.139          49.000  
R05  18354532.625    98115567.335        -690.851          51.000    18354533.050    76312010.991        -537.347          49.000  
G19  20126188.533   105764286.674         212.485          49.000                                                                  
S31  37570151.560   197432487.210        -786.814          44.000  
S33  38520214.508   202425107.224        -788.028          43.000  
G14  22346025.633   117429399.142       -3967.569          38.000    22346025.007    91503557.485       -3091.412          44.000  
R24  21651531.351   115780661.824         518.108          43.000    21651532.487    90051704.568         402.648          43.000  
R14  20590262.518   109757949.805       -3326.498          51.000    20590265.040    85367475.123       -2587.318          49.000  
E04  25885264.119   136027961.7111       1842.897          29.000    25885276.189   104229317.674        1412.426          34.000  
G12  22111401.646   116196284.929        1829.018          36.000    22111409.312    90542699.978        1424.973          42.000  
G13  19060180.151   100162019.067       -1975.209          48.000                                                                  
G17  20404668.309   107227680.186       -1066.182          48.000    20404666.959    83554242.571        -830.814          44.000  
G15  19473684.112   102334947.839        -202.985          48.000    19473681.157    79741551.357        -158.218          45.000  
G22  20198530.941   106144295.693       -3227.004          51.000                                                                  
G30  23651231.277   124288069.456       -3327.599          35.000    23651238.508    96847874.721       -2593.141          42.000  
E21  22288059.878   117124551.856       -1158.173          47.000    22288064.083    89745235.924        -887.484          52.000  
> 2024 04 15 22 10 00.4960000  0 24                     
G05  23226320.599   122054830.033       -3730.912          38.000    23226340.087    95107581.774       -2907.002          37.000  
E19  22216934.678   116750782.138        -426.823          43.000    22216936.641    89458539.084        -326.938          46.000  
G24  21335372.675   112118256.978        1274.457          46.000    21335373.293    87364907.378         993.034          44.000  
E27  24720579.715   129907533.092       -3052.797          43.000    24720585.462    99539862.360       -2339.131          51.000  
R16  21009672.354   112229890.847        1243.086          48.000    21009677.706    87290090.961         966.900          48.000  
R17  22198983.212   118791464.234        2676.367          48.000    22198998.774    92393477.742        2081.592          47.000  
R04  19581490.519   104858004.425       -4438.788          52.000    19581491.975    81556221.407       -3452.368          50.000  
R06  22283481.353                        3022.151          30.000                                                                  
R15  18784143.816   100376990.811       -1167.063          51.000    18784145.117    78071298.070        -907.660          50.000  
R05  18358487.424    98136709.395        -718.481          52.000    18358487.339    76328454.805        -558.748          48.000  
G19  20125028.743   105758192.587         193.982          49.000                                                                  
S31  37574642.795   197456088.953        -786.518          44.000  
S33  38524714.037   202448752.859        -788.110          42.000  
G14  22368677.974   117548436.300       -3968.292          40.000    22368676.992    91596313.734       -3092.237          44.000  
R24  21648682.679   115765433.628         497.282          40.000    21648685.092    90039860.737         386.905          43.000  
R14  20608985.445   109857752.837       -3326.860          49.000    20608987.182    85445099.766       -2587.613          49.000  
E04  25874748.716                        1839.985          27.000    25874765.169   104186988.659        1409.751          37.000  
G12  22100986.327   116141549.009        1820.345          40.000    22100992.122    90500048.978        1418.177          42.000  
G13  19071505.999   100221531.369       -1992.244          49.000                                                                  
G17  20410814.312   107259977.990       -1086.855          49.000    20410812.634    83579409.794        -846.686          44.000  
G15  19474892.698   102341300.798        -220.405          47.000    19474890.938    79746501.764        -171.673          46.000  
G22  20216978.807   106241241.753       -3236.040          50.000                                                                  
G30  23670234.571   124387933.407       -3329.607          36.000    23670241.208    96925690.677       -2594.616          41.000  
E21  22294695.718   117159423.038       -1166.396          47.000    22294699.492    89771955.471        -893.755          52.000  
> 2024 04 15 22 10 30.4960000  0 24                     
G05  23247619.265   122166751.213       -3729.644          40.000    23247639.326    95194791.892       -2906.202          38.000  
E19  22219406.950   116763773.552        -439.165          42.000    22219408.720    89468493.558        -336.403          46.000  
G24  21328101.714   112080053.829        1273.135          45.000    21328103.471    87335138.780         991.927          44.000  
E27  24738012.354   129999149.099       -3054.456          42.000    24738019.343    99610061.685       -2340.463          51.000  
R16  21002714.347   112192724.942        1235.025          49.000    21002719.339    87261184.369         960.543          48.000  
R17  22183990.104   118711238.201        2672.609          48.000    22184004.439    92331081.245        2078.433          46.000  
R04  19606402.952   104991410.126       -4454.443          52.000    19606404.534    81659981.191       -3464.563          50.000  
R06  22266523.515                        3010.907          29.000                                                                  
R15  18790722.393   100412138.642       -1175.714          52.000    18790722.210    78098635.334        -914.553          49.000  
R05  18362599.393    98158688.614        -746.323          52.000    18362598.919    76345549.756        -580.525          48.000  
G19  20123977.110   105752665.920         174.930          48.000                                                                  
S31  37579134.808   197479696.153        -786.677          44.000  
S33  38529214.576   202472403.893        -788.361          42.000  
G14  22391337.633   117667509.374       -3969.754          39.000    22391336.134    91689097.972       -3093.085          44.000  
R24  21645951.919   115750830.575         476.406          40.000    21645952.841    90028502.966         370.395          43.000  
R14  20627712.494   109957575.137       -3327.538          50.000    20627714.319    85522739.323       -2588.046          49.000  
E04  25864260.601                        1836.395          29.000    25864272.837   104144741.974        1407.248          37.000  
G12  22090622.756   116087081.411        1811.379          41.000    22090628.073    90457606.996        1411.569          42.000  
G13  19082929.197   100281562.864       -2009.567          48.000                                                                  
G17  20417080.784   107292905.398       -1107.854          49.000    20417077.738    83605067.618        -863.276          43.000  
G15  19476203.096   102348184.255        -238.099          48.000    19476201.429    79751865.499        -185.424          47.000  
G22  20235480.233   106338465.609       -3245.145          51.000                                                                  
G30  23689252.685   124487866.553       -3332.276          37.000    23689257.183    97003560.590       -2596.633          39.000  
E21  22301380.038   117194546.303       -1174.731          47.000    22301382.662    89798868.173        -900.168          51.000  
> 2024 04 15 22 11 00.4960000  0 24                     
G05  23268908.135   122278617.742       -3727.531          40.000    23268928.529    95281959.428       -2904.583          38.000  
E19  22221947.396   116777128.584        -450.945          42.000    22221949.914    89478726.670        -345.704          46.000  
G24  21320838.763   112041886.127        1271.971          45.000    21320840.234    87305397.772         991.006          44.000  
E27  24755456.386   130090803.724       -3055.533          44.000    24755460.838    99680290.592       -2341.302          51.000  
R16  20995800.164   112155791.701        1227.500          49.000    20995805.624    87232458.738         954.551          47.000  
R17  22169017.041   118631117.332        2669.134          50.000    22169030.180    92268766.500        2075.740          46.000  
R04  19631400.975   105125274.204       -4469.525          52.000    19631403.035    81764097.506       -3476.197          51.000  
R06  22249625.243                        3000.034          28.000                                                                  
R15  18797347.335   100447539.065       -1183.962          52.000    18797346.494    78126169.063        -920.788          48.000  
R05  18366866.441    98181496.100        -773.764          52.000    18366865.872    76363288.926        -601.896          48.000  
G19  20123031.378   105747699.458         156.416          48.000                                                                  
S31  37583626.376   197503299.096        -786.483          44.000  
S33  38533714.281   202496049.773        -788.016          42.000  
G14  22414000.457   117786607.624       -3970.160          40.000    22413999.354    91781901.890       -3093.462          43.000  
R24  21643335.882   115736846.363         456.073          42.000    21643338.646    90017626.584         354.625          44.000  
R14  20646439.402   110057406.384       -3327.601          48.000    20646443.027    85600385.866       -2588.196          50.000  
E04  25853787.034   135862547.050        1832.544          29.000    25853800.458   104102571.974        1404.669          37.000  
G12  22080307.722   116032873.959        1802.758          41.000    22080312.875    90415367.771        1404.680          42.000  
G13  19094449.834   100342104.058       -2026.425          49.000                                                                  
G17  20423464.372   107326453.491       -1128.419          48.000    20423462.235    83631209.117        -879.376          45.000  
G15  19477612.400   102355589.984        -255.323          48.000    19477611.072    79757636.194        -198.981          47.000  
G22  20254032.087   106435955.819       -3253.833          51.000                                                                  
G30  23708278.742   124587859.848       -3334.186          34.000    23708285.698    97081477.374       -2597.717          39.000  
E21  22308109.716   117229911.664       -1182.581          47.000    22308112.285    89825966.348        -906.117          51.000  
> 2024 04 15 22 11 30.4960000  0 24                     
G05  23290186.027   122390426.139       -3725.736          42.000    23290206.651    95369081.674       -2903.371          38.000  
E19  22224557.708   116790848.154        -463.616          41.000    22224561.062    89489239.091        -355.137          47.000  
G24  21313582.353   112003754.511        1270.275          44.000    21313584.233    87275684.921         989.657          44.000  
E27  24772905.098   130182495.806       -3057.222          44.000    24772909.155    99750548.182       -2342.476          51.000  
R16  20988930.010   112119090.619        1219.411          49.000    20988934.681    87203913.676         948.302          47.000  
R17  22154063.299   118551106.392        2664.936          49.000    22154077.875    92206537.232        2072.658          45.000  
R04  19656483.878   105259592.355       -4484.906          51.000    19656486.146    81868566.953       -3488.300          50.000  
R06  22232792.953                1       2989.815          31.000                                                                  
R15  18804018.973   100483190.321       -1192.713          52.000    18804017.665    78153897.853        -927.769          49.000  
R05  18371287.711    98205132.353        -801.881          52.000    18371287.872    76381672.663        -623.726          49.000  
G19  20122192.488   105743293.985         137.418          48.000                                                                  
S31  37588116.847   197526897.847        -786.760          44.000  
S33  38538213.035   202519691.026        -788.281          42.000  
G14  22436667.043   117905729.458       -3971.558          38.000    22436667.082    91874724.139       -3094.540          41.000  
R24  21640837.202   115723483.779         434.670          42.000    21640839.303    90007233.606         338.157          43.000  
R14  20665170.190   110157245.258       -3328.294          51.000    20665171.664    85678038.365       -2588.738          49.000  
E04  25843335.177   135807613.212        1828.964          31.000    25843345.949   104060479.933        1401.623          37.000  
G12  22070041.751   115978927.335        1793.819          41.000    22070046.970    90373331.792        1397.745          41.000  
G13  19106066.703   100403154.766       -2043.819          48.000                                                                  
G17  20429966.715   107360622.262       -1149.378          49.000    20429965.388    83657834.240        -895.651          46.000  
G15  19479120.618   102363518.920        -273.166          47.000    19479119.286    79763814.597        -212.992          46.000  
G22  20272633.937   106533710.502       -3262.931          50.000                                                                  
G30  23727314.234   124687913.384       -3336.284          33.000    23727325.254    97159441.135       -2600.157          38.000  
E21  22314885.119   117265517.970       -1190.923          47.000    22314887.701    89853249.154        -912.637          51.000  
> 2024 04 15 22 12 00.4960000  0 24                     
G05  23311451.953   122502177.560       -3724.380          41.000    23311473.505    95456159.479       -2901.838          39.000  
E19  22227238.956   116804936.614        -475.694          41.000    22227241.677    89500034.150        -364.499          46.000  
G24  21306333.495   111965663.101        1269.132          45.000    21306335.717    87246003.402         988.854          44.000  
E27  24790360.700   130274227.487       -3058.282          43.000    24790364.716    99820836.130       -2343.318          50.000  
R16  20982104.030   112082624.616        1211.741          49.000    20982106.884    87175551.469         942.328          46.000  
R17  22139134.096   118471213.116        2661.084          51.000    22139145.705    92144399.458        2069.692          45.000  
R04  19681652.449   105394363.962       -4499.872          51.000    19681653.193    81973389.094       -3499.817          50.000  
R06  22216020.508                        2978.780          29.000                                                                  
R15  18810737.409   100519094.271       -1200.996          52.000    18810736.249    78181823.231        -934.244          48.000  
R05  18375866.116    98229600.768        -829.475          53.000    18375864.766    76400703.645        -645.170          48.000  
G19  20121462.386   105739454.740         118.557          48.000                                                                  
S31  37592607.302   197550495.411        -786.690          44.000  
S33  38542712.044   202543332.836        -788.066          42.000  
G14  22459341.425   118024876.597       -3971.919          38.000    22459339.546    91967566.073       -3095.021          40.000  
R24  21638454.368   115710749.223         414.175          39.000    21638457.205    89997329.137         322.142          42.000  
R14  20683900.111   110257094.459       -3328.413          51.000    20683905.391    85755698.843       -2588.794          51.000  
E04  25832911.342                        1826.191          29.000    25832913.220   104018469.598        1398.753          37.000  
G12  22059825.325   115925245.727        1785.169          41.000    22059830.332    90331502.311        1390.938          40.000  
G13  19117782.561   100464718.001       -2060.655          49.000                                                                  
G17  20436587.550   107395415.174       -1170.097          49.000    20436585.721    83684945.718        -911.730          45.000  
G15  19480729.919   102371975.786        -290.590          48.000    19480728.632    79770404.374        -226.436          46.000  
G22  20291286.485   106631730.566       -3271.705          50.000                                                                  
G30  23746371.658   124788030.596       -3338.387          38.000    23746376.941    97237454.485       -2601.574          37.000  
E21  22321706.018   117301367.477       -1199.002          46.000    22321710.067    89880718.308        -918.676          51.000  
> 2024 04 15 22 12 30.4960000  0 24                     
G05  23332706.935   122613869.325       -3721.710          41.000    23332728.874    95543190.821       -2899.985          38.000  
E19  22229990.841   116819394.727        -487.669          42.000    22229993.332    89511112.465        -373.764          47.000  
G24  21299092.945   111927612.978        1267.931          45.000    21299095.153    87216354.034         988.154          45.000  
E27  24807823.500   130365997.904       -3059.269          43.000    24807827.999    99891153.753       -2344.077          50.000  
R16  20975320.487   112046393.149        1204.133          47.000    20975323.162    87147371.651         936.541          45.000  
R17  22124225.653   118391442.221        2657.337          50.000    22124236.965    92082356.808        2066.624          46.000  
R04  19706904.392   105529585.209       -4514.459          52.000    19706904.617    82078560.960       -3511.219          50.000  
R06  22199307.815                        2968.052          30.000                                                                  
R15  18817503.388   100555249.606       -1208.909          52.000    18817502.038    78209944.084        -940.339          48.000  
R05  18380599.145    98254902.357        -856.886          52.000    18380597.719    76420382.657        -666.449          48.000  
G19  20120839.026   105736183.672          99.960          48.000                                                                  
S31  37597097.855   197574092.612        -786.316          44.000  
S33  38547210.681   202566973.451        -787.632          42.000  
G14  22482019.891   118144047.448       -3972.229          38.000    22482017.349    92060426.571       -3095.324          41.000  
R24  21636190.093   115698645.494         393.490          38.000    21636192.545    89987915.369         305.672          39.000  
R14  20702633.531   110356953.018       -3328.513          48.000    20702636.686    85833366.691       -2588.724          50.000  
E04  25822489.923                        1822.876          30.000    25822500.372   103976542.385        1396.442          37.000  
G12  22049660.591   115871829.998        1776.470          42.000    22049665.075    90289879.987        1384.266          39.000  
G13  19129594.378   100526793.680       -2077.388          48.000                                                                  
G17  20443326.860   107430832.027       -1190.576          49.000    20443324.696    83712543.351        -927.672          45.000  
G15  19482439.642   102380961.507        -308.039          48.000    19482438.236    79777406.261        -239.935          46.000  
G22  20309988.580   106730013.868       -3280.104          50.000                                                                  
G30  23765435.919   124888211.714       -3340.163          39.000    23765441.954    97315517.672       -2602.784          39.000  
E21  22328573.391   117337459.359       -1206.650          46.000    22328578.332    89908373.185        -924.611          52.000  
> 2024 04 15 22 13 00.4960000  0 24                     
G05  23353948.562   122725488.279       -3719.396          42.000    23353969.508    95630165.465       -2898.262          38.000  
E19  22232810.833   116834213.432        -499.907          42.000    22232813.372    89522467.072        -383.061          47.000  
G24  21291858.349   111889594.933        1266.794          45.000    21291860.812    87186729.695         987.076          46.000  
E27  24825291.107   130457795.887       -3060.240          41.000    24825296.347    99961492.527       -2344.903          49.000  
R16  20968580.284   112010385.721        1196.547          48.000    20968581.852    87119366.147         930.619          45.000  
R17  22109338.758   118311788.277        2653.140          49.000    22109350.760    92020405.078        2063.578          45.000  
R04  19732236.354   105665241.812       -4529.010          52.000    19732237.979    82184071.441       -3522.571          50.000  
R06  22182654.318                3       2955.504          25.000                                                                  
R15  18824313.570   100591644.500       -1217.057          52.000    18824313.306    78238251.281        -946.604          49.000  
R05  18385485.512    98281026.721        -884.495          52.000    18385485.103    76440701.575        -687.865          49.000  
G19  20120322.874   105733472.088          81.173          47.000                                                                  
S31  37601585.917   197597678.958        -786.070          44.000  
S33  38551707.329   202590603.709        -787.272          42.000  
G14  22504698.808   118263230.551       -3972.760          36.000    22504697.679    92153296.517       -3095.624          41.000  
R24  21634043.278   115687165.193         372.041          40.000    21634044.691    89978986.441         289.552          39.000  
R14  20721366.992   110456809.896       -3328.573          50.000    20721368.280    85911033.197       -2588.893          49.000  
E04  25812085.638                        1818.883          28.000    25812106.355   103934691.898        1393.468          36.000  
G12  22039546.050   115818671.063        1767.765          43.000    22039548.510    90248457.727        1377.463          39.000  
G13  19141502.854   100589371.801       -2094.371          48.000                                                                  
G17  20450183.124   107466863.050       -1211.268          49.000    20450181.389    83740619.576        -943.705          45.000  
G15  19484247.745   102390467.099        -325.422          48.000    19484247.147    79784813.248        -253.657          46.000  
G22  20328739.126   106828548.376       -3288.706          50.000                                                                  
G30  23784510.046   124988446.851       -3342.503          39.000    23784516.279    97393622.864       -2603.896          39.000  
E21  22335486.547   117373782.575       -1214.501          47.000    22335490.526    89936205.310        -930.564          52.000  
> 2024 04 15 22 13 30.4960000  0 24                     
G05  23375174.799   122837030.068       -3716.840          41.000    23375197.124    95717079.928       -2896.418          39.000  
E19  22235699.122   116849392.270        -511.905          42.000    22235701.672    89534097.633        -392.377          47.000  
G24  21284630.430   111851608.220        1265.703          46.000    21284632.041    87157129.743         986.251          45.000  
E27  24842763.871   130549618.790       -3061.220          41.000    24842769.779   100031850.364       -2345.615          50.000  
R16  20961880.812   111974600.194        1189.245          48.000    20961884.415    87091533.147         924.821          47.000  
R17  22094475.010   118232254.205        2649.033          50.000    22094486.072    91958546.522        2060.276          46.000  
R04  19757649.893   105801328.180       -4543.506          52.000    19757650.416    82289916.166       -3533.649          49.000  
R06  22166077.991                3       2945.409          26.000                                                                  
R15  18831168.337   100628275.780       -1224.929          51.000    18831168.290    78266742.337        -952.737          48.000  
R05  18390526.299    98307972.647        -911.940          52.000    18390526.446    76461659.520        -709.316          49.000  
G19  20119913.198   105731319.784          62.246          48.000                                                                  
S31  37606071.993   197621253.829        -785.734          44.000  
S33  38556201.830   202614221.934        -787.188          42.000  
G14  22527381.208   118382422.569       -3973.279          38.000    22527379.144    92246173.471       -3096.051          40.000  
R24  21632014.829   115676309.424         351.599          44.000    21632014.408    89970543.266         273.203          41.000  
R14  20740097.483   110556662.663       -3328.400          50.000    20740100.879    85988696.470       -2588.753          50.000  
G12  22029478.119   115765767.845        1759.098          43.000    22029481.017    90207234.802        1370.808          39.000  
G13  19153506.186   100652450.451       -2111.082          48.000                                                                  
G17  20457156.199   107503506.630       -1231.819          48.000    20457153.827    83769173.093        -959.481          45.000  
G15  19486155.353   102400491.907        -342.818          47.000    19486155.050    79792624.802        -267.208          46.000  
G22  20347537.159   106927330.221       -3296.786          50.000                                                                  
G30  23803594.068   125088734.430       -3344.015          41.000    23803599.962    97471768.934       -2605.603          39.000  
E21  22342442.816   117410334.428       -1222.204          47.000    22342446.347    89964212.623        -936.558          52.000  
E04                                                                  25801731.752   103892918.145        1391.141          36.000  
> 2024 04 15 22 14 00.4960000  0 24                     
G05  23396387.406   122948494.554       -3714.056          42.000    23396408.734    95803934.165       -2893.947          37.000  
E19  22238656.139   116864934.296        -523.971          42.000    22238658.958    89546006.460        -401.314          47.000  
G24  21277408.622   111813656.195        1264.482          46.000    21277409.276    87127556.836         985.434          45.000  
E27  24860241.517   130641468.075       -3061.585          40.000    24860248.090   100102228.431       -2346.053          50.000  
R16  20955223.157   111939038.398        1181.932          48.000    20955227.742    87063874.127         919.326          49.000  
R17  22079634.581   118152847.229        2644.839          48.000    22079645.998    91896786.770        2057.283          47.000  
R04  19783144.658   105937842.812       -4557.373          53.000    19783144.393    82396094.009       -3544.635          50.000  
R06  22149535.820                        2933.633          26.000                                                                  
R15  18838068.445   100665144.395       -1232.698          52.000    18838067.680    78295417.978        -958.716          48.000  
R05  18395721.491    98335742.829        -939.157          52.000    18395721.615    76483258.544        -730.484          50.000  
G19  20119610.463   105729730.695          43.778          47.000                                                                  
S31  37610556.154   197644818.026        -785.198          44.000  
S33  38560694.161   202637830.240        -786.492          42.000  
G14  22550064.292   118501624.536       -3973.364          36.000    22550062.774    92339058.180       -3096.051          39.000  
R24  21630103.866   115666083.567         330.468          46.000    21630101.869    89962590.013         257.426          38.000  
R14  20758830.098   110656512.531       -3328.012          51.000    20758831.792    86066357.520       -2588.436          49.000  
E04  25791361.607                1       1812.439          27.000    25791376.915   103851224.397        1388.766          35.000  
G12  22019459.620   115713123.580        1751.009          44.000    22019463.517    90166213.651        1363.935          40.000  
G13  19165605.541   100716031.433       -2127.677          49.000                                                                  
G17  20464245.746   107540765.179       -1252.067          48.000    20464244.790    83798205.851        -975.591          46.000  
G15  19488162.740   102411039.294        -359.998          47.000    19488162.983    79800843.532        -280.615          48.000  
G22  20366381.674   107026359.625       -3304.926          50.000                                                                  
G30  23822688.952   125189077.067       -3345.216          41.000    23822693.986    97549957.900       -2606.616          38.000  
E21  22349442.243   117447116.427       -1229.654          48.000    22349445.651    89992396.289        -942.192          52.000  
> 2024 04 15 22 14 30.4960000  0 24                     
G05  23417582.964   123059877.597       -3711.574          42.000    23417605.187    95890724.935       -2891.696          37.000  
E19  22241683.432   116880838.835        -536.132          42.000    22241685.283    89558193.070        -410.927          46.000  
G24  21270193.062   111775738.126        1263.182          46.000    21270193.423    87098010.375         984.494          44.000  
E27  24877726.486   130733341.072       -3062.710          41.000    24877731.324   100172624.627       -2346.847          50.000  
R16  20948607.441   111903698.341        1174.169          50.000    20948612.025    87036387.632         913.236          48.000  
R17  22064818.753   118073570.250        2640.319          48.000    22064831.795    91835128.166        2053.497          49.000  
R04  19808717.631   106074779.771       -4571.634          53.000    19808717.875    82502600.303       -3555.718          50.000  
R06  22133082.011                        2921.748          27.000                                                                  
R15  18845011.355   100702247.381       -1240.686          51.000    18845010.918    78324275.891        -965.104          49.000  
R05  18401070.890    98364335.545        -966.874          53.000    18401071.089    76505497.294        -751.898          50.000  
G19  20119415.751   105728704.761          24.656          48.000                                                                  
S31  37615038.376   197668371.920        -785.235          44.000  
S33  38565184.502   202661427.766        -786.415          42.000  
G14  22572748.386   118620833.256       -3973.969          37.000    22572748.005    92431948.125       -3096.448          40.000  
R24  21628307.745   115656488.570         309.091          43.000    21628307.437    89955127.413         240.465          41.000  
R14  20777560.640   110756356.788       -3328.157          52.000    20777562.119    86144014.191       -2588.513          49.000  
E04  25781043.415                        1808.712          30.000    25781042.159   103809610.729        1385.601          34.000  
G12  22009489.953   115660737.597        1741.802          44.000    22009494.801    90125393.729        1357.356          39.000  
G13  19177799.936   100780113.122       -2144.583          50.000                                                                  
G17  20471453.523   107578636.560       -1272.728          48.000    20471451.661    83827716.093        -991.533          46.000  
G15  19490270.313   102422108.819        -377.881          48.000    19490269.319    79809469.110        -294.403          47.000  
G22  20385272.740   107125633.018       -3313.216          50.000                                                                  
G30  23841793.552   125289473.315       -3347.433          40.000    23841798.457    97628188.625       -2608.326          37.000  
E21  22356484.837   117484125.884       -1237.344          48.000    22356488.155    90020754.234        -948.167          52.000  
