     3.00           OBSERVATION DATA    M: Mixed            RINEX VERSION / TYPE
CONVBIN 2.4.3                           20240415 145942 UTC PGM / RUN BY / DATE 
format: u-blox UBX                                          COMMENT             
log: /home/regis/git/gnsspwv/obsdata/VERT00CHL/2024-04-15/VECOMMENT             
{self.marker}                                               MARKER NAME         
                                                            MARKER NUMBER       
GEODETIC                                                    MARKER TYPE         
{self.observer}     {self.institution}                      OBSERVER / AGENCY   
UNKNOWN             UBLOX-ZED-F9P                           REC # / TYPE / VERS 
UNKNOWN             TWIVSP6037L                             ANT # / TYPE        
  1713381.0000 -5047934.0000 -3490983.0000                  APPROX POSITION XYZ 
        0.0000        0.0000        0.0000                  ANTENNA: DELTA H/E/N
G    8 C1C L1C D1C S1C C2L L2L D2L S2L                      SYS / # / OBS TYPES 
R    8 C1C L1C D1C S1C C2C L2C D2C S2C                      SYS / # / OBS TYPES 
E    8 C1C L1C D1C S1C C7Q L7Q D7Q S7Q                      SYS / # / OBS TYPES 
S    4 C1C L1C D1C S1C                                      SYS / # / OBS TYPES 
  2024    04    15    14    45   00.0030000     GPS         TIME OF FIRST OBS   
  2024    04    15    14    59   30.0040000     GPS         TIME OF LAST OBS    
                                                            END OF HEADER       
> 2024 04 15 14 45 00.0030000  0 27                     
G02  24761911.618   130124677.6381      -4777.313          44.000                                                                  
G03  22134783.827   116319063.5981      -1634.643          50.000    22134785.728    90638231.4871      -1273.822          47.000  
G04  21476702.180   112860823.0851      -2101.216          47.000    21476700.849    87943488.9811      -1637.423          49.000  
G09  21972625.704   115466929.4981        256.291          49.000    21972625.587    89974231.4571        199.690          44.000  
G17  24455172.576   128512773.5931      -3468.508          42.000    24455172.046                       -2702.280          31.000  
G19  24600916.370   129278678.6801      -2015.991          44.000                                                                  
R10  23970519.762   127776358.7671      -1624.421          39.000    23970136.071                3      -1112.812          11.000  
R02  22698365.433   121122840.8011        853.740          49.000    22698369.312    94206665.9211        663.942          47.000  
R11  23008279.350   122949311.7851       1623.918          51.000    23008283.846    95627273.1461       1263.085          48.000  
R01  21204935.300   113352521.9191      -1315.242          49.000    21204935.554    88163075.0201      -1023.116          45.000  
R24  20918415.236   111860157.9611      -2258.777          51.000    20918415.393    87002336.8791      -1756.760          49.000  
G07  24875750.992   130722964.7541       3222.314          45.000    24875755.171   101862127.3781       2510.883          41.000  
S31  39782567.705   209058794.2141       -817.421          44.000  
S33  40733466.461   214055804.6211       -816.696          42.000  
E03  28330050.893   148875364.6901      -3155.796          39.000    28330062.092   114073350.0591      -2417.918          40.000  
R23  23418862.999   125275076.0561      -5213.409          48.000                                                                  
R17  22651538.653   121212971.5641       1776.445          50.000    22651538.569    94276755.9501       1381.665          47.000  
R08  23772954.295   127303050.7841      -3385.197          38.000    23772957.561    99013475.8181      -2632.845          43.000  
E07  25300208.848   132953498.1991        217.812          48.000    25300214.479   101873480.5751        166.873          51.000  
E08  24896383.008   130831366.1221      -2003.228          49.000    24896384.435   100247416.6571      -1534.987          51.000  
E13  24370096.918   128065715.8251      -1413.691          47.000    24370101.663    98128290.4831      -1083.281          52.000  
E15  26929028.244   141512968.9741      -3625.864          45.000    26929037.419   108432036.2191      -2778.259          48.000  
E26  26290015.745   138154970.9151       1280.093          43.000    26290020.453   105859022.3081        980.787          49.000  
G06  23424539.933   123096745.0131       2001.878          44.000    23424542.741    95919593.9411       1559.994          43.000  
G31  25359011.273   133262453.3971      -3412.367          40.000    25359012.626   103840874.9911      -2659.207          41.000  
E18  28208156.779   148234826.6541       -305.823          37.000                                                                  
E02  29340658.528   154186241.2091       1190.332          39.000    29340678.086   118142766.3761        911.990          42.000  
> 2024 04 15 14 45 30.0030000  0 27                     
G02  24789192.385   130268037.179       -4780.341          43.000                                                                  
G03  22144135.036   116368204.149       -1641.752          49.000    22144136.377    90676522.734       -1279.255          46.000  
G04  21488722.628   112923989.347       -2110.305          48.000    21488721.422    87992709.377       -1644.362          49.000  
G09  21971189.025   115459381.919         246.295          49.000    21971188.746    89968350.241         191.913          44.000  
G17  24474989.050   128616908.128       -3474.342          42.000    24474987.136                       -2707.344          30.000  
G19  24612460.135   129339336.213       -2028.217          44.000                                                                  
R10  23979725.504   127825429.535       -1647.243          40.000                                                                  
R02  22693582.148   121097311.208         847.785          50.000    22693584.726    94186809.569         659.467          47.000  
R11  22999204.549   122900824.311        1607.975          50.000    22999207.300    95589560.839        1250.745          47.000  
R01  21212328.692   113392047.582       -1320.194          48.000    21212329.922    88193817.170       -1026.842          45.000  
R24  20931155.938   111928287.693       -2283.729          51.000    20931155.747    87055326.610       -1776.251          49.000  
G07  24857355.870   130626300.465        3221.429          45.000    24857360.014   101786804.804        2510.205          41.000  
S31  39787229.966   209083295.552        -816.337          44.000  
S33  40738124.321   214080283.761        -815.741          42.000  
E03  28348057.177   148969998.582       -3153.694          38.000    28348069.911   114145861.358       -2416.298          41.000  
R23  23448114.831   125431552.617       -5218.808          48.000                                                                  
R17  22641636.252   121159978.247        1756.055          50.000    22641636.051    94235538.954        1365.798          48.000  
R08  23791910.063   127404558.157       -3383.248          36.000    23791913.760    99092425.609       -2631.072          45.000  
E07  25298982.542   132947055.705         211.381          48.000    25298988.087   101868544.129         162.025          51.000  
E08  24907828.913   130891516.677       -2007.188          48.000    24907830.773   100293505.988       -1537.902          51.000  
E13  24378202.662   128108314.668       -1426.664          47.000    24378207.657    98160931.106       -1093.129          51.000  
E15  26949742.880   141621822.161       -3631.415          45.000    26949751.612   108515442.991       -2782.404          48.000  
E26  26282729.535   138116681.316        1272.153          43.000    26282733.589   105829683.536         974.828          48.000  
G06  23413141.624   123036847.765        1990.956          45.000    23413144.216    95872920.784        1550.989          42.000  
G31  25378519.032   133364963.186       -3422.202          39.000    25378520.255   103920752.460       -2666.318          41.000  
E18  28209885.760   148243904.767        -299.665          38.000                                                                  
E02  29333867.477   154150552.479        1188.540          42.000    29333886.451   118115420.539         910.798          42.000  
> 2024 04 15 14 46 00.0030000  0 27                     
G02  24816492.875   130411499.189       -4783.405          43.000                                                                  
G03  22153529.521   116417570.418       -1649.106          50.000    22153531.103    90714989.889       -1284.975          47.000  
G04  21500796.234   112987437.087       -2119.440          48.000    21500795.450    88042149.123       -1651.483          49.000  
G09  21969812.772   115452149.427         235.933          49.000    21969812.065    89962714.528         183.713          43.000  
G17  24494840.817   128721225.899       -3480.170          42.000    24494840.016   100302244.752       -2711.639          33.000  
G19  24624073.616   129400364.438       -2040.295          44.000                                                                  
R10  23989061.233   127875196.437       -1670.295          41.000                                                                  
R02  22688832.761   121071965.794         842.003          50.000    22688834.689    94167096.510         654.927          47.000  
R11  22990223.948   122852828.005        1591.739          52.000    22990225.007    95552230.544        1238.102          46.000  
R01  21219752.411   113431728.209       -1325.155          48.000    21219752.973    88224679.846       -1030.778          44.000  
R24  20944038.663   111997177.477       -2308.860          52.000    20944038.736    87108907.498       -1795.705          49.000  
G07  24838968.783   130529679.176        3219.977          45.000    24838973.011   101711515.729        2509.339          40.000  
S31  39791889.929   209107784.479        -815.867          44.000  
S33  40742779.958   214104747.971        -815.152          42.000  
E03  28366055.173   149064577.630       -3151.465          40.000    28366067.573   114218330.633       -2414.860          41.000  
R23  23477398.758   125588201.556       -5224.271          47.000                                                                  
R17  22631850.678   121107608.037        1735.388          50.000    22631848.979    94194806.630        1349.755          48.000  
R08  23810859.635   127506017.489       -3380.921          40.000    23810860.291    99171338.062       -2629.746          44.000  
E07  25297795.059   132940816.475         204.655          48.000    25297800.804   101863763.428         156.925          51.000  
E08  24919299.277   130951795.294       -2011.203          48.000    24919301.758   100339693.460       -1541.082          51.000  
E13  24386386.561   128151314.917       -1439.941          48.000    24386390.433    98193879.294       -1103.271          51.000  
E15  26970489.990   141730850.074       -3637.085          44.000    26970499.242   108598983.645       -2786.879          48.000  
E26  26275489.961   138078637.322        1264.186          43.000    26275494.053   105800532.970         968.643          48.000  
G06  23401809.952   122977298.011        1979.175          44.000    23401811.825    95826518.416        1542.262          42.000  
G31  25398083.648   133467774.612       -3432.040          37.000    25398084.978   104000865.021       -2674.205          41.000  
E18  28211579.708   148252805.713        -293.541          36.000                                                                  
E02  29327088.344   154114928.581        1186.570          42.000    29327107.517   118088124.402         909.163          43.000  
> 2024 04 15 14 46 30.0030000  0 27                     
G02  24843808.872   130555043.891       -4786.060          44.000                                                                  
G03  22162963.165   116467145.449       -1656.001          50.000    22162963.757    90753619.718       -1290.284          46.000  
G04  21512919.865   113051146.736       -2128.182          48.000    21512918.879    88091792.941       -1658.087          49.000  
G09  21968493.121   115445213.714         226.163          50.000    21968492.289    89957310.084         176.219          44.000  
G17  24514721.885   128825705.716       -3485.618          41.000    24514726.011   100383657.449       -2715.966          34.000  
G19  24635753.923   129461743.646       -2052.002          44.000                                                                  
R10  23998525.306   127925641.126       -1692.907          42.000                                                                  
R02  22684114.356   121046785.733         836.415          50.000    22684116.552    94147512.053         650.593          47.000  
R11  22981330.538   122805308.758        1575.893          51.000    22981332.800    95515271.249        1225.659          47.000  
R01  21227200.188   113471544.726       -1329.519          48.000    21227201.461    88255648.215       -1034.140          44.000  
R24  20957059.301   112066806.994       -2333.360          51.000    20957059.349    87163063.729       -1814.830          49.000  
G07  24820587.194   130433085.265        3219.141          46.000    24820591.112   101636248.025        2508.234          40.000  
S31  39796543.725   209132242.024        -814.888          43.000  
S33  40747429.790   214129181.866        -814.006          42.000  
E03  28384040.102   149159083.537       -3148.799          40.000    28384051.164   114290743.871       -2412.965          39.000  
R23  23506710.381   125745000.575       -5229.148          46.000                                                                  
R17  22622175.482   121055846.431        1715.106          48.000    22622176.282    94154547.665        1334.046          48.000  
R08  23829794.486   127607410.082       -3378.557          38.000    23829794.435    99250198.678       -2627.840          43.000  
E07  25296643.951   132934762.284         198.724          48.000    25296648.768   101859124.516         152.298          51.000  
E08  24930790.282   131012183.134       -2014.774          47.000    24930793.562   100385964.607       -1543.840          52.000  
E13  24394642.327   128194698.789       -1452.564          48.000    24394646.252    98227121.454       -1112.948          52.000  
E15  26991268.039   141840033.533       -3642.069          44.000    26991276.737   108682643.474       -2790.625          49.000  
E26  26268294.162   138040822.961        1256.776          43.000    26268298.647   105771558.360         962.812          49.000  
G06  23390541.079   122918080.752        1968.363          45.000    23390543.415    95780375.140        1533.796          42.000  
G31  25417700.590   133570867.652       -3441.494          33.000    25417703.116   104081196.905       -2681.076          39.000  
E18  28213236.347   148261511.419        -286.782          34.000                                                                  
E02  29320319.140   154079353.784        1184.976          42.000    29320337.192   118060865.862         907.783          43.000  
> 2024 04 15 14 47 00.0030000  0 27                     
G02  24871141.346   130698672.492       -4788.440          44.000                                                                  
G03  22172437.876   116516933.995       -1662.649          50.000    22172438.641    90792415.918       -1295.592          46.000  
G04  21525093.491   113115120.430       -2136.421          47.000    21525092.903    88141642.520       -1664.673          49.000  
G09  21967230.540   115438578.129         216.554          50.000    21967230.651    89952139.487         168.655          45.000  
G17  24534634.737   128930348.248       -3490.412          42.000    24534637.282   100465196.830       -2719.701          34.000  
G19  24647500.599   129523475.489       -2063.135          41.000                                                                  
R10  24008116.183   127976767.240       -1715.200          43.000                                                                  
R02  22679427.102   121021774.195         831.421          51.000    22679429.958    94128058.631         646.577          47.000  
R11  22972528.851   122758274.563        1560.036          51.000    22972531.463    95478689.177        1213.386          47.000  
R01  21234674.692   113511500.275       -1333.735          47.000    21234675.537    88286724.724       -1037.368          43.000  
R24  20970220.523   112137177.746       -2357.542          52.000    20970218.589    87217796.491       -1833.562          49.000  
G07  24802212.884   130336525.520        3218.292          46.000    24802216.745   101561006.864        2507.855          41.000  
S31  39801192.784   209156672.873        -813.339          43.000  
S33  40752074.509   214153589.684        -812.723          42.000  
E03  28402009.621   149253519.614       -3146.181          39.000    28402020.202   114363103.597       -2410.714          34.000  
R23  23536050.326   125901949.629       -5233.614          47.000                                                                  
R17  22612618.048   121004700.645        1694.907          48.000    22612618.604    94114767.681        1318.261          47.000  
R08  23848716.948   127708740.227       -3376.111          40.000    23848718.887    99329010.764       -2625.868          44.000  
E07  25295528.346   132928896.594         192.836          48.000    25295532.194   101854630.038         147.772          50.000  
E08  24942303.163   131072683.003       -2017.942          48.000    24942306.498   100432321.574       -1546.259          52.000  
E13  24402971.810   128238470.313       -1465.029          48.000    24402976.158    98260660.621       -1122.556          52.000  
E15  27012075.331   141949375.039       -3647.020          45.000    27012084.064   108766424.393       -2794.350          49.000  
E26  26261142.670   138003244.000        1249.117          42.000    26261147.909   105742764.105         957.052          49.000  
G06  23379337.062   122859202.834        1957.323          45.000    23379339.608    95734496.298        1525.192          42.000  
G31  25437371.233   133674244.187       -3450.137          33.000    25437375.401   104161749.719       -2688.529          42.000  
E18  28214849.800   148270025.262        -280.408          33.000                                                                  
E02  29313559.439   154043834.189        1183.745          43.000    29313577.874   118033649.598         906.869          44.000  
> 2024 04 15 14 47 30.0030000  0 27                     
G02  24898485.962   130842370.147       -4791.196          43.000                                                                  
G03  22181950.180   116566925.004       -1669.935          50.000    22181952.182    90831369.899       -1301.155          47.000  
G04  21537314.706   113179344.599       -2145.024          48.000    21537313.655    88191687.294       -1671.465          49.000  
G09  21966022.498   115432230.387         206.705          50.000    21966023.436    89947193.201         161.059          45.000  
G17  24554575.653   129035138.356       -3495.611          41.000    24554578.951   100546851.252       -2723.773          35.000  
G19  24659312.868   129585546.057       -2074.780          44.000                                                                  
R10  24017832.822   128028561.848       -1737.762          45.000                                                                  
R02  22674768.815   120996918.416         825.795          50.000    22674772.013    94108726.425         642.095          47.000  
R11  22963816.131   122711717.726        1543.758          49.000    22963819.796    95442478.488        1200.603          48.000  
R01  21242173.094   113551581.808       -1338.235          48.000    21242173.481    88317899.213       -1040.854          43.000  
R24  20983516.811   112208275.647       -2382.131          53.000    20983515.257    87273094.774       -1852.756          48.000  
G07  24783842.233   130239991.312        3217.297          46.000    24783846.225   101485785.662        2506.714          41.000  
S31  39805835.130   209181065.401        -812.562          44.000  
S33  40756711.665   214177958.710        -811.645          41.000  
E03  28419965.071   149347873.545       -3144.084          39.000    28419975.700   114435400.288       -2409.177          32.000  
R23  23565415.265   126059031.968       -5238.450          47.000                                                                  
R17  22603175.191   120954162.105        1674.369          50.000    22603173.556    94075459.983        1302.301          47.000  
R08  23867623.598   127809995.668       -3373.976          37.000    23867628.051    99407764.646       -2624.179          45.000  
E07  25294445.156   132923207.137         186.540          48.000    25294449.502   101850270.596         143.024          50.000  
E08  24953835.306   131133281.945       -2021.763          48.000    24953837.973   100478754.475       -1549.104          52.000  
E13  24411371.818   128282617.667       -1478.056          47.000    24411377.256    98294487.772       -1132.484          52.000  
E15  27032909.691   142058861.320       -3652.227          44.000    27032918.822   108850316.264       -2798.321          49.000  
E26  26254036.014   137965890.352        1241.295          44.000    26254039.612   105714142.475         951.068          49.000  
G06  23368196.036   122800655.267        1945.774          45.000    23368198.536    95688874.855        1516.218          42.000  
G31  25457092.408   133777890.210       -3459.180          33.000    25457098.379   104242512.642       -2695.822          41.000  
E18  28216432.989                        -273.693          31.000                                                                  
E02  29306808.917   154008360.021        1181.421          43.000    29306827.762   118006468.198         905.260          45.000  
> 2024 04 15 14 48 00.0030000  0 27                     
G02  24925847.497   130986152.164       -4794.003          42.000                                                                  
G03  22191505.537   116617137.199       -1677.693          50.000    22191507.269    90870496.249       -1307.229          47.000  
G04  21549586.686   113243835.356       -2154.361          47.000    21549586.408    88241939.770       -1678.719          49.000  
G09  21964872.822   115426187.775         196.035          49.000    21964873.084    89942484.650         152.972          45.000  
G17  24574547.824   129140090.214       -3501.309          42.000    24574550.767   100628631.719       -2728.044          36.000  
G19  24671191.785   129647970.778       -2086.981          44.000                                                                  
R10  24027678.921   128081043.289       -1760.985          45.000                                                                  
R02  22670143.269   120972236.105         819.730          50.000    22670146.542    94089529.097         637.514          47.000  
R11  22955196.649   122665660.365        1526.700          49.000    22955199.951    95406656.182        1187.381          48.000  
R01  21249698.066   113591806.523       -1343.226          48.000    21249698.907    88349185.056       -1044.761          43.000  
R24  20996950.389   112280116.731       -2407.293          52.000    20996949.881    87328971.113       -1872.250          49.000  
G07  24765481.257   130143503.625        3215.057          45.000    24765484.842   101410600.668        2505.090          41.000  
S31  39810472.568   209205436.518        -812.026          43.000  
S33  40761345.087   214202305.594        -811.415          42.000  
E03  28437909.664   149442162.489       -3142.061          41.000    28437918.986                       -2407.395          29.000  
R23  23594809.083   126216261.792       -5243.517          48.000                                                                  
R17  22593847.443   120904252.383        1652.932          48.000    22593846.187    94036641.373        1285.656          46.000  
R08  23886522.314   127911194.350       -3372.859          42.000    23886527.163    99486474.379       -2623.263          46.000  
E07  25293398.665   132917711.359         179.810          47.000    25293403.595   101846059.537         137.797          50.000  
E08  24965387.814   131193996.724       -2025.894          47.000    24965391.697   100525276.133       -1552.264          52.000  
E13  24419848.233   128327158.740       -1491.352          47.000    24419853.041    98328616.594       -1142.789          52.000  
E15  27053774.237   142168508.815       -3657.779          44.000    27053784.047   108934331.656       -2802.725          49.000  
E26  26246973.322   137928781.596        1232.918          43.000    26246978.171   105685708.543         944.563          50.000  
G06  23357121.088   122742458.759        1933.932          44.000    23357123.888    95643526.991        1507.007          42.000  
G31  25476874.036   133881821.184       -3469.276          38.000    25476876.151   104323497.469       -2703.331          41.000  
E18  28217983.301   148286458.367        -267.818          33.000                                                                  
E02  29300070.842   153972951.201        1179.186          43.000    29300089.486   117979336.859         903.456          45.000  
> 2024 04 15 14 48 30.0030000  0 27                     
G02  24953226.014   131130024.016       -4797.047          43.000                                                                  
G03  22201104.272   116667579.459       -1685.178          50.000    22201106.091    90909801.847       -1313.207          46.000  
G04  21561910.358   113308599.011       -2163.275          47.000    21561910.541    88292404.888       -1685.583          49.000  
G09  21963781.366   115420457.847         185.918          48.000    21963782.219    89938019.773         144.843          45.000  
G17  24594550.924   129245209.211       -3506.659          41.000    24594555.143   100710542.449       -2732.483          36.000  
G19  24683139.697   129710755.580       -2098.846          45.000                                                                  
R10  24037653.275   128134218.806       -1783.866          44.000                                                                  
R02  22665551.528   120947734.372         813.782          51.000    22665553.760    94070472.230         632.887          45.000  
R11  22946673.582   122620114.950        1509.615          48.000    22946676.613    95371232.064        1174.248          47.000  
R01  21257251.155   113632181.718       -1348.233          49.000    21257251.642    88380587.950       -1048.563          44.000  
R24  21010524.603   112352706.517       -2432.031          51.000    21010524.792    87385429.771       -1891.671          49.000  
G07  24747130.592   130047073.118        3213.269          45.000    24747134.779   101335460.246        2504.156          42.000  
S31  39815108.536   209229795.639        -811.713          45.000  
S33  40765975.994   214226641.163        -810.683          42.000  
E03  28455840.602   149536394.024       -3140.136          41.000    28455848.783                       -2406.136          31.000  
R23  23624229.974   126373643.345       -5248.517          48.000                                                                  
R17  22584639.844   120854983.250        1631.772          48.000    22584638.131    93998321.000        1269.057          45.000  
R08  23905412.817   128012343.482       -3370.890          42.000    23905415.462    99565145.654       -2621.652          45.000  
E07  25292391.051   132912416.870         173.149          47.000    25292396.428   101842002.725         132.673          51.000  
E08  24976965.499   131254834.384       -2029.932          47.000    24976968.958   100571891.926       -1555.407          52.000  
E13  24428400.845   128372101.644       -1504.799          48.000    24428405.571    98363053.321       -1153.059          52.000  
E15  27074671.358   142278324.285       -3663.293          43.000    27074681.358   109018475.723       -2806.875          48.000  
E26  26239960.932   137891927.728        1224.233          42.000    26239965.107   105657469.869         937.949          49.000  
G06  23346115.131   122684624.289        1921.825          44.000    23346117.928    95598461.228        1497.481          42.000  
G31  25496708.536   133986043.031       -3479.055          39.000    25496709.656   104404708.952       -2711.078          40.000  
E18  28219493.533   148294402.824        -261.541          35.000                                                                  
E02  29293346.919   153937617.975        1176.351          43.000    29293365.656   117952263.463         901.410          46.000  
> 2024 04 15 14 49 00.0030000  0 27                     
G02  24980621.857   131273990.280       -4800.559          43.000                                                                  
G03  22210749.086   116718260.103       -1693.373          50.000    22210750.063    90949293.176       -1319.275          46.000  
G04  21574288.105   113373641.287       -2172.695          47.000    21574287.649    88343087.133       -1692.897          48.000  
G09  21962752.529   115415047.548         174.966          49.000    21962753.138    89933803.951         136.382          45.000  
G17  24614587.052   129350499.322       -3512.177          42.000    24614591.675   100792586.532       -2736.755          37.000  
G19  24695156.911   129773906.199       -2110.913          46.000                                                                  
R10  24047761.145   128188094.534       -1807.538          45.000                                                                  
R02  22660994.537   120923420.127         807.272          50.000    22660997.398    94051561.188         627.837          46.000  
R11  22938248.960   122575093.421        1492.018          49.000    22938251.169    95336215.409        1160.606          47.000  
R01  21264832.972   113672713.856       -1353.648          48.000    21264834.466    88412112.908       -1052.743          44.000  
R24  21024240.174   112426050.220       -2457.281          51.000    21024239.252    87442474.787       -1911.185          48.000  
G07  24728793.500   129950710.434        3211.157          45.000    24728797.835   101260372.678        2502.033          42.000  
S31  39819742.440   209254149.554        -811.578          44.000  
S33  40770605.394   214250971.504        -810.835          42.000  
E03  28473763.651   149630575.048       -3138.688          41.000    28473773.691   114652014.684       -2404.921          35.000  
R23  23653679.567   126531179.748       -5253.727          47.000                                                                  
R17  22575554.525   120806365.302        1609.712          48.000    22575552.515    93960507.058        1252.153          45.000  
R08  23924293.855   128113451.181       -3369.521          42.000    23924298.184    99643784.664       -2620.635          47.000  
E07  25291424.179   132907330.676         166.163          47.000    25291429.056   101838105.500         127.380          51.000  
E08  24988567.575   131315801.274       -2034.180          47.000    24988570.511   100618606.751       -1558.756          52.000  
E13  24437030.386   128417453.822       -1518.465          47.000    24437035.453    98397803.643       -1163.562          51.000  
E15  27095601.489   142388313.629       -3669.217          43.000    27095611.666   109102753.048       -2811.405          48.000  
E26  26232997.903   137855337.881        1215.149          43.000    26233002.251   105629433.529         931.314          49.000  
G06  23335180.183   122627162.173        1909.230          44.000    23335183.446    95553685.591        1487.684          43.000  
G31  25516596.731   134090560.923       -3488.935          40.000    25516599.152   104486151.142       -2718.383          40.000  
E18  28220974.126   148302175.500        -256.285          36.000                                                                  
E02  29286640.185   153902369.807        1173.528          44.000    29286657.896   117925255.264         899.145          45.000  
> 2024 04 15 14 49 30.0030000  0 27                     
G02  25008035.173   131418047.144       -4803.701          43.000                                                                  
G03  22220438.686   116769178.673       -1701.489          50.000    22220438.957    90988969.927       -1325.853          45.000  
G04  21586717.287   113438959.126       -2181.964          47.000    21586717.426    88393984.105       -1700.263          49.000  
G09  21961783.803   115409955.092         164.295          49.000    21961784.005    89929835.802         127.948          45.000  
G17  24634654.856   129455955.788       -3518.188          42.000    24634660.310   100874760.204       -2741.406          37.000  
G19  24707243.096   129837418.984       -2123.291          46.000                                                                  
R10  24057999.725   128242668.996       -1831.073          44.000                                                                  
R02  22656473.695   120899291.405         801.107          51.000    22656476.896    94032794.475         623.095          48.000  
R11  22929922.255   122530598.226        1474.146          49.000    22929925.252    95301608.050        1146.520          48.000  
R01  21272443.717   113713401.206       -1359.195          47.000    21272445.051    88443758.588       -1057.155          44.000  
R24  21038096.009   112500144.571       -2482.513          51.000    21038095.442    87500103.666       -1930.933          48.000  
G07  24710469.281   129854417.250        3208.289          44.000    24710473.618   101185339.221        2500.159          42.000  
S31  39824375.778   209278496.421        -811.740          44.000  
S33  40775234.487   214275295.066        -810.802          42.000  
E03  28491675.789   149724703.726       -3137.019          42.000    28491686.663   114724138.882       -2403.496          38.000  
R23  23683157.644   126688865.307       -5258.843          46.000                                                                  
R17  22566591.173   120758400.620        1587.680          48.000    22566589.783    93923201.228        1234.879          46.000  
R08  23943167.176   128214516.188       -3368.324          43.000    23943171.528    99722390.501       -2619.713          46.000  
E07  25290495.229   132902451.097         159.042          47.000    25290500.629   101834366.592         121.911          52.000  
E08  25000194.000   131376895.029       -2038.678          47.000    25000196.287   100665418.777       -1562.079          52.000  
E13  24445739.154   128463214.045       -1532.345          48.000    24445743.270    98432866.607       -1174.100          51.000  
E15  27116564.859   142498474.289       -3675.076          43.000    27116574.705   109187161.625       -2816.054          48.000  
E26  26226085.877   137819012.637        1206.196          43.000    26226089.612   105601599.957         924.242          49.000  
G06  23324316.072   122570074.024        1896.361          44.000    23324320.266    95509201.341        1477.700          44.000  
G31  25536540.725   134195371.515       -3498.713          41.000    25536543.694   104567821.422       -2726.086          39.000  
E18  28222420.459   148309774.662        -250.803          38.000                                                                  
E02  29279948.548   153867207.585        1170.483          44.000    29279966.508   117898312.966         896.896          45.000  
> 2024 04 15 14 50 00.0030000  0 28                     
G02  25035466.000   131562194.426       -4806.285          43.000                                                                  
G03  22230173.382   116820338.166       -1709.238          50.000    22230174.707    91028834.403       -1331.823          46.000  
G04  21599199.768   113504553.067       -2190.961          47.000    21599199.299    88445096.221       -1707.202          48.000  
G09  21960875.040   115405182.062         153.796          47.000    21960875.823    89926116.585         119.763          45.000  
G17  24654754.574   129561577.453       -3523.242          41.000    24654758.035   100957062.607       -2745.410          36.000  
G19  24719398.111   129901294.093       -2135.065          46.000                                                                  
R10  24068368.546   128297943.902       -1854.394          43.000                                                                  
R02  22651987.194   120875349.833         795.123          50.000    22651989.622    94014173.289         618.367          47.000  
R11  22921695.221   122486636.051        1456.658          49.000    22921698.569    95267415.324        1133.002          48.000  
R01  21280084.881   113754244.840       -1363.944          48.000    21280086.805    88475525.810       -1060.768          45.000  
R24  21052091.759   112574989.032       -2507.131          51.000    21052092.232    87558315.979       -1950.153          49.000  
G07  24692159.508   129758198.596        3206.049          44.000    24692163.522   101110363.855        2498.395          42.000  
S31  39829008.171   209302840.082        -811.271          42.000  
S33  40779862.647   214299615.256        -810.487          43.000  
E03  28509579.028   149818781.827       -3134.951          42.000    28509589.237   114796224.303       -2401.954          39.000  
R23  23712664.580   126846698.543       -5263.408          48.000                                                                  
R17  22557751.325   120711095.104        1566.135          49.000    22557751.537    93886408.067        1218.003          47.000  
R08  23962033.378   128315540.538       -3366.771          43.000    23962037.337    99800964.674       -2618.504          46.000  
E07  25289605.862   132897779.887         152.413          46.000    25289611.660   101830787.332         116.812          52.000  
E08  25011844.191   131438116.818       -2042.701          48.000    25011846.350   100712328.925       -1565.157          52.000  
E13  24454525.211   128509384.464       -1545.725          48.000    24454528.995    98468243.888       -1184.333          51.000  
E15  27137560.430   142608806.957       -3680.433          43.000    27137570.937   109271702.015       -2820.044          48.000  
E26  26219223.724   137782955.992        1197.543          42.000    26219228.492   105573972.199         917.604          50.000  
G06  23313524.730   122513364.834        1884.133          43.000    23313528.365    95465012.426        1468.179          43.000  
G31  25556540.895   134300474.787       -3508.153          43.000    25556545.302   104649719.718       -2733.575          39.000  
G16  26961432.350                3        940.998          26.000                                                                  
E18  28223834.222   148317202.192        -244.494          38.000                                                                  
E02  29273274.357   153832135.583        1167.656          43.000    29273293.332   117871439.846         894.646          46.000  
> 2024 04 15 14 50 30.0030000  0 27                     
G02  25062913.181   131706430.329       -4809.653          42.000                                                                  
G03  22239955.113   116871740.450       -1717.527          49.000    22239955.497    91068888.074       -1338.162          45.000  
G04  21611734.831   113570422.281       -2200.275          48.000    21611733.582    88496422.847       -1714.514          48.000  
G09  21960027.752   115400728.910         143.074          47.000    21960028.692    89922646.582         111.449          46.000  
G17  24674885.894   129667362.077       -3528.766          42.000    24674888.479   101039492.011       -2749.750          34.000  
G19  24731622.060   129965529.966       -2147.296          45.000                                                                  
R10  24078870.858   128353919.408       -1877.502          43.000                                                                  
R02  22647534.198   120851595.488         788.676          49.000    22647537.546    93995697.719         613.433          47.000  
R11  22913568.073   122443211.399        1438.413          48.000    22913570.469    95233640.670        1118.857          45.000  
R01  21287755.358   113795244.610       -1369.305          48.000    21287757.094    88507414.470       -1065.157          45.000  
R24  21066228.372   112650582.005       -2532.337          51.000    21066228.745    87617110.425       -1969.612          49.000  
G07  24673864.490   129662058.623        3203.406          45.000    24673868.664   101035449.793        2496.100          42.000  
S31  39833640.022   209327180.103        -810.968          44.000  
S33  40784489.810   214323931.680        -810.563          42.000  
E03  28527470.800   149912809.707       -3133.707          41.000    28527482.742   114868271.231       -2400.818          39.000  
R23  23742197.047   127004676.069       -5268.329          47.000                                                                  
R17  22549034.001   120664452.469        1543.530          49.000    22549034.973    93850130.487        1200.556          46.000  
R08  23980892.152   128416524.500       -3365.642          44.000    23980896.372    99879507.444       -2617.713          45.000  
E07  25288757.585   132893317.544         145.106          47.000    25288762.657   101827368.117         111.315          52.000  
E08  25023518.369   131499466.509       -2047.169          48.000    25023520.762   100759337.094       -1568.657          52.000  
E13  24463389.431   128555966.000       -1559.673          48.000    24463393.086    98503936.197       -1195.110          51.000  
E15  27158589.713   142719311.184       -3686.425          45.000    27158599.731   109356373.866       -2824.644          48.000  
E26  26212414.638   137747170.658        1188.326          43.000    26212418.636   105546552.323         910.434          50.000  
G06  23302807.029   122457038.526        1871.241          44.000    23302810.515    95421121.825        1458.015          45.000  
G31  25576596.464   134405869.468       -3518.192          43.000    25576601.438   104731845.139       -2741.274          40.000  
E18  28225215.567   148324458.644        -238.969          39.000                                                                  
E02  29266617.308   153797156.914        1163.991          42.000    29266636.220   117844638.176         892.216          44.000  
> 2024 04 15 14 51 00.0030000  0 27                     
G02  25090376.357   131850750.421       -4812.041          44.000                                                                  
G03  22249782.667   116923384.629       -1725.488          49.000    22249784.067    91109130.225       -1344.512          46.000  
G04  21624321.456   113636563.404       -2209.155          48.000    21624319.673    88547961.333       -1721.417          48.000  
G09  21959240.714   115396593.425         132.551          48.000    21959241.355    89919424.154         103.380          45.000  
G17  24695046.637   129773304.643       -3533.874          41.000    24695047.494   101122044.441       -2753.687          33.000  
G19  24743913.376   130030122.742       -2159.113          44.000                                                                  
R10  24089501.730   128410592.988       -1900.632          42.000                                                                  
R02  22643117.351   120828025.850         782.597          49.000    22643120.455    93977365.848         608.578          47.000  
R11  22905543.004   122400326.954        1420.631          49.000    22905544.708    95200286.230        1104.737          46.000  
R01  21295454.036   113836398.372       -1374.170          48.000    21295455.132    88539422.914       -1068.874          44.000  
R24  21080503.661   112726919.495       -2556.778          51.000    21080505.273    87676483.949       -1988.569          50.000  
G07  24655585.024   129565998.499        3200.659          46.000    24655589.386   100960597.972        2494.098          43.000  
S31  39838271.074   209351515.513        -811.056          44.000  
S33  40789116.575   214348244.221        -810.262          43.000  
E03  28545354.220   150006785.287       -3131.498          41.000    28545366.266   114940278.144       -2399.482          40.000  
R23  23771754.071   127162792.050       -5272.918          46.000                                                                  
R17  22540442.364   120618474.815        1521.462          51.000    22540441.808    93814370.140        1183.466          47.000  
R08  23999743.873   128517467.035       -3363.849          43.000    23999745.711    99958017.965       -2616.109          43.000  
E07  25287946.996   132889061.917         138.615          47.000    25287952.829   101824107.309         106.180          52.000  
E08  25035216.930   131560941.409       -2051.202          48.000    25035219.013   100806441.187       -1571.621          52.000  
E13  24472330.945   128602956.985       -1573.090          47.000    24472335.307    98539942.217       -1205.263          51.000  
E15  27179650.920   142829983.917       -3691.782          44.000    27179660.260   109441174.802       -2828.674          48.000  
E26  26205657.020   137711656.768        1179.353          44.000    26205660.423   105519340.419         903.681          49.000  
G06  23292161.515   122401096.131        1858.566          45.000    23292164.764    95377530.419        1448.231          45.000  
G31  25596707.780   134511551.765       -3527.388          45.000    25596713.355   104814194.607       -2748.618          39.000  
E18  28226564.064   148331541.991        -232.871          41.000                                                                  
E02  29259978.784   153762271.803        1161.304          40.000    29259997.585   117817908.280         889.815          43.000  
> 2024 04 15 14 51 30.0040000  0 28                     
G02  25117856.483   131995155.295       -4814.441          44.000                                                                  
G03  22259657.338   116975271.508       -1733.502          50.000    22259657.428    91149561.504       -1350.811          45.000  
G04  21636959.176   113702975.115       -2218.000          47.000    21636957.721    88599710.692       -1728.216          48.000  
G09  21958513.224   115392773.139         122.180          47.000    21958514.582    89916447.362          95.099          45.000  
G17  24715236.600   129879403.739       -3538.887          41.000    24715236.744                       -2757.389          31.000  
G19  24756273.092   130095070.957       -2170.564          44.000                                                                  
R10  24100263.995   128467963.817       -1923.800          41.000                                                                  
R02  22638735.480   120804637.996         776.660          51.000    22638738.072    93959175.276         604.109          48.000  
R11  22897619.354   122357983.959        1402.242          50.000    22897621.486    95167352.845        1090.829          47.000  
R01  21303181.204   113877704.756       -1379.207          48.000    21303182.216    88571550.041       -1072.776          45.000  
R24  21094919.352   112803999.598       -2581.382          52.000    21094919.172    87736435.075       -2007.836          49.000  
G07  24637320.165   129470016.283        3198.003          46.000    24637324.165   100885806.830        2492.029          42.000  
S31  39842900.576   209375846.310        -810.822          44.000  
S33  40793741.896   214372550.486        -810.055          41.000  
E03  28563229.020   150100709.359       -3129.629          42.000    28563240.396   115012245.559       -2398.211          40.000  
R23  23801338.685   127321045.622       -5277.092          46.000                                                                  
R17  22531975.226   120573161.744        1499.324          50.000    22531973.382    93779126.722        1166.123          46.000  
R08  24018587.154   128618369.176       -3362.404          42.000    24018588.227   100036497.022       -2615.062          43.000  
E07  25287176.704   132885010.696         131.762          47.000    25287181.811   101821003.121         100.998          52.000  
E08  25046938.699   131622540.715       -2055.166          49.000    25046940.972   100853640.636       -1574.713          52.000  
E13  24481351.188   128650357.169       -1586.643          47.000    24481355.393    98576261.779       -1215.693          51.000  
E15  27200743.351   142940825.591       -3697.194          45.000    27200753.131   109526105.215       -2832.978          48.000  
E26  26198947.878   137676413.143        1170.278          42.000    26198953.599   105492335.627         896.637          49.000  
G06  23281589.136   122345537.027        1845.441          44.000    23281591.986    95334237.659        1438.170          45.000  
G31  25616873.619   134617521.300       -3536.881          44.000    25616879.113   104896767.922       -2755.817          39.000  
G16  26945398.007                2        933.264          27.000                                                                  
E18  28227878.610   148338450.281        -227.236          42.000                                                                  
E02  29253357.202   153727479.642        1158.322          39.000    29253376.725   117791249.511         887.508          43.000  
> 2024 04 15 14 52 00.0040000  0 28                     
G02  25145349.993   132139631.364       -4817.047          44.000                                                                  
G03  22269576.674   117027396.956       -1741.693          50.000    22269577.175    91190178.674       -1357.082          46.000  
G04  21649647.045   113769649.826       -2226.948          48.000    21649645.937    88651664.973       -1735.150          49.000  
G09  21957846.161   115389266.297         111.615          47.000    21957846.210    89913714.761          87.115          45.000  
G17  24735454.727   129985647.683       -3544.025          40.000    24735454.193                       -2761.362          32.000  
G19  24768698.244   130160366.384       -2182.355          44.000                                                                  
R10  24111156.977   128526025.968       -1947.059          41.000                                                                  
R02  22634386.247   120781430.938         770.490          51.000    22634389.628    93941125.374         599.271          49.000  
R11  22889796.730   122316186.877        1384.146          50.000    22889800.253    95134844.125        1076.544          46.000  
R01  21310935.096   113919158.550       -1384.240          47.000    21310937.690    88603791.825       -1076.445          45.000  
R24  21109470.648   112881812.997       -2606.040          50.000    21109470.068    87796956.523       -2026.800          48.000  
G07  24619071.678   129374119.830        3195.117          47.000    24619074.803   100811082.500        2489.876          42.000  
S31  39847529.005   209400167.386        -810.572          44.000  
S33  40798365.367   214396849.071        -809.716          42.000  
E03  28581090.991   150194573.677       -3127.910          41.000    28581102.525   115084167.207       -2396.716          39.000  
R23  23830946.100   127479420.634       -5281.200          45.000                                                                  
R17  22523631.669   120528518.200        1476.998          49.000    22523631.719    93744404.029        1148.671          47.000  
R08  24037420.043   128719222.524       -3360.891          42.000    24037423.199   100114938.248       -2614.150          43.000  
E07  25286444.351   132881162.229         124.890          48.000    25286449.619   101818054.290          95.768          52.000  
E08  25058682.781   131684257.835       -2059.305          48.000    25058685.353   100900930.349       -1577.770          52.000  
E13  24490447.063   128698161.811       -1600.323          46.000    24490452.474    98612891.255       -1226.250          51.000  
E15  27221866.018   143051825.964       -3702.777          45.000    27221875.573   109611157.206       -2837.194          48.000  
E26  26192294.422   137641442.515        1161.103          42.000    26192298.807   105465539.952         889.826          49.000  
G06  23271090.023   122290366.207        1832.660          44.000    23271092.718    95291247.482        1427.951          45.000  
G31  25637092.986   134723767.320       -3546.206          45.000    25637097.420   104979556.686       -2763.451          39.000  
G16  26940070.596                1        929.492          24.000                                                                  
E18  28229159.715   148345181.228        -221.261          42.000                                                                  
E02  29246755.073   153692783.110        1154.731          39.000    29246773.511   117764664.068         885.057          42.000  
> 2024 04 15 14 52 30.0040000  0 28                     
G02  25172856.881   132284178.413       -4819.732          43.000                                                                  
G03  22279541.250   117079761.508       -1749.691          50.000    22279541.697    91230982.132       -1363.394          46.000  
G04  21662384.454   113836585.912       -2235.762          47.000    21662383.750    88703822.945       -1742.276          49.000  
G09  21957238.208   115386070.112         101.306          47.000    21957238.226    89911224.231          78.790          45.000  
G17  24755698.761   130092034.330       -3548.818          39.000    24755700.170   101370404.618       -2765.423          33.000  
G19  24781189.350   130226007.125       -2194.126          44.000                                                                  
R10  24122178.824   128584778.119       -1970.246          40.000                                                                  
R02  22630070.005   120758401.203         764.374          50.000    22630073.431    93923213.412         594.543          49.000  
R11  22882076.628   122274936.608        1365.684          49.000    22882080.584    95102760.683        1062.152          46.000  
R01  21318717.311   113960758.320       -1389.441          48.000    21318719.586    88636147.177       -1080.562          46.000  
R24  21124158.220   112960357.713       -2630.560          51.000    21124158.827    87858046.788       -2045.990          48.000  
G07  24600839.572   129278306.938        3192.077          47.000    24600842.151   100736423.277        2487.340          42.000  
S31  39852155.368   209424479.033        -810.490          44.000  
S33  40802987.491   214421137.010        -809.672          42.000  
E03  28598941.737   150288378.837       -3125.970          43.000    28598952.578   115156043.550       -2395.386          37.000  
R23  23860575.742   127637916.546       -5285.317          45.000                                                                  
R17  22515414.119   120484543.565        1454.507          51.000    22515414.301    93710201.574        1131.272          47.000  
R08  24056244.475   128820028.238       -3359.504          42.000    24056247.569   100193342.294       -2612.775          43.000  
E07  25285749.678   132877513.797         118.022          48.000    25285755.196   101815258.745          90.529          52.000  
E08  25070448.767   131746091.660       -2063.284          47.000    25070452.072   100948309.473       -1580.974          52.000  
E13  24499620.787   128746370.345       -1613.962          47.000    24499626.410    98649830.200       -1236.645          51.000  
E15  27243018.783   143162985.177       -3708.160          45.000    27243028.807   109696330.909       -2841.313          48.000  
E26  26185691.782   137606743.290        1152.020          42.000    26185695.889   105438952.276         882.637          49.000  
G06  23260665.057   122235582.570        1819.370          44.000    23260667.471    95248559.033        1417.342          45.000  
G31  25657363.554   134830288.827       -3555.432          45.000    25657368.077   105062560.075       -2770.527          40.000  
G16  26934767.174                3        927.123          25.000                                                                  
E18  28230406.449   148351732.588        -215.593          41.000                                                                  
E02  29240170.069   153658181.267        1151.760          38.000    29240189.518   117738151.140         882.323          42.000  
> 2024 04 15 14 53 00.0040000  0 27                     
G02  25200378.552   132428805.339       -4821.913          43.000                                                                  
G03  22289553.324   117132377.199       -1757.776          50.000    22289554.823    91271981.298       -1369.688          46.000  
G04  21675172.951   113903792.919       -2244.586          47.000    21675172.324    88756192.009       -1749.011          48.000  
G09  21956690.272   115383195.192          90.765          46.000    21956691.495    89908984.066          70.728          45.000  
G17  24775973.282   130198571.750       -3553.366          41.000    24775973.325   101453420.705       -2769.115          34.000  
G19  24793746.801   130292001.941       -2205.621          44.000                                                                  
R10  24133331.451   128644230.898       -1993.339          41.000                                                                  
R02  22625789.929   120735559.339         758.396          52.000    22625792.920    93905447.555         589.873          48.000  
R11  22874463.454   122234248.444        1347.084          51.000    22874465.576    95071114.372        1047.759          46.000  
R01  21326529.125   114002514.191       -1394.305          48.000    21326531.121    88668623.927       -1084.547          45.000  
R24  21138985.420   113039642.378       -2654.930          51.000    21138985.576    87919712.555       -2064.984          48.000  
G07  24582625.642   129182591.709        3189.062          47.000    24582628.215   100661840.177        2484.850          43.000  
S31  39856782.353   209448792.574        -810.201          44.000  
S33  40807609.760   214445427.543        -809.821          42.000  
E03  28616782.907   150382135.605       -3124.238          43.000    28616794.052   115227882.781       -2393.912          36.000  
R23  23890228.430   127796540.263       -5289.397          44.000                                                                  
R17  22507323.606   120441252.390        1431.794          50.000    22507323.987    93676530.685        1113.618          46.000  
R08  24075064.399   128920797.896       -3358.307          43.000    24075066.681   100271718.362       -2611.707          44.000  
E07  25285095.390   132874076.226         111.228          48.000    25285100.910   101812624.767          85.190          52.000  
E08  25082239.667   131808052.431       -2067.374          47.000    25082242.708   100995785.878       -1584.040          51.000  
E13  24508873.998   128794993.963       -1627.506          47.000    24508879.374    98687087.215       -1247.147          52.000  
E15  27264203.778   143274313.106       -3713.551          44.000    27264213.924   109781633.851       -2845.426          48.000  
E26  26179143.352   137572328.559        1142.528          43.000    26179146.888   105412582.579         875.496          50.000  
G06  23250317.039   122181200.243        1805.974          45.000    23250319.132    95206183.229        1407.211          45.000  
G31  25677688.306   134937095.043       -3564.615          45.000    25677692.859   105145785.350       -2777.887          40.000  
E18  28231621.047   148358115.230        -209.794          42.000                                                                  
E02  29233606.585   153623687.396        1148.066          39.000    29233625.468   117711720.841         879.656          42.000  
> 2024 04 15 14 53 30.0040000  0 27                     
G02  25227915.789   132573510.791       -4824.363          42.000                                                                  
G03  22299614.154   117185246.290       -1766.419          50.000    22299615.422    91313177.930       -1376.432          46.000  
G04  21688013.509   113971270.539       -2253.532          47.000    21688012.131    88808771.947       -1755.937          47.000  
G09  21956204.707   115380642.469          79.761          47.000    21956206.396    89906994.926          62.323          46.000  
G17  24796274.756   130305258.005       -3558.489          38.000    24796275.845   101536552.682       -2773.140          33.000  
G19  24806372.743   130358350.102       -2217.358          45.000                                                                  
R10  24144616.459   128704385.028       -2016.566          39.000                                                                  
R02  22621545.531   120712906.387         751.971          52.000    22621547.725    93887828.631         584.923          47.000  
R11  22866955.875   122194127.873        1327.974          50.000    22866957.615    95039909.624        1032.836          46.000  
R01  21334370.691   114044427.475       -1399.601          48.000    21334371.679    88701223.097       -1088.660          45.000  
R24  21153950.612   113119665.745       -2679.650          51.000    21153949.938    87981952.866       -2084.117          48.000  
G07  24564430.411   129086978.906        3185.500          47.000    24564433.640   100587336.881        2482.204          43.000  
S31  39861409.286   209473108.598        -810.393          44.000  
S33  40812232.534   214469720.214        -809.503          42.000  
E03  28634613.694   150475844.934       -3122.824          41.000    28634627.726   115299685.685       -2392.865          38.000  
R23  23919905.111   127955289.113       -5293.526          45.000                                                                  
R17  22499361.855   120398649.222        1408.677          50.000    22499362.227    93643394.929        1095.601          46.000  
R08  24093875.061   129021532.684       -3356.818          41.000    24093878.300   100350067.297       -2611.082          44.000  
E07  25284481.345   132870850.449         103.959          48.000    25284487.152   101810153.060          79.752          52.000  
E08  25094054.730   131870140.530       -2071.617          47.000    25094057.399   101043359.854       -1587.364          51.000  
E13  24518206.728   128844033.992       -1641.545          48.000    24518211.382    98724663.288       -1257.753          52.000  
E15  27285421.122   143385809.655       -3719.257          44.000    27285430.831   109867066.019       -2849.928          47.000  
E26  26172648.922   137538201.473        1132.743          43.000    26172652.889   105386433.304         867.995          50.000  
G06  23240045.472   122127223.423        1792.423          45.000    23240047.703    95164123.420        1396.821          45.000  
G31  25698066.686   135044185.277       -3574.347          44.000    25698072.209   105229231.920       -2785.247          41.000  
E18  28232803.667   148364330.273        -204.326          41.000                                                                  
E02  29227063.181   153589305.017        1144.300          37.000    29227082.557   117685375.987         876.756          42.000  
> 2024 04 15 14 54 00.0040000  0 27                     
G02  25255467.315   132718294.974       -4827.388          42.000                                                                  
G03  22309723.424   117238372.267       -1774.993          50.000    22309725.458    91354574.744       -1383.221          47.000  
G04  21700905.615   114039019.745       -2262.775          47.000    21700904.006    88861563.509       -1763.086          47.000  
G09  21955781.094   115378413.973          68.896          47.000    21955781.932    89905258.442          53.680          46.000  
G17  24816604.237   130412092.576       -3563.187          39.000    24816606.998   101619800.174       -2776.612          34.000  
G19  24819066.100   130425052.029       -2229.119          45.000                                                                  
R10  24156033.662   128765241.888       -2040.349          39.000                                                                  
R02  22617335.186   120690444.101         745.701          51.000    22617337.294    93870357.993         580.005          46.000  
R11  22859555.523   122154581.746        1308.795          50.000    22859556.882    95009151.635        1017.904          46.000  
R01  21342240.218   114086499.711       -1404.863          47.000    21342241.553    88733945.910       -1092.723          45.000  
R24  21169053.068   113200427.968       -2704.298          51.000    21169052.557    88044767.852       -2103.334          48.000  
G07  24546256.346   128991473.894        3181.706          46.000    24546260.101   100512917.569        2479.185          44.000  
S31  39866037.870   209497431.006        -810.549          44.000  
S33  40816856.901   214494018.297        -809.853          42.000  
E03  28652439.480   150569509.086       -3121.264          41.000    28652452.584   115371453.949       -2391.885          38.000  
R23  23949605.374   128114161.721       -5297.628          44.000                                                                  
R17  22491531.478   120356740.214        1385.427          51.000    22491529.582    93610799.070        1077.454          45.000  
R08  24112679.947   129122235.408       -3356.248          41.000    24112684.402   100428391.167       -2610.372          45.000  
E07  25283908.491   132867838.655          96.878          48.000    25283914.056   101807845.327          74.274          52.000  
E08  25105894.673   131932357.592       -2075.999          47.000    25105896.987   101091032.617       -1590.611          51.000  
E13  24527617.235   128893492.950       -1655.621          47.000    24527623.373    98762560.366       -1268.573          52.000  
E15  27306671.297   143497476.066       -3724.942          45.000    27306679.948   109952628.342       -2854.135          46.000  
E26  26166210.695   137504366.484        1122.998          43.000    26166214.682   105360507.848         860.525          50.000  
G06  23229852.136   122073657.605        1778.595          44.000    23229855.139    95122383.884        1385.904          46.000  
G31  25718499.724   135151559.796       -3583.762          44.000    25718505.112   105312900.038       -2792.332          39.000  
E18  28233955.450   148370379.933        -198.828          41.000                                                                  
E02  29220543.021   153555038.930        1140.365          39.000    29220561.717   117659120.271         873.885          43.000  
> 2024 04 15 14 54 30.0040000  0 27                     
G02  25283032.556   132863151.144       -4829.859          43.000                                                                  
G03  22319881.274   117291751.874       -1783.332          49.000    22319883.298    91396169.145       -1389.561          46.000  
G04  21713849.418   114107034.740       -2271.419          48.000    21713846.964    88914562.166       -1769.991          47.000  
G09  21955416.622   115376505.006          58.539          46.000    21955418.646    89903770.964          45.581          46.000  
G17  24836961.302   130519067.779       -3567.963          40.000    24836961.645   101703157.354       -2780.092          32.000  
G19  24831825.110   130492101.191       -2240.522          45.000                                                                  
R10  24167580.414   128826796.673       -2062.953          37.000                                                                  
R02  22613161.202   120668167.605         739.587          51.000    22613163.443    93853031.888         575.212          48.000  
R11  22852259.386   122115609.304        1289.647          47.000    22852263.702    94978839.866        1003.045          46.000  
R01  21350139.151   114128726.003       -1409.858          47.000    21350141.083    88766788.544       -1096.609          44.000  
R24  21184293.175   113281921.889       -2728.417          51.000    21184293.280    88108151.906       -2122.031          49.000  
G07  24528101.460   128896075.378        3178.405          46.000    24528104.762   100438581.266        2476.509          42.000  
S31  39870666.553   209521755.193        -810.689          44.000  
S33  40821480.967   214518319.111        -809.976          42.000  
E03  28670253.281   150663123.445       -3119.377          40.000    28670266.756   115443184.043       -2390.145          40.000  
R23  23979325.907   128273149.907       -5301.305          41.000                                                                  
R17  22483828.484   120315523.862        1362.465          51.000    22483828.345    93578741.984        1059.676          46.000  
R08  24131478.087   129222902.095       -3354.688          39.000    24131483.867   100506687.166       -2609.326          46.000  
E07  25283375.182   132865036.346          90.120          48.000    25283381.246   101805698.095          69.087          52.000  
E08  25117757.879   131994698.500       -2079.896          47.000    25117760.652   101138800.301       -1593.714          52.000  
E13  24537108.875   128943366.652       -1669.187          47.000    24537114.366    98800775.236       -1278.971          52.000  
E15  27327951.921   143609306.804       -3730.161          45.000    27327961.155   110038316.614       -2858.280          47.000  
E26  26159827.905   137470821.346        1113.439          44.000    26159830.819   105334804.449         853.156          50.000  
G06  23219737.278   122020501.578        1765.086          45.000    23219739.075    95080963.616        1375.270          45.000  
G31  25738984.840   135259212.408       -3592.883          43.000    25738991.071   105396784.902       -2799.683          40.000  
E18  28235072.979   148376259.869        -193.037          38.000                                                                  
E02  29214044.398   153520887.271        1136.689          39.000    29214063.270   117632952.236         870.842          44.000  
> 2024 04 15 14 55 00.0040000  0 27                     
G02  25310610.757   133008075.513       -4831.902          43.000                                                                  
G03  22330087.175   117345384.800       -1791.646          50.000    22330088.944    91437960.976       -1396.023          46.000  
G04  21726842.243   114175312.671       -2280.037          48.000    21726840.120    88967765.708       -1776.675          47.000  
G09  21955114.866   115374913.927          48.090          47.000    21955115.952    89902531.168          37.402          46.000  
G17  24857344.020   130626179.711       -3572.272          37.000    24857343.414   101786621.010       -2783.644          32.000  
G19  24844649.894   130559494.309       -2252.158          45.000                                                                  
R10  24179258.443   128889046.674       -2086.681          36.000                                                                  
R02  22609020.910   120646075.191         733.531          50.000    22609023.313    93835848.950         570.599          48.000  
R11  22845075.456   122077213.531        1270.486          47.000    22845078.466    94948976.559         988.212          46.000  
R01  21358067.761   114171104.525       -1414.988          48.000    21358068.624    88799749.592       -1100.620          44.000  
R24  21199668.367   113364143.546       -2752.589          50.000    21199667.799    88172102.004       -2140.949          48.000  
G07  24509968.652   128800785.997        3174.535          46.000    24509971.772   100364329.965        2473.738          41.000  
S31  39875295.142   209546079.748        -810.555          43.000  
S33  40826105.805   214542619.987        -809.785          42.000  
E03  28688057.996   150756686.460       -3117.300          39.000    28688071.358   115514874.808       -2388.827          40.000  
R23  24009068.995   128432248.172       -5304.752          40.000                                                                  
R17  22476256.387   120275002.293        1339.354          51.000    22476255.306    93547225.252        1041.795          46.000  
R08  24150269.792   129323531.214       -3353.473          42.000    24150275.718   100584953.861       -2608.210          46.000  
E07  25282881.483   132862441.883          83.229          48.000    25282887.467   101803710.161          63.907          52.000  
E08  25129643.667   132057161.127       -2083.863          46.000    25129646.934   101186661.222       -1596.647          52.000  
E13  24546677.899   128993653.824       -1682.906          47.000    24546683.783    98839306.920       -1289.505          53.000  
E15  27349263.206   143721299.346       -3735.478          44.000    27349273.024   110124128.814       -2862.232          47.000  
E26  26153498.703   137437566.648        1103.973          43.000    26153502.666   105309323.606         845.840          50.000  
G06  23209699.752   121967756.958        1751.802          45.000    23209702.495    95039863.974        1364.890          45.000  
G31  25759523.220   135367139.758       -3601.849          43.000    25759529.158   105480883.857       -2806.704          39.000  
E18  28236162.071   148381968.539        -187.136          39.000                                                                  
E02  29207567.573   153486850.992        1133.137          40.000    29207586.760   117606872.564         868.086          45.000  
> 2024 04 15 14 55 30.0040000  0 27                     
G02  25338200.569   133153061.491       -4833.642          42.000                                                                  
G03  22340341.183   117399267.778       -1800.157          50.000    22340342.704    91479947.655       -1402.802          46.000  
G04  21739883.886   114243847.778       -2288.826          48.000    21739883.397    89021169.652       -1783.392          48.000  
G09  21954871.929   115373636.002          37.421          47.000    21954873.135    89901535.392          29.022          46.000  
G17  24877751.721   130733421.163       -3576.745          38.000    24877752.079   101870185.586       -2787.244          32.000  
G19  24857538.471   130627225.008       -2263.220          44.000                                                                  
R10  24191066.697   128951986.626       -2109.257          35.000                                                                  
R02  22604913.240   120624162.007         727.466          51.000    22604916.973    93818805.415         565.841          48.000  
R11  22837998.049   122039394.017        1251.016          48.000    22838001.142    94919561.507         973.057          46.000  
R01  21366023.089   114213630.234       -1419.941          46.000    21366024.044    88832825.071       -1104.210          45.000  
R24  21215179.062   113447086.258       -2776.795          51.000    21215178.235    88236612.898       -2159.626          47.000  
G07  24491855.601   128705604.438        3170.979          45.000    24491858.940   100290162.695        2470.705          41.000  
S31  39879923.494   209570401.726        -810.870          44.000  
S33  40830729.090   214566917.287        -809.919          42.000  
E03  28705851.549   150850193.651       -3116.016          40.000    28705865.486   115586522.794       -2387.527          40.000  
R23  24038829.808   128591448.543       -5308.364          41.000                                                                  
R17  22468813.038   120235174.301        1316.012          50.000    22468812.865    93516247.950        1023.356          47.000  
R08  24169055.504   129424118.866       -3351.999          43.000    24169059.937   100663188.277       -2607.194          45.000  
E07  25282426.535   132860050.731          76.367          48.000    25282432.123   101801877.998          58.591          52.000  
E08  25141552.171   132119740.370       -2087.919          46.000    25141555.553   101234611.503       -1599.844          52.000  
E13  24556325.124   129044350.270       -1696.713          47.000    24556330.885    98878152.196       -1300.071          52.000  
E15  27370604.371   143833448.115       -3740.813          44.000    27370614.509   110210060.735       -2866.254          47.000  
E26  26147223.856   137404600.118        1094.122          42.000    26147229.257   105284063.560         838.262          49.000  
G06  23199740.717   121915422.572        1737.587          44.000    23199743.366    94999083.971        1354.044          45.000  
G31  25780112.162   135475335.544       -3610.938          43.000    25780119.128   105565191.973       -2813.671          40.000  
E18  28237214.950   148387501.494        -181.466          39.000                                                                  
E02  29201112.469   153452928.129        1129.026          40.000    29201131.332   117580879.844         865.013          45.000  
> 2024 04 15 14 56 00.0040000  0 27                     
G02  25365802.088   133298105.741       -4835.573          43.000                                                                  
G03  22350642.308   117453400.799       -1808.118          50.000    22350644.208    91522129.133       -1408.953          46.000  
G04  21752974.096   114312637.457       -2296.942          48.000    21752973.192    89074771.936       -1789.753          47.000  
G09  21954688.841   115372669.773          27.209          48.000    21954689.098    89900782.484          21.277          46.000  
G17  24898181.520   130840787.618       -3580.841          36.000    24898183.917   101953847.590       -2789.893          32.000  
G19  24870490.929   130695289.869       -2274.047          43.000                                                                  
R10  24203004.677   129015615.078       -2131.722          35.000                                                                  
R02  22600840.204   120602426.510         721.846          51.000    22600843.454    93801900.034         561.217          47.000  
R11  22831030.776   122002154.251        1231.932          50.000    22831032.576    94890597.337         958.170          48.000  
R01  21374005.672   114256301.429       -1424.426          48.000    21374007.352    88866013.705       -1107.803          45.000  
R24  21230824.123   113530746.036       -2800.220          51.000    21230822.986    88301681.510       -2177.961          46.000  
G07  24473763.971   128610532.777        3167.505          44.000    24473767.685   100216081.060        2468.365          42.000  
S31  39884551.026   209594719.475        -809.985          44.000  
S33  40835352.293   214591211.414        -809.529          42.000  
E03  28723634.899   150943643.623       -3113.733          40.000    28723648.825   115658126.929       -2385.847          41.000  
R23  24068610.035   128750745.913       -5311.327          40.000                                                                  
R17  22461499.440   120196042.097        1293.157          49.000    22461499.960    93485811.783        1005.764          48.000  
R08  24187833.002   129524663.733       -3350.488          44.000    24187835.544   100741389.459       -2605.750          44.000  
E07  25282010.407   132857861.521          69.880          48.000    25282015.279   101800200.575          53.646          51.000  
E08  25153483.001   132182434.344       -2091.419          47.000    25153486.082   101282649.685       -1602.560          52.000  
E13  24566050.874   129095454.895       -1710.049          48.000    24566055.713    98917310.242       -1310.274          52.000  
E15  27391975.032   143945750.782       -3745.461          44.000    27391985.595   110296110.581       -2870.034          48.000  
E26  26141005.490   137371922.622        1084.733          43.000    26141010.661   105259024.980         831.104          49.000  
G06  23189860.641   121863500.279        1724.500          44.000    23189863.006    94958625.080        1343.312          45.000  
G31  25800752.120   135583796.489       -3619.531          43.000    25800758.856   105649706.716       -2820.317          40.000  
E18  28238234.236   148392857.488        -175.050          40.000                                                                  
E02  29194677.728   153419119.947        1125.381          39.000    29194697.401   117554974.984         862.187          46.000  
> 2024 04 15 14 56 30.0040000  0 27                     
G02  25393412.810   133443200.867       -4837.553          42.000                                                                  
G03  22360990.545   117507779.918       -1816.909          50.000    22360991.832    91564502.414       -1415.904          46.000  
G04  21766111.613   114381675.327       -2305.420          48.000    21766110.047    89128567.637       -1796.466          47.000  
G09  21954562.910   115372009.899          16.803          48.000    21954563.367    89900268.308          13.129          46.000  
G17  24918635.261   130948271.146       -3584.863          39.000    24918638.577                       -2793.091          31.000  
G19  24883505.426   130763682.316       -2285.443          43.000                                                                  
R10  24215069.391   129079926.052       -2155.152          31.000                                                                  
R02  22596799.929   120580863.025         715.897          52.000    22596801.524    93785128.453         556.910          46.000  
R11  22824170.472   121965492.991        1212.335          50.000    22824171.483    94862083.102         943.018          48.000  
R01  21382015.372   114299112.946       -1429.486          49.000    21382015.752    88899311.527       -1111.780          44.000  
R24  21246602.631   113615114.988       -2824.102          51.000    21246600.570    88367301.744       -2196.559          47.000  
G07  24455693.184   128515569.031        3163.605          42.000    24455696.887   100142083.521        2465.432          43.000  
S31  39889176.964   209619028.162        -810.416          45.000  
S33  40839973.401   214615496.016        -809.399          42.000  
E03  28741405.724   151037031.279       -3111.813          41.000    28741421.113   115729683.327       -2384.441          42.000  
R23  24098406.321   128910131.395       -5314.413          41.000                                                                  
R17  22454316.993   120157603.711        1269.481          50.000    22454317.093    93455915.276         987.397          48.000  
R08  24206601.475   129625161.358       -3349.147          43.000    24206603.653   100819553.894       -2604.937          45.000  
E07  25281631.294   132855869.057          63.012          48.000    25281635.941   101798673.902          48.381          51.000  
E08  25165434.961   132245237.337       -2095.373          47.000    25165437.076   101330771.389       -1605.427          53.000  
E13  24575852.347   129146962.838       -1723.750          48.000    24575857.410    98956777.318       -1320.751          52.000  
E15  27413374.151   144058201.175       -3750.735          44.000    27413384.865   110382273.600       -2874.080          49.000  
E26  26134843.016   137339531.230        1074.681          44.000    26134846.861   105234205.617         823.550          49.000  
G06  23180058.013   121811988.186        1710.208          44.000    23180060.587    94918485.824        1332.463          44.000  
G31  25821440.725   135692515.790       -3628.324          43.000    25821447.699   105734422.807       -2827.177          40.000  
E18  28239220.203   148398031.544        -169.711          39.000                                                                  
E02  29188266.704   153385423.832        1121.300          40.000    29188284.521   117529156.018         859.129          45.000  
> 2024 04 15 14 57 00.0040000  0 27                     
G02  25421033.925   133588350.488       -4839.811          42.000                                                                  
G03  22371386.889   117562412.285       -1825.521          50.000    22371388.198    91607073.003       -1422.456          46.000  
G04  21779297.402   114450966.049       -2314.082          48.000    21779295.447    89182560.358       -1803.280          47.000  
G09  21954496.706   115371662.086           6.250          48.000    21954496.889    89899997.297           4.779          46.000  
G17  24939112.725   131055874.740       -3588.861          41.000    24939117.545   102121447.624       -2797.290          33.000  
G19  24896583.792   130832406.208       -2296.484          42.000                                                                  
R10  24227262.187   129144924.014       -2178.737          32.000                                                                  
R02  22592792.490   120559477.533         709.658          52.000    22592794.080    93768495.351         551.938          46.000  
R11  22817419.448   121929420.035        1192.374          48.000    22817420.905    94834026.447         927.312          47.000  
R01  21390051.158   114342069.996       -1434.430          49.000    21390051.604    88932722.532       -1115.660          44.000  
R24  21262513.451   113700196.965       -2848.099          51.000    21262512.209    88433476.478       -2215.183          48.000  
G07  24437643.834   128420722.720        3159.334          42.000    24437648.233   100068177.514        2461.760          43.000  
S31  39893802.148   209643335.185        -810.262          44.000  
S33  40844594.149   214639778.980        -809.711          42.000  
E03  28759166.532   151130362.537       -3110.226          42.000    28759181.048   115801196.523       -2382.929          40.000  
R23  24128217.332   129069607.500       -5316.727          40.000                                                                  
R17  22447265.663   120119868.434        1245.965          50.000    22447265.136    93426565.653         969.098          48.000  
R08  24225361.120   129725618.074       -3348.060          43.000    24225364.109   100897686.509       -2603.900          44.000  
E07  25281290.720   132854079.176          56.058          48.000    25281295.228   101797302.453          43.004          51.000  
E08  25177407.819   132308154.669       -2099.344          47.000    25177409.935   101378980.713       -1608.587          52.000  
E13  24585732.162   129198880.221       -1737.734          48.000    24585737.152    98996558.118       -1331.427          52.000  
E15  27434802.124   144170804.177       -3756.103          45.000    27434812.844   110468553.546       -2878.082          49.000  
E26  26128735.654   137307433.984        1064.765          44.000    26128738.819   105209611.659         815.763          49.000  
G06  23170335.142   121760895.412        1695.934          44.000    23170337.645    94878673.316        1321.346          44.000  
G31  25842179.601   135801497.671       -3637.266          43.000    25842186.423   105819343.516       -2834.522          39.000  
E18  28240169.920   148403029.530        -164.023          38.000                                                                  
E02  29181877.603   153351848.206        1117.141          39.000    29181895.401   117503429.433         855.748          45.000  
> 2024 04 15 14 57 30.0040000  0 29                     
G02  25448666.714   133733555.448       -4841.170          44.000                                                                  
G03  22381832.109   117617302.017       -1834.021          50.000    22381832.243    91649844.155       -1428.996          45.000  
G04  21792531.248   114520511.221       -2322.289          47.000    21792530.279    89236751.325       -1809.712          48.000  
G09  21954489.727   115371629.040          -4.266          48.000    21954490.418    89899971.538          -3.442          46.000  
G17  24959612.734   131163598.884       -3592.999          41.000    24959617.684   102205388.340       -2799.469          34.000  
G19  24909725.481   130901462.580       -2307.581          44.000                                                                  
R10  24239584.758   129210611.393       -2201.190          35.000                                                                  
R02  22588817.825   120538272.283         703.744          51.000    22588820.757    93752002.454         547.380          48.000  
R11  22810779.494   121893942.751        1172.430          49.000    22810782.934    94806433.014         911.845          49.000  
R01  21398115.238   114385175.526       -1439.395          49.000    21398115.732    88966249.018       -1119.646          44.000  
R24  21278557.450   113785992.159       -2871.729          50.000    21278557.032    88500205.963       -2233.548          48.000  
G07  24419619.129   128326000.463        3155.379          43.000    24419623.260    99994368.153        2458.449          43.000  
S31  39898428.352   209667643.835        -810.288          44.000  
S33  40849215.210   214664062.798        -809.514          41.000  
E03  28776917.288   151223640.314       -3108.324          42.000    28776931.248   115872668.758       -2381.720          39.000  
R23  24158044.995   129229173.389       -5320.427          41.000                                                                  
R12  24734383.642   132126627.2301       3140.287          44.000                                                                  
R17  22440346.670   120082842.647        1222.248          50.000    22440344.592    93397767.815         950.581          47.000  
R08  24244113.455   129826037.377       -3347.009          42.000    24244116.110   100975790.025       -2603.094          41.000  
E07  25280989.852   132852494.681          49.269          49.000    25280994.019   101796088.360          37.903          51.000  
E08  25189402.479   132371188.657       -2103.079          47.000    25189404.867   101427279.419       -1611.442          52.000  
E13  24595689.907   129251210.138       -1751.227          48.000    24595695.014    99036655.023       -1341.877          52.000  
E15  27456259.492   144283561.584       -3761.041          45.000    27456270.072   110554951.828       -2882.036          49.000  
E26  26122684.214   137275635.931        1054.812          44.000    26122687.803   105185246.949         808.431          49.000  
G06  23160693.591   121710228.089        1681.550          44.000    23160696.298    94839192.316        1310.359          45.000  
G31  25862968.948   135910743.013       -3646.030          43.000    25862974.413   105904469.519       -2841.079          38.000  
G16  26882897.539   141270560.2751        889.883          31.000                                                                  
E18  28241087.979   148407854.463        -158.233          37.000                                                                  
E02  29175512.477   153318398.483        1112.686          39.000    29175529.609   117477799.351         852.652          45.000  
> 2024 04 15 14 58 00.0040000  0 29                     
G02  25476307.471   133878809.054       -4842.804          43.000                                                                  
G03  22392325.033   117672445.665       -1842.605          50.000    22392326.765    91692813.196       -1435.878          46.000  
G04  21805812.503   114590304.876       -2330.893          47.000    21805811.468    89291135.914       -1816.127          47.000  
G09  21954542.089   115371905.826         -14.557          48.000    21954542.685    89900187.225         -11.395          46.000  
G17  24980134.078   131271435.589       -3596.478          41.000    24980139.087   102289416.650       -2802.368          32.000  
G19  24922928.530   130970844.713       -2318.298          44.000                                                                  
R10  24252037.032   129276983.008       -2223.811          38.000                                                                  
R02  22584876.372   120517242.596         697.781          49.000    22584880.663    93735646.107         542.762          47.000  
R11  22804251.675   121859060.789        1152.561          50.000    22804255.405    94779302.698         896.358          48.000  
R01  21406204.855   114428424.423       -1444.180          49.000    21406205.991    88999887.012       -1123.244          44.000  
R24  21294733.268   113872493.334       -2895.267          50.000    21294733.212    88567484.519       -2251.802          49.000  
G07  24401618.567   128231400.984        3151.104          44.000    24401620.956    99920654.431        2455.355          42.000  
S31  39903053.364   209691948.772        -810.217          44.000  
S33  40853835.991   214688343.478        -809.614          42.000  
E03  28794656.433   151316859.974       -3106.428          41.000    28794671.024   115944096.487       -2380.264          40.000  
R23  24187891.041   129388820.682       -5323.085          42.000                                                                  
R12  24716740.175   132032381.711        3142.056          45.000                                                                  
R17  22433559.386   120046524.987        1198.665          49.000    22433558.272    93369520.739         932.133          48.000  
R08  24262858.420   129926414.899       -3345.362          43.000    24262862.291   101053861.047       -2601.867          41.000  
E07  25280725.989   132851110.856          42.590          48.000    25280730.793   101795028.034          32.708          51.000  
E08  25201418.459   132434334.074       -2106.855          47.000    25201421.239   101475663.500       -1614.358          52.000  
E13  24605725.871   129303948.117       -1764.883          48.000    24605730.898    99077064.583       -1352.263          52.000  
E15  27477744.301   144396467.665       -3766.133          44.000    27477755.232   110641464.044       -2885.668          48.000  
E26  26116689.289   137244134.580        1044.906          44.000    26116693.291   105161109.597         800.753          48.000  
G06  23151132.503   121659984.659        1667.373          43.000    23151135.093    94800041.613        1299.365          45.000  
G31  25883806.887   136020245.128       -3654.601          41.000    25883812.017   105989795.612       -2847.635          38.000  
G16  26877832.558   141243937.901         884.869          31.000                                                                  
E18  28241972.526   148412501.620        -151.942          37.000                                                                  
E02  29169169.621   153285072.575        1108.486          39.000    29169187.261   117452264.185         849.336          44.000  
> 2024 04 15 14 58 30.0040000  0 29                     
G02  25503957.734   134024109.844       -4844.077          42.000                                                                  
G03  22402867.040   117727845.193       -1850.879          49.000    22402868.983    91735981.592       -1442.281          46.000  
G04  21819140.799   114660346.477       -2339.010          47.000    21819140.512    89345713.755       -1822.572          48.000  
G09  21954654.101   115372493.020         -24.878          48.000    21954654.685    89900644.791         -19.354          46.000  
G17  25000675.243   131379383.208       -3599.878          38.000    25000678.587                       -2804.932          30.000  
G19  24936192.914   131040551.575       -2328.741          43.000                                                                  
R10  24264616.068   129344038.177       -2246.622          37.000                                                                  
R02  22580968.822   120496388.820         692.085          51.000    22580972.352    93719426.588         538.279          48.000  
R11  22797837.813   121824778.748        1132.668          49.000    22797838.188    94752638.934         881.038          46.000  
R01  21414322.264   114471817.280       -1448.922          48.000    21414322.940    89033637.000       -1126.832          44.000  
R24  21311041.222   113959698.590       -2918.618          51.000    21311040.962    88635310.758       -2270.058          48.000  
G07  24383640.719   128136928.455        3146.885          45.000    24383643.179    99847039.688        2452.305          41.000  
S31  39907678.273   209716251.911        -810.079          45.000  
S33  40858455.941   214712622.214        -809.453          42.000  
E03  28812386.085   151410022.175       -3104.297          41.000    28812399.847   116015480.185       -2378.719          39.000  
R23  24217750.278   129548546.160       -5325.654          43.000    24217776.338                3      -3768.789          12.000  
R12  24699084.666   131938081.597        3144.184          45.000                                                                  
R17  22426906.802   120010919.313        1174.994          52.000    22426904.201    93341827.483         913.813          48.000  
R08  24281595.343   130026752.033       -3343.974          43.000    24281598.626   101131900.743       -2601.012          38.000  
E07  25280500.499   132849928.333          35.969          48.000    25280505.509   101794121.960          27.602          51.000  
E08  25213454.858   132497591.066       -2110.391          46.000    25213458.546   101524133.054       -1617.085          52.000  
E13  24615838.935   129357095.081       -1778.380          48.000    24615844.301    99117787.548       -1362.687          52.000  
E15  27499258.355   144509522.169       -3770.949          45.000    27499269.424   110728089.974       -2889.425          48.000  
E26  26110750.938   137212932.854        1035.233          43.000    26110756.088   105137201.813         793.054          49.000  
G06  23141653.358   121610169.103        1653.314          44.000    23141655.449    94761224.335        1288.298          44.000  
G31  25904693.149   136130003.066       -3662.797          42.000    25904698.617   106075321.021       -2853.924          38.000  
G16  26872790.955   141217442.063         880.227          27.000                                                                  
E18  28242822.224   148416971.887        -145.792          36.000                                                                  
E02  29162852.749   153251873.722        1104.611          40.000    29162869.319   117426826.377         846.115          43.000  
> 2024 04 15 14 59 00.0040000  0 29                     
G02  25531617.403   134169459.106       -4845.278          41.000                                                                  
G03  22413459.704   117783505.352       -1859.587          49.000    22413461.133    91779353.075       -1448.892          46.000  
G04  21832517.162   114730638.383       -2347.212          47.000    21832516.685    89400486.602       -1828.906          48.000  
G09  21954825.511   115373393.940         -35.010          48.000    21954825.948    89901346.788         -27.325          46.000  
G17  25021237.686   131487442.045       -3603.479          39.000    25021239.985                       -2807.819          31.000  
G19  24949519.845   131110584.682       -2339.313          44.000                                                                  
R10  24277324.188   129411780.197       -2269.225          40.000                                                                  
R02  22577095.013   120475714.118         686.282          52.000    22577097.317    93703346.308         533.721          48.000  
R11  22791535.348   121791104.520        1112.428          49.000    22791537.038    94726447.931         865.193          46.000  
R01  21422467.467   114515357.191       -1453.636          48.000    21422468.979    89067501.367       -1130.453          45.000  
R24  21327480.814   114047608.847       -2941.961          51.000    21327481.173    88703685.300       -2288.265          48.000  
G07  24365688.345   128042589.810        3142.320          44.000    24365690.644    99773529.210        2448.715          42.000  
S31  39912303.391   209740557.746        -810.329          44.000  
S33  40863076.293   214736903.270        -809.346          42.000  
E03  28830104.237   151503130.512       -3102.643          40.000    28830118.526   116086822.631       -2377.606          38.000  
R23  24247625.296   129708350.594       -5327.991          43.000                                                                  
R12  24681422.568   131843734.738        3145.895          43.000                                                                  
R17  22420387.475   119976032.508        1151.266          51.000    22420385.313    93314693.297         895.377          48.000  
R08  24300326.266   130127052.683       -3342.712          40.000    24300329.008   101209911.986       -2599.518          36.000  
E07  25280313.644   132848950.580          29.174          48.000    25280319.219   101793372.767          22.431          51.000  
E08  25225513.875   132560962.604       -2114.313          46.000    25225517.492   101572690.412       -1620.003          52.000  
E13  24626031.322   129410654.760       -1792.240          48.000    24626036.150    99158826.731       -1373.199          52.000  
E15  27520800.477   144622727.513       -3775.943          45.000    27520811.915   110814831.482       -2893.317          49.000  
E26  26104872.888   137182036.440        1024.948          44.000    26104876.420   105113527.945         785.238          49.000  
G06  23132256.121   121560788.088        1638.548          44.000    23132258.332    94722745.662        1276.894          44.000  
G31  25925629.089   136240018.883       -3671.367          42.000    25925634.106   106161047.361       -2860.953          38.000  
G16  26867774.089   141191079.269         876.461          33.000                                                                  
E18  28243641.164   148421268.945        -140.114          37.000                                                                  
E02  29156560.093   153218807.914        1099.970          39.000    29156576.560   117401490.568         842.881          43.000  
> 2024 04 15 14 59 30.0040000  0 29                     
G02  25559285.310   134314850.396       -4846.749          43.000                                                                  
G03  22424100.712   117839423.059       -1868.275          49.000    22424101.600    91822925.249       -1455.782          46.000  
G04  21845940.156   114801175.018       -2355.305          48.000    21845939.057    89455450.138       -1835.309          48.000  
G09  21955055.834   115374604.014         -45.599          48.000    21955056.308    89902289.717         -35.480          46.000  
G17  25041820.470   131595605.423       -3607.129          41.000    25041820.700   102542015.904       -2811.426          33.000  
G19  24962908.021   131180937.615       -2350.470          45.000                                                                  
R10  24290160.186   129480203.287       -2292.625          40.000                                                                  
R02  22573253.674   120455213.983         680.443          52.000    22573255.481    93687401.767         529.133          47.000  
R11  22785346.274   121758037.936        1091.939          47.000    22785349.646    94700729.465         849.367          47.000  
R01  21430639.591   114559039.692       -1458.440          49.000    21430641.024    89101476.648       -1134.150          43.000  
R24  21344050.994   114136217.007       -2965.242          52.000    21344051.622    88772602.673       -2306.376          48.000  
G07  24347761.004   127948384.277        3137.803          44.000    24347763.536    99700122.465        2444.857          42.000  
S31  39916928.778   209764862.243        -809.869          45.000  
S33  40867697.161   214761182.714        -809.192          42.000  
E03  28847811.921   151596180.738       -3100.561          38.000    28847825.640   116158120.489       -2375.700          38.000  
R23  24277513.637   129868225.502       -5330.108          42.000                                                                  
R12  24663752.891   131749341.734        3147.039          45.000                                                                  
R17  22414001.341   119941863.402        1126.887          50.000    22414001.098    93288117.362         876.522          49.000  
R08  24319050.175   130227313.005       -3341.241          39.000    24319052.770   101287891.926       -2598.791          41.000  
E07  25280165.536   132848173.235          22.530          48.000    25280171.340   101792777.141          17.314          51.000  
E08  25237593.575   132624443.851       -2117.851          46.000    25237597.952   101621331.844       -1622.792          52.000  
E13  24636301.305   129464623.001       -1805.775          48.000    24636305.910    99200178.958       -1383.591          52.000  
E15  27542370.796   144736078.421       -3780.832          44.000    27542382.366   110901684.497       -2896.967          49.000  
E26  26099051.648   137151443.156        1014.667          45.000    26099054.847   105090086.366         777.443          49.000  
G06  23122941.856   121511840.522        1624.413          45.000    23122944.120    94684604.761        1265.623          45.000  
G31  25946612.639   136350286.100       -3679.903          39.000    25946617.497   106246969.579       -2867.659          36.000  
G16  26862780.390   141164848.401         872.634          33.000                                                                  
E18  28244425.598   148425388.544        -134.178          36.000                                                                  
E02  29150291.143   153185873.486        1095.560          40.000    29150308.654   117376255.487         839.473          42.000  
