     3.00           OBSERVATION DATA    M: Mixed            RINEX VERSION / TYPE
CONVBIN 2.4.3                           20240415 234442 UTC PGM / RUN BY / DATE 
format: u-blox UBX                                          COMMENT             
log: /home/regis/git/gnsspwv/obsdata/VERT00CHL/2024-04-15/VECOMMENT             
{self.marker}                                               MARKER NAME         
                                                            MARKER NUMBER       
GEODETIC                                                    MARKER TYPE         
{self.observer}     {self.institution}                      OBSERVER / AGENCY   
UNKNOWN             UBLOX-ZED-F9P                           REC # / TYPE / VERS 
UNKNOWN             TWIVSP6037L                             ANT # / TYPE        
  1713381.0000 -5047934.0000 -3490983.0000                  APPROX POSITION XYZ 
        0.0000        0.0000        0.0000                  ANTENNA: DELTA H/E/N
G    8 C1C L1C D1C S1C C2L L2L D2L S2L                      SYS / # / OBS TYPES 
R    8 C1C L1C D1C S1C C2C L2C D2C S2C                      SYS / # / OBS TYPES 
E    8 C1C L1C D1C S1C C7Q L7Q D7Q S7Q                      SYS / # / OBS TYPES 
S    4 C1C L1C D1C S1C                                      SYS / # / OBS TYPES 
  2024    04    15    23    30   00.4980000     GPS         TIME OF FIRST OBS   
  2024    04    15    23    44   30.4990000     GPS         TIME OF LAST OBS    
                                                            END OF HEADER       
> 2024 04 15 23 30 00.4980000  0 24                     
G25  23010942.999   120923423.6241       1341.090          43.000    23010948.379    94226022.3791       1045.236          41.000  
E19  23533879.622   123671359.2221      -2447.522          45.000    23533882.221    94761316.0991      -1875.342          48.000  
G24  20387908.250   107139334.4011        596.534          49.000    20387907.847    83485236.6531        464.827          48.000  
E27  27476891.472   144392025.4531      -2891.469          31.000                                                                  
R16  20351194.355   108712505.6701        323.932          52.000    20351193.799    84554368.6521        251.941          47.000  
R17  20609439.136   110285756.1471        266.742          51.000    20609436.696    85777994.6441        207.512          48.000  
R06  20791612.719   110948045.7991       -139.751          43.000                                                                  
R15  20260515.101   108266291.4481      -1986.987          51.000    20260512.681    84207426.1971      -1545.282          46.000  
R05  20804187.325   111210313.0691      -4328.614          51.000    20804191.939    86496797.4831      -3366.756          48.000  
G19  21362186.912   112259547.0021      -2826.716          47.000                                                                  
S31  38274198.163   201132300.0101       -750.052          44.000  
S33  39225713.053   206132550.2231       -751.092          42.000  
G06  23687836.079   124480637.3801       1354.346          44.000    23687841.897    96998021.7861       1055.203          42.000  
R24  22851725.646   122198695.4221      -3171.119          43.000    22851723.122    95043208.5691      -2466.155          39.000  
R18  21623654.844   115428889.4321       3009.131          49.000    21623664.036    89778270.2471       2340.413          48.000  
R14  23543970.064                3      -3173.727          22.000    23543963.849                       -2469.035          26.000  
E04  24639998.876   129484046.4301        628.535          47.000    24640001.611    99215171.9941        481.439          51.000  
G12  21106700.051   110916641.0351        357.167          49.000    21106697.089    86428720.0181        278.275          45.000  
G13  21993599.001   115577122.9961      -4171.000          47.000                                                                  
G17  22775318.398   119685561.6231      -3829.825          47.000    22775315.146    93261690.5671      -2984.320          39.000  
G15  20956579.180   110127590.8841      -2921.931          48.000    20956580.733    85813733.5141      -2276.602          44.000  
E13  26778481.550   140722049.7111       1083.777          43.000    26778488.622   107826097.1621        830.489          47.000  
G22  23552055.698   123767208.2351      -3822.636          37.000                                                                  
E21  23797849.571   125058567.3731      -1975.104          48.000    23797851.805    95824551.7221      -1513.412          52.000  
> 2024 04 15 23 30 30.4980000  0 24                     
G25  23003302.673   120883276.604        1335.791          43.000    23003309.264    94194739.235        1040.789          42.000  
E19  23547885.850   123744963.026       -2459.190          44.000    23547888.566    94817713.735       -1884.288          47.000  
G24  20384528.795   107121575.031         587.787          49.000    20384528.317    83471398.205         458.038          48.000  
E27  27493393.046                       -2888.885          30.000                                                                  
R16  20349387.841   108702856.925         319.592          52.000    20349387.761    84546864.088         248.474          48.000  
R17  20608014.479   110278136.562         241.531          50.000    20608012.510    85772068.357         187.818          48.000  
R06  20792472.273   110952631.866        -165.806          43.000                                                                  
R15  20271681.399   108325960.309       -1990.661          51.000    20271681.207    84253835.293       -1548.297          49.000  
R05  20828519.500   111340377.845       -4341.980          52.000    20828522.433    86597958.652       -3377.075          46.000  
G19  21378372.423   112344602.333       -2843.032          46.000                                                                  
S31  38278480.944   201154805.237        -750.103          44.000  
S33  39230004.895   206155102.286        -751.351          42.000  
G06  23680128.913   124440135.069        1346.084          44.000    23680134.746    96966461.809        1048.961          44.000  
R24  22869572.999   122294135.914       -3191.277          41.000    22869570.973    95117440.113       -2482.202          38.000  
R18  21606767.039   115338746.671        3000.621          48.000    21606777.017    89708159.889        2333.845          49.000  
R14  23561839.244                1      -3174.746          27.000    23561828.628                3      -2466.474          15.000  
E04  24636446.407   129465378.410         616.367          47.000    24636448.959    99200867.931         472.379          51.000  
G12  21104686.806   110906063.334         348.349          49.000    21104684.346    86420477.721         271.405          46.000  
G13  22017435.623   115702380.556       -4179.339          48.000                                                                  
G17  22797214.621   119800626.470       -3841.027          47.000    22797210.988    93351351.574       -2993.346          40.000  
G15  20973299.895   110215457.539       -2935.622          48.000    20973300.844    85882200.885       -2287.314          44.000  
E13  26772316.655   140689654.776        1075.977          43.000    26772323.943   107801275.263         824.530          47.000  
G22  23573883.869   123881902.726       -3823.046          39.000                                                                  
E21  23809133.197   125117865.362       -1977.753          48.000    23809135.671    95869987.857       -1515.484          52.000  
> 2024 04 15 23 31 00.4980000  0 24                     
G25  22995693.574   120843286.599        1330.683          44.000    22995699.581    94163578.418        1036.736          43.000  
E19  23561958.805   123818920.168       -2470.893          44.000    23561962.216    94874382.121       -1893.251          47.000  
G24  20381199.946   107104081.060         578.943          49.000    20381199.259    83457766.566         451.038          48.000  
E27  27509876.510                       -2886.843          28.000                                                                  
R16  20347606.966   108693336.797         315.442          53.000    20347606.134    84539459.579         245.325          48.000  
R17  20606733.210   110271276.636         216.253          51.000    20606731.080    85766732.921         168.152          48.000  
R06  20793479.541   110958005.260        -192.219          43.000                                                                  
R15  20282868.874   108385739.086       -1994.232          51.000    20282866.830    84300329.890       -1551.080          49.000  
R05  20852925.686   111470839.735       -4355.112          51.000    20852928.569    86699428.667       -3387.235          46.000  
G19  21394649.402   112430136.866       -2858.822          46.000                                                                  
S31  38282764.214   201177313.721        -750.104          44.000  
S33  39234296.470   206177657.343        -751.732          42.000  
G06  23672468.255   124399879.422        1337.901          45.000    23672474.310    96935094.070        1042.593          44.000  
R24  22887534.930   122390186.801       -3211.579          40.000    22887533.236    95192146.358       -2498.086          38.000  
R18  21589928.507   115248862.121        2992.122          49.000    21589938.541    89638250.338        2327.006          49.000  
E04  24632962.391   129447072.230         604.326          47.000    24632965.529    99186841.134         463.069          51.000  
G12  21102723.681   110895749.322         339.532          48.000    21102722.213    86412440.907         264.566          46.000  
G13  22041319.197   115827891.138       -4187.851          46.000                                                                  
G17  22819175.754   119916030.927       -3852.192          47.000    22819171.872    93441277.152       -3001.784          41.000  
G15  20990098.335   110303734.172       -2949.230          48.000    20990099.736    85950987.718       -2298.039          44.000  
E13  26766197.179   140657494.247        1068.221          43.000    26766203.611   107776632.902         818.732          47.000  
G22  23595708.280   123996596.639       -3822.938          37.000                                                                  
E21  23820432.364   125177243.351       -1980.401          49.000    23820434.832    95915485.299       -1517.415          52.000  
R14                                                                  23579706.069                3      -2458.143          11.000  
> 2024 04 15 23 31 30.4980000  0 23                     
G25  22988114.446   120803454.762        1324.912          43.000    22988119.027    94132540.817        1032.488          42.000  
E19  23576099.307   123893230.757       -2483.025          43.000    23576102.864    94931321.312       -1902.436          47.000  
G24  20377922.066   107086855.705         569.623          49.000    20377921.025    83444344.224         443.903          47.000  
R16  20345849.335   108683946.101         310.773          52.000    20345848.654    84532155.770         241.675          49.000  
R17  20605593.015   110265179.641         190.382          51.000    20605591.700    85761990.890         148.095          47.000  
R06  20794634.546   110964167.579        -218.796          42.000                                                                  
R15  20294075.833   108445628.773       -1998.236          51.000    20294075.165    84346910.729       -1554.242          49.000  
R05  20877405.097   111601694.935       -4368.418          51.000    20877407.993    86801204.589       -3397.733          46.000  
G19  21411016.859   112516149.663       -2875.125          45.000                                                                  
S31  38287048.422   201199827.835        -750.462          44.000  
S33  39238589.850   206200217.698        -752.259          42.000  
G06  23664855.654   124359874.926        1329.318          45.000    23664861.505    96903922.060        1035.848          45.000  
R24  22905611.126   122486846.556       -3232.278          35.000    22905608.841    95267326.157       -2513.591          37.000  
R18  21573140.101   115159241.855        2982.870          50.000    21573149.012    89568546.296        2319.955          50.000  
R14  23597558.114                3      -3177.047          19.000    23597584.075                3      -2472.410          20.000  
E04  24629548.982   129429130.473         591.930          48.000    24629551.341    99173093.560         453.646          51.000  
G12  21100811.095   110885699.467         330.647          48.000    21100810.112    86404609.926         257.664          46.000  
G13  22065251.726   115953653.636       -4196.426          46.000                                                                  
G17  22841200.941   120031773.347       -3863.796          47.000    22841196.293    93531466.118       -3010.709          41.000  
G15  21006975.788   110392419.911       -2962.990          48.000    21006975.721    86020093.318       -2308.821          44.000  
E13  26760121.788   140625571.281        1060.080          42.000    26760129.364   107752172.644         812.218          48.000  
G22  23617533.893   124111290.072       -3823.097          39.000                                                                  
E21  23831747.448   125236701.887       -1983.257          48.000    23831749.667    95961044.452       -1519.633          52.000  
> 2024 04 15 23 32 00.4980000  0 24                     
G25  22980567.282   120763793.584        1319.492          42.000    22980571.437    94101636.239        1028.210          42.000  
E19  23590310.261   123967906.696       -2494.910          44.000    23590313.277    94988540.467       -1911.744          47.000  
G24  20374698.129   107069913.566         560.315          49.000    20374696.990    83431142.587         436.633          47.000  
R16  20344117.337   108674697.796         306.134          52.000    20344116.964    84524962.704         238.116          48.000  
R17  20604599.120   110259861.031         164.627          51.000    20604598.252    85757854.323         127.938          46.000  
R06  20795939.371   110971132.274        -245.065          41.000                                                                  
R15  20305306.833   108505642.725       -2002.173          51.000    20305305.400    84393588.289       -1557.239          48.000  
R05  20901957.945   111732951.986       -4381.515          49.000    20901963.025    86903293.037       -3407.719          47.000  
G19  21427477.581   112602651.061       -2891.197          45.000                                                                  
S31  38291336.096   201222359.680        -750.800          44.000  
S33  39242886.123   206222796.516        -752.595          42.000  
G06  23657293.801   124320137.433        1320.323          46.000    23657299.466    96872958.064        1028.795          44.000  
R24  22923802.282                       -3252.687          32.000    22923801.181                       -2529.415          31.000  
R18  21556404.195   115069903.414        2973.536          50.000    21556413.009    89499061.509        2312.773          50.000  
R14  23615453.037                3      -3175.440          25.000    23615387.741                3      -2469.927          25.000  
E04  24626206.607   129411567.155         579.409          47.000    24626209.215    99159635.971         443.958          51.000  
G12  21098951.198   110875925.780         321.447          48.000    21098949.958    86396994.147         250.375          46.000  
G13  22089234.373   116079678.276       -4204.914          47.000                                                                  
G17  22863292.088   120147863.458       -3875.173          45.000    22863287.413    93621925.968       -3019.490          42.000  
G15  21023931.623   110481525.177       -2976.807          48.000    21023931.990    86089525.799       -2319.509          43.000  
E13  26754094.921   140593900.759        1051.976          42.000    26754102.421   107727905.832         805.958          48.000  
G22  23639360.802   124225994.914       -3823.430          39.000                                                                  
E21  23843079.505   125296252.931       -1986.229          49.000    23843081.983    96006674.501       -1521.960          52.000  
E27                                                                  27542818.906                3      -2209.150          25.000  
> 2024 04 15 23 32 30.4980000  0 24                     
G25  22973051.603   120724301.072        1313.333          43.000    22973055.735    94070863.104        1023.511          42.000  
E19  23604589.954   124042944.783       -2507.570          45.000    23604592.452    95046037.090       -1921.298          47.000  
G24  20371527.323   107053254.725         550.458          49.000    20371526.745    83418161.684         429.004          47.000  
R16  20342411.879   108665589.642         301.257          52.000    20342411.181    84517878.627         234.320          48.000  
R17  20603751.276   110255320.971         138.255          52.000    20603749.245    85754323.248         107.542          47.000  
R06  20797393.991   110978897.921        -272.195          40.000                                                                  
R15  20316560.582   108565778.966       -2006.604          52.000    20316558.742    84440360.865       -1560.718          49.000  
R05  20926586.628   111864604.330       -4395.116          48.000    20926591.928    87005688.903       -3418.354          47.000  
G19  21444030.023   112689636.954       -2907.517          45.000                                                                  
S31  38295626.812   201244907.582        -751.909          44.000  
S33  39247185.612   206245391.090        -753.304          43.000  
G06  23649782.703   124280668.104        1311.063          44.000    23649787.917    96842203.056        1021.468          43.000  
R24  22942111.417   122682018.554       -3273.451          33.000    22942106.748                       -2545.751          29.000  
R18  21539720.345   114980849.804        2963.588          49.000    21539729.064    89429798.186        2305.118          49.000  
R14  23633318.414                1      -3174.992          25.000    23633291.181                3      -2469.606          24.000  
E04  24622936.601   129394381.709         566.390          48.000    24622938.946    99146467.912         434.064          51.000  
G12  21097143.826   110866426.137         311.974          48.000    21097142.197    86389591.884         243.181          46.000  
G13  22113265.659   116205960.382       -4213.821          47.000                                                                  
G17  22885448.542   120264296.369       -3886.756          43.000    22885444.063    93712652.980       -3028.589          42.000  
G15  21040967.530   110571045.997       -2990.962          48.000    21040967.201    86159282.105       -2330.625          43.000  
E13  26748116.725   140562482.892        1042.901          43.000    26748123.231   107703832.577         799.208          47.000  
G22  23661189.899   124340708.141       -3824.035          38.000                                                                  
E21  23854429.235   125355893.906       -1989.662          49.000    23854431.582    96052373.431       -1524.468          52.000  
E27                                                                  27559274.550                       -2207.306          27.000  
> 2024 04 15 23 33 00.4980000  0 24                     
G25  22965569.470   120684985.416        1307.510          44.000    22965573.897    94040227.766        1018.797          42.000  
E19  23618939.532   124118352.442       -2519.748          45.000    23618942.258    95103816.900       -1930.827          47.000  
G24  20368412.920   107036889.424         540.643          48.000    20368412.204    83405409.525         421.301          46.000  
R16  20340734.660   108656629.677         296.167          52.000    20340733.893    84510909.808         230.383          49.000  
R17  20603050.576   110251570.098         111.839          52.000    20603047.567    85751405.965          86.916          46.000  
R06  20799000.083   110987473.067        -299.504          38.000                                                                  
R15  20327838.306   108626045.672       -2011.163          51.000    20327837.269    84487234.952       -1564.185          48.000  
R05  20951290.973   111996656.011       -4408.483          49.000    20951295.860    87108395.406       -3428.807          46.000  
G19  21460676.482   112777113.466       -2924.134          45.000                                                                  
S31  38299922.385   201267481.096        -752.910          45.000  
S33  39251489.941   206268009.906        -754.559          43.000  
G06  23642324.594   124241478.404        1301.479          45.000    23642329.869    96811665.946        1014.170          43.000  
R24  22960533.740                       -3294.101          30.000    22960533.755                3      -2561.298          24.000  
R18  21523093.123   114892094.388        2953.454          50.000    21523101.669    89360766.792        2297.068          49.000  
R14  23651193.929                3      -3175.821          26.000                                                                  
E04  24619740.003   129377583.800         553.319          48.000    24619742.258    99133596.797         424.014          51.000  
G12  21095389.424   110857208.244         302.532          48.000    21095388.125    86382409.195         235.710          46.000  
G13  22137346.752   116332505.935       -4222.673          47.000                                                                  
G17  22907670.763   120381078.373       -3898.464          39.000    22907666.955    93803651.977       -3037.980          42.000  
G15  21058082.533   110660988.280       -3005.152          47.000    21058083.082    86229366.838       -2341.569          43.000  
E13  26742189.274   140531328.074        1034.121          45.000    26742194.843   107679960.860         792.455          47.000  
G22  23683020.735   124455437.461       -3824.584          34.000                                                                  
E21  23865797.194   125415632.383       -1992.895          49.000    23865799.600    96098147.086       -1527.007          53.000  
E27                                                                  27575715.978                3      -2207.538          23.000  
> 2024 04 15 23 33 30.4980000  0 24                     
G25  22958121.192   120645845.336        1302.082          44.000    22958126.297    94009729.181        1014.754          42.000  
E19  23633358.269   124194127.473       -2531.868          45.000    23633361.678    95161878.197       -1939.852          47.000  
G24  20365354.828   107020818.496         530.859          49.000    20365353.839    83392886.731         413.727          47.000  
R16  20339084.941   108647816.437         291.541          52.000    20339084.054    84504055.130         226.715          49.000  
R17  20602495.999   110248609.526          85.631          51.000    20602494.421    85749103.345          66.661          46.000  
R06  20800758.158   110996856.839        -326.080          39.000                                                                  
R15  20339141.469   108686442.205       -2015.088          52.000    20339139.469    84534210.058       -1567.358          48.000  
R05  20976066.773   112129101.351       -4421.347          48.000    20976072.178    87211408.080       -3438.706          46.000  
G19  21477415.224   112865077.196       -2940.050          45.000                                                                  
S31  38304222.454   201290077.064        -753.197          44.000  
S33  39255798.641   206290652.609        -755.053          43.000  
G06  23634920.172   124202570.368        1292.532          43.000    23634925.387    96781348.290        1007.262          42.000  
R24  22979070.301                       -3314.591          29.000    22979066.201                3      -2588.389          21.000  
R18  21506521.971   114803640.593        2943.577          49.000    21506530.850    89291969.980        2289.474          49.000  
R14  23669066.917                3      -3174.526          20.000                                                                  
E04  24616617.447   129361173.507         540.828          49.000    24616619.378    99121022.694         414.393          51.000  
G12  21093688.303   110848270.077         293.420          48.000    21093686.906    86375444.468         228.718          46.000  
G13  22161478.259   116459311.365       -4230.998          48.000                                                                  
G17  22929959.425   120498205.174       -3909.477          38.000    22929955.589    93894919.656       -3046.590          43.000  
G15  21075278.295   110751348.303       -3018.686          48.000    21075278.061    86299777.060       -2352.342          43.000  
E13  26736310.736   140500437.227        1025.331          45.000    26736316.478   107656291.387         785.759          47.000  
G22  23704853.720   124570180.757       -3825.010          29.000                                                                  
E21  23877182.424   125475466.566       -1995.873          48.000    23877185.227    96143994.066       -1529.295          53.000  
E27                                                                  27592187.843                3      -2204.022          18.000  
> 2024 04 15 23 34 00.4980000  0 25                     
G25  22950704.379   120606874.116        1296.614          43.000    22950710.239    93979362.213        1010.279          42.000  
E19  23647846.241   124270262.128       -2543.506          45.000    23647849.778    95220215.049       -1948.855          47.000  
G24  20362351.908   107005037.251         521.600          49.000    20362350.758    83380589.675         406.567          47.000  
R16  20337461.004   108639143.079         287.195          51.000    20337460.739    84497309.241         223.401          49.000  
R17  20602090.671   110246434.504          59.787          52.000    20602087.448    85747411.767          46.447          45.000  
R07  23540949.871                3       2559.983          13.000                                                                  
R06  20802668.834   111007043.122        -352.723          41.000                                                                  
R15  20350466.019   108746961.194       -2018.902          52.000    20350465.801    84581280.324       -1570.349          47.000  
R05  21000915.762   112261929.310       -4433.588          49.000    21000920.964    87314718.340       -3448.212          46.000  
G19  21494245.044   112953519.341       -2955.524          44.000                                                                  
S31  38308525.653   201312691.132        -753.830          44.000  
S33  39260110.826   206313312.532        -755.056          42.000  
G06  23627568.864   124163940.437        1283.639          44.000    23627575.210    96751247.407        1000.020          42.000  
R24  22997724.631                3      -3334.765          27.000    22997734.676                1      -2592.479          30.000  
R18  21490006.736   114715486.801        2933.773          48.000    21490015.519    89223406.449        2281.912          48.000  
R14  23686944.400                3      -3174.921          23.000                                                                  
E04  24613567.558   129345145.623         528.238          49.000    24613569.368    99108741.591         404.701          51.000  
G12  21092040.084   110839604.734         284.675          48.000    21092037.794    86368692.329         221.844          46.000  
G13  22185657.417   116586367.339       -4239.056          48.000                                                                  
G17  22952310.976   120615667.506       -3920.549          32.000    22952307.979    93986448.775       -3054.938          43.000  
G15  21092551.421   110842117.649       -3032.142          49.000    21092551.002    86370506.244       -2362.534          43.000  
E13  26730481.188   140469805.859        1017.143          45.000    26730487.848   107632820.774         779.346          47.000  
G22  23726687.398   124684930.823       -3825.195          28.000                                                                  
E21  23888585.379   125535389.156       -1998.545          49.000    23888587.863    96189908.792       -1531.335          53.000  
E27                                                                  27608589.074                       -2204.601          29.000  
> 2024 04 15 23 34 30.4980000  0 25                     
G25  22943318.863   120568063.180        1291.194          43.000    22943324.267    93949120.076        1006.313          42.000  
E19  23662401.613   124346746.875       -2555.247          45.000    23662404.480    95278820.159       -1957.924          47.000  
G24  20359402.341   106989539.255         511.969          49.000    20359401.522    83368513.333         398.859          47.000  
R16  20335861.103   108630600.639         282.416          50.000    20335861.287    84490665.187         219.727          49.000  
R17  20601829.223   110245038.478          33.637          51.000    20601825.444    85746326.075          25.920          45.000  
R06  20804726.752   111018023.563        -379.171          40.000                                                                  
R15  20361813.877   108807595.020       -2022.974          52.000    20361811.830    84628440.001       -1573.474          47.000  
R05  21025834.146   112395126.381       -4446.021          50.000    21025838.676    87418315.638       -3458.120          46.000  
G19  21511163.559   113042429.062       -2971.333          44.000                                                                  
S31  38312830.355   201335313.268        -754.101          45.000  
S33  39264424.490   206335980.961        -755.912          43.000  
G06  23620269.507   124125583.373        1274.198          44.000    23620275.157    96721359.058         992.711          40.000  
G11  24485141.703   128670294.8101       1891.758          38.000    24485171.310   100262691.8971       1473.935          39.000  
R24  23016489.957                1      -3354.460          30.000    23016485.090                       -2609.079          30.000  
R18  21473548.409   114627629.034        2923.569          48.000    21473555.549    89155073.186        2273.957          47.000  
R14  23704811.559                3      -3174.682          23.000                                                                  
E04  24610588.590   129329492.944         515.520          48.000    24610590.761    99096747.979         395.072          51.000  
G12  21090441.332   110831203.200         275.613          48.000    21090438.556    86362145.766         214.930          46.000  
G13  22209881.025   116713663.011       -4247.113          48.000                                                                  
G17  22974723.522   120733454.125       -3931.694          34.000    22974721.773    94078230.479       -3063.415          43.000  
G15  21109899.415   110933285.193       -3045.553          48.000    21109900.381    86441545.714       -2372.963          44.000  
E13  26724698.802   140439427.646        1008.485          43.000    26724706.728   107609544.132         772.648          46.000  
G22  23748520.280                1      -3824.504          28.000                                                                  
E21  23900003.793   125595391.040       -2001.451          48.000    23900006.208    96235884.265       -1533.545          53.000  
E27                                                                  27625010.676   111234458.0531      -2203.407          31.000  
> 2024 04 15 23 35 00.4980000  0 24                     
G25  22935964.402   120529415.519        1285.656          43.000    22935969.709    93919005.211        1002.041          43.000  
E19  23677022.630   124423584.051       -2566.879          44.000    23677026.068    95337695.294       -1966.927          46.000  
G24  20356508.180   106974329.641         502.362          49.000    20356507.511    83356661.687         391.510          47.000  
R16  20334287.009   108622192.445         278.357          51.000    20334287.070    84484125.557         216.449          49.000  
R17  20601715.524   110244426.347           7.567          51.000    20601712.143    85745850.040           5.920          46.000  
R06  20806934.106   111029801.415        -405.599          40.000                                                                  
R15  20373183.189   108868346.581       -2026.776          53.000    20373181.022    84675691.192       -1576.453          48.000  
R05  21050820.977   112528691.549       -4457.935          50.000    21050824.357    87522199.226       -3467.383          46.000  
G19  21528171.761   113131807.226       -2986.835          44.000                                                                  
S31  38317137.806   201357948.166        -754.510          44.000  
S33  39268740.277   206358660.955        -756.108          43.000  
G06  23613023.804   124087505.479        1264.896          42.000    23613027.811    96691688.241         985.547          40.000  
G11  24474340.418   128613532.488        1892.941          41.000    24474369.969   100218461.045        1475.088          41.000  
R24  23035359.155                3      -3373.529          24.000    23035355.362                       -2624.779          30.000  
R18  21457145.263   114540075.489        2913.610          47.000    21457153.726    89086976.546        2266.121          48.000  
E04  24607682.020   129314219.952         503.005          48.000    24607684.582    99085045.315         385.299          51.000  
G12  21088892.757   110823068.034         267.172          47.000    21088890.682    86355806.774         207.927          46.000  
G13  22234150.775   116841198.951       -4255.030          48.000                                                                  
G17  22997198.902                       -3942.095          27.000    22997196.960    94170265.104       -3071.937          42.000  
G15  21127324.682   111024852.170       -3058.719          49.000    21127325.490    86512896.433       -2383.520          45.000  
E13  26718967.161   140409307.792         999.803          43.000    26718974.166   107586465.458         766.105          45.000  
G22  23770357.075                       -3824.611          30.000                                                                  
E21  23911437.373   125655474.705       -2003.840          49.000    23911439.639    96281922.408       -1535.518          53.000  
E27                                                                  27641420.329                       -2201.639          27.000  
> 2024 04 15 23 35 30.4980000  0 23                     
G25  22928641.059   120490930.129        1280.488          43.000    22928645.948    93889016.786         997.896          42.000  
E19  23691710.959   124500771.487       -2578.467          44.000    23691714.161    95396838.813       -1975.818          46.000  
G24  20353668.689   106959409.513         492.773          49.000    20353668.412    83345035.619         383.984          47.000  
R16  20332738.397   108613917.208         273.883          52.000    20332737.950    84477689.336         212.994          49.000  
R17  20601746.862   110244599.521         -18.660          51.000    20601745.157    85745984.774         -14.416          47.000  
R06  20809289.766   111042376.186        -432.179          41.000                                                                  
R15  20384573.458   108929215.205       -2030.597          53.000    20384571.662    84723033.466       -1579.388          48.000  
R05  21075874.660   112662619.261       -4469.867          49.000    21075877.910    87626364.722       -3476.644          46.000  
G17  23019747.647   120969525.3003      -3952.551          29.000    23019734.090    94262549.923       -3080.264          42.000  
G19  21545269.155   113221651.167       -3002.254          45.000                                                                  
S31  38321447.205   201380594.367        -754.990          45.000  
S33  39273058.561   206381352.551        -755.983          43.000  
G06  23605831.296   124049709.044        1255.453          44.000    23605835.388    96662236.760         978.164          40.000  
G11  24463534.115   128556741.671        1893.824          43.000    24463563.151   100174208.089        1475.726          43.000  
R24  23054352.932                1      -3393.108          27.000    23054337.925                       -2639.466          28.000  
R18  21440800.277   114452830.091        2903.383          47.000    21440809.840    89019119.584        2258.128          49.000  
E04  24604848.116   129299327.098         490.458          47.000    24604850.584    99073633.898         375.739          51.000  
G12  21087395.348   110815198.226         258.177          48.000    21087392.672    86349674.536         201.148          45.000  
G13  22258465.904   116968971.836       -4262.737          48.000                                                                  
G15  21144824.331   111116815.365       -3071.790          49.000    21144825.818    86584555.843       -2393.516          44.000  
E13  26713285.676   140379447.574         991.171          44.000    26713291.869   107563585.708         759.492          45.000  
E21  23922886.260   125715638.707       -2006.542          49.000    23922888.540    96328022.106       -1537.547          53.000  
E27                                                                  27657820.018   111366565.838       -2200.265          29.000  
> 2024 04 15 23 36 00.4980000  0 25                     
G25  22921345.883   120452592.319        1275.860          43.000    22921350.607    93859143.342         994.436          42.000  
E19  23706463.902   124578293.699       -2589.149          45.000    23706466.383    95456238.839       -1983.794          47.000  
G24  20350882.265   106944766.282         483.997          49.000    20350881.672    83333625.325         377.210          47.000  
R16  20331211.692   108605759.748         270.428          52.000    20331210.087    84471344.700         210.480          48.000  
R17  20601923.319   110245544.904         -43.859          51.000    20601921.596    85746720.149         -34.029          47.000  
R06  20811794.376   111055732.972        -457.776          43.000                                                                  
R15  20395983.684   108990186.051       -2033.504          53.000    20395981.681    84770455.243       -1581.573          49.000  
R05  21100994.336   112796890.010       -4480.851          51.000    21100997.652    87730797.075       -3484.934          48.000  
G17  23042336.416                       -3962.924          27.000    23042328.824    94355071.549       -3087.680          42.000  
G19  21562452.260   113311943.504       -3016.716          46.000                                                                  
S31  38325755.929   201403236.989        -754.318          44.000  
S33  39277376.034   206404040.888        -755.671          42.000  
G06  23598690.114   124012182.514        1247.283          44.000    23598694.393    96632995.611         971.987          41.000  
G11  24452720.309   128499910.811        1895.769          42.000    24452748.343   100129924.012        1477.069          44.000  
R24  23073434.297                1      -3411.922          30.000    23073423.958                1      -2653.840          27.000  
R18  21424513.261   114365882.938        2893.743          49.000    21424520.955    88951494.548        2250.683          48.000  
E04  24602084.159   129284801.063         478.512          48.000    24602086.311    99062503.556         366.710          51.000  
G12  21085946.345   110807577.868         250.318          49.000    21085942.716    86343736.643         195.164          45.000  
G13  22282822.463   117096964.540       -4269.525          48.000                                                                  
G15  21162397.039   111209157.542       -3083.808          49.000    21162397.598    86656510.545       -2402.819          44.000  
E13  26707650.502   140349834.441         983.439          44.000    26707657.133   107540895.278         753.740          47.000  
G22  23814026.472   125143494.4591      -3823.267          31.000                                                                  
E21  23934347.518   125775867.731       -2008.144          48.000    23934349.641    96374171.622       -1538.733          53.000  
E27                                                                  27674204.460                       -2198.346          30.000  
R14                                                                  23758450.750                3      -2475.859          17.000  
> 2024 04 15 23 36 30.4980000  0 24                     
G25  22914074.150   120414382.564        1271.377          43.000    22914078.723    93829369.736         990.917          42.000  
E19  23721275.151   124656130.046       -2599.482          44.000    23721278.407    95515879.595       -1992.049          47.000  
G24  20348145.081   106930382.551         475.262          48.000    20348144.633    83322417.214         370.392          47.000  
R16  20329702.576   108597700.831         267.126          52.000    20329701.631    84465076.713         207.788          49.000  
R17  20602241.943   110247244.867         -69.137          52.000    20602238.475    85748042.418         -53.755          46.000  
R06  20814440.176   111069852.461        -483.037          41.000                                                                  
R15  20407407.872   109051239.899       -2036.307          52.000    20407406.024    84817941.545       -1583.784          47.000  
R05  21126171.796   112931479.905       -4491.550          50.000    21126176.519    87835477.607       -3493.353          48.000  
G17  23064976.431                3      -3971.802          28.000    23064977.256    94447812.586       -3094.948          42.000  
G19  21579715.036   113402662.770       -3031.124          46.000                                                                  
S31  38330060.525   201425857.919        -753.356          44.000  
S33  39281689.047   206426706.576        -755.182          43.000  
G06  23591596.788   123974909.796        1238.172          43.000    23591601.331    96603952.123         964.795          41.000  
G11  24441893.832   128443023.476        1897.666          41.000    24441922.703   100085596.065        1478.479          41.000  
R24  23092630.049                       -3430.267          28.000    23092636.652                3      -2666.650          24.000  
R18  21408277.843   114279219.093        2884.160          49.000    21408284.173    88884089.801        2243.166          47.000  
E04  24599386.753   129270623.761         467.006          48.000    24599388.528    99051640.432         357.802          51.000  
G12  21084538.589   110800187.602         242.588          47.000    21084536.893    86337978.077         188.785          46.000  
G13  22307217.069   117225155.441       -4276.216          47.000                                                                  
G15  21180036.901   111301857.093       -3095.890          49.000    21180038.470    86728743.789       -2412.179          45.000  
E13  26702059.228   140320451.250         975.714          44.000    26702065.745   107518381.058         747.604          47.000  
G22  23835852.390   125258184.782       -3821.915          35.000                                                                  
E21  23945817.134   125836141.832       -2009.812          49.000    23945819.246    96420355.682       -1539.901          53.000  
E27                                                                  27690573.634                       -2196.247          28.000  
> 2024 04 15 23 37 00.4980000  0 24                     
G25  22906826.505   120376293.325        1267.553          43.000    22906830.242    93799689.984         987.793          42.000  
E19  23736144.089   124734272.092       -2609.941          44.000    23736148.768    95575754.533       -1999.665          47.000  
G24  20345456.719   106916252.862         466.656          49.000    20345455.925    83311407.066         363.696          47.000  
R16  20328209.980   108589731.993         263.959          51.000    20328210.546    84458878.786         205.450          50.000  
R17  20602698.712   110249693.631         -94.242          52.000    20602695.362    85749947.076         -73.362          47.000  
R06  20817226.805   111084726.932        -508.843          41.000                                                                  
R15  20418847.894   109112369.218       -2038.970          52.000    20418845.369    84865486.585       -1585.811          48.000  
R05  21151406.722   113066376.989       -4501.689          49.000    21151412.310    87940397.078       -3501.344          48.000  
G17  23087675.934                1      -3980.945          27.000    23087676.777    94540764.931       -3101.929          41.000  
G19  21597058.098   113493799.211       -3044.771          46.000                                                                  
S31  38334359.427   201448448.684        -752.814          44.000  
S33  39285996.466   206449342.988        -754.307          43.000  
G06  23584551.189   123937886.465        1229.852          45.000    23584556.240    96575103.061         958.278          43.000  
G11  24431056.832   128386075.381        1899.047          43.000    24431084.942   100041220.893        1479.984          42.000  
R24  23111928.756                3      -3448.181          25.000    23111916.963                3      -2681.353          25.000  
R18  21392094.476   114192835.912        2874.613          48.000    21392101.248    88816903.330        2235.874          48.000  
E04  24596753.894   129256789.021         455.412          48.000    24596755.822    99041039.791         348.871          51.000  
G12  21083174.110   110793018.975         235.128          47.000    21083172.772    86332392.192         183.190          46.000  
G13  22331648.121   117353534.218       -4282.580          48.000                                                                  
G15  21197743.299   111394904.308       -3107.504          49.000    21197744.531    86801247.911       -2421.441          43.000  
E13  26696509.630   140291292.429         968.155          43.000    26696516.360   107496038.731         741.867          47.000  
G22  23857669.915   125372828.932       -3820.004          34.000                                                                  
E21  23957293.683   125896452.904       -2010.969          48.000    23957296.168    96466568.061       -1540.907          53.000  
E27                                                                  27706920.267                3      -2193.040          24.000  
> 2024 04 15 23 37 30.4980000  0 25                     
G25  22899599.197   120338321.786        1263.836          41.000    22899604.235    93770101.984         984.772          42.000  
E19  23751072.491   124812715.985       -2619.755          44.000    23751076.431    95635860.775       -2007.429          48.000  
G24  20342816.170   106902376.555         458.197          48.000    20342815.151    83300594.360         357.141          47.000  
R16  20326734.684   108581850.756         261.194          51.000    20326734.984    84452749.017         203.143          50.000  
R17  20603297.212   110252890.390        -119.017          51.000    20603293.501    85752433.477         -92.689          47.000  
R06  20820155.097   111100353.917        -533.679          41.000                                                                  
R15  20430301.529   109173571.578       -2041.347          53.000    20430298.726    84913088.402       -1587.674          50.000  
R05  21176699.305   113201573.682       -4511.432          49.000    21176704.598    88045549.572       -3509.027          46.000  
G17  23110427.063   121446114.2921      -3989.587          35.000    23110426.849    94633924.362       -3108.765          40.000  
G19  21614478.659   113585347.815       -3058.595          46.000                                                                  
S31  38338652.062   201471007.304        -751.604          44.000  
S33  39290298.257   206471946.425        -752.802          43.000  
G06  23577553.770   123901113.143        1221.557          45.000    23577557.478    96546448.744         951.856          43.000  
G11  24420208.886   128329066.817        1901.255          42.000    24420237.611    99996798.810        1481.518          42.000  
R18  21375964.194   114106735.574        2865.216          48.000    21375972.091    88749936.909        2228.466          48.000  
R07  23446613.936                3       2393.164          11.000                                                                  
E04  24594185.457   129243295.461         444.159          48.000    24594188.083    99030700.565         340.243          51.000  
G12  21081851.702   110786069.020         228.022          47.000    21081850.279    86326976.707         177.781          45.000  
G13  22356113.721   117482095.742       -4288.450          48.000                                                                  
G15  21215514.449   111488294.523       -3118.646          49.000    21215516.297    86874019.308       -2430.148          44.000  
E13  26691003.320   140262357.499         960.802          44.000    26691010.201   107473867.942         736.183          47.000  
G22  23879477.140   125487424.071       -3819.324          34.000                                                                  
E21  23968776.737   125956797.705       -2011.957          48.000    23968779.269    96512806.275       -1541.643          53.000  
E27                                                                  27723250.620                3      -2190.999          24.000  
R24                                                                  23131325.425                3      -2694.930          26.000  
> 2024 04 15 23 38 00.4990000  0 24                     
G25  22892394.600   120300465.531        1260.101          42.000    22892399.707    93740603.799         981.772          41.000  
E19  23766058.183   124891462.256       -2629.835          45.000    23766061.405    95696198.700       -2014.983          48.000  
G24  20340223.667   106888754.131         449.724          49.000    20340222.989    83289979.490         350.538          47.000  
R16  20325276.745   108574055.640         258.282          53.000    20325275.300    84446686.217         200.847          50.000  
R17  20604033.914   110256836.009        -143.982          50.000    20604029.047    85755502.385        -112.280          45.000  
R06  20823224.432   111116732.621        -558.576          42.000                                                                  
R15  20441768.300   109234848.104       -2043.713          53.000    20441766.339    84960747.876       -1589.490          49.000  
R05  21202046.333   113337069.139       -4521.215          50.000    21202052.282    88150934.453       -3516.394          46.000  
G17  23133230.152   121565935.133       -3998.409          36.000    23133228.169    94727291.229       -3115.954          39.000  
G19  21631977.033   113677308.493       -3072.129          46.000                                                                  
S31  38342938.902   201493534.133        -750.291          44.000  
S33  39294593.351   206494518.078        -752.048          43.000  
G06  23570603.271   123864590.594        1213.062          44.000    23570607.640    96517989.855         945.392          44.000  
G11  24409348.871   128271997.953        1902.922          43.000    24409377.108    99952329.833        1482.984          41.000  
R18  21359888.336   114020918.951        2855.612          50.000    21359895.698    88683191.123        2220.937          49.000  
E04  24591681.692   129230142.884         432.612          47.000    24591685.363    99020622.606         331.503          51.000  
G12  21080570.225   110779336.077         220.532          47.000    21080568.473    86321730.297         171.852          45.000  
G13  22380613.848   117610840.871       -4294.449          48.000                                                                  
G15  21233351.447   111582027.301       -3130.056          49.000    21233353.808    86947057.644       -2438.999          44.000  
E13  26685540.165   140233646.568         953.348          45.000    26685546.788   107451868.792         730.395          47.000  
G22  23901276.344   125601972.110       -3817.225          37.000                                                                  
E21  23980266.909   126017176.600       -2013.097          48.000    23980268.935    96559070.625       -1542.550          53.000  
E27                                                                  27739566.184                3      -2190.806          20.000  
R24                                                                  23150819.116                3      -2712.747          18.000  
> 2024 04 15 23 38 30.4990000  0 25                     
G25  22885214.685   120262733.595        1255.406          42.000    22885218.971    93711202.449         978.497          41.000  
E19  23781099.564   124970511.158       -2639.924          45.000    23781103.656    95756768.529       -2022.851          47.000  
G24  20337681.383   106875395.144         440.922          48.000    20337680.869    83279569.895         343.559          47.000  
R16  20323834.848   108566353.651         255.199          53.000    20323833.662    84440695.817         198.540          50.000  
R17  20604911.984   110261538.481        -169.342          50.000    20604908.523    85759159.952        -131.744          45.000  
R09  23693663.672                3       1750.500          13.000    23691549.296                3       1689.026          11.000  
R06  20826436.196   111133868.826        -583.973          42.000                                                                  
R15  20453249.275   109296201.698       -2046.478          52.000    20453248.375    85008467.343       -1591.534          50.000  
R05  21227448.848   113472856.494       -4531.083          49.000    21227454.374    88256546.327       -3524.175          46.000  
G17  23156082.213   121686017.650       -4007.513          41.000    23156078.387    94820862.037       -3122.782          37.000  
G19  21649555.668   113769679.335       -3085.914          46.000                                                                  
S31  38347220.289   201516033.824        -749.764          44.000  
S33  39298883.311   206517062.116        -751.149          43.000  
G06  23563702.630   123828330.954        1204.309          45.000    23563707.320    96489735.835         938.599          44.000  
G11  24398479.177   128214882.287        1904.455          42.000    24398508.120    99907824.452        1484.102          42.000  
R18  21343868.041   113935403.508        2845.533          50.000    21343874.584    88616679.535        2213.092          48.000  
E04  24589246.121   129217340.012         420.891          47.000    24589249.108    99010812.609         322.537          51.000  
G12  21079331.140   110772826.525         213.124          47.000    21079329.301    86316657.951         166.227          44.000  
G13  22405148.625   117739764.956       -4300.595          47.000                                                                  
G15  21251253.730   111676100.340       -3141.302          49.000    21251255.506    87020361.087       -2447.904          44.000  
E13  26680120.915   140205170.298         945.334          45.000    26680127.218   107430049.471         724.388          47.000  
G22  23923064.623   125716471.454       -3815.748          36.000                                                                  
E21  23991763.270   126077591.556       -2014.414          49.000    23991765.312    96605362.600       -1543.479          53.000  
E27                                                                  27755866.242                3      -2190.762          19.000  
R14                                                                  23847681.221                3      -2475.297          20.000  
> 2024 04 15 23 39 00.4990000  0 24                     
G25  22878055.605   120225111.608        1252.229          43.000    22878059.269    93681886.819         975.706          40.000  
E19  23796197.874   125049851.308       -2649.701          44.000    23796201.842    95817561.520       -2030.343          47.000  
G24  20335187.371   106862288.182         432.481          49.000    20335186.905    83269356.691         337.053          47.000  
R16  20322406.525   108558731.298         252.537          51.000    20322406.928    84434767.399         196.416          50.000  
R17  20605930.173   110266986.826        -194.202          50.000    20605927.764    85763397.593        -151.001          47.000  
R06  20829788.356   111151749.976        -608.594          43.000                                                                  
R15  20464743.971   109357621.167       -2048.615          53.000    20464742.133    85056238.027       -1593.304          49.000  
R05  21252903.617   113608922.868       -4540.381          49.000    21252908.500    88362375.192       -3531.330          45.000  
G17  23178982.308   121806350.803       -4015.431          43.000    23178976.255    94914628.141       -3128.989          36.000  
G19  21667208.922   113862448.023       -3099.042          46.000                                                                  
S31  38351494.357   201538494.442        -748.150          44.000  
S33  39303165.903   206539567.438        -749.747          43.000  
G06  23556850.756   123792323.330        1195.685          45.000    23556855.250    96461678.154         931.635          44.000  
G11  24387599.091   128157708.067        1906.607          42.000    24387628.263    99863273.575        1485.718          42.000  
R18  21327901.993   113850177.901        2835.732          50.000    21327909.051    88550393.426        2205.535          48.000  
E04  24586874.363   129204874.736         409.700          48.000    24586876.936    99001261.300         313.897          51.000  
G12  21078133.318   110766526.805         206.252          48.000    21078130.413    86311749.112         160.964          44.000  
G13  22429714.872   117868857.138       -4306.086          47.000                                                                  
G15  21269218.077   111770501.712       -3152.426          49.000    21269219.769    87093920.352       -2456.302          45.000  
E13  26674744.359   140176916.780         937.903          46.000    26674750.903   107408400.859         718.546          47.000  
G22  23944841.548   125830912.234       -3813.783          35.000                                                                  
E21  24003265.204   126138031.128       -2015.286          49.000    24003266.657    96651673.429       -1544.167          52.000  
E27                                                                  27772143.304                3      -2178.816          20.000  
R24                                                                  23190127.955                3      -2735.692          24.000  
> 2024 04 15 23 39 30.4990000  0 24                     
G25  22870917.160   120187595.471        1248.863          45.000    22870920.059    93652653.630         973.680          40.000  
E19  23811349.923   125129477.732       -2658.756          44.000    23811354.562    95878573.868       -2037.272          47.000  
G24  20332741.004   106849431.262         424.394          49.000    20332740.240    83259338.308         330.717          47.000  
R16  20320993.250   108551184.497         250.321          51.000    20320993.719    84428897.707         194.707          50.000  
R17  20607088.230   110273178.339        -218.719          51.000    20607085.756    85768213.234        -170.105          47.000  
R06  20833278.926   111170371.664        -633.107          43.000                                                                  
R15  20476248.751   109419103.140       -2050.464          52.000    20476247.481    85104057.327       -1594.794          49.000  
R05  21278408.713   113745259.231       -4548.928          48.000    21278413.002    88468414.046       -3537.870          44.000  
G17  23201927.571   121926927.440       -4023.170          44.000    23201920.540    95008584.029       -3135.160          36.000  
G19  21684936.866   113955608.374       -3111.891          46.000                                                                  
S31  38355760.418   201560912.242        -746.459          44.000  
S33  39307440.279   206562029.644        -747.985          43.000  
G06  23550046.361   123756566.690        1187.677          44.000    23550050.171    96433816.057         925.439          44.000  
G11  24376708.014   128100474.316        1908.870          43.000    24376736.426    99818676.431        1487.735          43.000  
R18  21311990.962   113765243.072        2826.312          50.000    21311995.822    88484333.444        2198.203          47.000  
E04  24584566.113   129192744.316         398.819          48.000    24584568.496    98991966.551         305.622          51.000  
G12  21076973.158   110760431.956         199.816          47.000    21076970.478    86306999.952         155.607          44.000  
G13  22454311.050   117998110.779       -4311.114          45.000                                                                  
G15  21287243.749   111865225.209       -3162.816          49.000    21287244.981    87167730.622       -2464.393          44.000  
E13  26669410.372   140148884.122         930.749          46.000    26669416.319   107386921.445         713.268          47.000  
G22  23966607.276   125945289.708       -3811.638          35.000                                                                  
E21  24014769.960   126198490.659       -2015.618          49.000    24014771.834    96697999.564       -1544.376          52.000  
E27                                                                  27788407.870                3      -2176.128          21.000  
R09                                                                  23674884.145                3       1701.601          11.000  
> 2024 04 15 23 40 00.4990000  0 24                     
G25  22863798.845   120150186.601        1244.773          45.000    22863801.750    93623504.020         970.198          40.000  
E19  23826556.071   125209390.549       -2668.816          43.000    23826561.436    95939805.664       -2045.004          47.000  
G24  20330342.985   106836827.982         415.638          49.000    20330342.145    83249517.559         323.859          47.000  
R16  20319595.368   108543715.103         247.467          52.000    20319595.414    84423088.229         192.475          49.000  
R17  20608383.413   110280116.254        -244.000          50.000    20608381.066    85773609.432        -189.777          46.000  
R06  20836905.552   111189735.311        -658.062          40.000                                                                  
R15  20487766.640   109480649.084       -2052.917          52.000    20487764.002    85151926.387       -1596.667          48.000  
R05  21303963.725   113881862.800       -4558.054          49.000    21303967.363    88574660.727       -3545.250          44.000  
G17  23224918.215   122047746.738       -4031.611          44.000    23224912.340    95102728.905       -3141.319          38.000  
G19  21702738.868   114049159.723       -3125.095          47.000                                                                  
S31  38360018.623   201583288.502        -745.333          44.000  
S33  39311707.005   206584450.024        -746.658          43.000  
G06  23543290.069   123721065.773        1178.754          43.000    23543294.454    96406153.225         918.628          44.000  
G11  24365806.623   128043185.650        1910.249          44.000    24365833.884    99774036.716        1488.282          43.000  
R24  23229757.288                3      -3553.038          25.000                                                                  
R18  21296134.875   113680605.521        2816.046          50.000    21296140.679    88418504.702        2190.148          48.000  
E04  24582322.063   129180951.563         387.246          48.000    24582324.163    98982930.538         296.730          51.000  
G12  21075851.539   110754543.303         192.457          46.000    21075849.762    86302411.428         150.201          44.000  
G13  22478938.007   118127524.874       -4316.854          45.000                                                                  
G15  21305330.430   111960269.728       -3173.781          49.000    21305331.550    87241791.065       -2473.189          44.000  
E13  26664117.088   140121075.937         922.926          44.000    26664124.050   107365614.030         707.105          46.000  
G22  23988360.931                       -3809.249          32.000                                                                  
E21  24026278.979   126258971.204       -2016.609          49.000    24026281.040    96744341.799       -1545.174          52.000  
E27                                                                  27804629.458                3      -2176.936          18.000  
> 2024 04 15 23 40 30.4990000  0 24                     
G25  22856705.418   120112910.517        1240.249          44.000    22856707.949    93594457.882         966.416          40.000  
E19  23841822.852   125289614.598       -2679.607          44.000    23841827.618    96001275.916       -2053.149          47.000  
G24  20327998.055   106824505.994         405.674          49.000    20327997.270    83239916.009         316.266          47.000  
R16  20318217.487   108536348.532         243.695          53.000    20318216.618    84417358.717         189.477          49.000  
R17  20609824.195   110287828.335        -270.239          50.000    20609821.739    85779607.790        -210.156          47.000  
R06  20840677.560   111209866.780        -683.953          40.000                                                                  
R15  20499301.365   109542285.664       -2056.323          52.000    20499299.413    85199865.956       -1599.402          49.000  
R05  21329571.895   114018755.233       -4567.971          48.000    21329576.946    88681132.073       -3552.776          45.000  
G17  23247959.748   122168831.555       -4040.729          44.000    23247954.362    95197080.734       -3148.659          38.000  
G19  21720619.622   114143124.933       -3139.469          48.000                                                                  
S31  38364273.910   201605650.136        -745.646          44.000  
S33  39315970.279   206606855.332        -746.698          43.000  
G06  23536588.617   123685849.423        1168.842          44.000    23536592.125    96378712.137         910.700          43.000  
G11  24354899.484   127985870.907        1910.539          45.000    24354926.268    99729376.798        1488.566          43.000  
R18  21280340.584   113596296.134        2804.566          49.000    21280347.169    88352931.165        2181.333          48.000  
E04  24580147.009   129169523.352         374.583          48.000    24580149.421    98974173.855         286.979          51.000  
G12  21074775.152   110748885.809         184.399          46.000    21074773.914    86298003.071         143.810          44.000  
G13  22503600.708   118257122.618       -4323.197          45.000                                                                  
G15  21323482.306   112055658.705       -3185.506          49.000    21323482.856    87316119.902       -2482.222          43.000  
E13  26658873.908   140093519.924         914.159          44.000    26658879.880   107344499.826         700.381          46.000  
G22  24010109.676                3      -3809.385          31.000                                                                  
E26  27207533.475   142976544.0961       1841.886          43.000                                                                  
E21  24037796.776   126319497.858       -2018.555          49.000    24037798.560    96790719.369       -1546.731          52.000  
E27                                                                  27820847.116                3      -2179.592          17.000  
> 2024 04 15 23 41 00.4990000  0 25                     
G25  22849638.174   120075776.747        1235.056          44.000    22849640.931    93565522.621         962.533          40.000  
E19  23857151.304   125370158.241       -2690.637          44.000    23857154.767    96062991.045       -2061.538          47.000  
G24  20325709.449   106812477.031         395.646          49.000    20325708.084    83230542.768         308.268          47.000  
R16  20316859.369   108529094.794         239.623          53.000    20316858.088    84411716.991         186.377          49.000  
R17  20611413.927   110296326.000        -296.747          51.000    20611410.618    85786217.154        -230.737          47.000  
R09  23348826.032                3       1738.645          11.000                                                                  
R06  20844595.869   111230775.622        -710.293          42.000                                                                  
R15  20510854.289   109604023.099       -2059.924          52.000    20510852.736    85247883.911       -1602.185          49.000  
R05  21355235.404   114155941.972       -4578.222          48.000    21355242.561    88787832.186       -3560.720          46.000  
G17  23271052.886   122290188.570       -4050.198          44.000    23271048.373    95291644.644       -3155.945          37.000  
G19  21738580.941   114237511.664       -3153.606          48.000                                                                  
S31  38368528.176   201628005.753        -745.588          44.000  
S33  39320233.236   206629255.302        -746.963          43.000  
G06  23529943.761   123650930.468        1158.514          44.000    23529947.956    96351502.776         902.814          43.000  
G11  24343989.173   127928542.751        1910.808          43.000    24344016.586    99684706.559        1488.806          44.000  
R18  21264610.688   113512329.587        2792.700          50.000    21264615.761    88287624.248        2172.124          46.000  
R14  23936758.640                3      -3165.104          25.000                                                                  
E04  24578042.918   129158470.579         361.806          47.000    24578046.005    98965704.835         277.360          51.000  
G12  21073744.519   110743468.567         176.324          47.000    21073742.687    86293781.898         137.327          44.000  
G13  22528299.312   118386910.973       -4329.800          44.000                                                                  
G15  21341701.882   112151399.622       -3197.586          50.000    21341703.149    87390722.968       -2491.486          44.000  
E13  26653681.327   140066227.878         905.044          45.000    26653686.350   107323587.851         693.477          46.000  
G22  24031849.320                1      -3807.997          30.000                                                                  
E26  27197011.613   142921249.555        1843.938          43.000    27197046.516   109511234.5921       1413.009          48.000  
E21  24049324.516   126380079.734       -2020.693          48.000    24049326.907    96837139.248       -1548.325          53.000  
> 2024 04 15 23 41 30.4990000  0 23                     
G25  22842601.541   120038802.232        1229.709          42.000    22842605.458    93536711.514         958.048          40.000  
E19  23872541.526   125451037.458       -2701.540          44.000    23872545.708    96124963.328       -2070.206          47.000  
G24  20323479.578   106800760.117         385.234          49.000    20323478.313    83221412.708         300.262          47.000  
R16  20315525.595   108521971.351         235.045          53.000    20315523.892    84406176.583         182.885          48.000  
R17  20613151.896   110305628.272        -323.761          51.000    20613148.575    85793452.281        -251.837          47.000  
R09  23636932.322                3       1732.221          11.000                                                                  
R06  20848664.046   111252478.975        -736.949          42.000                                                                  
R15  20522429.705   109665878.598       -2063.965          52.000    20522428.753    85295993.729       -1605.298          49.000  
R05  21380955.718   114293435.979       -4588.492          46.000    21380963.050    88894771.366       -3568.699          45.000  
G17  23294200.934   122411832.380       -4059.724          44.000    23294196.103    95386432.106       -3163.434          36.000  
G19  21756625.766   114332334.850       -3168.187          48.000                                                                  
S31  38372784.464   201650373.013        -746.156          44.000  
S33  39324497.991   206651666.897        -747.504          42.000  
G06  23523359.063   123616328.949        1148.010          43.000    23523363.154    96324540.768         894.275          43.000  
G11  24333080.225   127871221.422        1910.251          43.000    24333106.575    99640041.747        1488.638          43.000  
R18  21248948.954   113428728.007        2780.426          49.000    21248954.580    88222601.166        2162.567          48.000  
E04  24576015.282   129147811.537         348.508          48.000    24576017.603    98957537.512         267.100          50.000  
G12  21072763.130   110738308.320         167.498          47.000    21072760.541    86289760.947         130.527          45.000  
G13  22553037.855   118516904.733       -4336.665          44.000                                                                  
G15  21359990.449   112247506.861       -3209.809          50.000    21359991.879    87465611.459       -2501.228          44.000  
E13  26648541.922   140039218.885         895.294          45.000    26648547.649   107302892.771         686.208          47.000  
E26  27186479.950   142865901.741        1845.612          44.000    27186514.555   109468824.905        1414.303          48.000  
E21  24060866.061   126440733.381       -2023.095          48.000    24060869.333    96883614.121       -1550.166          53.000  
> 2024 04 15 23 42 00.4990000  0 22                     
G25  22835597.325   120001989.888        1224.636          44.000    22835600.629    93508026.726         954.145          40.000  
E19  23887996.879   125532254.058       -2712.748          44.000    23888000.467    96187194.102       -2078.539          47.000  
G24  20321309.987   106789360.291         374.854          49.000    20321308.868    83212529.745         292.146          47.000  
R16  20314216.062   108514981.050         231.007          52.000    20314215.367    84400739.732         179.639          49.000  
R17  20615039.916   110315739.411        -350.256          50.000    20615038.359    85801316.553        -272.510          47.000  
R06  20852880.838   111274979.350        -762.789          43.000                                                                  
R15  20534028.170   109727855.975       -2067.792          53.000    20534026.660    85344198.332       -1608.160          49.000  
R05  21406732.540   114431235.694       -4598.078          43.000    21406741.811    89001948.211       -3576.434          46.000  
G17  23317403.405   122533763.097       -4068.963          44.000    23317399.001    95481443.120       -3170.500          37.000  
G19  21774752.620   114427594.934       -3182.461          47.000                                                                  
S31  38377043.891   201672756.253        -746.183          44.000  
S33  39328765.442   206674092.459        -747.790          43.000  
G06  23516836.611   123582050.942        1137.360          44.000    23516841.259    96297526.8611        886.017          44.000  
G11  24322173.552   127813912.986        1910.322          42.000    24322200.367    99595387.107        1488.526          42.000  
R18  21233356.710   113345499.504        2768.258          49.000    21233363.104    88157868.260        2153.079          48.000  
E04  24574063.009   129137550.438         335.538          48.000    24574064.940    98949675.103         257.055          50.000  
G12  21071830.547   110733407.807         159.237          48.000    21071828.022    86285942.390         124.097          45.000  
G13  22577816.145   118647104.553       -4343.309          46.000                                                                  
G15  21378348.357   112343980.906       -3221.690          49.000    21378349.810    87540785.776       -2510.527          44.000  
E13  26643456.338   140012497.979         885.947          44.000    26643462.983   107282418.444         678.914          48.000  
E26  27175938.937   142810505.719        1847.422          45.000    27175973.116   109426378.379        1415.611          47.000  
E21  24072422.323   126501461.249       -2025.346          47.000    24072425.613    96930145.846       -1551.931          53.000  
> 2024 04 15 23 42 30.4990000  0 22                     
G25  22828622.462   119965338.291        1219.091          44.000    22828626.113    93479467.211         949.704          40.000  
E19  23903515.987   125613805.466       -2723.869          44.000    23903519.569    96249681.431       -2087.157          47.000  
G24  20319201.170   106778278.372         363.975          49.000    20319200.162    83203894.486         283.586          47.000  
R16  20312932.749   108508122.761         226.323          53.000    20312932.601    84395405.515         176.024          50.000  
R17  20617081.846   110326659.621        -377.600          51.000    20617078.670    85809810.070        -293.549          47.000  
R06  20857246.857   111298275.175        -789.710          42.000                                                                  
R15  20545649.526   109789953.942       -2072.015          54.000    20545648.018    85392496.773       -1611.591          49.000  
R05  21432569.271   114569335.394       -4608.327          47.000    21432576.987    89109358.419       -3584.217          46.000  
G17  23340659.898   122655976.703       -4078.578          43.000    23340655.717    95576674.530       -3178.245          36.000  
G19  21792962.258   114523288.273       -3197.073          47.000                                                                  
S31  38381305.829   201695152.187        -746.776          44.000  
S33  39333035.734   206696533.067        -748.486          43.000  
G06  23510374.541   123548098.334        1125.989          43.000    23510380.296    96271070.494         877.637          44.000  
G11  24311270.492   127756619.341        1909.453          42.000    24311295.689    99550744.029        1487.783          40.000  
R18  21217835.733   113262647.600        2755.322          49.000    21217842.061    88093428.281        2142.928          48.000  
E04  24572185.827   129127687.232         322.105          48.000    24572188.137    98942117.566         246.840          50.000  
G12  21070946.280   110728764.322         150.363          47.000    21070944.129    86282324.170         117.080          44.000  
G13  22602632.315   118777506.221       -4350.271          47.000                                                                  
G15  21396776.284   112440818.453       -3233.951          49.000    21396778.159    87616243.344       -2520.030          44.000  
E13  26638425.541   139986066.099         876.272          42.000    26638432.909   107262165.603         671.336          48.000  
E26  27165388.607   142755062.479        1848.880          45.000    27165423.067   109383895.735        1416.762          48.000  
E21  24083992.203   126562261.575       -2027.830          47.000    24083995.385    96976733.091       -1553.802          53.000  
> 2024 04 15 23 43 00.4990000  0 24                     
G25  22821677.669   119928845.427        1213.818          43.000    22821680.977    93451031.324         946.034          40.000  
E19  23919097.772   125695688.950       -2735.138          44.000    23919101.502    96312423.170       -2095.779          47.000  
G24  20317152.214   106767514.442         353.425          49.000    20317151.978    83195507.023         275.416          47.000  
R16  20311673.806   108501394.401         222.023          53.000    20311673.111    84390172.406         172.602          50.000  
R17  20619273.285   110338388.412        -404.547          51.000    20619270.700    85818932.520        -314.655          46.000  
R06  20861760.011   111322364.336        -816.326          41.000                                                                  
R15  20557291.831   109852171.057       -2076.038          53.000    20557290.601    85440887.851       -1614.691          50.000  
R05  21458460.356   114707728.590       -4618.055          49.000    21458467.745    89216996.857       -3591.875          47.000  
G17  23363969.361   122778469.039       -4087.806          43.000    23363964.696    95672123.215       -3185.494          37.000  
G19  21811253.292   114619410.638       -3211.382          46.000                                                                  
S31  38385570.147   201717561.204        -747.252          44.000  
S33  39337308.324   206718985.294        -748.632          43.000  
G06  23503975.278   123514472.327        1115.411          43.000    23503980.189    96244868.638         869.110          42.000  
G11  24300369.209   127699341.701        1908.787          42.000    24300394.626    99506113.506        1487.310          40.000  
R18  21202385.588   113180175.254        2742.568          50.000    21202391.344    88029283.494        2133.114          48.000  
E04  24570384.541   129118221.212         308.704          48.000    24570386.863    98934864.368         236.641          50.000  
G12  21070111.346   110724376.004         141.812          48.000    21070108.843    86278904.763         110.488          44.000  
G13  22627485.274   118908105.651       -4356.818          46.000                                                                  
G15  21415272.498   112538014.939       -3245.967          50.000    21415275.365    87691980.582       -2529.453          45.000  
E13  26633449.762   139959923.268         866.487          40.000    26633457.322   107242134.200         663.749          47.000  
G22  24118797.024                3      -3806.926          26.000                                                                  
E26  27154827.999   142699572.334        1850.227          44.000    27154863.765   109341377.254        1417.628          48.000  
E21  24095575.172   126623131.942       -2030.387          47.000    24095578.434    97023374.005       -1555.712          52.000  
R09                                                                  23612472.725                3       1665.991          10.000  
> 2024 04 15 23 43 30.4990000  0 23                     
G25  22814764.002   119892513.467        1208.529          43.000    22814767.119    93422720.799         941.661          40.000  
E19  23934744.190   125777905.485       -2745.929          45.000    23934746.881    96375420.118       -2104.146          47.000  
G24  20315165.342   106757072.819         342.797          48.000    20315165.160    83187370.711         267.169          47.000  
R16  20310438.633   108494798.702         217.779          53.000    20310438.092    84385042.471         169.390          50.000  
R17  20621616.712   110350929.488        -431.543          51.000    20621613.200    85828686.723        -335.608          47.000  
R06  20866423.060   111347248.295        -842.665          41.000                                                                  
R15  20568958.218   109914509.965       -2079.956          54.000    20568956.552    85489373.635       -1617.670          48.000  
R05  21484406.403   114846413.310       -4627.546          50.000    21484412.946    89324862.027       -3599.014          47.000  
G17  23387331.438   122901239.349       -4096.625          43.000    23387327.380    95767788.470       -3192.676          38.000  
G19  21829626.097   114715961.850       -3225.384          46.000                                                                  
S31  38389837.016   201739984.629        -747.641          44.000  
S33  39341583.284   206741451.516        -748.998          43.000  
G06  23497640.150   123481178.310        1104.291          45.000    23497643.342    96218925.433         860.565          41.000  
G11  24289472.361   127642085.452        1907.974          43.000    24289498.069    99461499.717        1487.039          42.000  
R18  21187007.719   113098089.610        2729.741          48.000    21187013.588    87965439.478        2123.094          48.000  
E04  24568659.028   129109155.818         295.591          48.000    24568661.975    98927918.148         226.516          50.000  
G12  21069325.497   110720244.858         133.566          49.000    21069322.846    86275685.729         104.171          45.000  
G13  22652376.014   119038902.515       -4363.291          45.000                                                                  
G15  21433837.074   112635570.398       -3257.637          50.000    21433839.158    87767997.555       -2538.456          44.000  
E13  26628531.831   139934073.795         856.911          40.000    26628538.239   107222327.583         656.520          47.000  
G22  24140516.260                3      -3806.221          26.000                                                                  
E26  27144260.593   142644039.743        1852.016          43.000    27144296.289   109298826.345        1419.029          49.000  
E21  24107172.478   126684074.058       -2032.481          47.000    24107175.275    97070069.913       -1557.301          52.000  
> 2024 04 15 23 44 00.4990000  0 23                     
G25  22807876.186   119856318.665        1204.292          44.000    22807879.486    93394517.199         938.362          41.000  
E19  23950448.198   125860430.239       -2756.100          45.000    23950450.910    96438653.251       -2111.900          46.000  
G24  20313235.639   106746932.018         332.866          48.000    20313235.267    83179468.793         259.319          47.000  
R16  20309224.549   108488310.982         214.385          53.000    20309223.526    84379996.494         166.698          50.000  
R17  20624107.627   110364260.123        -457.648          51.000    20624104.260    85839055.060        -356.042          46.000  
R06  20871231.574   111372902.719        -868.031          41.000                                                                  
R15  20580641.826   109976947.011       -2082.996          54.000    20580639.443    85537935.767       -1620.111          47.000  
R05  21510399.825   114985361.163       -4636.078          50.000    21510407.369    89432931.848       -3605.884          48.000  
G17  23410741.847   123024261.299       -4104.913          43.000    23410738.796    95863649.761       -3198.846          38.000  
G19  21848075.861   114812916.220       -3238.757          47.000                                                                  
S31  38394102.138   201762398.876        -747.071          44.000  
S33  39345857.296   206763909.080        -748.639          43.000  
G06  23491364.403   123448195.796        1094.141          46.000    23491366.622    96193224.995         852.277          41.000  
G11  24278575.699   127584830.153        1908.191          44.000    24278602.190    99416886.776        1487.015          44.000  
R18  21171699.233   113016371.718        2717.650          49.000    21171704.596    87901881.501        2113.530          48.000  
R14  24043677.844                3      -3166.229          26.000                                                                  
E04  24567005.930   129100468.729         283.153          48.000    24567008.974    98921261.790         216.891          50.000  
G12  21068582.837   110716346.060         125.896          48.000    21068580.881    86272647.739          98.296          44.000  
G13  22677300.095   119169870.847       -4368.761          44.000                                                                  
G15  21452464.503   112733458.789       -3268.606          49.000    21452466.584    87844273.933       -2546.915          44.000  
E13  26623664.710   139908496.232         848.089          40.000    26623671.123   107202729.319         649.631          47.000  
E26  27133680.342   142588443.398        1854.083          43.000    27133716.895   109256226.697        1420.623          49.000  
E21  24118778.483   126745063.967       -2033.968          47.000    24118781.464    97116802.428       -1558.461          52.000  
> 2024 04 15 23 44 30.4990000  0 22                     
G25  22801014.569   119820264.571        1199.094          42.000    22801018.085    93366423.230         934.234          41.000  
E19  23966210.649   125943265.702       -2766.654          45.000    23966213.935    96502124.447       -2119.798          46.000  
G24  20311364.636   106737097.685         322.287          49.000    20311363.702    83171805.669         251.207          46.000  
R16  20308030.657   108481935.724         210.289          52.000    20308030.598    84375038.013         163.579          51.000  
R17  20626749.140   110378385.235        -484.479          53.000    20626743.782    85850041.290        -376.880          48.000  
R06  20876183.783   111399331.016        -894.084          40.000                                                                  
R15  20592345.654   110039486.521       -2086.761          53.000    20592343.772    85586577.616       -1623.035          48.000  
R05  21536442.391   115124571.295       -4645.217          51.000    21536449.996    89541205.653       -3612.710          48.000  
G17  23434200.590   123147536.177       -4113.910          43.000    23434196.968    95959708.204       -3205.438          39.000  
G19  21866603.719   114910274.803       -3252.398          47.000                                                                  
S31  38398367.006   201784809.198        -747.664          44.000  
S33  39350129.964   206786361.763        -748.804          43.000  
G06  23485148.651   123415531.477        1083.099          45.000    23485151.094    96167772.452         844.000          42.000  
G11  24267680.800   127527582.608        1907.704          45.000    24267707.252    99372279.925        1486.498          45.000  
R18  21156461.682   112935030.127        2704.581          51.000    21156466.244    87838616.149        2103.691          48.000  
E04  24565426.198   129092164.732         270.028          48.000    24565428.672    98914898.975         206.951          50.000  
G12  21067886.055   110712682.969         117.881          48.000    21067883.353    86269793.427          91.714          44.000  
G13  22702256.615   119301011.702       -4374.759          45.000                                                                  
G15  21471156.134   112831681.290       -3280.113          49.000    21471157.753    87920810.658       -2555.720          44.000  
E13  26618851.194   139883196.240         838.512          41.000    26618856.135   107183343.705         642.280          47.000  
E26  27123091.012   142532789.177        1855.850          43.000    27123126.025   109213582.777        1421.972          49.000  
E21  24130395.242   126806104.817       -2035.986          48.000    24130397.153    97163573.959       -1559.933          52.000  
