     3.00           OBSERVATION DATA    M: Mixed            RINEX VERSION / TYPE
CONVBIN 2.4.3                           20240415 155942 UTC PGM / RUN BY / DATE 
format: u-blox UBX                                          COMMENT             
log: /home/regis/git/gnsspwv/obsdata/VERT00CHL/2024-04-15/VECOMMENT             
{self.marker}                                               MARKER NAME         
                                                            MARKER NUMBER       
GEODETIC                                                    MARKER TYPE         
{self.observer}     {self.institution}                      OBSERVER / AGENCY   
UNKNOWN             UBLOX-ZED-F9P                           REC # / TYPE / VERS 
UNKNOWN             TWIVSP6037L                             ANT # / TYPE        
  1713381.0000 -5047934.0000 -3490983.0000                  APPROX POSITION XYZ 
        0.0000        0.0000        0.0000                  ANTENNA: DELTA H/E/N
G    8 C1C L1C D1C S1C C2L L2L D2L S2L                      SYS / # / OBS TYPES 
R    8 C1C L1C D1C S1C C2C L2C D2C S2C                      SYS / # / OBS TYPES 
E    8 C1C L1C D1C S1C C7Q L7Q D7Q S7Q                      SYS / # / OBS TYPES 
S    4 C1C L1C D1C S1C                                      SYS / # / OBS TYPES 
  2024    04    15    15    45   00.0050000     GPS         TIME OF FIRST OBS   
  2024    04    15    15    59   30.0060000     GPS         TIME OF LAST OBS    
                                                            END OF HEADER       
> 2024 04 15 15 45 00.0050000  0 23                     
G03  23612346.364   124083664.4721      -2733.029          47.000    23612350.495    96688559.0741      -2129.474          43.000  
G04  23221918.270   122031969.2231      -2879.437          48.000    23221917.845    95089830.0791      -2244.048          46.000  
G09  22201996.725   116672288.2531       -870.691          49.000    22201995.742    90913473.4721       -678.558          45.000  
G11  25396343.895                1       1963.165          30.000    25396355.189   103993817.2081       1529.340          34.000  
R02  22343563.039   119229563.5601        238.019          51.000    22343566.085    92734121.5581        185.144          49.000  
R11  22767597.344   121663210.3081      -1121.079          51.000    22767597.547    94626978.9891       -871.860          45.000  
R01  22273973.292   119067123.6901      -1839.893          50.000    22273974.978    92607760.4111      -1430.927          46.000  
R24  23306635.049   124630977.4441      -4535.570          47.000    23306635.939    96935181.3901      -3527.687          42.000  
G07  22896575.818   120322401.2251       2306.313          50.000    22896575.710    93757809.7491       1797.047          45.000  
S31  40336936.176   211972011.3971       -813.813          44.000  
S33  41287210.395   216965726.5541       -812.761          41.000  
R18  24672053.516   131701070.2961       1974.626          37.000    24672065.986   102434254.1071       1535.484          32.000  
R12  23123714.019   123522846.6561       2666.978          51.000    23123718.781    96073387.7261       2074.429          49.000  
R17  22438470.472   120072806.6991      -1268.018          50.000    22438470.167    93389961.7211       -986.279          48.000  
E07  25410559.398   133533393.2741       -499.521          48.000    25410563.417   102317817.4081       -382.746          52.000  
E08  26400829.232   138737265.1071      -2328.214          48.000    26400833.241   106305177.3641      -1784.046          50.000  
E13  25880110.385   136000862.4721      -2944.856          47.000    25880116.874   104208460.6071      -2256.454          51.000  
E26  25847747.053   135830842.2541       -113.081          44.000    25847751.386   104078198.5351        -86.740          50.000  
G06  22679272.023   119180348.3171        -13.644          47.000    22679273.805    92867859.1551        -10.810          47.000  
G30  25602938.075   134544383.0621       2960.581          42.000    25602944.974   104839793.4361       2306.564          33.000  
E30  29007820.950   152437158.2981       1617.494          41.000    29007837.510   116802591.3251       1239.436          45.000  
E02  28732931.907   150992693.2021        419.530          34.000    28732944.879   115695784.4091        321.357          45.000  
E15                                                                  29581090.599                3      -3072.544          22.000  
> 2024 04 15 15 45 30.0050000  0 24                     
G03  23627976.863   124165801.248       -2743.338          47.000    23627980.866    96752561.595       -2137.739          43.000  
G04  23238366.838   122118407.783       -2883.610          48.000    23238367.478    95157184.695       -2246.916          46.000  
G09  22206989.667   116698525.711        -878.796          49.000    22206988.851    90933918.244        -684.784          46.000  
R02  22342236.345   119222482.428         233.624          52.000    22342239.162    92728614.047         181.738          49.000  
R11  22773965.621   121697235.796       -1147.728          51.000    22773965.931    94653443.314        -892.676          45.000  
R01  22284309.623   119122379.876       -1844.300          49.000    22284312.055    92650737.352       -1434.271          46.000  
R24  23332107.624   124767201.686       -4546.327          44.000    23332110.988    97041133.372       -3536.229          43.000  
G07  22883447.445   120253412.919        2292.346          49.000    22883447.163    93704052.737        1786.331          45.000  
S31  40341580.847   211996418.849        -813.843          43.000  
S33  41291848.636   216990101.529        -812.738          41.000  
G16  26574831.458   139651655.4673        107.488          34.000                                                                  
R18  24661013.383   131642121.724        1954.917          37.000    24661019.855   102388405.292        1520.491          31.000  
R12  23108769.552   123443017.947        2654.433          51.000    23108774.650    96011298.941        2064.524          49.000  
R17  22445654.725   120111243.500       -1294.751          51.000    22445653.923    93419856.978       -1007.092          48.000  
E07  25413422.925   133548447.902        -504.498          47.000    25413428.173   102329352.804        -386.638          52.000  
E08  26414124.892   138807131.210       -2329.859          49.000    26414128.542   106358711.049       -1785.156          50.000  
E13  25896952.534   136089369.106       -2955.920          47.000    25896959.420   104276277.283       -2264.978          52.000  
E26  25848434.567   135834446.332        -127.681          45.000    25848437.141   104080960.082         -97.833          50.000  
G06  22679408.484   119181068.690         -34.720          46.000    22679411.242    92868420.480         -27.139          47.000  
G30  25586046.880   134455623.708        2956.127          42.000    25586053.988   104770630.520        2302.930          32.000  
E30  28998585.277   152388629.146        1617.280          41.000    28998602.490   116765406.837        1239.160          45.000  
E02  28730566.046   150980259.049         408.889          36.000    28730578.271   115686257.166         313.507          44.000  
E15                                                                  29603911.493                3      -3062.909          21.000  
G11                                                                  25385179.978                        1520.374          27.000  
> 2024 04 15 15 46 00.0050000  0 24                     
G03  23643665.186   124248246.685       -2753.470          46.000    23643669.740    96816804.663       -2145.667          43.000  
G04  23254838.260   122204963.753       -2887.223          48.000    23254838.824    95224630.813       -2249.778          46.000  
G09  22212027.700   116725002.219        -886.609          49.000    22212027.383    90954549.276        -690.857          46.000  
G11  25374079.369   133341576.5041       1938.440          33.000    25374076.708   103902609.163        1510.632          36.000  
R02  22340935.506   119215533.990         229.364          52.000    22340936.611    92723209.763         178.448          49.000  
R11  22780482.384   121732063.006       -1174.381          50.000    22780483.489    94680531.185        -913.269          46.000  
R01  22294670.733   119177767.771       -1848.517          49.000    22294673.779    92693816.749       -1437.567          45.000  
R24  23357642.696   124903747.726       -4556.883          44.000    23357646.663    97147335.557       -3544.211          44.000  
G07  22870398.769   120184841.932        2278.735          49.000    22870398.382    93650620.899        1775.642          44.000  
S31  40346227.225   212020836.689        -814.002          44.000  
S33  41296488.934   217014486.604        -813.348          41.000  
G16  26574244.757                3        104.053          32.000                                                                  
R18  24650081.984   131583765.285        1935.168          39.000    24650087.951   102343016.941        1505.280          38.000  
R12  23093895.590   123363568.120        2641.890          50.000    23093901.253    95949504.880        2054.837          49.000  
R17  22452987.972   120150485.222       -1321.466          51.000    22452987.278    93450378.254       -1027.899          49.000  
E07  25416315.544   133563651.263        -509.226          46.000    25416321.061   102341002.140        -390.187          51.000  
E08  26427428.763   138877040.712       -2330.989          49.000    26427432.119   106412278.005       -1786.058          50.000  
E13  25913857.665   136178206.795       -2966.783          47.000    25913864.719   104344347.618       -2273.230          51.000  
E26  25849202.240   135838483.603        -141.843          45.000    25849205.338   104084053.565        -108.666          50.000  
G06  22679665.000   119182415.047         -55.434          46.000    22679667.528    92869469.580         -43.173          47.000  
G30  25569180.719   134366991.253        2952.365          40.000    25569186.986   104701566.525        2299.900          31.000  
E30  28989353.396   152340110.435        1617.146          41.000    28989369.834   116728230.375        1239.047          46.000  
E02  28728257.261   150968138.416         398.554          33.000    28728271.608   115676970.161         305.600          44.000  
E15                                                                  29626729.122                3      -3064.331          17.000  
> 2024 04 15 15 46 30.0050000  0 24                     
G03  23659412.179   124330999.186       -2763.667          46.000    23659418.043    96881286.965       -2153.599          44.000  
G04  23271331.551   122291634.319       -2891.380          49.000    23271332.029    95292166.208       -2252.879          47.000  
G09  22217110.762   116751715.191        -894.440          49.000    22217111.668    90975364.588        -697.168          47.000  
G11  25363047.653   133283600.069        1926.477          34.000    25363044.215   103857432.762        1500.848          35.000  
R02  22339657.854   119208715.990         224.780          53.000    22339658.532    92717906.884         174.896          49.000  
R11  22787149.679   121767690.027       -1201.152          51.000    22787151.222    94708241.120        -934.172          47.000  
R01  22305057.157   119233286.296       -1853.076          49.000    22305059.713    92736997.758       -1441.242          45.000  
R24  23383237.539   125040609.204       -4567.532          43.000    23383240.109    97253783.197       -3552.455          43.000  
G07  22857429.503   120116689.434        2264.460          49.000    22857428.425    93597515.185        1764.402          43.000  
S31  40350875.597   212045262.984        -814.504          43.000  
S33  41301130.994   217038880.653        -813.406          42.000  
G16  26573732.370                2         82.160          31.000                                                                  
R18  24639261.613   131526002.583        1915.012          40.000    24639267.056   102298090.453        1489.560          35.000  
R12  23079093.509   123284500.172        2628.956          50.000    23079099.001    95888007.785        2044.778          48.000  
R17  22460471.095   120190529.146       -1348.401          51.000    22460470.367    93481523.459       -1048.676          48.000  
E07  25419235.993   133579000.961        -514.338          46.000    25419241.381   102352763.623        -393.966          51.000  
E08  26440739.321   138946991.384       -2332.686          48.000    26440743.161   106465876.493       -1787.282          50.000  
E13  25930826.051   136267372.358       -2977.913          47.000    25930832.361   104412669.203       -2281.719          51.000  
E26  25850052.660   135842953.267        -156.486          44.000    25850056.120   104087478.373        -119.874          50.000  
G06  22680040.491   119184386.571         -76.475          47.000    22680042.635    92871005.804         -59.575          46.000  
G30  25552338.834   134278486.408        2947.701          42.000    25552345.356   104632601.913        2297.192          34.000  
E30  28980121.459   152291602.537        1616.316          41.000    28980139.042   116691062.209        1238.519          47.000  
E02  28726011.837   150956331.364         387.855          34.000    28726023.663   115667923.371         297.426          43.000  
E15                                                                  29649550.249                3      -3060.787          17.000  
> 2024 04 15 15 47 00.0050000  0 23                     
G03  23675218.231   124414055.481       -2773.630          47.000    23675223.060    96946005.971       -2161.352          44.000  
G04  23287845.830   122378414.965       -2894.534          49.000    23287846.023    95359787.412       -2255.470          47.000  
G09  22222239.337   116778660.455        -901.941          49.000    22222238.867    90996360.883        -702.625          47.000  
G11  25352083.786   133225989.006        1914.264          35.000    25352081.323   103812541.037        1491.455          36.000  
R02  22338402.325   119202024.880         220.917          51.000    22338405.683    92712702.720         171.826          49.000  
R11  22793965.077   121804114.081       -1227.439          50.000    22793966.203    94736570.954        -954.636          47.000  
R01  22315467.265   119288932.261       -1856.891          49.000    22315469.587    92780277.866       -1444.275          46.000  
R24  23408887.353   125177778.287       -4577.459          44.000    23408891.593    97360469.985       -3560.227          45.000  
G07  22844539.408   120048954.839        2250.873          48.000    22844539.441    93544735.111        1753.861          44.000  
S31  40355525.565   212069695.391        -814.506          43.000  
S33  41305774.013   217063279.720        -813.405          42.000  
R18  24628552.639   131468833.438        1895.689          41.000    24628555.294   102253625.645        1474.772          36.000  
R12  23064363.732   123205815.301        2616.503          51.000    23064369.228    95826808.682        2034.970          48.000  
R17  22468103.291   120231370.470       -1374.518          52.000    22468102.063    93513288.888       -1069.067          48.000  
E07  25422184.267   133594493.037        -518.686          45.000    25422189.042   102364634.196        -397.434          50.000  
E08  26454057.022   139016979.338       -2333.588          48.000    26454061.145   106519503.549       -1787.979          50.000  
E13  25947854.156   136356861.039       -2988.220          47.000    25947861.957   104481238.364       -2289.690          52.000  
E26  25850984.737   135847852.723        -170.374          45.000    25850988.181   104091232.505        -130.548          50.000  
G06  22680533.907   119186980.904         -96.877          47.000    22680536.316    92873027.345         -75.368          47.000  
G30  25535520.309   134190108.328        2943.943          41.000    25535529.814   104563736.128        2293.942          37.000  
E30  28970892.310   152243104.127        1616.462          41.000    28970909.839   116653901.328        1238.572          47.000  
E02  28723822.753   150944835.859         377.932          35.000    28723836.140   115659115.389         289.545          43.000  
E15                                                                  29672370.189                3      -3055.971          17.000  
> 2024 04 15 15 47 30.0050000  0 23                     
G03  23691080.569   124497410.073       -2783.755          48.000    23691084.938    97010957.470       -2169.211          44.000  
G04  23304378.763   122465299.182       -2898.222          49.000    23304379.127    95427489.318       -2258.301          46.000  
G09  22227410.051   116805831.639        -909.833          50.000    22227409.017    91017533.244        -709.021          46.000  
G11  25341191.272   133168740.318        1902.002          35.000    25341185.686   103767931.775        1481.775          35.000  
R02  22337170.784   119195454.962         216.766          51.000    22337174.284    92707592.830         168.518          49.000  
R11  22800929.419   121841329.136       -1253.973          50.000    22800932.050    94765515.991        -975.347          47.000  
R01  22325899.813   119344700.266       -1861.334          50.000    22325902.166    92823652.891       -1447.626          46.000  
R24  23434595.084   125315244.499       -4587.325          46.000    23434599.203    97467387.921       -3567.952          45.000  
G07  22831729.350   119981635.279        2236.824          49.000    22831729.570    93492278.407        1742.871          44.000  
S31  40360174.423   212094126.935        -814.678          44.000  
S33  41310417.122   217087678.878        -813.543          42.000  
R18  24617953.447   131412255.975        1875.809          40.000    24617956.896   102209620.924        1459.413          32.000  
R12  23049705.891   123127512.552        2603.408          52.000    23049709.547    95765906.764        2024.724          48.000  
R17  22475883.204   120273002.442       -1401.147          51.000    22475882.279    93545669.293       -1089.752          48.000  
E07  25425158.329   133610121.308        -523.302          46.000    25425163.206   102376609.122        -400.998          51.000  
E08  26467381.609   139086998.550       -2334.714          48.000    26467385.424   106573154.566       -1788.927          50.000  
E13  25964944.925   136446665.841       -2998.958          48.000    25964950.706   104550049.738       -2298.026          51.000  
E26  25851998.579   135853177.306        -184.990          45.000    25852001.596   104095312.371        -141.664          50.000  
G06  22681145.272   119190193.437        -117.791          47.000    22681148.053    92875530.634         -91.829          47.000  
G30  25518726.171   134101853.963        2939.597          42.000    25518735.452   104494966.757        2290.344          38.000  
E30  28961665.065   152194611.794        1616.124          42.000    28961681.963   116616745.097        1238.261          47.000  
E02  28721694.493   150933648.109         367.481          36.000    28721707.711   115650543.172         281.515          44.000  
E15                                                                  29695186.633                3      -3054.171          13.000  
> 2024 04 15 15 48 00.0050000  0 22                     
G03  23706998.612   124581059.501       -2793.155          46.000    23707002.750    97076138.664       -2176.584          44.000  
G04  23320931.250   122552282.282       -2900.995          48.000    23320931.407    95495268.226       -2260.435          46.000  
G09  22232622.612   116833224.266        -916.711          50.000    22232621.385    91038878.142        -714.386          47.000  
G11  25330359.689                        1890.015          30.000    25330358.746   103723604.102        1472.528          36.000  
R02  22335961.495   119189002.689         213.141          51.000    22335965.017    92702574.390         165.759          49.000  
R11  22808041.643   121879331.281       -1279.769          50.000    22808044.027    94795073.210        -995.399          47.000  
R01  22336354.904   119400586.992       -1864.826          50.000    22336356.918    92867120.281       -1450.299          45.000  
R24  23460356.240   125452999.789       -4596.577          46.000    23460360.315    97574530.715       -3575.025          46.000  
G07  22818998.134   119914729.809        2223.232          48.000    22818997.746    93440144.325        1732.733          44.000  
S31  40364823.073   212118555.370        -814.511          44.000  
S33  41315059.234   217112074.685        -813.247          42.000  
R18  24607466.198   131356269.663        1856.312          41.000    24607466.585   102166076.135        1444.139          33.000  
R12  23035118.763   123049592.677        2590.833          51.000    23035122.451    95705302.606        2015.101          48.000  
R17  22483809.027   120315420.003       -1426.892          50.000    22483809.451    93578660.625       -1109.766          48.000  
E07  25428157.163   133625881.502        -527.386          46.000    25428162.834   102388685.122        -404.125          51.000  
E08  26480711.893   139157044.865       -2335.211          49.000    26480714.967   106626826.343       -1789.323          50.000  
E13  25982092.981   136536781.647       -3008.863          47.000    25982099.328   104619099.433       -2305.508          51.000  
E26  25853091.766   135858924.131        -198.556          45.000    25853094.950   104099715.769        -152.096          50.000  
G06  22681873.694   119194021.448        -137.696          47.000    22681876.815    92878513.500        -107.479          47.000  
G30  25501955.261   134013722.097        2935.802          42.000    25501963.732   104426292.850        2287.616          39.000  
E30  28952438.218   152146124.022        1616.567          42.000    28952455.033   116579592.358        1238.510          47.000  
E02  28719624.445   150922766.015         357.896          37.000    28719636.893   115642205.172         274.127          44.000  
> 2024 04 15 15 48 30.0050000  0 23                     
G03  23722973.007   124665004.548       -2803.452          47.000    23722977.120    97141550.247       -2184.678          44.000  
G04  23337501.984   122639364.018       -2904.856          48.000    23337502.224    95563124.041       -2263.556          45.000  
G09  22237877.304   116860838.338        -924.579          50.000    22237876.609    91060395.611        -720.660          46.000  
G11  25319597.925   133055395.6531       1877.734          32.000    25319603.094   103679560.671        1462.988          38.000  
R08  26124265.247                3      -3267.344          14.000                                                                  
R02  22334775.361   119182668.116         208.673          52.000    22334777.554    92697647.534         162.219          49.000  
R11  22815301.095   121918121.740       -1306.665          49.000    22815301.770    94825243.571       -1016.285          47.000  
R01  22346831.609   119456593.735       -1869.293          49.000    22346834.675    92910681.011       -1453.839          46.000  
R24  23486172.238   125591040.263       -4606.730          47.000    23486175.795    97681895.302       -3582.918          46.000  
G07  22806345.360   119848241.788        2208.861          48.000    22806344.498    93388335.604        1721.234          43.000  
S31  40369471.041   212142981.548        -814.873          44.000  
S33  41319701.249   217136467.989        -813.538          42.000  
R18  24597086.032   131300878.841        1835.847          35.000    24597091.074   102122994.485        1428.095          36.000  
R12  23020605.121   122972061.482        2577.406          52.000    23020607.971    95645000.770        2004.596          48.000  
R17  22491882.588   120358622.379       -1453.598          51.000    22491882.199    93612262.438       -1130.604          48.000  
E07  25431181.181   133641773.805        -532.369          46.000    25431187.249   102400862.357        -407.903          52.000  
E08  26494046.089   139227118.665       -2336.660          49.000    26494049.446   106680519.194       -1790.489          49.000  
E13  25999299.647   136627207.839       -3019.721          47.000    25999307.336   104688386.963       -2313.864          51.000  
E26  25854265.863   135865094.798        -213.129          45.000    25854269.545   104104443.954        -163.340          51.000  
G06  22682719.647   119198466.686        -159.020          48.000    22682722.617    92881977.358        -123.900          47.000  
G30  25485207.881   133925716.026        2930.999          42.000    25485214.946   104357716.945        2283.988          37.000  
E30  28943213.051   152097643.809        1615.333          43.000    28943229.344   116542445.419        1237.807          47.000  
E02  28717610.827   150912191.981         346.715          34.000    28717624.819   115634103.244         265.781          44.000  
> 2024 04 15 15 49 00.0050000  0 22                     
G03  23739004.478   124749253.118       -2813.683          46.000    23739009.165    97207198.341       -2192.214          44.000  
G04  23354093.383   122726551.140       -2908.061          48.000    23354094.266    95631061.924       -2265.886          45.000  
G09  22243175.179   116888680.826        -932.013          50.000    22243174.805    91082091.089        -726.251          46.000  
G11  25308914.942   132999248.412        1865.259          33.000    25308920.095   103635809.616        1453.528          40.000  
R02  22333612.432   119176459.538         204.718          53.000    22333613.649    92692818.690         159.332          48.000  
R11  22822708.400   121957708.011       -1332.887          50.000    22822709.797    94856032.855       -1036.558          47.000  
R01  22357332.993   119512728.664       -1873.358          50.000    22357336.483    92954341.422       -1457.025          46.000  
R24  23512040.179   125729369.511       -4615.895          46.000    23512044.125    97789484.531       -3590.149          47.000  
G07  22793774.597   119782181.868        2194.930          48.000    22793774.199    93336860.421        1710.233          44.000  
S31  40374119.803   212167411.537        -814.432          44.000  
S33  41324343.976   217160865.235        -813.788          42.000  
R18  24586820.316   131246094.409        1816.120          32.000    24586827.196   102080384.553        1411.999          38.000  
R12  23006165.616   122894931.265        2564.159          52.000    23006169.834    95585010.797        1994.396          49.000  
R17  22500104.624   120402616.277       -1479.817          52.000    22500103.630    93646479.848       -1150.899          47.000  
E07  25434232.439   133657805.427        -536.771          46.000    25434238.140   102413146.357        -411.214          52.000  
E08  26507386.982   139297227.252       -2337.561          48.000    26507391.116   106734238.669       -1791.159          50.000  
E13  26016566.921   136717950.797       -3030.105          47.000    26016575.325   104757917.173       -2321.787          52.000  
E26  25855523.062   135871697.870        -227.331          45.000    25855525.953   104109503.449        -174.222          51.000  
G06  22683684.423   119203537.802        -179.557          47.000    22683687.833    92885928.882        -139.961          47.000  
G30  25468486.877   133837846.100        2926.514          43.000    25468494.075   104289247.127        2280.566          38.000  
E30  28933990.431   152049180.998        1614.880          43.000    28934007.072   116505311.780        1237.504          47.000  
E02  28715661.388   150901935.380         336.171          37.000    28715672.252   115626244.486         257.863          43.000  
> 2024 04 15 15 49 30.0050000  0 23                     
G03  23755094.530   124833806.871       -2823.819          46.000    23755098.888    97273084.237       -2200.369          44.000  
G04  23370704.606   122813844.192       -2911.867          47.000    23370705.784    95699082.373       -2268.957          46.000  
G09  22248517.149   116916752.526        -939.648          50.000    22248516.392    91103965.145        -732.312          46.000  
G11  25298306.194   132943480.501        1851.984          35.000    25298307.645   103592354.172        1443.408          40.000  
R02  22332472.835   119170378.336         200.372          52.000    22332474.273    92688088.898         155.670          48.000  
R11  22830266.515   121998091.620       -1359.598          48.000    22830266.753    94887442.356       -1057.593          47.000  
R01  22367859.419   119568993.879       -1877.875          51.000    22367860.776    92998103.187       -1460.565          46.000  
R24  23537962.388   125867984.349       -4625.429          46.000    23537967.020    97897295.797       -3597.639          49.000  
G07  22781286.135   119716554.249        2180.015          48.000    22781285.545    93285722.072        1698.923          44.000  
S31  40378770.611   212191849.401        -815.030          44.000  
S33  41328987.987   217185269.797        -813.870          42.000  
G16  26572091.735                1         10.679          29.000                                                                  
R18  24576673.760   131191921.774        1794.897          37.000    24576678.462   102038250.305        1396.364          40.000  
R12  22991803.303   122818208.544        2550.328          52.000    22991806.162    95525337.742        1983.482          48.000  
R17  22508473.876   120447401.655       -1506.318          51.000    22508472.827    93681312.889       -1171.463          47.000  
E07  25437310.127   133673977.277        -541.674          46.000    25437315.419   102425537.770        -414.978          52.000  
E08  26520736.094   139367371.692       -2338.936          49.000    26520739.097   106787985.599       -1792.179          50.000  
E13  26033896.368   136809010.537       -3040.778          48.000    26033903.579   104827690.123       -2329.986          52.000  
E26  25856861.367   135878735.616        -242.036          45.000    25856865.428   104114896.051        -185.542          51.000  
G06  22684769.040   119209237.192        -200.772          47.000    22684771.603    92890369.951        -156.366          47.000  
G30  25451792.195   133750116.298        2921.814          43.000    25451799.606   104220886.486        2276.392          39.000  
E30  28924770.828   152000739.223        1614.107          42.000    28924788.059   116468194.325        1236.786          46.000  
E02  28713770.077   150891999.266         325.586          38.000    28713781.158   115618631.286         249.422          42.000  
> 2024 04 15 15 50 00.0050000  0 24                     
G03  23771243.747   124918668.292       -2833.596          46.000    23771248.562    97339209.869       -2208.104          45.000  
G04  23387336.870   122901244.686       -2915.090          48.000    23387336.617    95767186.544       -2271.443          45.000  
G09  22253902.016   116945055.060        -947.052          49.000    22253902.166    91126019.088        -737.933          47.000  
G11  25287763.782   132888097.022        1840.057          33.000    25287768.538   103549198.308        1433.350          40.000  
R02  22331356.383   119164426.923         196.387          52.000    22331358.316    92683460.053         152.606          47.000  
R11  22837972.731   122039274.630       -1385.793          48.000    22837974.874    94919473.538       -1077.905          48.000  
R01  22378409.230   119625392.280       -1882.074          50.000    22378411.197    93041968.506       -1463.800          45.000  
R24  23563937.640   126006882.815       -4634.560          48.000    23563941.378    98005327.653       -3604.524          49.000  
G07  22768880.798   119651364.107        2165.709          47.000    22768880.276    93234924.665        1687.772          44.000  
S31  40383422.673   212216296.733        -815.042          44.000  
S33  41333634.091   217209684.060        -813.684          42.000  
G16  26572061.915                1         -0.367          27.000                                                                  
R18  24566643.360   131138366.610        1774.563          40.000    24566648.606   101996596.360        1380.458          40.000  
R12  22977516.715   122741900.240        2536.771          51.000    22977521.401    95465987.000        1973.070          49.000  
R17  22516990.915   120492979.751       -1532.344          51.000    22516990.424    93716762.457       -1191.723          48.000  
E07  25440414.936   133690291.225        -546.023          46.000    25440420.095   102438038.092        -418.285          52.000  
E08  26534091.592   139437554.037       -2339.915          48.000    26534094.375   106841761.590       -1792.839          50.000  
E13  26051284.452   136900388.084       -3051.049          48.000    26051291.951   104897706.576       -2337.741          52.000  
E26  25858284.208   135886211.412        -256.383          46.000    25858288.337   104120624.240        -196.369          51.000  
G06  22685973.986   119215568.136        -221.453          47.000    22685976.930    92895303.160        -172.560          47.000  
G30  25435125.425   133662531.561        2916.919          43.000    25435132.529   104152638.873        2272.797          39.000  
E30  28915558.106   151952323.143        1613.498          42.000    28915573.873   116431096.521        1236.347          44.000  
E02  28711939.018   150882387.691         314.973          36.000    28711951.601   115611266.819         241.628          42.000  
R03                                                                  25522188.778                3       1311.000          14.000  
> 2024 04 15 15 50 30.0050000  0 22                     
G03  23787450.380   125003835.062       -2843.953          46.000    23787455.106    97405573.435       -2216.062          45.000  
G04  23403988.392   122988749.225       -2918.555          48.000    23403989.066    95835371.800       -2274.276          46.000  
G09  22259331.092   116973585.324        -954.846          50.000    22259331.127    91148250.462        -743.884          46.000  
G11  25277298.583   132833098.260        1826.447          34.000    25277302.266   103506342.173        1423.114          40.000  
R02  22330264.828   119158602.799         191.968          52.000    22330267.252    92678930.184         149.274          48.000  
R11  22845827.047   122081254.656       -1412.655          47.000    22845830.486    94952124.675       -1098.833          47.000  
R01  22388984.763   119681921.673       -1886.572          51.000    22388986.331    93085935.737       -1467.401          46.000  
R24  23589964.166   126146058.096       -4643.729          49.000    23589968.662    98113574.880       -3611.758          49.000  
G07  22756557.626   119586611.884        2151.212          47.000    22756557.653    93184468.491        1676.287          44.000  
S31  40388075.876   212240751.089        -815.264          44.000  
S33  41338281.025   217234105.353        -814.246          42.000  
R18  24556726.235   131085429.709        1754.211          39.000    24556731.852   101955423.249        1364.665          38.000  
R12  22963310.051   122666008.595        2522.678          52.000    22963314.922    95406960.360        1962.041          49.000  
R17  22525655.971   120539346.552       -1558.765          51.000    22525655.412    93752825.454       -1212.336          49.000  
E07  25443544.747   133706744.311        -550.951          46.000    25443550.844   102450645.035        -421.982          52.000  
E08  26547453.091   139507771.488       -2341.254          47.000    26547456.508   106895564.465       -1793.880          50.000  
E13  26068732.877   136992079.600       -3061.708          48.000    26068740.517   104967963.613       -2345.906          52.000  
E26  25859789.613   135894123.541        -271.180          45.000    25859794.199   104126686.788        -207.763          51.000  
G06  22687298.240   119222529.095        -242.540          47.000    22687301.611    92900727.280        -189.065          48.000  
G30  25418485.691   133575091.999        2912.323          40.000    25418492.929   104084504.438        2269.189          39.000  
E30  28906350.415   151903932.514        1612.574          43.000    28906364.985   116394018.205        1235.538          44.000  
E02  28710171.828   150873099.809         304.336          37.000    28710184.674   115604150.357         233.106          42.000  
> 2024 04 15 15 51 00.0050000  0 23                     
G03  23803714.330   125089308.548       -2853.887          45.000    23803720.588    97472176.017       -2223.914          45.000  
G04  23420659.814   123076358.189       -2921.852          48.000    23420660.665    95903638.425       -2276.749          45.000  
G09  22264803.631   117002343.815        -962.207          49.000    22264803.567    91170659.677        -749.854          46.000  
G11  25266908.976   132778487.943        1813.965          33.000    25266909.082   103463788.792        1413.361          38.000  
R02  22329198.639   119152907.342         187.811          52.000    22329200.745    92674500.384         146.118          49.000  
R11  22853834.047   122124033.030       -1439.044          48.000    22853836.091    94985396.767       -1119.309          48.000  
R01  22399584.258   119738583.898       -1890.857          50.000    22399587.032    93130006.273       -1470.593          46.000  
R24  23616042.887   126285506.985       -4652.539          49.000    23616046.327    98222034.888       -3618.734          49.000  
G07  22744320.293   119522301.722        2136.536          48.000    22744319.729    93134356.763        1664.624          43.000  
S31  40392731.305   212265214.299        -815.354          44.000  
S33  41342930.317   217258534.964        -814.283          43.000  
G16  26572212.308                1        -25.011          31.000                                                                  
R18  24546923.355   131033115.772        1734.634          34.000    24546930.717   101914734.765        1348.390          34.000  
R12  22949182.645   122590539.786        2508.684          52.000    22949186.450    95348262.568        1951.239          49.000  
R17  22534467.427   120586501.861       -1584.755          50.000    22534467.110    93789501.706       -1232.535          48.000  
E07  25446702.926   133723337.264        -555.233          47.000    25446708.234   102463359.146        -425.480          52.000  
E08  26560821.360   139578024.879       -2342.237          47.000    26560825.268   106949394.900       -1794.652          50.000  
E13  26086241.060   137084084.948       -3071.918          48.000    26086248.809   105038461.111       -2353.787          52.000  
E26  25861378.881   135902474.076        -285.537          45.000    25861383.080   104133085.238        -218.831          51.000  
G06  22688743.336   119230122.164        -263.541          48.000    22688746.296    92906643.969        -205.334          47.000  
G30  25401873.695   133487801.471        2907.446          40.000    25401881.801   104016486.108        2265.723          39.000  
E30  28897147.684   151855570.814        1611.716          44.000    28897161.862   116356962.072        1234.947          45.000  
E02  28708465.517   150864138.514         293.533          37.000    28708478.766   115597284.103         224.769          41.000  
> 2024 04 15 15 51 30.0050000  0 23                     
G03  23820038.066   125175086.169       -2864.312          47.000    23820043.547    97539015.547       -2231.974          44.000  
G04  23437350.395   123164067.904       -2925.182          46.000    23437351.065    95971983.529       -2279.271          45.000  
G09  22270319.120   117031327.071        -969.824          49.000    22270318.835    91193244.028        -755.615          46.000  
G11  25256588.615   132724266.104        1801.172          34.000    25256589.908   103421538.085        1403.613          38.000  
R02  22328154.581   119147337.507         183.606          53.000    22328156.861    92670168.282         142.816          49.000  
R11  22861987.635   122167606.238       -1465.718          47.000    22861989.643    95019287.054       -1139.971          48.000  
R01  22410208.642   119795376.838       -1895.239          50.000    22410211.152    93174178.483       -1474.017          46.000  
R24  23642169.640   126425222.072       -4661.415          50.000    23642174.169    98330701.946       -3625.510          48.000  
G07  22732166.820   119458433.421        2121.764          48.000    22732165.986    93084589.321        1653.288          44.000  
S31  40397387.344   212289682.653        -815.716          45.000  
S33  41347580.259   217282970.534        -814.608          41.000  
G16  26572393.731                         -37.776          30.000                                                                  
R18  24537235.379   130981425.211        1712.770          38.000    24537245.049   101874531.054        1332.302          35.000  
R12  22935133.120   122515495.511        2494.461          50.000    22935137.744    95289894.997        1940.192          48.000  
R17  22543425.686   120634441.533       -1610.949          51.000    22543426.474    93826788.086       -1252.868          48.000  
E07  25449887.048   133740066.812        -559.833          47.000    25449891.564   102476177.908        -428.948          52.000  
E08  26574197.283   139648311.134       -2343.503          48.000    26574200.582   107003250.532       -1795.528          50.000  
E13  26103808.846   137176399.950       -3082.270          48.000    26103816.000   105109195.877       -2361.699          52.000  
E26  25863051.163   135911261.068        -300.084          46.000    25863055.077   104139818.104        -229.925          51.000  
G06  22690308.312   119238345.371        -284.468          49.000    22690310.592    92913051.667        -221.738          47.000  
G30  25385292.101   133400659.843        2902.289          42.000    25385298.853   103948583.796        2261.768          39.000  
E30  28887948.834   151807237.524        1610.704          42.000    28887964.765   116319927.702        1234.251          46.000  
E02  28706820.533                         281.875          32.000    28706835.594   115590667.254         216.437          42.000  
> 2024 04 15 15 52 00.0050000  0 25                     
G03  23836418.490   125261164.531       -2874.274          46.000    23836423.768    97606089.403       -2239.601          45.000  
G04  23454059.577   123251874.052       -2928.634          47.000    23454059.852    96040403.800       -2281.918          45.000  
G09  22275877.104   117060530.911        -977.185          50.000    22275876.127    91216000.285        -761.426          46.000  
G11  25246345.112   132670431.980        1788.086          34.000    25246345.123   103379589.484        1393.390          39.000  
R02  22327133.812   119141889.896         179.504          53.000    22327136.251    92665931.263         139.557          49.000  
R11  22870290.620   122211970.965       -1492.053          48.000    22870292.834    95053792.919       -1160.461          48.000  
R01  22420856.800   119852297.709       -1899.414          50.000    22420859.429    93218450.227       -1477.429          47.000  
R24  23668345.179   126565195.456       -4670.181          49.000    23668350.186    98439569.868       -3632.257          48.000  
G07  22720096.702   119395005.780        2106.817          47.000    22720095.733    93035165.254        1641.649          43.000  
S31  40402044.329   212314153.822        -815.644          45.000  
S33  41352230.836   217307408.742        -814.540          42.000  
G16  26572650.796                         -50.862          28.000                                                                  
R18  24527674.217   130930357.883        1692.062          38.000    24527681.896   101834812.251        1315.639          38.000  
R12  22921164.543   122440877.063        2480.165          51.000    22921169.175    95231858.623        1929.062          49.000  
R17  22552530.312   120683160.225       -1636.900          49.000    22552529.560    93864680.324       -1273.100          47.000  
E07  25453095.026   133756928.987        -564.252          47.000    25453100.427   102489098.308        -432.361          52.000  
E08  26587577.042   139718626.461       -2344.256          47.000    26587581.413   107057128.399       -1796.228          50.000  
E13  26121433.528   137269019.696       -3092.447          48.000    26121440.895   105180164.142       -2369.423          52.000  
E26  25864806.362   135920481.795        -314.507          47.000    25864809.966   104146883.328        -240.999          51.000  
G06  22691992.476   119247196.093        -305.559          48.000    22691994.601    92919948.334        -238.058          47.000  
G30  25368736.862   133313666.105        2897.449          41.000    25368744.943   103880796.751        2257.727          41.000  
E30  28878757.938   151758931.412        1609.634          44.000    28878772.820   116282914.216        1233.368          47.000  
E02  28705240.819   150847190.440         271.587          38.000    28705252.150   115584298.268         208.231          39.000  
E33                                                                  29254150.604                1       1294.062          29.000  
R03                                                                  25486521.156                3       1234.266          11.000  
> 2024 04 15 15 52 30.0050000  0 24                     
G03  23852856.729   125347550.185       -2884.754          46.000    23852863.171    97673402.747       -2247.717          45.000  
G04  23470787.976   123339782.241       -2932.127          47.000    23470788.646    96108903.554       -2284.837          45.000  
G09  22281477.450   117089961.134        -984.991          50.000    22281476.999    91238932.940        -767.572          47.000  
G11  25236175.725   132616994.614        1774.597          36.000    25236176.269   103337950.008        1382.806          38.000  
R02  22326137.156   119136571.332         174.994          52.000    22326139.327    92661794.616         136.090          49.000  
R11  22878742.489   122257132.971       -1518.795          49.000    22878743.804    95088918.931       -1181.147          48.000  
R01  22431530.242   119909353.228       -1904.266          50.000    22431532.722    93262826.659       -1481.110          46.000  
R24  23694569.911   126705429.373       -4678.832          49.000    23694573.958    98548640.459       -3639.070          47.000  
G07  22708112.715   119332028.356        2091.507          48.000    22708112.190    92986091.998        1629.855          44.000  
S31  40406702.304   212338634.834        -816.389          43.000  
S33  41356882.848   217331856.022        -815.281          41.000  
G16  26572976.374                         -63.416          29.000                                                                  
R18  24518227.001   130879923.638        1670.214          40.000    24518233.016   101795585.653        1299.014          37.000  
R12  22907278.397   122366695.645        2465.183          52.000    22907282.308    95174162.154        1917.369          49.000  
R17  22561781.701   120732663.014       -1663.270          51.000    22561781.248    93903182.429       -1293.588          47.000  
E07  25456330.189   133773929.741        -569.091          46.000    25456335.774   102502124.888        -436.057          52.000  
E08  26600964.140   139788976.971       -2345.698          47.000    26600968.609   107111033.253       -1797.317          50.000  
E13  26139118.222   137361949.282       -3102.972          48.000    26139125.049   105251369.826       -2377.540          52.000  
E26  25866644.845   135930143.569        -329.591          46.000    25866648.486   104154286.479        -252.457          51.000  
G06  22693797.891   119256681.624        -326.988          48.000    22693799.650    92927339.626        -254.695          47.000  
G30  25352212.431   133226829.353        2891.608          42.000    25352220.033   103813132.041        2253.455          41.000  
E30  28869571.708   151710661.160        1608.230          42.000    28869586.723   116245928.182        1232.446          46.000  
E02  28703723.211   150839209.846         260.506          40.000    28703733.516   115578183.383         199.642          39.000  
E33                                                                  29244535.812   117755631.5241       1287.271          32.000  
> 2024 04 15 15 53 00.0050000  0 24                     
G03  23869354.975   125434247.365       -2894.865          46.000    23869360.831    97740958.817       -2255.409          43.000  
G04  23487535.589   123427795.675       -2935.170          47.000    23487536.982    96177485.364       -2287.210          44.000  
G09  22287121.050   117119621.196        -992.194          50.000    22287121.825    91262044.670        -773.090          47.000  
G11  25226083.522   132563960.748        1761.261          35.000    25226084.826   103296624.981        1372.437          39.000  
R02  22325165.197   119131385.942         170.905          53.000    22325166.977    92657761.561         132.953          49.000  
R11  22887343.294   122303096.100       -1545.209          47.000    22887346.015    95124668.030       -1201.655          49.000  
R01  22442229.189   119966548.418       -1908.576          50.000    22442232.415    93307311.706       -1484.314          45.000  
R24  23720842.818   126845923.223       -4687.184          48.000    23720847.448    98657913.238       -3645.479          47.000  
G07  22696215.543   119269508.177        2076.547          48.000    22696215.301    92937375.056        1618.173          44.000  
S31  40411364.066   212363128.774        -816.324          43.000  
S33  41361537.382   217356316.978        -815.621          42.000  
G16  26573365.392                1        -76.840          29.000                                                                  
R18  24508899.811   130830129.927        1649.374          43.000    24508905.867   101756857.351        1283.269          37.000  
R12  22893473.767   122292960.113        2450.612          51.000    22893478.381    95116812.473        1906.023          49.000  
R17  22571180.724   120782952.613       -1689.154          52.000    22571179.226    93942296.542       -1313.612          48.000  
E07  25459592.098   133791072.693        -573.431          46.000    25459597.835   102515260.417        -439.292          52.000  
E08  26614360.160   139859366.505       -2346.645          48.000    26614363.337   107164967.983       -1798.076          50.000  
E13  26156861.792   137455191.354       -3113.039          48.000    26156868.769   105322814.955       -2385.199          52.000  
E26  25868567.532   135940251.288        -344.005          46.000    25868571.268   104162031.334        -263.539          51.000  
G06  22695724.999   119266806.777        -347.861          48.000    22695727.057    92935229.348        -270.996          48.000  
G30  25335719.132   133140156.301        2886.542          42.000    25335727.086   103745594.886        2249.451          41.000  
E30  28860393.814   151662433.048        1607.204          43.000    28860409.341   116208974.503        1231.510          46.000  
E02  28702266.469   150831566.609         249.483          37.000    28702279.672   115572327.078         191.018          40.000  
E33                                                                  29234964.316   117717089.718        1282.137          34.000  
> 2024 04 15 15 53 30.0050000  0 24                     
G03  23885911.331   125521244.943       -2904.674          47.000    23885915.391    97808748.955       -2263.624          43.000  
G04  23504301.893   123515902.369       -2938.298          47.000    23504302.466    96246139.821       -2289.546          43.000  
G09  22292806.647   117149499.149        -999.420          50.000    22292807.635    91285326.200        -778.699          47.000  
G11  25216067.303   132511321.822        1748.181          37.000    25216068.329   103255607.730        1361.835          39.000  
R02  22324215.906   119126322.563         166.937          52.000    22324218.406    92653823.396         129.779          49.000  
R11  22896092.732   122349849.040       -1571.504          48.000    22896093.977    95161031.408       -1222.225          49.000  
R01  22452953.498   120023872.134       -1912.720          50.000    22452955.881    93351896.731       -1487.647          45.000  
R24  23747163.156   126986661.542       -4695.079          49.000    23747166.303    98767376.140       -3651.746          46.000  
G07  22684402.912   119207436.514        2061.782          48.000    22684402.929    92889007.597        1606.664          43.000  
S31  40416025.734   212387625.880        -816.535          44.000  
S33  41366192.850   217380779.804        -815.182          43.000  
G16  26573847.084   139646434.5921        -88.939          35.000                                                                  
R18  24499690.293   130780968.679        1628.497          42.000    24499695.930   101718620.904        1266.627          37.000  
R12  22879752.195   122219663.958        2436.013          51.000    22879756.876    95059804.520        1894.729          49.000  
R17  22580722.505   120834015.588       -1714.837          51.000    22580722.487    93982012.113       -1333.757          49.000  
E07  25462878.950   133808346.108        -577.815          46.000    25462884.666   102528495.924        -442.667          52.000  
E08  26627759.736   139929783.492       -2347.472          48.000    26627763.407   107218923.752       -1798.783          50.000  
E13  26174661.300   137548733.284       -3122.856          47.000    26174668.900   105394489.835       -2392.859          52.000  
E26  25870574.169   135950794.434        -358.470          46.000    25870577.790   104170109.832        -274.645          51.000  
G06  22697771.967   119277561.063        -368.711          48.000    22697773.336    92943609.283        -287.398          48.000  
G30  25319255.352   133053638.307        2881.372          43.000    25319261.881   103678178.476        2245.428          39.000  
E30  28851221.455   151614238.204        1606.086          42.000    28851237.631   116172046.279        1230.755          45.000  
E02  28700874.680   150824251.006         238.769          36.000    28700886.744   115566721.818         182.657          39.000  
E33                                                                  29225434.060   117678718.915        1276.075          34.000  
> 2024 04 15 15 54 00.0050000  0 24                     
G03  23902523.813   125608547.644       -2915.291          46.000    23902528.039    97876776.871       -2271.793          43.000  
G04  23521086.615   123604106.117       -2941.681          47.000    23521087.699    96314869.931       -2292.427          44.000  
G09  22298534.173   117179599.038       -1006.982          50.000    22298534.949    91308780.656        -784.760          47.000  
G11  25206126.021   132459085.215        1734.479          35.000    25206128.144   103214903.919        1351.709          40.000  
R02  22323291.633   119121385.924         162.457          53.000    22323292.926    92649983.799         126.276          50.000  
R11  22904990.290   122397395.652       -1598.125          48.000    22904992.894    95198012.085       -1242.839          49.000  
R01  22463701.705   120081330.097       -1917.499          49.000    22463705.315    93396586.190       -1491.327          46.000  
R24  23773526.731   127127644.599       -4703.483          48.000    23773530.734    98877029.341       -3658.247          46.000  
G07  22672678.897   119145820.839        2046.306          48.000    22672677.998    92840995.468        1594.714          43.000  
S31  40420688.244   212412129.981        -816.877          43.000  
S33  41370848.969   217405251.305        -815.810          41.000  
G16  26574391.592   139649303.149        -101.982          29.000                                                                  
R18  24490599.592   130732447.784        1606.640          41.000    24490605.320   101680882.515        1249.403          38.000  
R12  22866115.335   122146816.345        2420.699          50.000    22866119.462    95003145.462        1882.742          49.000  
R17  22590409.859   120885855.065       -1740.835          51.000    22590409.435    94022331.632       -1354.005          48.000  
E07  25466191.372   133825754.222        -582.409          46.000    25466197.280   102541834.610        -446.256          52.000  
E08  26641165.791   140000232.350       -2348.756          48.000    26641169.279   107272903.941       -1799.732          50.000  
E13  26192518.882   137642578.378       -3133.067          46.000    26192527.065   105466396.992       -2400.681          52.000  
E26  25872663.181   135961778.488        -373.441          45.000    25872668.175   104178526.165        -286.112          51.000  
G06  22699938.601   119288949.879        -390.169          47.000    22699940.540    92952483.691        -304.061          48.000  
G30  25302822.361   132967282.526        2875.671          42.000    25302828.569   103610888.563        2240.625          40.000  
E30  28842060.261   151566083.594        1604.434          45.000    28842073.455   116135148.827        1229.448          45.000  
E02  28699545.717   150817269.423         227.187          38.000    28699557.849   115561372.452         174.053          39.000  
E33                                                                  29215948.498   117640524.175        1270.183          35.000  
> 2024 04 15 15 54 30.0050000  0 24                     
G03  23919195.409   125696159.311       -2925.404          46.000    23919199.709    97945045.560       -2279.784          42.000  
G04  23537891.225   123692409.863       -2945.001          48.000    23537889.760    96383677.903       -2294.912          42.000  
G09  22304304.509   117209923.953       -1014.368          49.000    22304304.784    91332410.423        -790.326          46.000  
G11  25196264.413   132407257.197        1720.886          37.000    25196265.111   103174518.498        1341.333          39.000  
R02  22322390.409   119116579.952         158.124          52.000    22322392.412    92646245.828         122.913          50.000  
R11  22914035.456   122445739.342       -1624.690          46.000    22914039.312    95235612.691       -1263.733          48.000  
R01  22474476.322   120138926.487       -1922.046          50.000    22474479.568    93441383.275       -1494.928          46.000  
R24  23799937.399   127268871.555       -4711.546          49.000    23799941.591    98986872.285       -3664.491          47.000  
G07  22661040.742   119084667.500        2030.768          48.000    22661039.913    92793343.601        1582.655          43.000  
S31  40425353.801   212436646.616        -817.271          44.000  
S33  41375508.279   217429732.544        -815.975          42.000  
G16  26575009.667   139652561.995        -115.159          32.000                                                                  
R18  24481631.146   130684574.297        1585.287          40.000    24481636.608                        1233.299          29.000  
R12  22852564.297   122074425.994        2405.467          51.000    22852567.639    94946842.045        1870.931          49.000  
R17  22600242.872   120938473.189       -1766.802          52.000    22600242.919    94063256.774       -1374.070          48.000  
E07  25469531.213   133843300.248        -587.092          47.000    25469535.886   102555278.981        -449.826          52.000  
E08  26654578.156   140070716.495       -2349.996          48.000    26654582.070   107326911.179       -1800.590          50.000  
E13  26210436.665   137736728.864       -3143.433          47.000    26210443.183   105538538.154       -2408.565          52.000  
E26  25874838.955   135973207.901        -388.351          46.000    25874842.942   104187283.737        -297.582          51.000  
G06  22702226.927   119300977.659        -411.604          47.000    22702229.929    92961855.975        -320.685          48.000  
G30  25286420.941   132881095.363        2870.203          42.000    25286427.959   103543729.991        2236.682          40.000  
E30  28832903.888   151517975.153        1602.839          45.000    28832918.327   116098286.726        1228.197          46.000  
E02  28698282.998   150810627.205         216.001          40.000    28698294.157   115556283.028         165.253          38.000  
E33                                                                  29206507.823   117602509.895        1264.444          36.000  
> 2024 04 15 15 55 00.0050000  0 24                     
G03  23935925.980   125784077.862       -2936.031          45.000    23935929.624    98013553.344       -2287.753          42.000  
G04  23554713.541   123780810.691       -2948.685          47.000    23554713.079    96452561.515       -2297.429          44.000  
G09  22310117.427   117240471.015       -1021.899          49.000    22310117.287    91356213.309        -796.307          47.000  
G11  25186479.996   132355838.233        1707.013          38.000    25186480.495   103134451.886        1329.962          40.000  
R02  22321513.543   119111902.500         153.644          51.000    22321516.027    92642607.820         119.617          50.000  
R11  22923231.148   122494877.559       -1651.222          48.000    22923234.764    95273831.261       -1284.398          48.000  
R01  22485276.997   120196659.676       -1926.919          49.000    22485279.909    93486286.772       -1498.586          46.000  
R24  23826391.906   127410336.056       -4719.599          47.000    23826395.607    99096899.955       -3670.638          46.000  
G07  22649492.061   119023977.031        2015.166          48.000    22649491.061    92746052.424        1570.209          44.000  
S31  40430020.589   212461171.012        -817.739          41.000  
S33  41380169.133   217454224.402        -816.612          43.000  
G16  26575705.287   139656267.8781       -127.758          32.000                                                                  
R18  24472782.796   130637349.181        1563.158          42.000    24472805.607                3       1216.830          25.000  
R12  22839097.434   122002495.428        2389.823          51.000    22839102.720    94890896.235        1858.721          50.000  
R17  22610219.965   120991865.928       -1792.756          52.000    22610219.652    94104784.406       -1394.432          47.000  
E07  25472895.763   133860981.545        -591.661          47.000    25472900.458   102568826.985        -453.362          52.000  
E08  26667997.167   140141233.477       -2351.051          47.000    26668001.013   107380943.595       -1801.545          50.000  
E13  26228411.040   137831181.127       -3153.543          48.000    26228417.257   105610910.542       -2416.228          52.000  
E26  25877099.056   135985081.214        -403.218          46.000    25877102.359   104196381.435        -309.039          51.000  
G06  22704637.411   119313642.921        -432.942          47.000    22704639.290    92971724.943        -337.353          47.000  
G30  25270051.997   132795077.225        2864.374          41.000    25270058.708   103476703.164        2232.288          38.000  
E30  28823758.074   151469912.980        1601.160          44.000    28823772.727   116061460.132        1226.879          47.000  
E02  28697082.729   150804323.715         204.435          41.000    28697095.421   115551453.223         156.686          40.000  
E33                                                                  29197112.827   117564675.994        1257.772          36.000  
> 2024 04 15 15 55 30.0050000  0 24                     
G03  23952716.266   125872307.058       -2945.619          46.000    23952719.563    98082303.217       -2295.400          42.000  
G04  23571553.979   123869311.469       -2951.327          46.000    23571554.735    96521523.067       -2299.609          44.000  
G09  22315973.764   117271243.368       -1029.034          50.000    22315973.840    91380191.751        -801.776          47.000  
G11  25176773.239   132304834.765        1693.387          38.000    25176775.304   103094708.986        1319.572          40.000  
R02  22320662.021   119107357.767         149.817          51.000    22320664.629    92639073.053         116.443          50.000  
R11  22932577.157   122544813.375       -1677.490          48.000    22932578.606    95312670.214       -1304.497          48.000  
R01  22496103.275   120254534.349       -1931.066          50.000    22496106.480    93531300.342       -1502.014          45.000  
R24  23852891.705   127552037.447       -4726.779          48.000    23852894.352    99207111.903       -3676.516          45.000  
G07  22638032.039   118963755.836        1999.981          48.000    22638031.638    92699126.880        1558.544          44.000  
S31  40434690.514   212485710.175        -817.641          44.000  
S33  41384831.768   217478728.802        -816.634          42.000  
G16  26576474.746   139660312.819        -140.655          34.000                                                                  
R18  24464060.988   130590779.458        1541.787          44.000    24464076.912                2       1199.199          28.000  
R12  22825719.287   121931032.880        2374.729          51.000    22825723.707    94835314.443        1846.948          49.000  
R17  22620342.017   121046035.387       -1818.195          51.000    22620342.965    94146916.164       -1414.062          48.000  
E07  25476287.444   133878801.424        -595.805          47.000    25476291.665   102582481.158        -456.531          52.000  
E08  26681421.854   140211786.825       -2351.960          47.000    26681426.950   107435003.864       -1802.168          50.000  
E13  26246442.013   137925937.477       -3163.220          48.000    26246448.470   105683515.951       -2423.689          51.000  
E26  25879443.378   135997402.976        -417.782          46.000    25879447.130   104205822.743        -320.100          51.000  
G06  22707169.286   119326949.930        -453.894          48.000    22707171.375    92982094.030        -353.591          48.000  
G30  25253716.506   132709234.440        2859.100          41.000    25253722.793   103409812.926        2227.814          37.000  
E30  28814619.918   151421903.093        1599.873          42.000    28814636.699   116024673.610        1225.838          46.000  
E02  28695948.372   150798364.198         193.423          42.000    28695961.702   115546886.985         148.299          38.000  
E33                                                                  29187763.600   117527026.858        1252.146          36.000  
> 2024 04 15 15 56 00.0050000  0 24                     
G03  23969561.767   125960832.666       -2955.440          45.000    23969567.187    98151284.008       -2302.949          44.000  
G04  23588411.950   123957897.187       -2953.951          46.000    23588412.431    96590550.796       -2301.822          44.000  
G09  22321869.909   117302226.005       -1035.852          50.000    22321870.248    91404334.067        -807.202          47.000  
G11  25167145.230   132254235.004        1680.452          39.000    25167146.514   103055280.678        1309.229          39.000  
R02  22319832.658   119102931.250         145.935          51.000    22319834.857    92635630.216         113.489          50.000  
R11  22942070.165   122595531.689       -1703.287          49.000    22942070.066    95352117.802       -1324.845          48.000  
R01  22506954.759   120312536.275       -1935.189          50.000    22506956.527    93576412.860       -1505.151          44.000  
R24  23879431.556   127693956.815       -4733.775          48.000    23879434.465    99317493.364       -3681.985          46.000  
G07  22626659.625   118903992.316        1984.719          49.000    22626659.417    92652558.010        1546.528          44.000  
S31  40439359.851   212510247.799        -817.397          44.000  
S33  41389494.864   217503233.246        -816.531          42.000  
G16  26577318.059   139664741.164        -153.496          32.000                                                                  
R18  24455457.501   130544853.584        1520.410          41.000    24455474.965   101534982.0861       1181.843          31.000  
R12  22812427.593   121860028.716        2359.445          51.000    22812431.266    94780089.164        1835.062          49.000  
R17  22630608.014   121100965.134       -1843.280          52.000    22630607.926    94189639.230       -1433.600          48.000  
E07  25479701.596   133896745.062        -599.882          47.000    25479706.770   102596230.185        -459.577          53.000  
E08  26694852.851   140282361.915       -2352.519          47.000    26694856.950   107489080.791       -1802.576          49.000  
E13  26264528.162   138020982.125       -3172.623          48.000    26264535.018   105756342.295       -2430.946          51.000  
E26  25881871.077   136010159.510        -432.239          46.000    25881874.660   104215597.218        -331.170          51.000  
G06  22709820.437   119340885.099        -474.736          46.000    22709823.313    92992952.583        -369.958          47.000  
G30  25237412.381   132623555.347        2853.430          43.000    25237418.534   103343050.188        2223.602          38.000  
E30  28805491.314   151373933.413        1598.497          41.000    28805507.369   115987917.897        1225.010          45.000  
E02  28694878.382   150792735.952         182.296          43.000    28694889.619   115542574.568         139.546          38.000  
E33                                                                  29178456.377   117489552.982        1246.532          36.000  
> 2024 04 15 15 56 30.0060000  0 24                     
G03  23986463.805   126049649.943       -2965.241          47.000    23986469.462    98220492.138       -2310.771          44.000  
G04  23605283.870   124046562.204       -2956.647          45.000    23605285.096    96659640.300       -2304.074          45.000  
G09  22327804.139   117333411.594       -1042.916          50.000    22327804.897    91428634.507        -812.487          47.000  
G11  25157590.788   132204032.170        1666.722          37.000    25157592.530   103016161.663        1298.522          38.000  
R02  22319024.180   119098614.765         141.986          52.000    22319025.733    92632272.959         110.473          50.000  
R11  22951703.978   122647026.017       -1729.381          46.000    22951707.240    95392168.897       -1345.067          49.000  
R01  22517827.199   120370660.330       -1939.362          50.000    22517829.058    93621620.377       -1508.344          44.000  
R24  23906010.863   127836086.515       -4740.898          48.000    23906013.942    99428038.420       -3687.339          46.000  
G07  22615372.904   118844679.637        1969.482          49.000    22615372.423    92606340.433        1534.741          44.000  
S31  40444028.179   212534778.292        -817.545          44.000  
S33  41394156.713   217527729.663        -816.493          42.000  
G16  26578233.369   139669547.150        -166.499          36.000                                                                  
R18  24446972.276   130499565.529        1498.939          39.000    24446990.472                        1165.521          27.000  
R12  22799219.470   121789477.240        2344.059          51.000    22799222.764    94725215.942        1823.065          49.000  
R17  22641013.016   121156646.949       -1868.439          51.000    22641012.949    94232947.222       -1453.143          48.000  
E07  25483137.418   133914804.834        -603.900          47.000    25483143.407   102610068.182        -462.653          53.000  
E08  26708284.444   140352953.073       -2353.148          46.000    26708290.288   107543170.031       -1802.986          49.000  
E13  26282668.598   138116309.104       -3182.133          48.000    26282675.165   105829384.943       -2438.200          51.000  
E26  25884379.733   136023344.199        -446.584          46.000    25884383.800   104225699.750        -342.157          51.000  
G06  22712590.744   119355441.735        -495.612          47.000    22712593.560    93004295.381        -386.072          47.000  
G30  25221137.750   132538031.828        2848.103          42.000    25221143.432   103276408.691        2219.497          37.000  
E30  28796368.856   151325996.843        1597.139          41.000    28796384.103   115951187.589        1223.766          43.000  
E02  28693869.280   150787432.581         171.396          43.000    28693880.145   115538510.981         131.351          38.000  
E33                                                                  29169191.034   117452248.883        1240.284          36.000  
> 2024 04 15 15 57 00.0060000  0 24                     
G03  24003421.559   126138764.057       -2975.196          47.000    24003427.325    98289931.536       -2318.353          44.000  
G04  23622172.337   124135310.962       -2959.684          45.000    23622174.808    96728795.061       -2306.248          45.000  
G09  22333778.398   117364808.470       -1049.845          50.000    22333779.389    91453099.595        -818.152          47.000  
G11  25148115.844   132154243.260        1652.553          38.000    25148116.940   102977365.152        1287.809          39.000  
R02  22318237.230   119094420.506         137.916          51.000    22318239.937    92629010.771         107.283          50.000  
R11  22961488.698   122699303.087       -1755.336          48.000    22961489.777    95432828.842       -1365.370          49.000  
R01  22528725.708   120428914.424       -1943.836          51.000    22528728.270    93666929.051       -1511.957          44.000  
R24  23932628.514   127978424.162       -4748.017          48.000    23932632.692    99538745.151       -3692.863          47.000  
E33  29159950.672                1       1610.968          27.000    29159971.119   117415126.996        1234.458          35.000  
G07  22604175.460   118785834.707        1953.570          49.000    22604174.460    92560487.337        1522.504          44.000  
S31  40448696.506   212559311.345        -817.294          44.000  
S33  41398818.360   217552227.769        -816.424          42.000  
G16  26579219.646   139674742.964        -180.287          33.000                                                                  
R18  24438610.454   130454932.452        1476.917          43.000    24438632.804                        1149.968          32.000  
R12  22786100.876   121719398.954        2328.183          51.000    22786104.759    94670710.825        1810.783          49.000  
R17  22651560.725   121213086.567       -1893.860          51.000    22651561.185    94276844.594       -1473.010          49.000  
E07  25486598.096   133932990.168        -608.161          47.000    25486603.696   102624002.382        -465.938          53.000  
E08  26721722.480   140423566.442       -2354.074          46.000    26721727.320   107597276.301       -1803.711          49.000  
E13  26300862.725   138211921.617       -3191.805          47.000    26300869.719   105902646.386       -2445.605          51.000  
E26  25886972.551   136036967.941        -461.441          46.000    25886976.404   104236138.699        -353.524          51.000  
G06  22715482.183   119370630.471        -516.724          48.000    22715483.548    93016130.711        -402.618          47.000  
G30  25204896.111   132452683.259        2842.096          40.000    25204902.173   103209903.604        2214.255          38.000  
E30  28787257.134   151278110.012        1595.348          42.000    28787271.204   115914495.346        1222.562          43.000  
E02  28692923.307   150782466.963         159.984          42.000    28692935.977   115534706.288         122.535          39.000  
> 2024 04 15 15 57 30.0060000  0 25                     
G03  24020437.029   126228180.301       -2985.441          47.000    24020442.171    98359606.356       -2326.412          44.000  
G04  23639077.800   124224147.936       -2962.782          46.000    23639078.647    96798018.549       -2308.474          44.000  
G09  22339793.525   117396419.400       -1057.315          50.000    22339794.676    91477731.472        -823.849          47.000  
G11  25138722.011   132104871.466        1638.859          38.000    25138721.979   102938893.694        1277.168          39.000  
R02  22317473.653   119090350.498         133.592          50.000    22317477.318    92625845.200         103.954          50.000  
R11  22971417.229   122752366.260       -1781.869          47.000    22971419.882    95474100.177       -1385.972          49.000  
R01  22539648.134   120487303.829       -1948.553          50.000    22539650.956    93712342.934       -1515.497          44.000  
R24  23959285.652   128120972.060       -4755.066          46.000    23959288.854    99649615.421       -3698.270          45.000  
E33  29150788.048                        1602.689          29.000    29150796.984   117378189.404        1227.696          34.000  
G07  22593067.225   118727460.939        1938.043          49.000    22593066.375    92515001.404        1510.016          44.000  
S31  40453365.814   212583849.918        -818.240          44.000  
S33  41403481.446   217576732.026        -816.853          42.000  
G16  26580285.130   139680333.047        -193.236          34.000                                                                  
R18  24430373.479   130410958.465        1454.987          44.000    24430387.607                        1130.894          32.000  
R12  22773070.859   121649798.586        2312.042          51.000    22773074.816    94616577.355        1798.309          49.000  
R17  22662249.654   121270286.425       -1919.244          51.000    22662251.078    94321333.299       -1492.773          49.000  
E07  25490083.681   133951303.517        -612.447          47.000    25490088.569   102638034.670        -469.321          52.000  
E08  26735166.553   140494206.473       -2354.989          47.000    26735169.881   107651402.969       -1804.507          49.000  
E13  26319112.285   138307823.676       -3201.500          47.000    26319119.212   105976129.679       -2453.027          51.000  
E26  25889649.303   136051034.130        -476.194          47.000    25889653.363   104246916.655        -364.850          52.000  
G06  22718493.318   119386454.611        -538.037          47.000    22718494.718    93028461.152        -419.135          47.000  
G30  25188688.182   132367511.738        2835.971          41.000    25188694.831   103143536.372        2210.281          38.000  
E30  28778154.775   151230275.880        1593.864          43.000    28778168.307   115877843.478        1221.103          43.000  
E02  28692043.268   150777842.866         148.530          42.000    28692055.065   115531163.218         113.566          38.000  
R03                                                                  25692389.860                3       1010.645          12.000  
> 2024 04 15 15 58 00.0060000  0 24                     
G03  24037510.307   126317897.587       -2995.224          46.000    24037515.949    98429515.747       -2334.076          45.000  
G04  23655999.729   124313071.320       -2965.473          45.000    23656000.951    96867309.363       -2310.518          44.000  
G09  22345849.696   117428242.658       -1064.099          50.000    22345849.929    91502528.783        -829.194          46.000  
G11  25129406.674   132055918.317        1624.969          38.000    25129406.729   102900748.465        1266.240          40.000  
R02  22316735.482   119086404.157         129.760          51.000    22316737.982    92622775.840         100.952          50.000  
R11  22981496.224   122806213.882       -1807.833          47.000    22981496.647    95515981.605       -1406.069          49.000  
R01  22550596.193   120545827.692       -1952.832          50.000    22550598.516    93757861.391       -1518.762          44.000  
R24  23985981.214   128263725.246       -4761.488          46.000    23985984.181    99760645.396       -3703.705          44.000  
E33  29141660.311                        1595.126          29.000    29141669.829   117341436.795        1222.239          35.000  
G07  22582048.325   118669559.958        1922.369          49.000    22582048.560    92469883.892        1497.955          44.000  
S31  40458036.588   212608392.585        -817.979          44.000  
S33  41408145.508   217601240.599        -817.075          42.000  
G16  26581421.114   139686318.003        -205.933          33.000                                                                  
R18  24422257.919   130367645.184        1432.743          43.000    24422266.200   101397153.703        1114.668          34.000  
R12  22760131.611   121580679.619        2296.057          51.000    22760135.719    94562818.316        1785.889          50.000  
R17  22673080.742   121328243.177       -1944.269          51.000    22673080.586    94366410.682       -1512.225          49.000  
E07  25493592.917   133969743.347        -616.531          47.000    25493597.489   102652163.884        -472.432          52.000  
E08  26748613.181   140564871.736       -2355.772          47.000    26748616.951   107705549.010       -1805.014          49.000  
E13  26337415.742   138404012.735       -3210.860          47.000    26337423.250   106049832.872       -2460.275          51.000  
E26  25892410.233   136065542.324        -490.678          47.000    25892414.235   104258033.288        -376.043          52.000  
G06  22721624.925   119402913.544        -558.997          47.000    22721627.059    93041286.268        -435.529          47.000  
G30  25172514.408   132282518.759        2830.033          40.000    25172521.113   103077308.276        2205.317          38.000  
E30  28769062.725   151182495.700        1591.787          44.000    28769076.152   115841232.890        1219.709          44.000  
E02  28691229.811   150773560.716         137.163          44.000    28691240.164   115527882.148         104.859          38.000  
> 2024 04 15 15 58 30.0060000  0 24                     
G03  24054637.494   126407906.174       -3005.683          45.000    24054643.920    98499652.115       -2342.105          45.000  
G04  23672935.076   124402070.583       -2968.464          45.000    23672935.627    96936659.348       -2312.908          44.000  
G09  22351944.039   117460267.810       -1071.010          50.000    22351944.009    91527483.441        -834.676          46.000  
G11  25120169.358   132007376.625        1610.669          37.000    25120169.897   102862923.856        1255.251          39.000  
R02  22316017.791   119082571.303         125.398          51.000    22316019.675    92619794.738          97.708          50.000  
R11  22991715.061   122860835.104       -1834.011          46.000    22991718.728    95558464.699       -1426.469          50.000  
R01  22561567.583   120604476.869       -1957.440          49.000    22561570.375    93803477.350       -1522.473          43.000  
R24  24012712.262   128406668.929       -4768.257          46.000    24012715.544    99871823.560       -3708.945          44.000  
E33  29132570.828   153092700.2231       1586.709          29.000    29132586.303   117304863.220        1215.740          35.000  
G07  22571118.925   118612124.359        1906.299          49.000    22571118.348    92425128.950        1485.571          44.000  
S31  40462705.961   212632930.530        -818.444          44.000  
S33  41412808.321   217625744.619        -817.311          42.000  
G16  26582636.789   139692690.017        -219.247          33.000                                                                  
R18  24414268.046   130324985.807        1410.646          44.000    24414271.282   101363974.223        1097.602          36.000  
R12  22747282.182   121512036.839        2279.724          52.000    22747286.020    94509429.634        1773.071          50.000  
R17  22684050.795   121386944.982       -1969.495          50.000    22684049.294    94412067.562       -1531.769          48.000  
E07  25497122.558   133988299.392        -620.814          46.000    25497128.655   102666382.150        -475.602          52.000  
E08  26762063.504   140635552.266       -2356.485          47.000    26762067.266   107759706.734       -1805.664          49.000  
E13  26355772.750   138500477.503       -3220.551          47.000    26355779.926   106123747.330       -2467.536          50.000  
E26  25895253.281   136080483.396        -505.669          47.000    25895257.556   104269481.616        -387.427          52.000  
G06  22724876.524   119419997.990        -580.200          47.000    22724878.138    93054598.768        -452.112          47.000  
G30  25156373.451   132197697.011        2824.225          38.000    25156379.711   103011213.681        2200.451          39.000  
E30  28759979.688   151134761.852        1590.057          44.000    28759993.352   115804657.854        1218.338          46.000  
E02  28690478.571   150769612.190         125.745          44.000    28690489.547   115524856.684          96.435          39.000  
> 2024 04 15 15 59 00.0060000  0 24                     
G03  24071821.161   126498203.917       -3014.778          45.000    24071826.461    98570013.811       -2349.104          44.000  
G04  23689884.481   124491142.928       -2970.389          45.000    23689887.082    97006066.221       -2314.536          45.000  
G09  22358076.115   117492492.141       -1077.478          50.000    22358076.221    91552593.294        -839.613          46.000  
G11  25111009.744   131959246.807        1597.390          36.000    25111010.941   102825420.171        1244.764          39.000  
R02  22315320.271   119078850.761         122.081          51.000    22315321.951    92616900.981          94.988          49.000  
R11  23002083.778   122916226.934       -1859.356          49.000    23002083.977    95601547.196       -1446.163          49.000  
R01  22572562.282   120663249.782       -1961.133          49.000    22572564.868    93849189.532       -1525.476          43.000  
R24  24039479.001   128549796.938       -4774.068          46.000    24039481.639    99983145.082       -3713.109          44.000  
E33  29123531.014   153045201.895        1579.124          31.000    29123547.333   117268468.568        1209.933          35.000  
G07  22560277.620   118555154.729        1891.150          49.000    22560277.285    92380737.132        1473.608          44.000  
S31  40467373.766   212657461.693        -817.575          44.000  
S33  41417469.797   217650241.319        -816.631          42.000  
G16  26583922.261   139699448.809        -231.744          37.000                                                                  
R18  24406398.672   130282981.311        1389.065          44.000    24406406.447   101331304.121        1080.808          37.000  
R12  22734521.252   121443872.689        2264.032          51.000    22734524.709    94456413.217        1760.992          49.000  
R17  22695158.066   121446387.145       -1993.652          50.000    22695157.703    94458300.255       -1550.531          47.000  
E07  25500675.708   134006969.148        -624.420          46.000    25500681.423   102680687.552        -478.332          52.000  
E08  26775515.854   140706245.749       -2356.744          47.000    26775520.050   107813874.378       -1805.836          49.000  
E13  26374181.340   138597214.385       -3229.076          47.000    26374188.198   106197870.310       -2474.235          50.000  
E26  25898178.025   136095855.829        -519.569          47.000    25898182.863   104281260.470        -398.252          52.000  
G06  22728246.471   119437706.254        -600.714          48.000    22728248.203    93068397.386        -468.005          47.000  
G30  25140265.275   132113047.082        2818.752          41.000    25140271.611   102945252.909        2196.496          38.000  
E30  28750904.555   151087074.571        1588.793          44.000    28750919.030   115768118.510        1217.260          47.000  
E02  28689789.077   150765996.691         114.878          42.000    28689800.967   115522086.407          88.264          38.000  
> 2024 04 15 15 59 30.0060000  0 24                     
G03  24089058.995   126588786.258       -3024.261          46.000    24089063.314    98640597.304       -2356.493          44.000  
G04  23706848.209   124580283.051       -2972.479          46.000    23706850.093    97075525.941       -2316.030          45.000  
G09  22364245.323   117524910.493       -1083.851          50.000    22364245.362    91577854.327        -844.409          46.000  
G11  25101928.549   131911526.841        1583.863          38.000    25101930.551   102788235.882        1233.966          40.000  
R02  22314642.859   119075237.683         118.565          51.000    22314644.207    92614090.810          92.389          49.000  
R11  23012592.058   122972383.837       -1884.572          49.000    23012593.552    95645224.721       -1465.776          49.000  
R01  22583579.928   120722142.738       -1965.137          50.000    22583581.621    93894995.099       -1528.296          43.000  
R24  24066277.255   128693099.983       -4779.765          44.000    24066280.504   100094602.663       -3717.495          44.000  
E33  29114544.495   152997934.588        1571.829          32.000    29114552.510   117232250.892        1204.009          35.000  
G07  22549525.489   118498649.162        1875.812          50.000    22549524.557    92336706.901        1461.652          44.000  
S31  40472039.979   212681981.322        -817.039          44.000  
S33  41422129.237   217674726.780        -815.982          43.000  
G16  26585282.907   139706591.343        -244.500          37.000                                                                  
R18  24398653.228   130241629.747        1367.432          44.000    24398656.705   101299141.979        1063.759          32.000  
R12  22721850.929   121376186.883        2248.230          52.000    22721854.910    94403768.849        1748.676          50.000  
R17  22706403.662   121506563.387       -2018.176          51.000    22706404.074    94505103.929       -1569.611          48.000  
E07  25504249.702   134025747.551        -627.643          47.000    25504254.655   102695076.210        -480.929          52.000  
E08  26788969.411   140776947.433       -2356.734          47.000    26788974.525   107868048.308       -1805.876          50.000  
E13  26392640.970   138694217.349       -3237.881          48.000    26392647.479   106272197.160       -2480.818          50.000  
E26  25901185.147   136111655.782        -533.824          47.000    25901189.257   104293366.879        -408.968          52.000  
G06  22731733.594   119456034.234        -621.173          47.000    22731735.552    93082678.906        -484.155          47.000  
G30  25124189.902   132028567.006        2813.101          41.000    25124194.724   102879424.453        2192.250          37.000  
E30  28741838.361   151039431.646        1587.195          43.000    28741852.737   115731613.136        1216.415          47.000  
E02  28689164.175   150762711.184         103.932          42.000    28689175.867   115519568.988          79.619          39.000  
