     3.00           OBSERVATION DATA    M: Mixed            RINEX VERSION / TYPE
CONVBIN 2.4.3                           20240415 041442 UTC PGM / RUN BY / DATE 
format: u-blox UBX                                          COMMENT             
log: /home/regis/git/gnsspwv/obsdata/VERT00CHL/2024-04-15/VECOMMENT             
{self.marker}                                               MARKER NAME         
                                                            MARKER NUMBER       
GEODETIC                                                    MARKER TYPE         
{self.observer}     {self.institution}                      OBSERVER / AGENCY   
UNKNOWN             UBLOX-ZED-F9P                           REC # / TYPE / VERS 
UNKNOWN             TWIVSP6037L                             ANT # / TYPE        
  1713381.0000 -5047934.0000 -3490983.0000                  APPROX POSITION XYZ 
        0.0000        0.0000        0.0000                  ANTENNA: DELTA H/E/N
G    8 C1C L1C D1C S1C C2L L2L D2L S2L                      SYS / # / OBS TYPES 
R    8 C1C L1C D1C S1C C2C L2C D2C S2C                      SYS / # / OBS TYPES 
E    8 C1C L1C D1C S1C C7Q L7Q D7Q S7Q                      SYS / # / OBS TYPES 
S    4 C1C L1C D1C S1C                                      SYS / # / OBS TYPES 
  2024    04    15    04    00   00.0120000     GPS         TIME OF FIRST OBS   
  2024    04    15    04    14   30.0130000     GPS         TIME OF LAST OBS    
                                                            END OF HEADER       
> 2024 04 15 04 00 00.0120000  0 27                     
S33  43485010.413   228515413.8961       -713.151          42.000  
E02  28674618.248   150686152.2041       1173.024          47.000    28674618.029   115460850.0131        898.789          49.000  
G28  25051823.864   131648201.9901      -1000.203          47.000    25051819.644   102582999.0141       -779.258          47.000  
E36  27760970.548   145885223.4131       1047.362          48.000    27760972.458   111782394.4191        802.515          52.000  
G26  27630616.953   145199882.8571       2412.793          37.000    27630617.325   113142719.6181       1880.782          35.000  
R20  25635941.767   137086920.0651       2516.348          39.000    25635944.200   106623235.9831       1957.312          42.000  
R10  27195617.065                1       3314.367          28.000                                                                  
R09  23636226.631   126216138.2751       1587.534          51.000    23636222.338    98168371.6291       1234.872          50.000  
R16  23506492.746   125567625.1691      -2426.532          53.000    23506487.063    97663622.5391      -1887.220          46.000  
G20  27801911.249   146100036.4831      -1710.700          37.000                                                                  
E11  26729288.107   140463769.5491      -1661.942          44.000    26729285.082   107628312.4391      -1273.382          49.000  
G18  25060276.050   131692988.0041       1784.659          48.000    25060272.585   102618022.6091       1390.714          47.000  
G29  24708037.866   129842023.6171      -1652.672          48.000    24708031.663   101175874.8711      -1287.781          43.000  
S31  42531099.733   223502554.8161       -712.492          44.000  
R15  27471239.205                3      -4624.613          21.000    27471241.804                       -3600.409          28.000  
R18  24987265.439   133383823.9491      -4092.977          50.000    24987262.698   103743268.2801      -3183.212          47.000  
R19  23104823.120   123595584.4071      -1568.360          41.000    23104817.068    96129502.4981      -1219.990          46.000  
G05  27426544.269   144127532.0371        258.521          41.000    27426539.112   112307177.3251        201.300          40.000  
E34  31579555.718   165951643.4881       2346.433          39.000    31579572.596   127157849.6721       1797.880          45.000  
E24  30297631.386   159215237.4261      -2613.248          45.000    30297630.620   121996148.5141      -2002.388          48.000  
G12  26916690.946   141448465.1971      -2947.645          46.000    26916686.150   110219708.3891      -2296.717          42.000  
G25  24538660.294   128951764.3921      -1689.545          48.000    24538658.562   100481966.6651      -1316.638          48.000  
E10  29530435.589   155183995.3551      -2907.946          44.000    29530436.923   118907472.6141      -2228.134          50.000  
E25  27231864.804   143104721.7291       -779.953          48.000    27231865.507   109651825.8741       -597.579          52.000  
G31  26332278.519   138377008.6281       1279.225          46.000    26332274.344   107826316.2501        996.515          42.000  
E14  32023180.257   168283089.6621      -3520.183          39.000    32023179.144   128944242.3221      -2697.417          43.000  
E12                                                                  31791991.517   128013691.6551      -2675.298          37.000  
> 2024 04 15 04 00 30.0120000  0 27                     
S33  43489079.077   228536794.346        -712.500          42.000  
E02  28667925.368   150650979.259        1171.579          47.000    28667924.954   115433899.297         897.740          49.000  
G28  25057585.876   131678486.999       -1019.094          46.000    25057582.647   102606597.703        -794.132          47.000  
E36  27755021.824   145853963.923        1036.471          48.000    27755024.247   111758442.378         794.138          52.000  
G26  27616839.176   145127479.384        2413.304          38.000    27616838.950   113086301.428        1880.088          35.000  
R20  25621859.335   137011616.080        2503.421          40.000    25621860.986   106564666.371        1947.175          42.000  
R10  27176962.861                3       3314.287          27.000                                                                  
R09  23627349.919   126168738.752        1572.042          51.000    23627346.103    98131505.332        1222.732          50.000  
R16  23520176.600   125640721.778       -2446.812          53.000    23520170.964    97720475.455       -1903.056          47.000  
G20  27811725.496   146151602.740       -1727.263          37.000                                                                  
E11  26738808.980   140513803.328       -1673.914          44.000    26738806.146   107666650.023       -1282.668          49.000  
G18  25050127.512   131639657.960        1770.317          48.000    25050124.433   102576466.797        1379.420          48.000  
G29  24717489.830   129891690.716       -1658.835          49.000    24717483.891   101214576.504       -1292.752          44.000  
S31  42535165.466   223523919.266        -711.942          44.000  
R15  27497250.259                1      -4635.168          27.000    27497240.066                3      -3600.787          11.000  
R18  25010286.132   133506707.820       -4099.624          51.000    25010283.504   103838844.625       -3188.429          48.000  
R19  23113674.954   123642933.888       -1588.754          41.000    23113669.129    96166329.889       -1235.299          47.000  
G05  27425108.069   144119982.450         244.580          40.000    27425102.469   112301294.604         190.314          39.000  
E34  31566162.967   165881273.856        2344.826          39.000    31566179.894   127103932.538        1796.671          43.000  
E24  30312562.284   159293708.299       -2618.285          43.000    30312562.627   122056275.526       -2006.207          47.000  
G12  26933538.884   141537000.292       -2955.110          46.000    26933534.639   110288696.756       -2302.803          43.000  
G25  24548338.985   129002625.417       -1701.520          48.000    24548336.312   100521598.611       -1325.879          47.000  
E10  29547056.440   155271338.743       -2915.091          45.000    29547058.267   118974398.076       -2233.717          50.000  
E25  27236335.492   143128215.006        -786.556          48.000    27236336.123   109669827.220        -602.642          52.000  
G31  26325018.378   138338860.909        1263.785          46.000    26325015.666   107796590.763         984.673          43.000  
E14  32043243.419   168388517.294       -3508.294          40.000    32043240.816   129025024.525       -2688.312          42.000  
E12                                                                  31811929.818   128093975.828       -2677.447          36.000  
> 2024 04 15 04 01 00.0120000  0 27                     
S33  43493143.598   228558154.195        -711.699          42.000  
E02  28661240.748   150615848.319        1170.301          48.000    28661239.877   115406980.785         896.697          49.000  
G28  25063457.361   131709340.933       -1037.819          46.000    25063454.130   102630639.673        -808.829          47.000  
E36  27749135.469   145823035.087        1025.557          47.000    27749138.398   111734743.702         785.710          52.000  
G26  27603058.300   145055061.541        2414.305          38.000    27603057.203   113029871.996        1881.081          33.000  
R20  25607850.503   136936703.870        2490.742          39.000    25607851.415   106506401.483        1937.153          41.000  
R10  27158321.258                1       3314.253          27.000                                                                  
R09  23618562.155   126121809.989        1556.457          52.000    23618557.962    98095005.194        1210.679          51.000  
R16  23533974.178   125714426.900       -2466.874          53.000    23533969.520    97777801.658       -1918.805          47.000  
G20  27821633.250   146203670.468       -1744.098          40.000                                                                  
E11  26748397.050   140564191.812       -1685.633          44.000    26748394.992   107705259.380       -1291.449          50.000  
G18  25040062.238   131586762.739        1756.069          49.000    25040058.880   102535249.792        1368.317          47.000  
G29  24726975.466   129941540.523       -1664.581          49.000    24726970.544   101253420.497       -1297.151          44.000  
S31  42539227.105   223545264.693        -711.069          44.000  
R15  27523289.321                       -4641.565          27.000                                                                  
R18  25033343.507   133629788.309       -4105.905          52.000    25033340.759   103934573.897       -3193.505          47.000  
R19  23122637.004   123690877.619       -1607.915          41.000    23122631.560    96203619.508       -1250.667          47.000  
G05  27423749.862   144112847.565         230.670          41.000    27423745.116   112295734.950         180.029          40.000  
E34  31552780.986   165810954.351        2342.910          38.000    31552796.865   127050052.426        1795.453          41.000  
E24  30327522.524   159372329.442       -2623.211          41.000    30327523.887   122116517.684       -2010.010          48.000  
G12  26950430.297   141625763.759       -2962.441          46.000    26950425.571   110357862.999       -2308.259          42.000  
G25  24558083.749   129053836.195       -1712.708          47.000    24558082.073   100561503.117       -1334.644          47.000  
E10  29563720.600   155358902.136       -2922.532          45.000    29563720.970   119041492.089       -2239.309          50.000  
E25  27240843.424   143151906.602        -792.862          48.000    27240844.506   109687980.533        -607.581          52.000  
G31  26317848.209   138301176.471        1248.497          48.000    26317844.061   107767226.227         972.902          43.000  
E14  32063237.752   168493592.542       -3496.600          39.000    32063235.956   129105536.716       -2679.219          42.000  
E12                                                                  31831882.825   128174320.107       -2679.346          35.000  
> 2024 04 15 04 01 30.0130000  0 27                     
S33  43497203.861   228579491.226        -710.926          42.000  
E02  28654562.750   150580754.028        1168.814          48.000    28654561.807   115380090.352         895.614          50.000  
G28  25069436.454   131740759.030       -1056.969          46.000    25069433.006   102655121.257        -823.602          47.000  
E36  27743311.983   145792431.488        1014.376          47.000    27743314.718   111711294.222         777.210          52.000  
G26  27589272.626   144982623.254        2414.313          37.000    27589272.587   112973426.598        1881.970          34.000  
R20  25593912.476   136862177.737        2477.215          38.000    25593914.251   106448436.884        1927.015          40.000  
R10  27139652.907                1       3313.411          26.000                                                                  
R09  23609861.746   126075348.421        1540.595          52.000    23609857.473    98058868.432        1198.190          51.000  
R16  23547884.634   125788736.890       -2487.280          53.000    23547880.603    97835598.283       -1934.558          47.000  
G20  27831635.984   146256235.380       -1760.468          39.000                                                                  
E11  26758052.904   140614930.221       -1697.255          44.000    26758050.329   107744136.853       -1300.322          50.000  
G18  25030078.189   131534297.289        1741.312          48.000    25030074.635   102494367.663        1356.826          47.000  
G29  24736495.345   129991568.920       -1670.789          48.000    24736490.301   101292403.673       -1301.935          44.000  
S31  42543284.439   223566586.088        -710.416          44.000  
R15  27549362.780                3      -4648.310          24.000                                                                  
R18  25056436.263   133753060.751       -4112.298          51.000    25056432.690   104030452.453       -3198.543          47.000  
R19  23131709.565   123739409.367       -1627.443          40.000    23131703.529    96241366.450       -1266.061          46.000  
G05  27422470.809   144106123.320         217.108          42.000    27422466.510   112290495.313         169.016          40.000  
E34  31539407.940   165740683.527        2341.429          41.000    31539423.026   126996196.8961       1793.774          41.000  
E24  30342512.119   159451098.222       -2628.224          40.000    30342513.044   122176872.988       -2013.910          48.000  
G12  26967363.908   141714752.807       -2970.134          46.000    26967358.447   110427205.103       -2314.635          41.000  
G25  24567895.500   129105393.827       -1724.530          48.000    24567893.165   100601677.875       -1343.750          48.000  
E10  29580423.126   155446681.379       -2929.881          44.000    29580424.804   119108751.503       -2244.793          50.000  
E25  27245388.902   143175793.049        -799.759          48.000    27245390.004   109706283.129        -612.753          52.000  
G31  26310765.150   138263950.831        1232.807          48.000    26310760.041   107738219.211         960.502          43.000  
E14  32083164.582   168598313.526       -3484.725          39.000    32083163.754   129185777.451       -2670.342          42.000  
E12                                                                  31851850.762   128254721.855       -2680.822          34.000  
> 2024 04 15 04 02 00.0130000  0 27                     
S33  43501261.277   228600812.685        -710.560          42.000  
E02  28647894.025   150545709.730        1167.410          48.000    28647893.121   115353238.238         894.564          50.000  
G28  25075524.302   131772748.518       -1075.673          47.000    25075520.417   102680048.108        -838.198          47.000  
E36  27737553.039   145762165.892        1003.250          47.000    27737555.193   111688103.707         768.763          51.000  
G26  27575487.209   144910180.754        2415.021          37.000    27575487.199   112916978.005        1881.700          33.000  
R20  25580051.482   136788054.805        2464.014          38.000    25580051.894   106390785.870        1916.469          41.000  
R10  27121014.954                        3313.352          26.000                                                                  
R09  23601251.787   126029370.731        1524.592          52.000    23601247.569    98023108.003        1185.865          50.000  
R16  23561909.720   125863656.098       -2507.438          53.000    23561905.079    97893868.783       -1950.231          48.000  
G20  27841734.997   146309303.457       -1776.593          39.000                                                                  
E11  26767776.251   140666023.931       -1708.932          44.000    26767773.146   107783286.582       -1309.475          50.000  
G18  25020178.494   131482276.976        1726.705          48.000    25020175.689   102453832.381        1345.484          47.000  
G29  24746050.153   130041781.055       -1676.587          48.000    24746045.149   101331530.005       -1306.549          43.000  
S31  42547339.015   223587892.089        -710.185          44.000  
R15  27575481.384                3      -4664.337          14.000                                                                  
R18  25079565.374   133876523.438       -4118.516          51.000    25079561.671   104126479.000       -3203.229          48.000  
R19  23140891.868   123788532.828       -1647.265          40.000    23140886.512    96279573.567       -1281.096          46.000  
G05  27421271.808   144099821.727         203.161          42.000    27421266.927   112285585.030         158.277          39.000  
E34  31526046.070   165670471.991        2339.165          36.000    31526060.551   126942399.197        1792.448          40.000  
E24  30357530.285   159530019.344       -2633.236          40.000    30357531.397   122237344.987       -2017.680          48.000  
G12  26984341.974   141803971.706       -2977.716          46.000    26984336.905   110496726.317       -2320.531          41.000  
G25  24577773.795   129157305.350       -1736.317          48.000    24577771.887   100642128.423       -1352.900          48.000  
E10  29597168.537   155534678.767       -2936.690          44.000    29597169.563   119176178.077       -2250.233          49.000  
E25  27249973.385   143199883.509        -806.354          48.000    27249974.412   109724742.057        -617.807          52.000  
G31  26303771.468   138227198.389        1217.174          48.000    26303766.619   107709580.950         948.537          43.000  
E14  32103026.082   168702683.061       -3472.964          40.000    32103024.088   129265748.874       -2661.061          42.000  
E12                                                                  31871833.076   128335182.096       -2682.828          34.000  
> 2024 04 15 04 02 30.0130000  0 26                     
S33  43505315.243   228622116.759        -709.955          42.000  
E02  28641233.546   150510712.902        1165.542          47.000    28641233.427   115326422.499         892.965          50.000  
G28  25081720.246   131805307.446       -1094.947          47.000    25081715.975   102705418.661        -853.248          46.000  
E36  27731856.904   145732235.634         991.852          47.000    27731859.440   111665170.154         759.940          51.000  
G26  27561700.685   144837730.799        2414.952          37.000    27561700.873   112860523.501        1882.409          34.000  
R20  25566264.895   136714330.981        2450.852          38.000    25566264.705   106333445.252        1906.118          40.000  
R10  27102322.743                3       3311.637          25.000                                                                  
R09  23592731.910   125983876.249        1508.174          51.000    23592728.331    97987723.396        1172.998          51.000  
R16  23576049.138   125939184.113       -2527.902          54.000    23576045.723    97952612.794       -1966.109          49.000  
G20  27851929.377   146362873.521       -1794.037          39.000                                                                  
E11  26777566.697   140717470.907       -1720.886          45.000    26777563.298   107822707.000       -1318.752          50.000  
G18  25010363.652   131430699.534        1711.625          48.000    25010360.127   102413642.192        1333.815          47.000  
G29  24755640.171   130092175.081       -1683.087          49.000    24755633.916   101370798.103       -1311.316          43.000  
S31  42551390.192   223609181.574        -709.538          44.000  
R18  25102728.562   134000174.506       -4124.996          51.000    25102726.697   104222652.055       -3208.400          49.000  
R19  23150185.305   123838245.050       -1667.059          40.000    23150180.642    96318238.664       -1296.592          47.000  
G05  27420154.176   144093941.932         188.805          41.000    27420146.943   112281003.381         147.045          37.000  
E34  31512696.882   165600319.760        2337.144          37.000    31512710.681   126888646.994        1790.817          42.000  
E24  30372578.349   159609092.966       -2638.478          41.000    30372579.248   122297933.830       -2021.729          49.000  
G12  27001363.561   141893420.946       -2985.558          45.000    27001359.136   110566426.963       -2326.447          42.000  
G25  24587719.452   129209570.689       -1748.242          48.000    24587717.861   100682854.628       -1362.189          48.000  
E10  29613956.489   155622893.037       -2944.307          44.000    29613956.133   119243770.828       -2256.036          49.000  
E25  27254596.106   143224177.260        -813.407          48.000    27254597.392   109743356.757        -623.266          52.000  
G31  26296867.772   138190917.682        1201.319          48.000    26296862.933   107681310.273         935.962          44.000  
E14  32122819.199   168806702.070       -3461.795          39.000    32122818.257   129345451.753       -2652.616          42.000  
E12                                                                  31891829.612   128415700.224       -2684.742          32.000  
> 2024 04 15 04 03 00.0130000  0 26                     
S33  43509366.507   228643406.590        -709.547          42.000  
E02  28634582.974   150475766.595        1163.944          47.000    28634583.231   115299645.457         891.786          50.000  
G28  25088024.593   131838437.082       -1113.945          47.000    25088020.249   102731233.952        -867.944          47.000  
E36  27726225.341   145702643.484         980.552          46.000    27726228.191   111642495.657         751.459          51.000  
G26  27547913.260   144765276.816        2415.040          39.000    27547913.131   112804065.922        1881.940          34.000  
R20  25552554.441   136641010.480        2437.028          38.000    25552554.062   106276418.385        1895.498          42.000  
R10  27083712.104                1       3311.864          28.000                                                                  
R09  23584303.359   125938870.613        1492.014          51.000    23584299.769    97952718.991        1160.458          50.000  
R16  23590302.496   126015322.008       -2548.100          54.000    23590298.801    98011831.138       -1981.790          48.000  
G20  27862219.060   146416946.931       -1810.785          40.000                                                                  
E11  26787423.673   140769271.903       -1732.786          44.000    26787420.727   107862398.675       -1327.717          50.000  
G18  25000634.057   131379568.844        1696.781          48.000    25000630.560   102373800.142        1322.035          47.000  
G29  24765264.980   130142751.908       -1688.947          49.000    24765258.425   101410208.631       -1316.077          43.000  
S31  42555438.349   223630455.403        -709.013          44.000  
R18  25125927.366   134124012.434       -4130.950          50.000    25125925.516   104318970.425       -3213.044          48.000  
R19  23159588.207   123888545.073       -1686.505          40.000    23159583.327    96357360.917       -1311.679          47.000  
G05  27419112.484   144088488.618         174.584          35.000    27419108.936   112276754.120         135.868          37.000  
E34  31499357.692   165530228.463        2335.445          37.000    31499372.691   126834940.582        1789.277          42.000  
E24  30387655.335   159688321.044       -2643.528          42.000    30387655.581   122358641.027       -2025.670          49.000  
G12  27018428.956   141983101.678       -2993.241          45.000    27018424.628   110636308.021       -2332.133          41.000  
G25  24597732.786   129262192.319       -1760.052          48.000    24597731.334   100723858.494       -1371.570          48.000  
E10  29630783.724   155711324.365       -2951.447          44.000    29630783.590   119311529.872       -2261.428          48.000  
E25  27259258.181   143248677.164        -820.135          48.000    27259259.464   109762129.414        -628.479          52.000  
G31  26290054.030   138155112.287        1185.468          48.000    26290049.303   107653409.959         923.748          44.000  
E14  32142546.399   168910372.396       -3449.813          39.000    32142546.173   129424887.426       -2643.327          42.000  
E12                                                                  31911840.894                       -2687.330          31.000  
> 2024 04 15 04 03 30.0130000  0 26                     
S33  43513415.318   228664685.191        -708.914          42.000  
E02  28627943.769   150440875.824        1162.218          47.000    28627943.496   115272910.967         890.424          50.000  
G28  25094437.910   131872140.721       -1133.010          47.000    25094434.139   102757496.523        -882.955          46.000  
E36  27720659.884   145673394.118         969.352          47.000    27720662.069   111620083.838         742.741          51.000  
G26  27534126.571   144692824.344        2415.113          39.000    27534126.355   112747609.564        1881.331          34.000  
R20  25538919.730   136568099.786        2424.046          37.000    25538919.106   106219710.187        1885.159          42.000  
R10  27065074.281                        3310.504          31.000                                                                  
R09  23575968.580   125894361.253        1475.290          51.000    23575964.430    97918100.597        1147.544          50.000  
R16  23604670.150   126092072.743       -2568.571          54.000    23604664.933    98071526.111       -1997.717          46.000  
G20  27872606.063   146471526.959       -1827.594          42.000                                                                  
E11  26797348.933   140821429.599       -1744.432          44.000    26797346.105   107902363.652       -1336.571          50.000  
G18  24990990.498   131328890.697        1681.715          48.000    24990986.203   102334310.709        1310.349          47.000  
G29  24774924.293   130193513.789       -1695.068          48.000    24774918.436   101449763.363       -1320.941          43.000  
S31  42559484.775   223651718.402        -708.791          44.000  
R18  25149162.378   134248037.710       -4137.199          50.000    25149158.807   104415434.543       -3217.892          47.000  
R19  23169101.656   123939434.483       -1706.210          40.000    23169096.297    96396941.568       -1327.040          47.000  
G05  27418158.520   144083466.860         160.321          41.000    27418154.198   112272841.090         124.631          38.000  
E34  31486033.468   165460207.570        2332.761          36.000    31486047.340   126781289.398        1787.664          42.000  
E24  30402762.810   159767707.465       -2648.897          44.000    30402762.143   122419469.551       -2029.600          48.000  
G12  27035540.130   142073018.223       -3001.230          46.000    27035534.632   110706372.855       -2338.507          41.000  
G25  24607815.257   129315174.769       -1772.064          47.000    24607813.593   100765143.489       -1380.939          48.000  
E10  29647653.380   155799974.840       -2958.547          44.000    29647653.276   119379456.863       -2267.000          48.000  
E25  27263960.249   143273388.027        -827.139          48.000    27263961.732   109781063.699        -633.784          52.000  
G31  26283332.263   138119788.335        1169.422          48.000    26283327.220   107625884.791         911.277          43.000  
E14  32162210.370   169013697.874       -3438.526          40.000    32162208.095   129504058.900       -2634.734          42.000  
E12                                                                  31931866.462                       -2688.971          29.000  
> 2024 04 15 04 04 00.0130000  0 26                     
S33  43517463.533   228685955.920        -709.147          42.000  
E02  28621316.103   150406045.906        1159.745          47.000    28621315.464   115246223.103         888.656          50.000  
G28  25100960.849   131906421.958       -1152.557          46.000    25100958.018   102784209.159        -898.214          47.000  
E36  27715160.913   145644492.566         957.309          48.000    27715162.480   111597938.526         733.550          51.000  
G26  27520340.847   144620379.219        2414.575          39.000    27520340.067   112691158.871        1880.976          34.000  
R20  25525361.411   136495604.238        2409.326          35.000    25525362.032   106163324.925        1874.141          41.000  
R10  27046444.635                        3309.899          30.000                                                                  
R09  23567727.903   125850355.790        1458.198          51.000    23567723.388    97883874.122        1134.112          50.000  
R16  23619153.594   126169440.312       -2589.450          54.000    23619147.006    98131700.853       -2013.970          45.000  
G20  27883089.280   146526616.939       -1845.029          43.000                                                                  
E11  26807342.905   140873946.958       -1756.625          44.000    26807339.677   107942604.240       -1346.038          50.000  
G18  24981433.891   131278671.210        1666.118          48.000    24981429.981   102295178.664        1298.383          47.000  
G29  24784619.559   130244463.847       -1701.672          48.000    24784614.773   101489464.692       -1325.952          44.000  
S31  42563529.528   223672974.364        -708.559          44.000  
R18  25172431.614   134372251.177       -4143.894          50.000    25172428.162   104512045.005       -3222.994          48.000  
R19  23178725.831   123990914.551       -1726.070          41.000    23178719.482    96436981.598       -1342.402          46.000  
G05  27417287.712   144078882.906         145.781          39.000    27417282.074   112269269.119         113.379          37.000  
E34  31472721.160   165390261.179        2329.966          37.000    31472735.729   126727695.671        1785.276          42.000  
E24  30417901.308   159847256.475       -2654.727          45.000    30417899.263   122480422.671       -2033.898          47.000  
G12  27052696.037   142163174.163       -3009.277          47.000    27052690.580   110776624.219       -2345.122          41.000  
G25  24617966.539   129368522.749       -1784.576          47.000    24617965.428   100806713.346       -1390.527          48.000  
E10  29664564.490   155888846.991       -2966.386          42.000    29664564.852   119447553.687       -2272.923          47.000  
E25  27268703.459   143298314.976        -834.748          48.000    27268704.840   109800163.560        -639.613          51.000  
G31  26276702.706   138084951.782        1152.714          48.000    26276697.577   107598739.428         898.324          43.000  
E14  32181808.503   169116682.592       -3427.171          41.000    32181805.359   129582969.286       -2626.134          42.000  
E12                                                                  31951907.244                       -2691.693          27.000  
> 2024 04 15 04 04 30.0130000  0 27                     
S33  43521510.215   228707221.300        -708.798          42.000  
E02  28614699.885   150371278.798        1157.335          47.000    28614699.367   115219583.370         886.966          50.000  
G28  25107594.515   131941280.934       -1171.863          47.000    25107590.903   102811371.974        -913.200          46.000  
E36  27709727.675   145615940.446         945.675          48.000    27709729.042   111576060.951         724.583          51.000  
G26  27506556.332   144547943.854        2413.853          40.000    27506555.619   112634715.748        1881.214          33.000  
R20  25511881.795   136423526.980        2395.489          36.000    25511883.126   106107265.006        1863.097          40.000  
R10  27027813.927                        3308.362          30.000                                                                  
R09  23559582.223   125806858.603        1441.089          52.000    23559577.524    97850042.981        1120.851          49.000  
R15  26806644.451                3      -5102.890          12.000                                                                  
R16  23633752.498   126247424.636       -2610.022          54.000    23633746.353    98192355.333       -2030.002          46.000  
G20  27893669.732   146582217.370       -1862.287          43.000                                                                  
E11  26817404.820   140926823.663       -1768.783          44.000    26817401.609   107983120.162       -1355.366          49.000  
G18  24971965.135   131228913.104        1650.609          48.000    24971960.903   102256406.169        1286.146          47.000  
G29  24794350.246   130295602.049       -1708.057          47.000    24794346.170   101529312.649       -1330.884          45.000  
S31  42567573.302   223694224.819        -708.585          44.000  
R18  25195735.220   134496650.331       -4149.942          50.000    25195732.337   104608799.880       -3227.719          48.000  
R19  23188459.670   124042983.492       -1745.799          41.000    23188453.110    96477479.702       -1357.703          46.000  
G05  27416497.872   144074739.276         130.442          40.000    27416493.221   112266040.341         101.691          38.000  
E34  31459425.094   165320387.552        2327.239          37.000    31459438.796   126674156.069        1783.451          44.000  
E24  30433069.169   159926968.857       -2659.976          44.000    30433067.729   122541500.999       -2038.177          47.000  
G12  27069898.122   142253570.791       -3017.462          46.000    27069892.465   110847063.095       -2351.134          41.000  
G25  24628188.658   129422237.704       -1796.966          48.000    24628187.106   100848569.140       -1400.134          48.000  
E10  29681517.006   155977939.804       -2973.620          41.000    29681519.573   119515819.610       -2278.583          48.000  
E25  27273488.802   143323459.720        -842.092          48.000    27273489.586   109819430.306        -645.300          51.000  
G31  26270166.040   138050605.423        1136.415          46.000    26270161.876   107571976.022         885.620          43.000  
E14  32201339.964   169219327.352       -3416.076          41.000    32201338.148   129661619.178       -2617.419          42.000  
E12                                                                  31971964.585                       -2693.270          27.000  
> 2024 04 15 04 05 00.0130000  0 26                     
S33  43525554.492   228728474.339        -708.576          42.000  
E02  28608094.826   150336569.333        1155.988          47.000    28608094.316   115192987.828         885.743          50.000  
G28  25114336.866   131976710.667       -1190.465          47.000    25114332.699   102838979.536        -927.703          46.000  
E36  27704359.804   145587732.239         934.627          48.000    27704361.065   111554446.895         715.990          52.000  
G26  27492772.905   144475513.595        2414.275          39.000    27492772.198   112578276.673        1881.486          34.000  
R20  25498482.179   136351862.903        2382.139          38.000    25498481.106   106051526.446        1852.747          40.000  
R10  27009197.795   143974092.3621       3307.243          32.000                                                                  
R09  23551531.053   125763866.851        1424.613          51.000    23551526.520    97816604.947        1108.004          50.000  
R16  23648465.001   126326018.570       -2630.028          53.000    23648460.012    98253483.908       -2045.533          47.000  
G20  27904345.723   146638321.086       -1878.521          44.000                                                                  
E11  26827534.222   140980052.105       -1780.579          45.000    26827530.550   108023905.583       -1364.117          49.000  
G18  24962583.388   131179611.953        1635.636          48.000    24962579.219   102217989.739        1274.499          47.000  
G29  24804116.496   130346920.856       -1713.660          48.000    24804111.775   101569301.332       -1335.364          45.000  
S31  42571614.757   223715462.192        -707.689          44.000  
R18  25219071.960   134621225.269       -4155.529          50.000    25219069.501   104705691.504       -3232.106          48.000  
R19  23198301.312   124095632.216       -1764.510          40.000    23198296.110    96518428.731       -1372.527          47.000  
G05  27415792.611   144071032.105         115.885          38.000    27415787.657   112263151.688          90.545          36.000  
E34  31446140.933   165250585.423        2325.372          37.000    31446155.919   126620671.305        1781.992          44.000  
E24  30448268.120   160006838.365       -2665.106          44.000    30448266.226   122602699.710       -2042.031          47.000  
G12  27087143.781   142344201.093       -3024.983          46.000    27087139.446   110917684.080       -2356.943          42.000  
G25  24638479.142   129476313.882       -1808.521          48.000    24638477.152   100890706.420       -1409.351          48.000  
E10  29698512.983   156067245.287       -2980.415          42.000    29698513.010   119584248.477       -2283.720          47.000  
E25  27278314.393   143348816.928        -848.953          48.000    27278314.671   109838859.840        -650.425          51.000  
G31  26263722.746   138016744.853        1120.380          47.000    26263718.197   107545591.151         873.079          43.000  
E14  32220805.598   169321625.857       -3404.115          40.000    32220805.458   129740003.749       -2608.557          43.000  
E12                                                                  31992034.922                       -2694.573          25.000  
> 2024 04 15 04 05 30.0130000  0 26                     
S33  43529595.686   228749712.053        -707.968          42.000  
E02  28601500.620   150301915.968        1153.758          46.000    28601499.882   115166435.266         884.144          50.000  
G28  25121186.993   132012707.697       -1209.690          48.000    25121182.868   102867029.139        -942.572          46.000  
E36  27699057.424   145559866.040         922.843          49.000    27699058.718   111533094.886         707.031          52.000  
G26  27478990.551   144403087.449        2413.767          38.000    27478990.244   112521840.806        1881.072          34.000  
R20  25485158.217   136280611.225        2367.684          38.000    25485156.683   105996108.577        1841.766          41.000  
R10  26990589.364   143874882.970        3305.810          32.000                                                                  
R09  23543574.223   125721381.133        1407.428          51.000    23543570.469    97783560.481        1094.710          50.000  
R16  23663291.432   126405218.288       -2650.336          53.000    23663286.777    98315083.714       -2061.318          48.000  
G20  27915117.095   146694924.696       -1895.404          44.000                                                                  
E11  26837729.251   141033628.280       -1791.912          44.000    26837725.606   108064957.477       -1372.938          49.000  
G18  24953288.417   131130766.889        1620.305          48.000    24953283.955   102179928.706        1262.438          47.000  
G29  24813916.197   130398416.358       -1719.788          49.000    24813911.320   101609427.685       -1340.088          45.000  
S31  42575653.094   223736685.322        -707.580          44.000  
R18  25242440.755   134745969.961       -4161.317          49.000    25242438.314   104802715.130       -3236.376          48.000  
R19  23208251.082   124148855.538       -1783.873          41.000    23208246.059    96559824.670       -1387.448          48.000  
G05  27415169.897   144067759.840         101.671          39.000    27415164.191   112260601.922          79.207          35.000  
E34  31432870.614   165180852.847        2323.035          33.000    31432886.506   126567239.683        1779.925          40.000  
E24  30463495.439   160086862.261       -2670.328          42.000    30463494.049   122664016.737       -2046.067          46.000  
G12  27104434.267   142435061.372       -3032.766          46.000    27104430.028   110988484.273       -2363.185          41.000  
G25  24648838.081   129530749.150       -1820.770          48.000    24648836.030   100933123.492       -1418.762          48.000  
E10  29715548.165   156156759.011       -2987.572          43.000    29715547.893   119652836.861       -2289.200          48.000  
E25  27283179.515   143374384.778        -856.108          48.000    27283180.069   109858450.786        -655.983          51.000  
G31  26257371.855   137983369.472        1104.173          48.000    26257367.270   107519584.360         860.435          43.000  
E14  32240207.134   169423575.368       -3392.952          40.000    32240205.666   129818120.861       -2599.653          43.000  
E12                                                                  32012114.922                3      -2691.507          22.000  
> 2024 04 15 04 06 00.0130000  0 26                     
S33  43533634.221   228770936.653        -707.171          42.000  
E02  28594917.137   150267320.717        1151.970          47.000    28594916.621   115139927.237         882.673          50.000  
G28  25128144.807   132049272.150       -1228.438          48.000    25128141.308   102895520.892        -957.415          47.000  
E36  27693819.458   145532343.446         911.584          48.000    27693821.196   111512006.169         698.465          52.000  
G26  27465209.851   144330667.911        2413.771          39.000    27465209.263   112465410.011        1880.587          33.000  
R20  25471910.707   136209774.703        2353.899          38.000    25471910.577   105941013.629        1830.968          40.000  
R10  26971983.998                        3304.552          29.000                                                                  
R09  23535713.233   125679406.067        1390.335          50.000    23535710.062    97750913.173        1081.505          51.000  
R16  23678231.544   126485024.060       -2670.472          53.000    23678227.194    98377154.844       -2077.080          48.000  
G20  27925983.785   146752028.202       -1912.192          44.000                                                                  
E11  26847990.217   141087551.886       -1803.226          44.000    26847986.886   108106275.581       -1381.768          49.000  
G18  24944081.042   131082380.714        1605.004          48.000    24944076.122   102142225.219        1250.690          47.000  
G29  24823749.385   130450088.349       -1725.610          50.000    24823744.215   101649691.571       -1344.550          45.000  
S31  42579689.307   223757894.220        -706.884          43.000  
R18  25265842.436   134870881.800       -4166.694          51.000    25265839.150   104899868.767       -3240.803          48.000  
R19  23218307.290   124202651.346       -1802.987          41.000    23218302.237    96601665.860       -1402.372          48.000  
G05  27414630.929   144064925.189          87.001          41.000    27414625.155   112258393.113          68.033          36.000  
E34  31419612.950                        2320.439          31.000    31419629.855   126513865.755        1777.882          40.000  
E24  30478752.636   160167041.461       -2675.473          42.000    30478752.673   122725452.723       -2049.989          47.000  
G12  27121768.482   142526153.896       -3040.485          45.000    27121763.783   111059465.436       -2369.458          41.000  
G25  24659264.956   129585544.896       -1832.739          47.000    24659263.642   100975821.471       -1428.204          48.000  
E10  29732619.473   156246480.044       -2994.183          41.000    29732620.141   119721584.132       -2294.311          47.000  
E25  27288086.001   143400165.096        -863.191          48.000    27288085.807   109878204.524        -661.283          51.000  
G31  26251113.909   137950481.704        1087.888          48.000    26251108.620   107493957.511         847.758          43.000  
E14  32259540.903   169525176.648       -3381.088          40.000    32259539.711   129895971.211       -2590.740          43.000  
E12                                                                  32032212.529                3      -2696.740          22.000  
> 2024 04 15 04 06 30.0130000  0 26                     
S33  43537672.309   228792155.560        -707.383          42.000  
E02  28588347.418   150232794.113        1149.760          47.000    28588346.431   115113471.810         880.907          50.000  
G28  25135212.796   132086412.603       -1247.676          48.000    25135208.815   102924461.470        -972.161          47.000  
E36  27688649.801   145505174.583         899.735          48.000    27688650.981   111491188.490         689.405          52.000  
G26  27451432.541   144258266.005        2412.746          38.000    27451432.185   112408992.978        1880.155          35.000  
R20  25458742.983   136139364.977        2339.904          38.000    25458743.625   105886250.630        1820.027          40.000  
R10  26953383.669                1       3302.291          30.000                                                                  
R09  23527951.325   125637954.525        1372.938          51.000    23527947.580    97718673.116        1067.751          50.000  
R16  23693285.940   126565444.312       -2690.942          53.000    23693280.905    98439703.932       -2092.930          47.000  
G20  27936946.654   146809640.372       -1928.919          44.000                                                                  
E11  26858320.091   141141830.988       -1815.359          44.000    26858315.756   108147866.061       -1390.885          49.000  
G18  24934962.944   131034464.559        1589.327          48.000    24934957.987   102104887.990        1238.389          47.000  
G29  24833617.395   130501945.387       -1731.714          48.000    24833611.853   101690099.657       -1349.463          45.000  
S31  42583724.182   223779098.287        -706.622          43.000  
R18  25289274.806   134995967.028       -4172.316          50.000    25289271.559   104997157.287       -3245.201          48.000  
R19  23228472.562   124257026.273       -1822.374          41.000    23228467.403    96643957.476       -1417.135          48.000  
G05  27414176.007   144062539.519          72.021          39.000    27414173.786   112256534.205          56.021          39.000  
E34  31406374.625   165041620.234        2317.586          33.000    31406388.789   126460556.935        1775.796          42.000  
E24  30494041.218   160247385.254       -2680.677          42.000    30494041.428   122787014.824       -2054.162          48.000  
G12  27139149.406   142617487.073       -3048.459          46.000    27139144.492   111130634.129       -2375.080          41.000  
G25  24669763.022   129640711.023       -1845.135          48.000    24669760.905   101018808.046       -1437.811          48.000  
E10  29749736.082   156336415.986       -3001.637          43.000    29749734.964   119790496.079       -2299.848          47.000  
E25  27293033.722   143426168.103        -870.559          48.000    27293034.470   109898128.904        -666.982          51.000  
G31  26244950.642   137918093.000        1071.126          49.000    26244945.544   107468719.559         834.781          44.000  
E14  32278809.771   169626439.022       -3369.734          39.000    32278809.395   129973561.868       -2582.043          44.000  
E12                                                                  32052322.197                3      -2688.561          21.000  
> 2024 04 15 04 07 00.0130000  0 26                     
S33  43541708.039   228813362.457        -706.532          42.000  
E02  28581788.666   150198329.848        1147.502          47.000    28581788.188   115087064.146         879.380          51.000  
G28  25142388.578   132124120.824       -1266.433          48.000    25142384.168   102953844.501        -986.985          45.000  
E36  27683545.375   145478352.735         888.089          48.000    27683546.979   111470636.712         680.516          52.000  
G26  27437657.206   144185875.918        2412.831          36.000    27437657.285   112352585.152        1879.981          36.000  
R20  25445655.108   136069375.879        2325.881          39.000    25445654.469   105831814.797        1808.551          38.000  
R10  26934800.555                        3301.647          31.000                                                                  
R09  23520285.508   125597022.232        1355.715          49.000    23520281.910    97686836.884        1054.436          51.000  
R16  23708454.093   126646470.641       -2711.101          53.000    23708450.885    98502724.390       -2108.552          49.000  
G20  27948005.467   146867753.022       -1945.654          44.000                                                                  
E11  26868714.145   141196456.878       -1826.728          43.000    26868710.853   108189722.294       -1399.839          49.000  
G18  24925933.104   130987012.775        1573.860          48.000    24925928.626   102067912.629        1226.472          47.000  
G29  24843518.680   130553978.619       -1737.500          48.000    24843513.280   101730645.031       -1353.809          45.000  
S31  42587756.752   223800290.480        -706.055          44.000  
R18  25312736.841   135121214.731       -4177.704          49.000    25312735.024   105094572.146       -3249.331          49.000  
R19  23238743.641   124311970.170       -1841.141          40.000    23238737.639    96686691.602       -1431.817          46.000  
G05  27413806.737   144060596.844          57.393          38.000    27413804.748   112255020.491          44.659          39.000  
E34  31393145.976   164972123.608        2315.257          32.000    31393163.132   126407307.611        1774.049          42.000  
E24  30509360.122   160327886.196       -2686.079          42.000    30509360.681   122848697.356       -2058.197          48.000  
G12  27156573.533   142709052.961       -3056.090          46.000    27156568.528   111201984.143       -2381.590          41.000  
G25  24680329.581   129696240.551       -1857.288          47.000    24680327.914   101062077.799       -1447.235          47.000  
E10  29766888.883   156426557.697       -3008.151          42.000    29766887.594   119859565.662       -2305.055          46.000  
E25  27298023.118   143452387.288        -877.640          48.000    27298023.859   109918218.936        -672.547          52.000  
G31  26238880.814   137886198.260        1054.852          48.000    26238876.893   107443866.524         821.921          45.000  
E14  32298013.079   169727355.122       -3358.153          39.000    32298013.189   130050887.185       -2573.158          44.000  
E12                                                                  32072447.260                3      -2708.582          17.000  
> 2024 04 15 04 07 30.0130000  0 25                     
S33  43545740.956   228834556.943        -706.199          42.000  
E02  28575242.396   150163928.069        1145.775          47.000    28575241.650   115060704.358         877.894          51.000  
G28  25149670.983   132162394.977       -1285.200          47.000    25149667.250   102983668.496       -1001.498          46.000  
E36  27678507.364   145451877.639         876.840          48.000    27678508.766   111450350.626         671.788          52.000  
G26  27423884.047   144113498.394        2412.194          37.000    27423884.544   112296187.132        1879.601          34.000  
R20  25432644.161   135999807.481        2312.195          38.000    25432644.397   105777706.125        1798.398          38.000  
R09  23512718.175   125556611.679        1338.444          50.000    23512713.737    97655406.484        1040.999          50.000  
R16  23723735.955   126728101.119       -2730.938          54.000    23723732.008    98566214.723       -2124.098          48.000  
G20  27959158.444   146926364.431       -1961.886          44.000                                                                  
E11  26879174.353   141251427.306       -1838.104          43.000    26879171.271   108231842.472       -1408.426          49.000  
G18  24916991.550   130940026.141        1558.480          48.000    24916986.740   102031299.701        1214.314          46.000  
G29  24853452.881   130606185.779       -1742.999          48.000    24853448.015   101771325.942       -1358.167          45.000  
S31  42591786.902   223821469.063        -705.751          43.000  
R18  25336228.806   135246620.559       -4182.738          49.000    25336227.638   105192109.988       -3253.195          49.000  
R19  23249119.379   124367479.510       -1859.673          40.000    23249113.910    96729865.560       -1446.328          46.000  
G05  27413521.764   144059097.793          42.540          38.000    27413517.562   112253852.393          33.513          37.000  
E34  31379940.148   164902704.699        2312.472          35.000    31379951.963   126354117.827        1772.019          42.000  
E24  30524708.720   160408543.299       -2691.185          42.000    30524709.530   122910499.477       -2061.935          49.000  
G12  27174043.247   142800851.121       -3063.751          47.000    27174036.778   111273515.108       -2387.455          41.000  
G25  24690965.808   129752133.057       -1869.128          48.000    24690963.711   101105630.381       -1456.427          47.000  
E10  29784079.563   156516902.336       -3014.675          41.000    29784080.594   119928790.776       -2309.988          47.000  
E25  27303053.524   143478822.535        -884.666          49.000    27303054.207   109938474.516        -677.846          52.000  
G31  26232905.892   137854797.619        1038.468          49.000    26232901.768   107419398.470         809.324          45.000  
E14  32317150.619   169827923.851       -3346.448          38.000    32317151.148   130127946.304       -2564.077          45.000  
E12                                                                  32092582.352                3      -2704.518          16.000  
> 2024 04 15 04 08 00.0130000  0 24                     
S33  43549772.571   228855743.080        -706.269          42.000  
E02  28568708.567   150129595.123        1143.009          46.000    28568708.504   115034397.320         875.668          51.000  
G28  25157063.167   132201239.392       -1304.670          46.000    25157058.812   103013936.852       -1016.715          46.000  
E36  27673536.507   145425755.154         864.557          48.000    27673537.877   111430334.711         662.458          52.000  
G26  27410114.450   144041140.242        2411.143          37.000    27410115.200   112239804.179        1878.529          34.000  
R20  25419714.347   135930667.315        2297.118          39.000    25419714.880   105723930.557        1786.507          39.000  
R09  23505250.414   125516731.527        1320.063          50.000    23505245.357    97624388.576        1026.772          51.000  
R16  23739130.969   126810340.000       -2751.734          53.000    23739126.280    98630178.290       -2140.144          47.000  
G20  27970407.681   146985479.084       -1979.383          43.000                                                                  
E11  26889701.290   141306746.102       -1850.038          43.000    26889698.249   108274229.598       -1417.485          49.000  
G18  24908140.355   130893511.600        1542.198          49.000    24908136.081   101995054.611        1201.690          47.000  
G29  24863421.228   130658571.360       -1749.506          48.000    24863417.121   101812145.888       -1363.214          45.000  
S31  42595815.803   223842640.845        -705.764          44.000  
R18  25359752.677   135372186.198       -4188.585          49.000    25359750.348   105289772.193       -3257.671          48.000  
R19  23259601.554   124423556.154       -1879.056          40.000    23259596.559    96773480.743       -1461.448          46.000  
G05  27413321.653   144058049.863          26.343          35.000    27413317.671   112253035.916          20.975          36.000  
E34  31366742.217   164833370.015        2309.591          35.000    31366757.296   126300992.533        1769.546          44.000  
E24  30540089.045   160489361.622       -2696.881          43.000    30540088.465   122972425.168       -2066.586          48.000  
G12  27191556.252   142892885.875       -3072.172          46.000    27191550.759   111345230.476       -2393.974          41.000  
G25  24701671.966   129808394.133       -1881.793          47.000    24701669.802   101149470.181       -1466.388          47.000  
E10  29801312.985   156607453.337       -3022.291          43.000    29801310.600   119998174.011       -2315.790          45.000  
E25  27308126.479   143505479.925        -892.792          49.000    27308127.094   109958900.298        -683.957          52.000  
G31  26227026.267   137823898.018        1021.269          49.000    26227021.223   107395320.851         795.803          45.000  
E14  32336225.089   169928150.344       -3335.494          40.000    32336223.638   130204743.215       -2555.701          45.000  
> 2024 04 15 04 08 30.0130000  0 25                     
S33  43553803.733   228876927.347        -706.226          42.000  
E02  28562190.117   150095338.295        1140.613          46.000    28562189.546   115008148.587         873.982          51.000  
G28  25164565.003   132240659.267       -1323.534          47.000    25164560.996   103044653.635       -1031.271          46.000  
E36  27668633.893   145399992.069         852.857          48.000    27668635.524   111410594.171         653.465          51.000  
G26  27396350.015   143968809.237        2410.854          37.000    27396351.023   112183442.399        1878.271          34.000  
R20  25406867.113   135861963.116        2282.915          38.000    25406867.365   105670494.075        1775.514          40.000  
R10  26879106.696                1       3295.347          26.000                                                                  
R09  23497883.527   125477391.361        1302.360          51.000    23497878.786    97593790.659        1012.981          50.000  
R16  23754641.358   126893192.454       -2771.917          54.000    23754636.976    98694619.055       -2156.014          47.000  
G20  27981753.250   147045102.028       -1995.924          43.000                                                                  
E11  26900295.644   141362418.055       -1861.443          43.000    26900292.199   108316887.331       -1426.425          49.000  
G18  24899379.942   130847476.961        1526.468          48.000    24899376.256   101959183.506        1189.527          47.000  
G29  24873424.877   130711140.195       -1755.328          49.000    24873420.119   101853108.623       -1367.712          44.000  
S31  42599844.110   223863810.134        -705.557          44.000  
R18  25383306.356   135497914.723       -4193.617          49.000    25383302.941   105387561.062       -3261.689          48.000  
R19  23270192.286   124480203.666       -1897.468          41.000    23270186.770    96817539.949       -1476.135          47.000  
G05  27413207.563   144057460.889          11.351          33.000    27413205.885   112252576.984           9.388          36.000  
E34  31353563.629   164764127.215        2306.801          35.000    31353580.058   126247937.644        1767.269          44.000  
E24  30555500.225   160570347.224       -2702.485          44.000    30555499.520   123034479.022       -2070.546          48.000  
G12  27209115.256   142985163.221       -3079.886          46.000    27209110.308   111417134.858       -2399.886          41.000  
G25  24712449.501   129865030.351       -1894.031          48.000    24712447.815   101193602.282       -1475.916          48.000  
E10  29818584.265   156698215.049       -3028.719          43.000    29818583.235   120067718.689       -2320.875          47.000  
E25  27313242.692   143532366.409        -900.066          49.000    27313243.389   109979501.626        -689.690          51.000  
G31  26221242.820   137793507.775        1004.544          48.000    26221237.716   107371640.149         782.736          44.000  
E14  32355233.286   170028040.672       -3324.093          39.000    32355232.272   130281282.562       -2547.071          45.000  
> 2024 04 15 04 09 00.0130000  0 25                     
S33  43557834.193   228898107.596        -705.680          42.000  
E02  28555685.218   150061155.335        1138.419          46.000    28555684.798   114981956.477         872.316          51.000  
G28  25172175.233   132280650.294       -1342.439          47.000    25172170.975   103075815.448       -1046.089          46.000  
E36  27663799.071   145374585.685         841.082          48.000    27663800.912   111391126.965         644.485          52.000  
G26  27382590.926   143896503.765        2410.145          37.000    27382591.403   112127100.513        1877.831          35.000  
R20  25394100.675   135793693.402        2268.542          39.000    25394100.636   105617395.530        1764.336          41.000  
R10  26860580.287                1       3293.135          28.000                                                                  
R09  23490617.568   125438591.308        1284.368          51.000    23490613.027    97563612.866         998.960          51.000  
R16  23770265.947   126976653.771       -2792.003          54.000    23770260.752    98759533.414       -2171.629          46.000  
G20  27993194.566   147105229.103       -2012.401          42.000                                                                  
E11  26910955.498   141418438.475       -1873.127          43.000    26910952.690   108359812.064       -1435.172          49.000  
G18  24890711.089   130801920.622        1510.680          48.000    24890706.970   101923685.079        1177.205          47.000  
G29  24883462.320   130763887.770       -1761.025          49.000    24883457.800   101894210.669       -1372.265          45.000  
S31  42603871.780   223884974.532        -705.168          44.000  
R18  25406889.749   135623799.442       -4198.552          49.000    25406885.663   105485471.394       -3265.577          49.000  
R19  23280888.255   124537415.895       -1916.252          40.000    23280882.649    96862038.353       -1490.514          47.000  
G05  27413182.452   144057328.390          -2.874          33.000    27413181.282   112252473.790          -2.706          37.000  
E34  31340405.412   164694974.452        2303.556          35.000    31340419.666   126194951.610        1765.131          44.000  
E24  30570941.961   160651496.640       -2707.522          44.000    30570941.344   123096658.431       -2074.670          47.000  
G12  27226720.819   143077679.146       -3087.800          46.000    27226715.060   111489225.214       -2406.256          40.000  
G25  24723297.724   129922038.799       -1906.226          47.000    24723295.904   101238024.443       -1485.504          48.000  
E10  29835892.977   156789182.297       -3035.589          42.000    29835892.824   120137420.870       -2325.883          46.000  
E25  27318402.285   143559479.524        -907.369          49.000    27318402.676   110000276.600        -695.262          51.000  
G31  26215555.964   137763625.204         987.740          48.000    26215551.610   107348355.018         769.732          44.000  
E14  32374176.758   170127591.465       -3312.249          39.000    32374175.674   130357561.751       -2538.098          45.000  
> 2024 04 15 04 09 30.0130000  0 25                     
S33  43561864.081   228919285.386        -706.106          42.000  
E02  28549195.493   150027050.922        1135.516          47.000    28549195.019   114955824.550         870.000          52.000  
G28  25179893.957   132321214.998       -1361.877          47.000    25179890.151   103107424.276       -1061.084          46.000  
E36  27659033.456   145349540.138         828.813          48.000    27659034.511   111371936.242         634.958          51.000  
G26  27368837.987   143824229.006        2408.656          37.000    27368837.593   112070782.534        1877.293          34.000  
R20  25381416.154   135725862.865        2253.416          38.000    25381416.390   105564638.527        1753.018          41.000  
R10  26842053.938                        3290.487          27.000                                                                  
R09  23483454.230   125400338.192        1265.825          51.000    23483449.760    97533860.418         984.654          51.000  
R16  23786004.948   127060726.300       -2812.736          54.000    23786000.005    98824923.142       -2187.694          47.000  
G20  28004732.989   147165862.721       -2029.510          43.000                                                                  
E11  26921682.924   141474809.496       -1885.125          44.000    26921679.540   108403005.460       -1444.403          49.000  
G18  24882133.600   130756847.736        1494.122          48.000    24882130.559   101888563.397        1164.258          48.000  
G29  24893534.528   130816816.548       -1767.496          49.000    24893530.134   101935453.873       -1377.263          45.000  
S31  42607898.911   223906137.919        -705.500          44.000  
R18  25430501.013   135749840.492       -4204.056          48.000    25430497.733   105583503.301       -3269.836          49.000  
R19  23291689.105   124595193.339       -1935.461          41.000    23291684.214    96906976.382       -1505.278          48.000  
G05  27413245.544   144057658.263         -18.985          35.000    27413244.774   112252730.811         -14.711          37.000  
E34  31327260.954   164625916.551        2299.282          32.000    31327276.714   126142038.286        1762.329          44.000  
E24  30586415.712   160732813.374       -2713.299          43.000    30586415.140   123158966.021       -2079.081          46.000  
G12  27244371.732   143170437.818       -3095.916          43.000    27244367.078   111561504.648       -2412.718          41.000  
G25  24734217.517   129979423.365       -1919.220          47.000    24734215.672   101282739.675       -1495.483          47.000  
E10  29853244.186   156880356.836       -3042.672          42.000    29853244.095   120207281.906       -2331.364          48.000  
E25  27323606.072   143586823.600        -915.445          49.000    27323605.898   110021228.539        -701.467          51.000  
G31  26209966.856   137734255.128         970.452          47.000    26209962.999   107325469.254         756.065          45.000  
E14  32393055.092   170226806.227       -3301.444          38.000    32393055.853   130433583.453       -2529.844          45.000  
> 2024 04 15 04 10 00.0130000  0 25                     
S33  43565895.924   228940471.591        -706.381          42.000  
E02  28542723.204   149993036.967        1132.284          47.000    28542722.653   114929761.931         867.559          52.000  
G28  25187723.953   132362363.174       -1381.365          47.000    25187720.725   103139487.787       -1076.328          47.000  
E36  27654338.620   145324866.800         816.242          48.000    27654339.189   111353030.717         625.429          51.000  
G26  27355093.391   143751997.392        2406.445          38.000    27355091.832   112014498.248        1875.167          34.000  
R20  25368814.844   135658483.955        2238.278          38.000    25368815.499   105512232.839        1740.834          41.000  
R10  26823531.016                        3287.203          29.000                                                                  
R09  23476395.942   125362646.060        1246.960          51.000    23476390.851    97504544.318         969.942          51.000  
R16  23801860.294   127145420.563       -2833.442          54.000    23801855.131    98890796.425       -2203.852          47.000  
G20  28016369.756   147227012.720       -2046.939          43.000                                                                  
E11  26932479.187   141531540.500       -1896.800          45.000    26932475.170   108446474.683       -1453.414          49.000  
G18  24873651.305   130712270.719        1477.661          48.000    24873647.596   101853828.102        1151.331          48.000  
G29  24903642.717   130869936.142       -1773.761          49.000    24903638.593   101976845.762       -1382.202          44.000  
S31  42611927.650   223927309.994        -706.068          44.000  
R18  25454143.620   135876045.501       -4209.526          49.000    25454140.393   105681662.710       -3274.099          49.000  
R19  23302597.503   124653544.274       -1954.648          41.000    23302591.935    96952360.427       -1520.204          48.000  
G05  27413397.865   144058462.139         -34.816          34.000    27413396.582   112253357.255         -27.646          35.000  
E34  31314140.768   164556965.719        2296.629          35.000    31314154.661   126089206.989        1759.672          44.000  
E24  30601923.059   160814308.036       -2719.523          42.000    30601922.768   123221409.937       -2083.734          46.000  
G12  27262070.285   143263449.094       -3104.417          42.000    27262066.079   111633980.915       -2419.187          41.000  
G25  24745211.112   130037195.233       -1932.056          48.000    24745209.376   101327756.708       -1505.463          47.000  
E10  29870636.010   156971747.631       -3050.062          42.000    29870633.613   120277308.574       -2336.931          46.000  
E25  27328855.813   143614410.229        -923.573          50.000    27328855.628   110042366.335        -707.632          51.000  
G31  26204478.157   137705410.294         952.734          48.000    26204474.005   107302992.760         742.305          44.000  
E14  32411872.695   170325695.646       -3290.868          38.000    32411873.721   130509355.866       -2521.606          45.000  
> 2024 04 15 04 10 30.0130000  0 26                     
S33  43569928.503   228961662.313        -705.939          42.000  
E02  28536266.978   149959109.145        1129.902          47.000    28536266.362   114903765.312         865.740          52.000  
G28  25195664.151   132404088.350       -1399.948          47.000    25195660.827   103172000.888       -1090.901          46.000  
E36  27649712.637   145300560.829         804.413          48.000    27649713.798   111334406.696         616.433          51.000  
G26  27341356.627   143679805.171        2406.265          38.000    27341354.294   111958244.617        1874.864          35.000  
R20  25356298.118   135591552.819        2224.033          39.000    25356298.654   105460175.371        1729.772          41.000  
R10  26805047.008                        3284.348          31.000                                                                  
R09  23469441.335   125325512.897        1228.860          51.000    23469437.024    97475662.956         955.748          51.000  
R15  26823415.881                3      -4348.389          13.000                                                                  
R16  23817830.013   127230729.151       -2853.360          54.000    23817824.345    98957147.536       -2219.355          47.000  
G20  28028102.945   147288672.666       -2063.202          42.000                                                                  
E11  26943341.786   141588624.716       -1908.021          44.000    26943337.998   108490214.549       -1462.020          49.000  
G18  24865262.398   130668185.786        1461.719          48.000    24865257.805   101819476.228        1139.008          47.000  
G29  24913785.789   130923240.019       -1779.403          49.000    24913781.399   102018381.263       -1386.676          44.000  
S31  42615957.677   223948486.200        -705.734          44.000  
R18  25477815.635   136002405.558       -4214.032          47.000    25477812.166   105779942.760       -3277.640          48.000  
R19  23313610.076   124712459.749       -1972.982          40.000    23313604.830    96998183.571       -1534.358          46.000  
G05  27413643.160   144059736.410         -50.055          40.000    27413638.086   112254350.198         -38.829          34.000  
E34  31301038.975   164488118.046        2293.349          36.000    31301051.526   126036454.609        1757.341          42.000  
E24  30617463.159   160895975.008       -2724.632          42.000    30617463.469   123283985.924       -2087.728          45.000  
G12  27279816.818   143356707.122       -3112.320          43.000    27279812.506   111706649.492       -2425.275          40.000  
G25  24756277.614   130095349.378       -1944.421          47.000    24756275.685   101373071.606       -1515.271          47.000  
E10  29888065.877   157063347.378       -3056.246          42.000    29888066.498   120347495.414       -2341.892          49.000  
E25  27334150.554   143642234.826        -930.975          49.000    27334150.445   110063686.470        -713.403          51.000  
G31  26199088.679   137677087.126         935.891          48.000    26199084.083   107280922.743         729.226          44.000  
E14  32430629.102   170424254.287       -3279.202          38.000    32430629.003   130584874.828       -2512.862          45.000  
> 2024 04 15 04 11 00.0130000  0 25                     
S33  43573961.667   228982858.756        -706.442          43.000  
E02  28529827.728   149925269.656        1126.514          47.000    28529827.121   114877836.377         863.120          53.000  
G28  25203714.027   132446390.483       -1419.728          47.000    25203710.150   103204963.582       -1106.228          45.000  
E36  27645156.976   145276623.854         791.797          47.000    27645158.598   111316065.426         606.626          51.000  
G26  27327626.786   143607655.090        2404.345          39.000    27327624.798   111902023.835        1873.925          35.000  
R20  25343866.460   135525072.334        2208.319          40.000    25343867.281   105408468.467        1717.485          42.000  
R10  26786578.285   142787498.9151       3280.561          33.000                                                                  
R09  23462592.750   125288942.833        1209.566          51.000    23462588.778    97447219.568         940.652          51.000  
R16  23833914.302   127316652.497       -2874.359          54.000    23833908.952    99023976.796       -2235.542          47.000  
G20  28039933.186   147350842.507       -2080.967          44.000                                                                  
E11  26954271.575   141646061.835       -1920.369          44.000    26954267.795   108534224.831       -1471.619          49.000  
G18  24856966.577   130624595.532        1444.666          47.000    24856963.948   101785509.864        1125.800          49.000  
G29  24923964.904   130976728.010       -1786.110          49.000    24923959.634   102060060.213       -1391.708          44.000  
S31  42619988.314   223969667.085        -706.232          44.000  
R18  25501514.797   136128918.562       -4219.765          47.000    25501512.642   105878341.745       -3282.011          49.000  
R19  23324728.735   124771938.442       -1992.252          40.000    23324723.283    97044444.794       -1549.349          46.000  
G05  27413976.549   144061483.871         -66.244          41.000    27413969.864   112255711.897         -51.626          35.000  
E34  31287957.948   164419375.883        2290.155          37.000    31287969.454   125983783.057        1754.250          42.000  
E24  30633037.752   160977815.293       -2730.993          42.000    30633037.291   123346694.715       -2092.552          46.000  
G12  27297611.799   143450212.791       -3120.947          45.000    27297606.305   111779511.039       -2431.719          41.000  
G25  24767417.026   130153887.125       -1957.660          48.000    24767414.956   101418685.432       -1525.495          47.000  
E10  29905536.600   157155155.322       -3063.750          43.000    29905535.058   120417841.761       -2347.565          47.000  
E25  27339490.810   143670299.245        -939.586          50.000    27339490.808   110085190.374        -719.852          51.000  
G31  26193797.609   137649288.103         917.778          47.000    26193793.425   107259261.181         715.215          44.000  
E14  32449320.682   170522483.117       -3268.672          38.000    32449321.531   130660141.065       -2504.664          46.000  
> 2024 04 15 04 11 30.0130000  0 25                     
S33  43577996.762   229004062.781        -706.245          42.000  
E02  28523405.760   149891523.359        1123.626          47.000    28523405.589   114851978.846         860.946          53.000  
G28  25211874.230   132489272.215       -1438.739          47.000    25211870.457   103238377.911       -1121.064          46.000  
E36  27640673.536   145253060.200         779.575          48.000    27640674.811   111298010.189         597.290          51.000  
G26  27313905.401   143535552.617        2403.054          38.000    27313904.534   111845840.095        1872.461          36.000  
R20  25331519.636   135459047.175        2193.403          41.000    25331519.519   105357115.665        1705.804          41.000  
R10  26768114.915                        3278.613          28.000                                                                  
R09  23455851.196   125252943.029        1190.734          51.000    23455846.825    97419219.694         926.122          50.000  
R16  23850114.800   127403192.572       -2894.683          54.000    23850109.922    99091285.722       -2251.514          47.000  
G20  28051861.316   147413525.384       -2097.893          44.000                                                                  
E11  26965269.102   141703854.105       -1932.168          44.000    26965265.327   108578507.219       -1480.501          49.000  
G18  24848767.100   130581505.317        1428.247          48.000    24848763.420   101751933.102        1112.988          48.000  
G29  24934179.208   131030402.818       -1792.079          50.000    24934173.630   102101884.735       -1396.472          44.000  
S31  42624020.157   223990856.167        -706.155          44.000  
R18  25525243.048   136255584.944       -4224.396          47.000    25525241.120   105976860.029       -3285.704          48.000  
R19  23335953.618   124831980.773       -2010.379          41.000    23335948.174    97091144.413       -1563.874          47.000  
G05  27414399.410   144063709.240         -81.861          40.000    27414395.655   112257446.009         -63.678          38.000  
E34  31274896.992   164350744.405        2286.449          38.000    31274908.163   125931196.228        1751.498          42.000  
E24  30648645.527   161059832.497       -2736.656          42.000    30648645.008   123409539.005       -2096.747          46.000  
G12  27315452.748   143543969.291       -3129.114          44.000    27315447.834   111852568.012       -2438.264          41.000  
G25  24778629.475   130212812.598       -1970.441          46.000    24778628.328   101464601.376       -1535.492          47.000  
E10  29923046.366   157247173.404       -3070.590          42.000    29923046.838   120488349.114       -2352.691          48.000  
E25  27344877.800   143698608.031        -947.329          49.000    27344877.614   110106881.505        -725.889          50.000  
G31  26188609.007   137622018.664         900.418          47.000    26188604.697   107238012.259         701.637          44.000  
E14  32467949.910   170620385.817       -3257.404          36.000    32467951.486   130735157.407       -2496.066          45.000  
> 2024 04 15 04 12 00.0130000  0 25                     
S33  43582032.351   229025269.960        -706.667          42.000  
E02  28517000.930   149857866.436        1120.748          47.000    28517000.892   114826189.798         858.787          53.000  
G28  25220143.599   132532727.482       -1457.635          47.000    25220140.064   103272239.134       -1135.801          46.000  
E36  27636259.760   145229865.423         767.370          48.000    27636261.165   111280237.599         587.906          51.000  
G26  27300192.635   143463494.437        2401.544          36.000    27300192.576   111789690.888        1871.269          36.000  
R20  25319257.502   135393474.040        2178.691          40.000    25319257.008   105306114.430        1694.631          42.000  
R10  26749647.780                3       3276.986          24.000                                                                  
R09  23449216.468   125217511.828        1171.888          52.000    23449210.916    97391662.106         911.464          50.000  
R16  23866429.926   127490343.405       -2914.804          53.000    23866424.245    99159069.658       -2267.036          47.000  
G20  28063886.304   147476715.198       -2114.575          44.000                                                                  
E11  26976332.772   141761995.184       -1943.599          43.000    26976329.184   108623056.874       -1489.171          49.000  
G18  24840661.782   130538911.725        1411.865          47.000    24840657.680   101718743.318        1100.092          47.000  
G29  24944427.377   131084258.300       -1797.919          49.000    24944421.804   102143850.049       -1400.908          44.000  
S31  42628053.314   224012049.462        -706.254          44.000  
R18  25548998.738   136382396.313       -4229.085          46.000    25548997.016   106075491.090       -3289.358          48.000  
R19  23347281.803   124892578.631       -2028.812          41.000    23347277.051    97138276.064       -1578.007          47.000  
G05  27414913.560   144066410.073         -97.145          39.000    27414909.844   112259550.526         -76.019          39.000  
E34  31261857.159   164282220.006        2282.684          39.000    31261868.053   125878691.438        1748.910          42.000  
E24  30664285.891   161142021.466       -2742.258          41.000    30664285.181   123472514.940       -2101.136          46.000  
G12  27333340.002   143637971.256       -3137.252          44.000    27333335.345   111925816.241       -2444.422          39.000  
G25  24789915.803   130272121.153       -1983.118          46.000    24789914.449   101510815.828       -1545.294          47.000  
E10  29940596.281   157339394.763       -3077.016          43.000    29940594.863   120559012.265       -2357.692          47.000  
E25  27350310.385   143727157.008        -955.321          49.000    27350310.289   110128756.693        -731.973          50.000  
G31  26183520.793   137595275.470         883.001          48.000    26183516.048   107217173.410         688.032          44.000  
E14  32486516.826   170717957.518       -3246.716          36.000    32486518.685   130809920.114       -2487.662          45.000  
> 2024 04 15 04 12 30.0130000  0 25                     
S33  43586067.664   229046477.488        -706.973          42.000  
E02  28510612.565   149824295.924        1117.541          47.000    28510612.617   114800466.937         856.378          53.000  
G28  25228521.106   132576751.051       -1476.920          46.000    25228517.566   103306543.179       -1150.782          47.000  
E36  27631915.267   145207036.004         755.013          48.000    27631916.953   111262744.946         578.420          52.000  
G26  27286487.695   143391478.267        2399.073          36.000    27286488.290   111733574.385        1870.052          37.000  
R20  25307078.346   135328350.138        2163.475          41.000    25307078.547   105255462.642        1682.584          41.000  
R10  26731254.819                1       3270.825          31.000                                                                  
R09  23442687.700   125182648.046        1152.735          52.000    23442682.301    97364545.847         896.539          51.000  
R16  23882857.734   127578099.297       -2935.176          53.000    23882852.725    99227324.230       -2282.910          48.000  
G20  28076006.532   147540406.736       -2131.305          43.000                                                                  
E11  26987461.228   141820479.472       -1955.001          43.000    26987458.395   108667869.519       -1497.938          49.000  
G18  24832650.303   130496812.187        1395.221          47.000    24832646.259   101685938.516        1087.280          47.000  
G29  24954709.109   131138289.436       -1803.902          49.000    24954703.826   102185952.233       -1405.537          44.000  
S31  42632086.088   224033241.043        -706.337          44.000  
R18  25572780.885   136509345.422       -4233.853          47.000    25572778.484   106174229.282       -3293.057          47.000  
R19  23358713.004   124953725.166       -2047.421          41.000    23358707.080    97185834.483       -1592.265          47.000  
G05  27415516.517   144069582.763        -113.475          41.000    27415513.469   112262022.778         -88.416          39.000  
E34  31248837.435   164213799.996        2279.008          41.000    31248847.815   125826266.630        1746.146          43.000  
E24  30679957.735   161224377.971       -2748.070          41.000    30679957.678   123535619.222       -2105.519          47.000  
G12  27351274.512   143732214.114       -3145.404          45.000    27351269.276   111999252.222       -2451.219          40.000  
G25  24801273.852   130331808.997       -1995.862          46.000    24801273.128   101557325.814       -1555.139          48.000  
E10  29958183.152   157431813.626       -3083.923          43.000    29958182.605   120629826.716       -2363.029          49.000  
E25  27355787.782   143755942.906        -963.404          49.000    27355788.080   110150813.416        -738.220          50.000  
G31  26178531.666   137569056.155         865.334          47.000    26178526.414   107196742.747         674.299          44.000  
E14  32505021.266   170815193.967       -3235.919          36.000    32505022.224   130884425.935       -2479.321          45.000  
> 2024 04 15 04 13 00.0130000  0 25                     
S33  43590103.283   229067684.618        -707.056          43.000  
E02  28504240.907   149790814.417        1114.414          47.000    28504241.242   114774812.288         853.887          53.000  
G28  25237006.633   132621343.126       -1495.997          46.000    25237003.349   103341290.226       -1165.677          47.000  
E36  27627641.086   145184573.843         742.488          47.000    27627642.634   111245533.695         568.885          52.000  
G26  27272791.613   143319507.043        2398.380          36.000    27272792.293   111677492.974        1868.412          37.000  
R20  25294984.590   135263678.413        2148.062          41.000    25294984.143   105205162.472        1670.968          40.000  
R10  26712854.529                        3268.065          30.000                                                                  
R09  23436266.636   125148356.676        1133.356          52.000    23436261.301    97337874.762         881.539          51.000  
R16  23899399.150   127666460.580       -2955.546          53.000    23899394.532    99296049.629       -2298.783          47.000  
G20  28088222.168   147604600.217       -2148.175          41.000                                                                  
E11  26998655.780   141879307.056       -1966.584          43.000    26998652.829   108712945.199       -1506.933          49.000  
G18  24824733.986   130455209.647        1378.461          48.000    24824729.622   101653520.992        1074.091          48.000  
G29  24965024.034   131192496.077       -1809.920          49.000    24965019.234   102228191.174       -1410.168          44.000  
S31  42636118.809   224054434.194        -706.710          44.000  
R18  25596587.417   136636430.306       -4238.421          45.000    25596585.877   106273073.057       -3296.724          47.000  
R19  23370245.922   125015418.414       -2065.532          42.000    23370239.997    97233818.125       -1606.654          47.000  
G05  27416210.970   144073230.473        -129.707          43.000    27416206.457   112264865.206        -100.964          37.000  
E34  31235837.555   164145487.151        2275.284          41.000    31235847.723   125773923.931        1743.232          44.000  
E24  30695660.970   161306903.228       -2753.699          41.000    30695661.544   123598852.817       -2109.969          47.000  
G12  27369254.502   143826699.580       -3153.639          45.000    27369249.502   112072877.193       -2457.176          40.000  
G25  24812705.119   130391877.846       -2008.758          46.000    24812703.293   101604132.701       -1565.228          47.000  
E10  29975806.566   157524429.447       -3090.521          42.000    29975805.971   120700792.068       -2368.045          48.000  
E25  27361311.363   143784967.909        -971.585          49.000    27361311.299   110173053.327        -744.469          50.000  
G31  26173642.113   137543363.283         847.549          47.000    26173636.539   107176722.322         660.303          44.000  
E14  32523461.410   170912096.502       -3224.553          36.000    32523461.723   130958675.936       -2470.669          45.000  
> 2024 04 15 04 13 30.0130000  0 25                     
S33  43594138.519   229088889.079        -706.818          42.000  
E02  28497886.200   149757419.901        1111.791          46.000    28497886.455   114749224.297         851.870          53.000  
G28  25245599.294   132666499.335       -1514.589          46.000    25245596.262   103376476.874       -1180.153          47.000  
E36  27623435.367   145162476.284         730.668          47.000    27623437.307   111228601.816         559.822          51.000  
G26  27259104.168   143247579.502        2396.686          37.000    27259104.184   111621445.573        1867.490          37.000  
R20  25282974.352   135199457.444        2133.444          40.000    25282975.393   105155212.933        1659.353          42.000  
R10  26694462.948                        3264.833          29.000                                                                  
R09  23429951.771   125114637.960        1114.483          52.000    23429947.116    97311649.085         866.846          51.000  
R16  23916053.199   127755422.520       -2975.399          53.000    23916047.451    99365242.257       -2314.222          47.000  
G20  28100532.435   147669291.329       -2164.211          40.000                                                                  
E11  27009914.934   141938473.271       -1977.866          43.000    27009911.925   108758280.348       -1515.555          49.000  
G18  24816912.289   130414102.444        1361.963          48.000    24816906.873   101621489.445        1061.273          47.000  
G29  24975372.109   131246874.550       -1815.439          49.000    24975367.522   102270564.025       -1414.677          45.000  
S31  42640151.129   224075625.141        -706.092          44.000  
R18  25620419.279   136763644.421       -4242.613          46.000    25620417.535   106372017.339       -3299.681          46.000  
R19  23381879.349   125077652.342       -2083.456          42.000    23381874.172    97282222.280       -1620.476          47.000  
G05  27416994.594   144077351.585        -145.297          41.000    27416989.468   112268076.518        -113.908          36.000  
E34  31222857.264   164077279.741        2271.847          42.000    31222867.556   125721661.999        1740.714          43.000  
E24  30711397.705   161389593.960       -2759.120          42.000    30711397.089   123662213.211       -2114.197          47.000  
G12  27387279.925   143921423.673       -3161.526          45.000    27387274.438   112146688.189       -2463.546          40.000  
G25  24824206.954   130452324.792       -2021.155          46.000    24824205.933   101651234.228       -1574.872          47.000  
E10  29993466.896   157617237.289       -3096.582          42.000    29993467.371   120771904.578       -2372.793          49.000  
E25  27366880.263   143814229.655        -979.293          49.000    27366879.508   110195474.652        -750.369          50.000  
G31  26168852.756   137518195.415         830.139          47.000    26168847.372   107157111.020         646.692          44.000  
E14  32541836.543   171008662.140       -3213.375          35.000    32541837.898   131032667.747       -2462.021          45.000  
> 2024 04 15 04 14 00.0130000  0 25                     
S33  43598172.666   229110090.084        -706.431          42.000  
E02  28491547.455   149724111.339        1109.043          47.000    28491547.966   114723702.170         849.790          53.000  
G28  25254299.174   132712216.318       -1533.125          46.000    25254296.011   103412100.488       -1194.716          48.000  
E36  27619299.517   145140741.690         718.573          46.000    27619301.171   111211948.064         550.579          51.000  
G26  27245425.815   143175695.147        2395.814          37.000    27245424.436   111565431.857        1866.204          37.000  
R20  25271048.935   135135685.815        2118.484          41.000    25271049.711   105105612.885        1647.671          43.000  
R10  26676098.113                        3261.479          30.000                                                                  
R09  23423744.014   125081491.923        1095.409          51.000    23423739.634    97285868.830         851.938          51.000  
R16  23932818.433   127844981.392       -2995.101          53.000    23932814.469    99434899.126       -2329.469          49.000  
G20  28112937.446   147734476.903       -2181.051          39.000                                                                  
E11  27021238.048   141997974.495       -1988.942          44.000    27021234.788   108803872.185       -1523.982          49.000  
G18  24809183.475   130373489.853        1345.648          48.000    24809178.687   101589843.319        1048.480          47.000  
G29  24985751.931   131301421.397       -1820.828          49.000    24985747.744   102313068.046       -1418.897          45.000  
S31  42644182.676   224096810.627        -705.922          44.000  
R18  25644275.010   136890982.407       -4246.471          49.000    25644272.070   106471058.035       -3302.892          47.000  
R19  23393613.686   125140421.725       -2101.024          43.000    23393608.200    97331042.923       -1634.117          47.000  
G05  27417869.439   144081945.736        -160.987          42.000    27417862.736   112271656.348        -125.238          36.000  
E34  31209896.673   164009176.925        2268.462          41.000    31209906.414   125669480.205        1738.037          43.000  
E24  30727162.953   161472447.791       -2764.334          42.000    30727163.636   123725698.583       -2118.119          47.000  
G12  27405350.444   144016383.744       -3169.122          45.000    27405345.014   112220683.055       -2469.693          40.000  
G25  24835781.825   130513148.005       -2033.588          47.000    24835780.112   101698628.923       -1584.680          47.000  
E10  30011163.884   157710233.185       -3102.866          44.000    30011163.587   120843161.155       -2377.400          49.000  
E25  27372492.540   143843726.770        -987.058          49.000    27372492.628   110218076.333        -756.363          50.000  
G31  26164163.163   137493552.179         812.751          47.000    26164158.507   107137908.503         633.295          44.000  
E14  32560148.110   171104888.495       -3201.852          36.000    32560149.092   131106399.640       -2453.289          45.000  
> 2024 04 15 04 14 30.0130000  0 25                     
S33  43602207.131   229131290.484        -706.229          43.000  
E02  28485226.781   149690894.389        1105.992          47.000    28485226.945   114698250.235         847.447          53.000  
G28  25263105.601   132758497.268       -1551.768          47.000    25263103.217   103448163.542       -1209.120          48.000  
E36  27615233.766   145119374.971         706.499          47.000    27615234.991   111195576.180         541.400          51.000  
G26  27231756.200   143103860.257        2393.949          37.000    27231754.304   111509456.640        1865.338          36.000  
R20  25259208.471   135072369.833        2103.158          40.000    25259209.030   105056367.226        1635.952          44.000  
R10  26657753.581                        3257.989          28.000                                                                  
R09  23417645.888   125048927.013        1076.118          52.000    23417640.851    97260540.556         837.061          50.000  
R16  23949695.938   127935140.675       -3014.924          53.000    23949692.443    99505023.007       -2345.009          48.000  
G20  28125436.423   147800160.222       -2197.494          34.000                                                                  
E11  27032625.182   142057813.690       -1999.775          44.000    27032621.837   108849722.998       -1532.234          50.000  
G18  24801548.926   130333377.823        1329.053          47.000    24801545.787   101558587.239        1035.645          47.000  
G29  24996165.107   131356139.691       -1826.455          49.000    24996159.906   102355705.671       -1423.231          45.000  
S31  42648214.480   224117996.508        -705.859          44.000  
R18  25668153.368   137018445.637       -4250.592          48.000    25668149.617   106570196.119       -3305.846          46.000  
R19  23405448.471   125203727.954       -2118.579          43.000    23405442.804    97380281.124       -1647.894          47.000  
G05  27418834.011   144087017.908        -176.701          39.000    27418828.612   112275608.703        -137.510          37.000  
E34  31196956.938   163941184.582        2264.973          41.000    31196966.813   125617383.020        1735.604          43.000  
E24  30742961.940   161555468.996       -2769.757          43.000    30742961.651   123789312.218       -2122.260          46.000  
G12  27423466.775   144111583.976       -3176.984          45.000    27423461.371   112294864.992       -2475.538          41.000  
G25  24847428.689   130574352.127       -2046.033          47.000    24847427.172   101746320.434       -1594.318          47.000  
E10  30028896.598   157803419.715       -3108.962          44.000    30028896.346   120914563.842       -2382.228          49.000  
E25  27378151.683   143873464.485        -994.830          49.000    27378151.590   110240862.368        -762.252          50.000  
G31  26159573.828   137469439.213         795.273          46.000    26159570.214   107119119.202         619.668          44.000  
E14  32578395.843   171200780.161       -3190.582          37.000    32578396.713   131179875.038       -2444.708          45.000  
