     3.00           OBSERVATION DATA    M: Mixed            RINEX VERSION / TYPE
CONVBIN 2.4.3                           20240415 154442 UTC PGM / RUN BY / DATE 
format: u-blox UBX                                          COMMENT             
log: /home/regis/git/gnsspwv/obsdata/VERT00CHL/2024-04-15/VECOMMENT             
{self.marker}                                               MARKER NAME         
                                                            MARKER NUMBER       
GEODETIC                                                    MARKER TYPE         
{self.observer}     {self.institution}                      OBSERVER / AGENCY   
UNKNOWN             UBLOX-ZED-F9P                           REC # / TYPE / VERS 
UNKNOWN             TWIVSP6037L                             ANT # / TYPE        
  1713381.0000 -5047934.0000 -3490983.0000                  APPROX POSITION XYZ 
        0.0000        0.0000        0.0000                  ANTENNA: DELTA H/E/N
G    8 C1C L1C D1C S1C C2L L2L D2L S2L                      SYS / # / OBS TYPES 
R    8 C1C L1C D1C S1C C2C L2C D2C S2C                      SYS / # / OBS TYPES 
E    8 C1C L1C D1C S1C C7Q L7Q D7Q S7Q                      SYS / # / OBS TYPES 
S    4 C1C L1C D1C S1C                                      SYS / # / OBS TYPES 
  2024    04    15    15    30   00.0050000     GPS         TIME OF FIRST OBS   
  2024    04    15    15    44   30.0050000     GPS         TIME OF LAST OBS    
                                                            END OF HEADER       
> 2024 04 15 15 30 00.0050000  0 25                     
G03  23170645.364   121762524.4781      -2427.794          48.000    23170648.530    94879882.1531      -1891.665          44.000  
G04  22739995.113   119499457.0451      -2743.362          47.000    22739995.828    93116445.8631      -2137.705          47.000  
G09  22074230.394   116000874.2121       -618.299          49.000    22074231.559    90390293.4341       -481.745          47.000  
G19  25875113.120                       -2829.837          27.000                                                                  
R02  22395218.958   119505201.0311        374.847          50.000    22395221.099    92948505.2641        291.577          47.000  
R11  22645980.798   121013328.9161       -328.512          49.000    22645983.002    94121515.3741       -255.473          49.000  
R01  21975181.319   117469917.1361      -1711.616          50.000    21975183.567    91365490.0641      -1331.239          45.000  
R24  22574668.153   120716842.8201      -4141.129          50.000    22574667.982    93890860.0231      -3220.888          48.000  
G07  23324759.762   122572513.2221       2678.282          48.000    23324761.352    95511140.4951       2086.961          43.000  
S31  40198523.652   211244650.6401       -804.586          44.000  
S33  41148974.738   216239301.0371       -803.276          42.000  
R12  23600752.518   126071071.2041       2971.024          51.000    23600758.256    98055333.4351       2310.772          48.000  
R17  22293778.213   119298527.2951       -451.642          52.000    22293777.163    92787745.1881       -351.318          48.000  
R08  25447917.251                1      -3268.219          27.000    25447917.384                1      -2541.834          24.000  
E07  25338447.126   133154446.0951       -340.571          47.000    25338452.172   102027454.7881       -260.923          51.000  
E08  26006415.122   136664610.0841      -2275.749          47.000    26006418.403   104717040.6291      -1743.752          51.000  
E13  25405474.292   133506641.7511      -2592.776          48.000    25405480.831   102297306.5571      -1986.638          52.000  
E15  28898270.242   151861289.2721      -3969.225          39.000    28898287.359   116361238.8361      -3041.391          47.000  
E26  25864692.405   135919887.2151        304.577          46.000    25864696.654   104146427.5801        233.307          51.000  
G06  22729469.450   119444141.1251        591.693          46.000    22729472.521    93073411.8971        461.114          47.000  
G30  26118619.116   137254268.1311       3047.804          41.000    26118630.211   106951439.6661       2375.313          37.000  
G16  26624923.462   139914954.9161        445.988          36.000                                                                  
E30  29283907.412   153887973.8141       1594.956          42.000    29283927.675   117914246.6191       1222.157          48.000  
E02  28830158.650   151503618.6071        705.874          38.000    28830173.159   116087269.7141        540.984          44.000  
G11                                                                  25761383.135                        1781.773          30.000  
> 2024 04 15 15 30 30.0050000  0 25                     
G03  23184532.344   121835503.664       -2437.326          46.000    23184535.701    94936748.949       -1899.289          44.000  
G04  22755671.623   119581835.614       -2748.312          46.000    22755672.306    93180636.891       -2141.447          48.000  
G09  22077784.436   116019550.920        -626.826          50.000    22077785.428    90404846.708        -488.132          46.000  
G19  25891281.408                3      -2835.429          26.000                                                                  
R02  22393124.129   119494024.935         370.465          51.000    22393126.636    92939812.776         288.000          48.000  
R11  22647898.405   121023571.206        -354.225          50.000    22647899.076    94129481.620        -275.382          48.000  
R01  21984797.905   117521324.377       -1715.399          50.000    21984799.957    91405473.447       -1334.204          45.000  
R24  22597943.997   120841304.949       -4156.072          49.000    22597942.493    93987663.723       -3232.479          47.000  
G07  23309501.356   122492329.259        2667.525          48.000    23309502.076    95448659.595        2078.946          43.000  
S31  40203115.698   211268783.112        -804.211          44.000  
S33  41153561.436   216263403.701        -803.070          42.000  
G11  25748379.592                3       2276.685          31.000    25748360.051                        1773.182          30.000  
R12  23584088.123   125982056.384        2963.526          50.000    23584094.334    97986099.960        2304.921          48.000  
R17  22296387.051   119312484.043        -478.540          52.000    22296385.741    92798600.458        -372.290          49.000  
R08  25466216.712                3      -3266.137          24.000    25466234.138                3      -2531.417          22.000  
E07  25340407.367   133164745.893        -345.847          48.000    25340412.001   102035346.877        -264.999          51.000  
E08  26019412.417   136732911.588       -2277.475          47.000    26019415.857   104769375.473       -1745.057          51.000  
E13  25420310.497   133584607.481       -2604.772          48.000    25420316.689   102357046.475       -1995.797          51.000  
E15  28920934.168   151980390.558       -3970.478          39.000    28920951.846   116452497.781       -3042.455          47.000  
E26  25862991.896   135910949.333         291.409          46.000    25862995.826   104139579.098         223.404          51.000  
G06  22726147.591   119426680.450         572.595          46.000    22726150.143    93059806.183         446.119          47.000  
G30  26101224.296   137162855.856        3046.601          42.000    26101234.861   106880209.667        2374.064          38.000  
G16  26622404.789   139901721.164         436.888          37.000                                                                  
E30  29274796.919   153840095.856        1597.054          43.000    29274815.914   117877561.269        1223.594          46.000  
E02  28826153.820   151482567.119         697.410          40.000    28826167.209   116071139.413         534.607          45.000  
> 2024 04 15 15 31 00.0050000  0 24                     
G03  23198476.354   121908779.064       -2447.239          47.000    23198479.107    94993846.567       -1906.777          43.000  
G04  22771376.808   119664362.883       -2753.094          47.000    22771376.335    93244943.784       -2145.334          47.000  
G09  22081389.033   116038487.389        -635.446          51.000    22081388.788    90419602.409        -495.057          46.000  
R02  22391055.457   119482985.844         365.851          50.000    22391057.466    92931226.829         284.564          48.000  
R11  22649959.288   121034587.048        -379.854          50.000    22649961.161    94138049.545        -295.420          49.000  
R01  21994437.099   117572853.474       -1719.367          48.000    21994439.445    91445551.602       -1337.305          45.000  
R24  22621303.304   120966219.507       -4171.238          50.000    22621303.646    94084819.313       -3244.219          49.000  
G11  25735409.812   135240510.9881       2267.536          32.000    25735396.482                        1766.521          30.000  
G07  23294305.481   122412471.351        2656.687          48.000    23294306.349    95386432.774        2070.110          44.000  
S31  40207708.951   211292918.958        -804.359          46.000  
S33  41158148.629   216287508.971        -803.305          42.000  
R12  23567468.415   125893275.127        2955.659          51.000    23567473.956    97917048.147        2298.863          47.000  
R17  22299146.402   119327255.782        -505.762          51.000    22299146.079    92810089.579        -393.396          48.000  
R08  25484512.868                3      -3263.961          19.000    25484537.499                3      -2542.177          25.000  
E07  25342398.137   133175208.844        -351.093          47.000    25342402.996   102043363.964        -268.995          51.000  
E08  26032421.001   136801269.694       -2279.283          46.000    26032424.283   104821753.728       -1746.439          51.000  
E13  25435216.985   133662937.505       -2616.809          48.000    25435222.737   102417065.530       -2005.085          51.000  
E15  28943607.417   152099537.960       -3972.036          38.000    28943625.319   116543792.061       -3043.465          46.000  
E26  25861367.064   135902409.025         278.291          46.000    25861370.704   104133035.241         213.232          51.000  
G06  22722935.115   119409799.113         553.264          47.000    22722936.892    93046651.920         431.131          47.000  
G30  26083837.472   137071491.605        3044.440          42.000    26083848.066   106809017.141        2372.607          39.000  
G16  26619941.310   139888778.597         427.173          35.000                                                                  
E30  29265675.607   153792162.076        1598.977          43.000    29265694.646   117840833.154        1225.240          48.000  
E02  28822195.871   151461772.543         688.995          39.000    28822210.164   116055205.996         528.002          46.000  
> 2024 04 15 15 31 30.0050000  0 24                     
G03  23212475.587   121982342.137       -2457.013          48.000    23212478.052    95051168.358       -1914.542          43.000  
G04  22787107.869   119747028.776       -2758.056          47.000    22787107.595    93309358.701       -2149.142          48.000  
G09  22085039.906   116057673.878        -643.996          51.000    22085040.319    90434552.923        -501.809          46.000  
R02  22389010.192   119472074.018         361.389          50.000    22389013.867    92922739.889         281.091          48.000  
R11  22652163.240   121046368.618        -405.810          48.000    22652165.105    94147213.030        -315.580          48.000  
R01  22004098.400   117624495.167       -1723.506          49.000    22004100.139    91485717.282       -1340.449          45.000  
R24  22644744.932   121091573.131       -4186.077          49.000    22644745.039    94182316.444       -3255.817          48.000  
G11  25722489.158                        2257.683          33.000    25722480.173                        1759.292          28.000  
G07  23279170.122   122332933.700        2645.474          48.000    23279169.677    95324455.507        2061.501          43.000  
S31  40212300.985   211317048.939        -804.449          44.000  
S33  41162734.397   216311609.779        -803.751          41.000  
R12  23550890.483   125804722.903        2947.631          51.000    23550896.836    97848174.433        2292.629          48.000  
R17  22302057.475   119342833.591        -533.044          52.000    22302056.660    92822205.629        -414.520          48.000  
R08  25502811.536                3      -3264.780          19.000    25502828.858                3      -2540.369          19.000  
E07  25344418.730   133185825.410        -356.839          47.000    25344423.738   102051498.765        -273.340          51.000  
E08  26045438.452   136869674.910       -2281.282          46.000    26045441.351   104874168.048       -1747.965          51.000  
E13  25450189.733   133741621.842       -2629.004          48.000    25450195.443   102477356.092       -2014.371          51.000  
E15  28966288.423   152218721.053       -3973.497          40.000    28966305.474   116635113.645       -3044.706          46.000  
E26  25859816.754   135894258.562         264.938          47.000    25859819.659   104126790.088         202.999          51.000  
G06  22719831.596   119393489.946         533.633          47.000    22719833.285    93033943.506         415.942          47.000  
G30  26066459.346   136980168.955        3042.953          41.000    26066469.392   106737856.983        2371.172          38.000  
G16  26617532.057   139876120.078         416.555          38.000                                                                  
E30  29256542.161   153744165.622        1600.575          44.000    29256560.242   117804057.012        1226.345          46.000  
E02  28818285.178   151441227.841         680.203          37.000    28818300.671   116039464.074         521.293          46.000  
> 2024 04 15 15 32 00.0050000  0 24                     
G03  23226529.007   122056197.577       -2466.706          46.000    23226531.933    95108717.957       -1922.151          43.000  
G04  22802865.359   119829836.140       -2762.975          47.000    22802865.655    93373883.842       -2152.933          49.000  
G09  22088738.796   116077113.804        -652.339          50.000    22088739.413    90449700.910        -508.295          46.000  
R02  22386990.100   119461293.648         356.897          49.000    22386993.419    92914355.187         277.612          48.000  
R11  22654512.819   121058921.733        -431.535          49.000    22654514.771    94156976.582        -335.700          49.000  
R01  22013781.669   117676254.031       -1727.578          48.000    22013782.510    91525974.169       -1343.648          44.000  
R24  22668268.698   121217365.685       -4200.695          50.000    22668268.834    94280154.918       -3267.179          47.000  
G11  25709627.475                        2249.982          31.000    25709619.302   105276590.006        1751.916          30.000  
G07  23264096.098   122253723.468        2634.611          47.000    23264096.139    95262733.385        2052.866          43.000  
S31  40216892.339   211341178.273        -804.531          44.000  
S33  41167320.705   216335708.835        -803.678          42.000  
R12  23534357.853   125716408.980        2939.516          51.000    23534363.326    97779486.106        2286.265          47.000  
R17  22305120.439   119359222.195        -560.016          52.000    22305119.027    92834952.326        -435.638          48.000  
R08  25521112.975                2      -3265.257          29.000    25521043.787                3      -2534.573          23.000  
E07  25346468.427   133196599.208        -361.867          47.000    25346474.032   102059754.038        -277.310          52.000  
E08  26058464.760   136938130.730       -2282.777          46.000    26058468.423   104926621.166       -1749.221          52.000  
E13  25465230.513   133820663.634       -2640.877          48.000    25465236.709   102537920.539       -2023.618          51.000  
E15  28988975.339   152337942.374       -3974.831          39.000    28988993.266   116726464.541       -3045.695          46.000  
E26  25858340.319   135886503.409         251.757          46.000    25858343.854   104120847.845         192.839          51.000  
G06  22716838.208   119377758.903         514.369          47.000    22716839.605    93021685.580         400.672          46.000  
G30  26049090.254   136888894.650        3041.411          41.000    26049099.966   106666734.516        2370.051          38.000  
G16  26615179.327   139863752.546         406.944          36.000                                                                  
E30  29247397.287   153696112.733        1602.473          43.000    29247415.381   117767237.614        1227.876          46.000  
E02  28814426.001   151420939.131         671.878          39.000    28814439.835   116023918.229         514.798          46.000  
> 2024 04 15 15 32 30.0050000  0 24                     
G03  23240642.166   122130356.366       -2476.814          47.000    23240644.244    95166503.916       -1929.908          43.000  
G04  22818651.475   119912794.303       -2767.699          47.000    22818652.541    93438526.515       -2156.626          48.000  
G09  22092488.656   116096816.901        -660.919          51.000    22092488.097    90465053.984        -515.163          45.000  
R02  22384996.328   119450654.919         352.521          50.000    22384998.980    92906080.680         273.956          47.000  
R11  22657009.245   121072258.622        -457.426          50.000    22657009.741    94167349.720        -355.784          48.000  
R01  22023487.241   117728141.180       -1731.389          48.000    22023488.443    91566330.768       -1346.735          44.000  
R24  22691875.318   121343603.630       -4215.061          50.000    22691875.810    94378339.833       -3278.422          47.000  
G07  23249087.124   122174854.211        2623.506          47.000    23249087.441    95201276.952        2044.221          43.000  
S31  40221486.288   211365317.261        -804.592          44.000  
S33  41171908.327   216359817.389        -803.372          42.000  
R12  23517871.868   125628348.697        2931.281          51.000    23517878.142    97710995.012        2279.865          48.000  
R17  22308336.630   119376432.072        -587.079          52.000    22308335.516    92848337.797        -456.708          49.000  
R08  25539347.722                3      -3265.113          19.000    25539375.012                3      -2529.111          22.000  
E07  25348549.872   133207540.239        -367.232          47.000    25348556.016   102068137.432        -281.332          52.000  
E08  26071501.091   137006647.149       -2284.671          45.000    26071506.612   104979120.691       -1750.545          52.000  
E13  25480341.854   133900072.335       -2652.757          48.000    25480347.975   102598766.114       -2032.738          51.000  
E15  29011672.287   152457210.894       -3976.353          39.000    29011689.943   116817851.577       -3046.646          46.000  
E26  25856940.927   135879155.368         238.206          45.000    25856945.568   104115217.528         182.641          52.000  
G06  22713956.601   119362618.355         494.905          45.000    22713958.335    93009887.747         385.601          46.000  
G30  26031732.770   136797681.700        3039.788          40.000    26031742.131   106595659.829        2368.545          38.000  
G16  26612885.227   139851688.852         397.767          36.000                                                                  
E30  29238245.580   153648016.039        1604.080          44.000    29238262.489   117730384.671        1229.087          46.000  
E02  28810614.388   151400918.795         663.185          37.000    28810629.584   116008578.009         507.928          44.000  
G11                                                                  25696804.647                3       1752.236          23.000  
> 2024 04 15 15 33 00.0050000  0 25                     
G03  23254810.804   122204816.411       -2487.176          47.000    23254813.883    95224524.643       -1937.942          43.000  
G04  22834465.315   119995899.588       -2772.886          47.000    22834467.251    93503283.841       -2160.618          49.000  
G09  22096287.599   116116779.946        -670.065          51.000    22096286.984    90480609.582        -522.047          46.000  
R02  22383028.505   119440155.015         347.516          50.000    22383030.998    92897914.092         270.300          47.000  
R11  22659651.316   121086377.775        -483.938          49.000    22659652.614    94178331.347        -376.422          49.000  
R01  22033217.327   117780153.694       -1736.025          47.000    22033219.581    91606784.893       -1350.084          45.000  
R24  22715563.714   121470279.925       -4230.061          48.000    22715565.629    94476865.646       -3289.972          49.000  
G07  23234144.161   122096326.655        2611.554          47.000    23234143.624    95140086.703        2035.283          42.000  
S31  40226080.740   211389464.080        -805.425          44.000  
S33  41176497.470   216383933.655        -804.080          42.000  
R18  24968677.004   133284500.9561       2411.839          34.000    24968689.235                3       1875.635          28.000  
R12  23501434.983   125540544.345        2922.400          51.000    23501440.848    97642702.989        2272.846          49.000  
R17  22311705.918   119394461.063        -614.758          52.000    22311705.536    92862360.324        -478.149          49.000  
R08  25557663.190                3      -3269.268          17.000    25557672.266                3      -2539.472          25.000  
E07  25350663.664   133218645.463        -373.065          47.000    25350669.488   102076646.652        -285.761          52.000  
E08  26084550.931   137075221.155       -2286.882          45.000    26084555.779   105031664.339       -1752.298          52.000  
E13  25495521.865   133979844.429       -2665.182          48.000    25495528.092   102659890.141       -2042.131          51.000  
E15  29034376.817   152576522.634       -3977.965          39.000    29034394.847   116909271.740       -3047.893          46.000  
E26  25855621.328   135872213.215         224.365          46.000    25855624.433   104109898.208         172.008          51.000  
G06  22711188.086   119348067.597         474.957          46.000    22711189.633    92998549.470         370.264          46.000  
G30  26014386.240   136706530.228        3037.334          38.000    26014396.170   106524633.089        2366.805          37.000  
G16  26610645.140                         387.011          31.000                                                                  
E30  29229082.793   153599875.197        1605.205          41.000    29229101.203   117693497.881        1229.917          46.000  
E02  28806856.793   151381166.294         653.786          39.000    28806870.165   115993442.997         500.981          44.000  
G11                                                                  25684054.142                        1736.694          27.000  
> 2024 04 15 15 33 30.0050000  0 26                     
G03  23269038.178   122279579.984       -2497.160          46.000    23269041.721    95282781.870       -1945.985          43.000  
G04  22850308.093   120079152.601       -2777.683          46.000    22850308.987    93568156.233       -2164.277          48.000  
G09  22100135.911   116137003.923        -678.628          51.000    22100135.478    90496368.553        -528.996          45.000  
R02  22381087.472   119429795.694         342.944          51.000    22381088.784    92889856.890         266.809          46.000  
R11  22662440.678   121101282.796        -509.846          49.000    22662442.055    94189924.188        -396.690          50.000  
R01  22042970.587   117832293.988       -1740.230          47.000    22042973.485    91647338.427       -1353.406          44.000  
R24  22739334.402   121597391.939       -4244.369          49.000    22739335.926    94575730.389       -3301.229          46.000  
G07  23219266.442   122018145.610        2600.026          48.000    23219267.000    95079166.545        2026.148          43.000  
S31  40230677.094   211413619.514        -805.454          44.000  
S33  41181088.767   216408059.096        -804.298          42.000  
R18  24955172.312   133212404.326        2394.879          34.000    24955175.325                        1862.798          30.000  
R12  23485046.883   125453002.402        2913.492          51.000    23485052.997    97574615.044        2266.003          49.000  
R17  22315228.181   119413310.931        -642.151          52.000    22315227.648    92877021.321        -499.475          49.000  
E07  25352807.736   133229916.086        -378.427          47.000    25352813.808   102085282.605        -289.967          51.000  
E08  26097612.741   137143853.915       -2288.774          46.000    26097616.228   105084253.009       -1753.740          52.000  
E13  25510770.909   134059980.643       -2677.324          48.000    25510777.467   102721293.155       -2051.439          51.000  
E15  29057089.008   152695877.795       -3979.211          38.000    29057107.960   117000725.182       -3049.091          46.000  
E26  25854378.528   135865679.953         210.904          47.000    25854381.126   104104892.211         161.668          51.000  
G06  22708532.482   119334110.046         455.221          47.000    22708533.611    92987673.484         354.871          46.000  
G30  25997053.379   136615444.576        3034.867          41.000    25997062.529   106453657.617        2364.597          36.000  
G16  26608464.678   139828476.676         376.420          33.000                                                                  
E30  29219915.382   153551693.971        1606.838          42.000    29219932.519   117656580.186        1231.045          46.000  
E02  28803151.346   151361685.332         644.745          41.000    28803163.615   115978516.014         494.045          45.000  
G11                                                                  25671379.567   105119947.5251       1728.298          29.000  
R03                                                                  25810591.539                3       1005.257          12.000  
R08                                                                  25575970.279                1      -2537.832          27.000  
> 2024 04 15 15 34 00.0050000  0 25                     
G03  23283323.208   122354644.106       -2507.093          49.000    23283325.657    95341273.276       -1953.365          43.000  
G04  22866177.461   120162548.751       -2782.133          47.000    22866179.229    93633140.246       -2168.043          48.000  
G09  22104033.087   116157484.725        -686.915          50.000    22104032.263    90512327.612        -535.211          45.000  
R02  22379172.273   119419572.904         338.477          51.000    22379174.330    92881905.856         263.306          48.000  
R11  22665375.803   121116971.123        -535.984          49.000    22665378.675    94202126.186        -416.933          50.000  
R01  22052747.914   117884558.582       -1744.184          47.000    22052750.996    91687988.694       -1356.648          44.000  
R24  22763185.826   121724932.206       -4258.373          49.000    22763187.148    94674928.223       -3311.964          47.000  
G07  23204455.402   121940310.762        2588.606          48.000    23204455.853    95018516.082        2017.207          44.000  
S31  40235275.518   211437781.454        -805.396          43.000  
S33  41185680.612   216432189.658        -804.388          43.000  
R18  24941751.656                3       2377.843          27.000    24941763.021                        1850.292          31.000  
R12  23468708.469   125365724.312        2904.911          51.000    23468714.429    97506732.337        2259.273          47.000  
R17  22318903.664   119432978.346        -669.171          52.000    22318902.704    92892318.141        -520.551          49.000  
R08  25594243.932                3      -3263.051          19.000    25594251.460                3      -2534.615          20.000  
E07  25354983.580   133241348.154        -383.821          48.000    25354989.409   102094042.283        -293.924          52.000  
E08  26110683.046   137212541.446       -2290.460          46.000    26110687.200   105136883.690       -1755.029          52.000  
E13  25526089.141   134140476.477       -2689.194          48.000    25526095.483   102782971.739       -2060.545          51.000  
E15  29079808.989   152815271.492       -3980.359          38.000    29079827.724   117092208.088       -3050.012          45.000  
E26  25853211.533   135859553.470         197.431          45.000    25853215.000   104100197.904         151.325          51.000  
G06  22705988.421   119320744.151         435.849          46.000    22705990.277    92977258.487         339.405          46.000  
G30  25979732.201   136524423.820        3033.239          39.000    25979741.469   106382732.700        2363.492          36.000  
G16  26606344.871                1        367.257          32.000                                                                  
E30  29210738.274   153503471.149        1608.049          41.000    29210755.338   117619630.571        1232.197          45.000  
E02  28799495.383   151342474.378         635.881          41.000    28799508.014   115963795.955         487.333          45.000  
G11                                                                  25658737.616                1       1720.071          30.000  
> 2024 04 15 15 34 30.0050000  0 25                     
G03  23297663.845   122430003.873       -2516.945          47.000    23297666.396    95399995.087       -1961.450          43.000  
G04  22882074.175   120246081.545       -2786.913          47.000    22882074.766    93698230.597       -2171.599          48.000  
G09  22107978.164   116178216.204        -695.283          50.000    22107977.525    90528482.037        -541.803          45.000  
R02  22377280.668   119409481.062         334.045          51.000    22377283.225    92874056.719         259.882          48.000  
R11  22668457.936   121133438.645        -562.025          49.000    22668460.526    94214934.319        -437.101          50.000  
R01  22062548.547   117936942.289       -1748.311          48.000    22062551.143    91728731.472       -1359.786          46.000  
R24  22787114.494   121852890.536       -4272.364          50.000    22787117.295    94774451.189       -3322.958          47.000  
G11  25646159.226                1       2198.132          31.000    25646160.211   105016740.0421       1713.235          33.000  
G07  23189709.168   121862819.958        2577.174          47.000    23189710.281    94958133.755        2008.137          44.000  
S31  40239873.581   211461943.934        -805.414          44.000  
S33  41190272.673   216456321.385        -804.261          42.000  
G16  26604281.510   139806421.2631        355.959          34.000                                                                  
R18  24928429.582   133069638.0811       2361.625          32.000    24928443.161                        1836.437          30.000  
R12  23452418.535   125278709.373        2895.863          51.000    23452423.840    97439054.198        2252.571          47.000  
R17  22322731.044   119453457.940        -696.283          52.000    22322729.735    92908246.698        -541.467          49.000  
E07  25357189.437   133252935.834        -389.053          48.000    25357193.894   102102921.156        -298.003          51.000  
E08  26123764.348   137281277.916       -2292.042          46.000    26123767.106   105189551.809       -1756.364          52.000  
E13  25541474.570   134221325.531       -2700.968          48.000    25541480.886   102844920.948       -2069.552          51.000  
E15  29102534.595   152934696.887       -3981.545          38.000    29102554.294   117183715.300       -3050.778          46.000  
E26  25852122.814   135853829.657         183.976          46.000    25852125.820   104095812.125         140.986          51.000  
G06  22703556.864   119307966.203         415.988          47.000    22703558.868    92967301.649         324.221          46.000  
G30  25962422.911   136433465.226        3030.627          41.000    25962431.886   106311856.302        2361.306          34.000  
E30  29201552.003   153455203.519        1609.360          39.000    29201570.590   117582646.598        1233.348          46.000  
E02  28795888.326   151323529.968         626.863          37.000    28795902.927   115949280.157         480.314          45.000  
R08                                                                  25612514.978                3      -2551.020          20.000  
> 2024 04 15 15 35 00.0050000  0 25                     
G03  23312063.632   122505673.763       -2527.336          47.000    23312066.230    95458958.523       -1969.235          43.000  
G04  22897998.512   120329763.802       -2791.633          47.000    22897999.268    93763437.506       -2175.363          49.000  
G09  22111973.853   116199211.686        -704.046          50.000    22111973.366    90544842.141        -548.565          45.000  
G11  25633642.250                3       2189.664          29.000    25633636.938                        1704.351          31.000  
R02  22375417.284   119399534.082         329.370          52.000    22375419.187    92866320.251         256.158          48.000  
R11  22671687.961   121150701.041        -588.460          48.000    22671690.409    94228360.629        -457.715          50.000  
R01  22072372.988   117989459.716       -1752.729          50.000    22072374.999    91769578.346       -1363.270          46.000  
R24  22811123.815   121981276.900       -4286.581          50.000    22811125.391    94874307.096       -3333.956          47.000  
G07  23175031.540   121785689.893        2565.087          48.000    23175032.859    94898032.505        1998.640          44.000  
S31  40244474.630   211486121.701        -805.981          44.000  
S33  41194867.799   216480468.915        -805.052          42.000  
G16  26602280.823   139795899.626         345.227          35.000                                                                  
R18  24915210.985   132999060.146        2343.674          35.000    24915219.247                        1823.456          31.000  
R12  23436180.668   125191976.706        2886.468          49.000    23436186.990    97371595.653        2245.140          46.000  
R17  22326712.028   119474763.925        -723.822          52.000    22326711.497    92924818.014        -563.019          49.000  
R08  25630785.780                3      -3262.690          16.000    25630823.480                3      -2538.791          17.000  
E07  25359426.458   133264692.613        -394.630          48.000    25359431.186   102111929.612        -302.342          51.000  
E08  26136855.939   137350076.768       -2294.098          47.000    26136859.198   105242267.784       -1757.844          52.000  
E13  25556929.551   134302540.797       -2713.102          48.000    25556935.933   102907150.755       -2078.880          52.000  
E15  29125268.878   153054166.402       -3982.840          37.000    29125289.050   117275256.342       -3051.635          45.000  
E26  25851112.308   135848523.791         169.960          45.000    25851116.166   104091746.602         130.237          51.000  
G06  22701240.542   119295791.967         395.885          47.000    22701242.670    92957815.249         308.357          47.000  
G30  25945128.489   136342585.446        3027.947          39.000    25945137.555   106241041.202        2359.517          33.000  
E30  29192361.291   153406907.156        1610.575          40.000    29192379.757   117545640.688        1234.006          46.000  
E02  28792337.781   151304868.059         617.449          38.000    28792351.448   115934980.805         473.186          44.000  
> 2024 04 15 15 35 30.0050000  0 26                     
G03  23326521.152   122581652.757       -2537.839          46.000    23326524.251    95518162.837       -1977.542          43.000  
G04  22913950.214   120413592.962       -2796.905          47.000    22913951.972    93828758.870       -2179.187          49.000  
G09  22116018.362   116220468.952        -713.001          50.000    22116018.783    90561406.254        -555.641          46.000  
G11  25621176.791                1       2177.029          29.000    25621177.663   104914453.202        1696.436          33.000  
R02  22373579.597   119389730.449         324.268          51.000    22373581.930    92858695.226         252.167          48.000  
R11  22675067.476   121168758.036        -615.246          49.000    22675068.581    94242404.979        -478.533          49.000  
R03  25773368.531                3       1748.471          12.000                                                                  
R01  22082222.357   118042109.318       -1757.232          48.000    22082224.363    91810528.026       -1366.724          47.000  
R24  22835211.545   122110085.528       -4300.740          49.000    22835212.684    94974491.391       -3344.979          46.000  
G07  23160423.478   121708922.418        2552.783          48.000    23160424.072    94838213.784        1989.149          45.000  
S31  40249078.361   211510313.990        -806.594          45.000  
S33  41199465.399   216504629.596        -805.885          42.000  
G16  26600341.602   139785698.896         334.907          32.000                                                                  
R18  24902089.807   132929002.501        2326.193          34.000    24902091.282                        1809.238          28.000  
R12  23419997.176   125105529.464        2876.649          50.000    23420003.514    97304359.119        2237.418          47.000  
R17  22330848.259   119496894.683        -751.562          52.000    22330847.302    92942030.800        -584.436          49.000  
R08  25649024.114                3      -3265.516          15.000    25649093.279                3      -2544.136          21.000  
E07  25361695.587   133276616.490        -400.361          49.000    25361700.265   102121066.100        -306.726          51.000  
E08  26149958.570   137418936.062       -2296.560          47.000    26149962.645   105295030.078       -1759.612          52.000  
E13  25572453.154   134384119.685       -2725.447          48.000    25572459.736   102969659.190       -2088.287          52.000  
E15  29148011.718   153173677.093       -3984.457          37.000    29148031.479   117366828.904       -3052.965          45.000  
E26  25850182.126   135843635.635         155.808          44.000    25850186.008   104088001.129         119.359          50.000  
G06  22699038.310   119284221.655         375.486          46.000    22699040.852    92948799.420         292.651          47.000  
G30  25927849.058   136251785.569        3024.994          38.000    25927856.670                        2356.652          30.000  
E30  29183166.130   153358582.944        1611.150          40.000    29183183.763   117508613.351        1234.465          46.000  
E02  28788839.926   151286489.113         607.847          37.000    28788853.733   115920898.244         465.703          44.000  
> 2024 04 15 15 36 00.0050000  0 24                     
G03  23341036.859   122657932.952       -2547.739          47.000    23341040.665    95577601.832       -1985.095          43.000  
G04  22929928.607   120497559.569       -2801.144          48.000    22929929.885    93894187.366       -2182.640          48.000  
G09  22120111.541   116241978.936        -721.211          49.000    22120111.756    90578167.291        -561.983          46.000  
G11  25608780.700                1       2167.387          30.000    25608777.899   104863672.530        1688.973          35.000  
R02  22371767.755   119380061.395         320.105          52.000    22371769.600    92851174.835         249.048          47.000  
R11  22678594.600   121187602.131        -641.205          50.000    22678595.341    94257061.488        -498.709          50.000  
R01  22092094.457   118094882.834       -1761.078          49.000    22092096.157    91851574.054       -1369.629          45.000  
R24  22859375.928   122239303.610       -4314.011          48.000    22859378.175    95074994.206       -3355.452          46.000  
G07  23145883.237   121632512.153        2541.021          49.000    23145883.632    94778673.401        1980.007          45.000  
S31  40253682.433   211534510.851        -806.493          45.000  
S33  41204064.459   216528796.070        -805.716          42.000  
R18  24889065.779   132859460.812        2309.798          35.000    24889063.334                3       1796.184          26.000  
R12  23403867.688   125019364.141        2867.377          50.000    23403873.242    97237341.847        2230.277          47.000  
R17  22335135.512   119519841.540        -778.442          52.000    22335135.134    92959878.349        -605.432          48.000  
E07  25363994.530   133288698.615        -405.283          49.000    25363999.577   102130323.858        -310.491          51.000  
E08  26163072.121   137487846.965       -2297.847          48.000    26163076.232   105347831.909       -1760.684          52.000  
E13  25588044.425   134466052.777       -2736.952          48.000    25588050.657   103032439.027       -2097.048          51.000  
E15  29170761.181   153293219.119       -3985.070          39.000    29170780.224   117458425.493       -3053.635          44.000  
E26  25849330.726   135839158.057         142.470          45.000    25849333.983   104084570.257         109.239          50.000  
G06  22696949.914   119273248.576         355.845          47.000    22696952.299    92940248.953         277.244          47.000  
G30  25910585.142   136161059.832        3022.798          39.000    25910592.140                1       2355.801          31.000  
E30  29173964.774   153310224.547        1612.234          42.000    29173980.816   117471559.845        1235.548          45.000  
E02  28785396.714   151268386.700         598.867          37.000    28785408.632   115907027.548         458.879          43.000  
R08                                                                  25667384.129                3      -2538.239          18.000  
> 2024 04 15 15 36 30.0050000  0 25                     
G03  23355610.804   122734519.625       -2557.790          47.000    23355614.441    95637279.644       -1993.269          43.000  
G04  22945934.007   120581667.377       -2805.830          47.000    22945934.343    93959725.883       -2186.438          47.000  
G09  22124253.772   116263745.784        -729.749          50.000    22124254.042    90595128.493        -568.720          46.000  
G11  25596444.354                3       2156.539          31.000    25596437.693   104813138.314        1680.582          35.000  
R02  22369981.201   119370531.523         315.332          51.000    22369983.231    92843762.778         245.300          46.000  
R11  22682268.929   121207239.466        -667.825          49.000    22682270.419    94272334.963        -519.318          50.000  
R01  22101991.419   118147785.750       -1765.607          49.000    22101992.855    91892720.684       -1373.040          45.000  
R24  22883617.655   122368931.658       -4327.642          49.000    22883619.469    95175815.848       -3365.977          45.000  
G07  23131411.783   121556467.068        2528.779          48.000    23131413.221    94719417.586        1970.485          46.000  
S31  40258288.934   211558719.580        -807.281          45.000  
S33  41208665.290   216552972.907        -805.971          42.000  
G16  26596632.902   139766245.5113        313.589          33.000                                                                  
R18  24876132.793   132790443.680        2291.657          36.000    24876144.034   103281542.1171       1782.719          32.000  
R12  23387792.726   124933490.538        2857.571          50.000    23387798.823    97170551.482        2222.599          49.000  
R17  22339577.340   119543609.411        -805.908          52.000    22339576.568    92978364.463        -626.733          49.000  
E07  25366324.419   133300943.348        -410.717          49.000    25366329.502   102139706.190        -314.706          51.000  
E08  26176196.421   137556813.839       -2299.767          47.000    26176199.986   105400676.620       -1762.055          51.000  
E13  25603704.559   134548343.905       -2748.895          48.000    25603710.089   103095493.201       -2106.355          51.000  
E15  29193516.774   153412795.857       -3986.415          39.000    29193535.556   117550048.644       -3054.406          45.000  
E26  25848557.733   135835097.187         128.627          45.000    25848561.179   104081458.694          98.515          50.000  
G06  22694977.043   119262879.270         335.689          46.000    22694979.052    92932168.961         261.584          46.000  
G30  25893336.713   136070415.774        3020.215          37.000    25893344.031   106028905.0291       2353.064          32.000  
E30  29164756.934   153261839.109        1613.519          43.000    29164773.063   117434485.590        1236.168          45.000  
E02  28782005.519   151250567.565         589.486          36.000    28782017.590   115893373.969         451.695          42.000  
R08                                                                  25685657.882                3      -2534.623          20.000  
> 2024 04 15 15 37 00.0050000  0 24                     
G03  23370241.718   122811406.497       -2567.921          47.000    23370244.841    95697191.322       -2001.112          42.000  
G04  22961964.494   120665908.507       -2810.366          48.000    22961965.253    94025368.266       -2189.823          48.000  
G09  22128443.047   116285762.011        -738.094          50.000    22128443.172    90612284.030        -575.069          45.000  
G11  25584160.171                        2145.543          31.000    25584156.141   104762847.450        1672.123          35.000  
R02  22368220.357   119361133.795         310.901          52.000    22368222.762    92836453.459         241.840          47.000  
R11  22686091.712   121227664.277        -694.039          50.000    22686092.909    94288220.907        -539.876          49.000  
R01  22111910.212   118200811.355       -1769.667          48.000    22111911.912    91933962.782       -1376.270          45.000  
R24  22907933.994   122498958.527       -4340.865          49.000    22907935.404    95276947.692       -3376.207          45.000  
G07  23117009.618   121480783.536        2516.734          48.000    23117010.998    94660443.538        1960.922          46.000  
S31  40262896.564   211582931.396        -807.113          43.000  
S33  41213266.762   216577154.325        -806.373          43.000  
G16  26594876.068   139756999.503         302.350          35.000                                                                  
R18  24863298.681   132721948.200        2274.415          37.000    24863309.615                        1769.332          29.000  
R12  23371770.923   124847906.576        2847.786          51.000    23371775.177    97103986.351        2214.917          47.000  
R17  22344171.355   119568191.377        -833.014          53.000    22344170.806    92997483.750        -647.882          49.000  
E07  25368684.376   133313343.425        -415.944          49.000    25368689.336   102149207.561        -318.708          51.000  
E08  26189329.513   137625829.402       -2301.308          48.000    26189333.491   105453558.665       -1763.402          52.000  
E13  25619430.698   134630985.116       -2760.568          48.000    25619436.217   103158815.625       -2115.252          50.000  
E15  29216277.106   153532399.046       -3987.125          39.000    29216295.456   117641692.024       -3055.136          45.000  
E26  25847863.785   135831447.434         114.732          45.000    25847866.928   104078662.122          87.866          51.000  
G06  22693117.987   119253108.504         315.496          47.000    22693119.818    92924555.383         245.763          46.000  
G30  25876102.618   135979849.189        3017.427          35.000    25876109.456   105958333.971        2351.080          33.000  
E30  29155542.495   153213421.936        1614.235          43.000    29155559.535   117397386.996        1236.946          45.000  
E02  28778668.099   151233026.911         579.668          36.000    28778680.135   115879933.722         444.190          42.000  
> 2024 04 15 15 37 30.0050000  0 24                     
G03  23384930.121   122888589.824       -2577.840          48.000    23384931.432    95757334.088       -2008.963          41.000  
G04  22978019.717   120750277.758       -2814.679          48.000    22978020.444    94091110.516       -2193.202          48.000  
G09  22132679.338   116308022.775        -746.163          50.000    22132678.659    90629630.107        -581.533          44.000  
R03  25738919.032                3       1642.660          11.000                                                                  
R02  22366483.309   119351863.835         306.848          52.000    22366485.855    92829243.540         238.580          47.000  
R11  22690060.357   121248873.289        -720.163          48.000    22690061.798    94304716.862        -560.047          49.000  
R01  22121852.402   118253955.661       -1773.654          49.000    22121854.225    91975297.212       -1379.402          45.000  
R24  22932321.956   122629375.538       -4353.792          46.000    22932324.548    95378382.939       -3386.421          46.000  
G07  23102676.272   121405460.296        2504.626          49.000    23102676.820    94601750.214        1951.774          45.000  
S31  40267504.366   211607144.536        -807.478          43.000  
S33  41217868.646   216601336.235        -806.241          43.000  
R18  24850568.396   132653974.447        2256.886          40.000    24850579.650                3       1755.347          26.000  
R12  23355803.027   124762613.033        2838.071          50.000    23355808.304    97037647.125        2207.289          47.000  
R17  22348916.712   119593582.787        -859.979          52.000    22348916.314    93017232.572        -668.927          49.000  
E07  25371072.447   133325894.236        -420.884          49.000    25371077.158   102158824.417        -322.466          50.000  
E08  26202470.227   137694889.107       -2302.825          47.000    26202475.077   105506474.510       -1764.456          51.000  
E13  25635222.076   134713971.288       -2772.152          47.000    25635228.433   103222402.334       -2124.009          51.000  
E15  29239040.009   153652023.047       -3987.630          37.000    29239059.607   117733351.386       -3055.706          45.000  
E26  25847246.516   135828205.891         101.184          45.000    25847250.186   104076178.367          77.448          51.000  
G06  22691371.331   119243933.867         295.619          45.000    22691373.595    92917406.297         230.451          46.000  
G30  25858881.354   135889358.553        3015.149          36.000    25858890.024   105887822.075        2349.620          34.000  
E30  29146321.400   153164971.157        1615.637          42.000    29146338.905   117360262.674        1237.815          45.000  
E02  28775381.782   151215762.351         571.150          35.000    28775394.888   115866705.089         437.363          44.000  
G11                                                                  25571927.285   104712762.9941       1663.854          32.000  
> 2024 04 15 15 38 00.0050000  0 24                     
G03  23399675.703   122966080.589       -2588.649          47.000    23399679.035    95817716.365       -2017.220          44.000  
G04  22994101.089   120834784.656       -2819.645          48.000    22994100.860    94156959.976       -2197.142          48.000  
G09  22136964.001   116330538.019        -755.312          50.000    22136963.102    90647174.437        -588.465          44.000  
R02  22364771.427   119342732.225         301.642          52.000    22364774.356    92822141.204         234.552          47.000  
R11  22694178.331   121270878.476        -747.385          50.000    22694180.631    94321831.967        -581.209          49.000  
R01  22131817.429   118307229.901       -1778.480          48.000    22131819.456    92016732.657       -1383.049          44.000  
R24  22956785.592   122760188.898       -4367.468          49.000    22956787.380    95480126.482       -3396.824          45.000  
G07  23088414.055   121330511.186        2491.580          49.000    23088414.181    94543348.421        1941.568          45.000  
S31  40272114.150   211631368.037        -808.068          45.000  
S33  41222471.832   216625528.337        -807.394          41.000  
G16  26591543.382   139739516.1011        280.549          34.000                                                                  
R18  24837934.375   132586536.680        2238.660          40.000    24837939.678                1       1741.438          25.000  
R12  23339893.005   124677625.267        2827.291          50.000    23339898.517    96971545.742        2198.850          47.000  
R17  22353814.598   119619793.952        -887.860          52.000    22353814.566    93037618.995        -690.546          49.000  
E07  25373491.652   133338605.851        -426.845          49.000    25373496.290   102168564.505        -327.070          50.000  
E08  26215623.005   137764003.073       -2305.112          48.000    26215627.171   105559431.935       -1766.289          52.000  
E13  25651080.673   134797311.817       -2784.367          47.000    25651087.548   103286260.582       -2133.404          51.000  
E15  29261810.189   153771677.033       -3989.669          37.000    29261829.755   117825033.717       -3056.722          44.000  
E26  25846709.549   135825384.391          86.586          45.000    25846713.384   104074016.449          66.356          51.000  
G06  22689741.330   119235367.446         275.015          45.000    22689743.544    92910731.172         214.226          46.000  
G30  25841677.723   135798957.030        3011.393          38.000    25841687.611   105817379.765        2346.599          36.000  
E30  29137097.893   153116499.570        1615.572          42.000    29137114.811   117323122.362        1238.048          45.000  
E02  28772150.953   151198786.536         560.742          35.000    28772165.204   115853697.708         429.579          43.000  
G11                                                                  25559772.468   104662967.469        1654.462          34.000  
> 2024 04 15 15 38 30.0050000  0 24                     
G03  23414483.706   123043895.901       -2599.363          48.000    23414486.147    95878351.580       -2025.412          43.000  
G04  23010211.460   120919444.776       -2824.572          49.000    23010211.687    94222928.863       -2200.942          48.000  
G09  22141299.968   116353323.627        -764.052          50.000    22141299.344    90664929.465        -595.302          44.000  
G11  25547674.605   134253932.6021       2113.216          33.000    25547678.653   104613439.862        1646.802          34.000  
R02  22363089.914   119333755.688         296.619          52.000    22363091.882    92815159.472         230.658          47.000  
R11  22698448.213   121293697.483        -774.247          49.000    22698450.177    94339580.100        -602.097          49.000  
R01  22141812.295   118360651.327       -1783.186          50.000    22141813.427    92058282.641       -1386.910          44.000  
R24  22981324.670   122891411.488       -4380.989          49.000    22981327.432    95582188.337       -3407.391          46.000  
G07  23074226.599   121255955.634        2478.478          49.000    23074226.921    94485253.271        1931.381          45.000  
S31  40276728.915   211655619.538        -808.923          45.000  
S33  41227081.102   216649749.368        -807.751          42.000  
G16  26589973.296   139731250.4551        269.478          32.000                                                                  
R18  24825404.268   132519655.904        2220.216          39.000    24825407.188                        1727.388          31.000  
R12  23324044.575   124592965.171        2816.439          50.000    23324048.955    96905699.204        2190.565          47.000  
R17  22358869.883   119646841.907        -915.601          52.000    22358867.848    93058656.250        -712.097          49.000  
E07  25375943.998   133351494.449        -432.625          48.000    25375948.682   102178440.194        -331.473          50.000  
E08  26228788.603   137833187.453       -2307.387          48.000    26228792.347   105612443.315       -1768.040          52.000  
E13  25667011.628   134881022.293       -2796.446          48.000    25667016.846   103350402.305       -2142.727          51.000  
E15  29284589.415   153891376.102       -3990.731          38.000    29284608.181   117916750.592       -3057.886          43.000  
E26  25846254.720   135823000.706          72.271          44.000    25846259.555   104072190.017          55.180          51.000  
G06  22688230.565   119227427.538         254.021          45.000    22688232.296    92904544.228         198.084          46.000  
G30  25824495.556   135708664.034        3008.276          36.000    25824506.765   105747021.900        2343.944          37.000  
E30  29127872.867   153068025.900        1615.877          41.000    29127890.658   117285980.488        1237.946          46.000  
E02  28768977.520   151182117.890         550.079          34.000    28768992.890   115840925.740         421.860          43.000  
> 2024 04 15 15 39 00.0050000  0 23                     
G03  23429351.992   123122026.840       -2609.714          48.000    23429354.476    95939232.730       -2033.469          43.000  
G04  23026348.735   121004247.752       -2829.176          48.000    23026348.919    94289009.058       -2204.503          47.000  
G09  22145685.766   116376369.607        -772.541          49.000    22145685.194    90682887.412        -601.990          45.000  
G11  25535644.702   134190709.819        2101.215          34.000    25535647.826   104564175.405        1637.451          34.000  
R02  22361434.783   119324924.923         291.815          52.000    22361437.369    92808291.113         227.039          48.000  
R11  22702871.234   121317321.888        -800.904          50.000    22702871.486    94357954.648        -622.969          49.000  
R01  22151831.505   118414210.641       -1787.536          49.000    22151833.034    92099939.854       -1390.332          45.000  
R24  23005938.096   123023029.215       -4393.845          48.000    23005941.236    95684557.501       -3417.543          46.000  
G07  23060112.518   121181787.601        2465.691          49.000    23060112.736    94427460.087        1921.545          45.000  
S31  40281347.660   211679891.081        -809.249          44.000  
S33  41231693.997   216673988.502        -808.431          42.000  
R18  24812981.344   132453326.504        2202.175          36.000    24812984.370   103019266.3531       1712.349          36.000  
R12  23308256.119   124508628.140        2805.731          50.000    23308260.865    96840103.954        2182.195          47.000  
R17  22364077.737   119674716.529        -942.999          52.000    22364077.056    93080336.476        -733.411          48.000  
E07  25378428.336   133364550.179        -437.958          49.000    25378433.248   102188443.969        -335.537          50.000  
E08  26241966.340   137902432.537       -2309.272          49.000    26241969.053   105665501.189       -1769.351          51.000  
E13  25683009.374   134965092.255       -2808.411          47.000    25683015.191   103414819.485       -2151.819          51.000  
E15  29307373.862   154011109.430       -3991.805          36.000    29307393.203   118008493.771       -3058.501          40.000  
E26  25845882.515   135821046.778          57.927          44.000    25845887.571   104070692.842          44.341          50.000  
G06  22686837.080   119220106.290         233.651          45.000    22686839.743    92898839.397         182.058          46.000  
G30  25807332.760   135618472.769        3004.408          39.000    25807343.166   105676743.299        2340.786          38.000  
E30  29118647.156   153019543.130        1616.258          43.000    29118664.690   117248831.614        1238.281          46.000  
E02  28765862.357   151165749.111         540.457          34.000    28765876.913   115828383.438         414.174          42.000  
> 2024 04 15 15 39 30.0050000  0 23                     
G03  23444280.060   123200473.206       -2620.464          48.000    23444283.335    96000359.613       -2041.791          44.000  
G04  23042513.366   121089191.942       -2834.153          49.000    23042513.719    94355199.269       -2208.370          48.000  
G09  22150120.287   116399674.598        -781.385          50.000    22150119.723    90701047.190        -608.981          44.000  
G11  25523678.181   134127826.773        2089.885          33.000    25523680.734   104515175.646        1628.676          34.000  
R02  22359807.194   119316238.876         286.847          52.000    22359809.265    92801535.315         223.145          48.000  
R11  22707443.062   121341752.228        -828.028          49.000    22707442.718    94376956.033        -644.046          48.000  
R01  22161876.328   118467907.760       -1792.494          50.000    22161878.221    92141704.235       -1394.074          44.000  
R24  23030623.916   123155037.380       -4406.980          47.000    23030627.984    95787230.289       -3427.601          45.000  
G07  23046073.397   121108009.361        2452.467          49.000    23046072.760    94369970.669        1910.945          44.000  
S31  40285969.790   211704180.015        -810.240          44.000  
S33  41236310.110   216698246.503        -809.542          42.000  
R18  24800658.475   132387551.772        2182.737          34.000    24800649.429                1       1697.985          28.000  
R12  23292528.964   124424618.277        2794.460          50.000    23292533.028    96774763.161        2173.502          45.000  
R17  22369441.623   119703416.929        -970.648          52.000    22369439.644    93102658.977        -754.871          48.000  
E07  25380945.140   133377772.010        -443.798          49.000    25380949.252   102198574.991        -340.019          50.000  
E08  26255154.248   137971737.210       -2311.469          49.000    26255157.105   105718604.723       -1771.050          51.000  
E13  25699075.211   135049519.970       -2820.438          47.000    25699081.586   103479510.769       -2161.105          51.000  
E15  29330165.568   154130875.047       -3993.164          33.000    29330183.997   118100261.599       -3059.581          38.000  
E26  25845592.076   135819523.069          43.414          43.000    25845597.497   104069525.329          33.277          50.000  
G06  22685561.825   119213404.652         212.757          45.000    22685564.763    92893617.339         165.794          46.000  
G30  25790189.785   135528385.260        3001.014          37.000    25790199.608   105606545.555        2338.328          37.000  
E30  29109419.647   152971052.845        1616.182          42.000    29109437.140   117211676.966        1238.270          46.000  
E02  28762807.746   151149681.345         530.215          35.000    28762819.357   115816071.870         406.240          42.000  
> 2024 04 15 15 40 00.0050000  0 23                     
G03  23459267.778   123279233.118       -2630.563          48.000    23459270.687    96061730.867       -2049.697          43.000  
G04  23058703.797   121174274.102       -2838.341          48.000    23058704.308    94421496.999       -2211.878          48.000  
G09  22154603.745   116423235.758        -789.619          50.000    22154602.841    90719406.558        -615.420          44.000  
G11  25511776.833   134065284.203        2078.811          37.000    25511779.543   104466441.206        1619.961          33.000  
R02  22358205.389   119307695.124         282.349          51.000    22358207.714    92794890.227         219.617          47.000  
R11  22712163.546   121366986.544        -854.437          48.000    22712164.699    94396582.692        -664.683          49.000  
R01  22171947.775   118521740.754       -1796.730          51.000    22171949.037    92183574.285       -1397.383          45.000  
R24  23055381.004   123287429.177       -4419.255          47.000    23055385.570    95890201.495       -3437.312          44.000  
G07  23032108.188   121034622.254        2439.584          50.000    23032107.824    94312786.024        1901.001          44.000  
S31  40290595.245   211728486.392        -810.349          44.000  
S33  41240929.492   216722520.778        -809.500          43.000  
R18  24788438.211   132322333.101        2164.695          32.000    24788431.399                        1683.739          29.000  
R12  23276863.921   124340938.451        2783.699          51.000    23276867.982    96709679.041        2165.104          46.000  
R17  22374958.560   119732940.342        -997.894          51.000    22374957.989    93125621.628        -776.093          49.000  
E07  25383492.018   133391157.207        -448.923          49.000    25383496.565   102208831.202        -343.960          51.000  
E08  26268353.005   138041098.917       -2312.977          48.000    26268356.585   105771751.952       -1772.292          51.000  
E13  25715209.196   135134302.090       -2831.956          47.000    25715215.104   103544473.612       -2169.962          51.000  
E15  29352961.483                       -3993.750          30.000    29352980.899   118192051.320       -3059.773          35.000  
E26  25845383.817   135818428.588          29.286          43.000    25845389.306   104068686.721          22.358          50.000  
G06  22684404.631   119207321.889         192.213          45.000    22684407.182    92888877.521         149.896          47.000  
G30  25773066.899   135438401.914        2997.854          36.000    25773075.692   105536428.916        2335.996          37.000  
E30  29100190.226   152922554.996        1616.786          42.000    29100208.366   117174516.544        1238.799          47.000  
E02  28759805.118   151133914.254         520.545          35.000    28759818.972   115803990.760         398.976          42.000  
> 2024 04 15 15 40 30.0050000  0 23                     
G03  23474312.777   123358300.690       -2640.883          46.000    23474317.094    96123341.836       -2057.688          44.000  
G04  23074919.109   121259486.880       -2842.749          49.000    23074919.781    94487896.518       -2215.234          48.000  
G09  22159134.791   116447046.007        -797.957          49.000    22159134.359    90737960.013        -621.809          45.000  
G11  25499939.850   134003078.470        2067.981          37.000    25499942.159   104417969.318        1610.970          33.000  
R02  22356630.164   119299287.167         277.875          52.000    22356631.016    92788350.746         216.095          45.000  
R11  22717035.643   121393019.507        -881.236          50.000    22717036.163    94416830.494        -685.447          47.000  
R01  22182041.292   118575703.472       -1801.113          48.000    22182044.236    92225545.230       -1400.794          46.000  
R24  23080210.062   123420193.732       -4431.769          48.000    23080213.536    95993462.607       -3446.976          43.000  
G07  23018216.631   120961622.252        2426.716          49.000    23018215.731    94255903.022        1891.051          44.000  
S31  40295221.808   211752802.226        -810.814          44.000  
S33  41245550.523   216746805.337        -810.122          40.000  
R18  24776325.797   132257667.878        2146.330          36.000    24776319.978                        1670.203          25.000  
R12  23261261.299   124257586.895        2772.695          51.000    23261264.326    96644850.259        2156.568          45.000  
R17  22380627.898   119763279.879       -1025.104          51.000    22380628.099    93149219.022        -797.217          49.000  
E07  25386069.293   133404698.956        -454.088          48.000    25386073.860   102219207.347        -347.930          51.000  
E08  26281561.240   138110510.800       -2314.734          48.000    26281564.823   105824937.646       -1773.661          51.000  
E13  25731408.655   135219431.091       -2843.602          47.000    25731414.892   103609702.250       -2178.794          52.000  
E26  25845257.747   135817758.143          15.097          44.000    25845261.947   104068172.994          11.613          51.000  
G06  22683363.990   119201853.105         172.149          45.000    22683366.828    92884616.157         133.880          47.000  
G30  25755962.059   135348519.068        2994.162          38.000    25755971.129   105466390.612        2333.070          37.000  
E30  29090959.316   152874045.542        1616.842          42.000    29090976.861   117137347.199        1238.998          46.000  
E02  28756863.760   151118443.469         510.409          38.000    28756875.673   115792136.652         391.312          43.000  
E15                                                                  29375781.542   118283856.968       -3060.754          33.000  
> 2024 04 15 15 41 00.0050000  0 25                     
G03  23489415.850   123437669.483       -2650.853          46.000    23489420.956    96185187.519       -2065.554          44.000  
G04  23091158.417   121344822.505       -2846.916          49.000    23091158.605    94554391.731       -2218.324          48.000  
G09  22163711.448   116471097.891        -805.933          49.000    22163711.216    90756701.752        -627.935          45.000  
G11  25488164.777   133941205.681        2056.125          35.000    25488165.404                1       1602.031          29.000  
R03  25677394.232                3       1456.845          10.000                                                                  
R02  22355079.448   119291008.144         273.621          52.000    22355079.444    92781911.509         212.811          46.000  
R11  22722054.656   121419844.817        -907.722          49.000    22722056.001    94437694.631        -705.962          47.000  
R01  22192159.533   118629789.403       -1805.060          49.000    22192162.499    92267612.027       -1403.912          45.000  
R24  23105105.952   123553319.796       -4443.759          49.000    23105108.520    96097004.868       -3456.218          42.000  
G07  23004397.398   120889005.672        2413.997          49.000    23004397.053    94199318.798        1880.780          44.000  
S31  40299850.534   211777122.881        -811.025          44.000  
S33  41250172.388   216771093.640        -810.043          42.000  
G16  26583090.147                1        212.836          31.000                                                                  
R18  24764315.734   132193553.418        2127.906          38.000    24764344.962                3       1656.024          26.000  
R12  23245718.451   124174561.524        2761.817          51.000    23245721.431    96580275.153        2148.113          45.000  
R17  22386449.647   119794428.016       -1051.862          52.000    22386449.301    93173445.327        -818.073          48.000  
E07  25388674.530   133418389.968        -459.092          48.000    25388679.215   102229697.892        -351.809          51.000  
E08  26294778.167   138179965.716       -2316.113          48.000    26294781.729   105878156.298       -1774.712          51.000  
E13  25747672.848   135304899.088       -2854.689          47.000    25747678.996   103675190.620       -2187.373          52.000  
E26  25845209.855   135817506.109           1.266          45.000    25845214.215   104067979.889           0.839          51.000  
G06  22682438.704   119196993.012         151.895          45.000    22682441.454    92880829.094         118.249          47.000  
G30  25738875.013   135258732.559        2990.782          35.000    25738884.826   105396427.329        2330.842          35.000  
E30  29081725.336   152825519.873        1617.683          43.000    29081741.884   117100165.438        1239.489          45.000  
E02  28753971.746   151103264.017         500.671          36.000    28753987.241   115780505.813         383.796          44.000  
E15                                                                  29398584.485   118375672.179       -3060.530          30.000  
> 2024 04 15 15 41 30.0050000  0 24                     
G03  23504578.916   123517348.819       -2661.383          47.000    23504583.595    96247275.170       -2073.713          45.000  
G04  23107421.778   121430288.903       -2851.180          49.000    23107422.191    94620988.840       -2221.669          47.000  
G09  22168335.491   116495399.686        -814.474          48.000    22168335.603    90775638.222        -634.479          44.000  
G11  25476457.489   133879677.573        2045.331          35.000    25476467.473                1       1593.610          27.000  
R02  22353553.314   119282866.944         268.909          52.000    22353554.727    92775579.483         209.186          47.000  
R11  22727224.996   121447472.207        -934.546          48.000    22727225.215    94459182.624        -726.713          47.000  
R01  22202302.390   118684007.978       -1809.558          49.000    22202305.732    92309781.955       -1407.501          46.000  
R24  23130069.688   123686812.154       -4456.179          47.000    23130071.328    96200832.086       -3465.839          41.000  
G07  22990654.438   120816784.788        2400.453          49.000    22990654.222    94143042.904        1870.522          44.000  
S31  40304480.829   211801456.002        -811.429          44.000  
S33  41254796.976   216795395.870        -810.546          42.000  
G16  26581910.050   139688877.9253        201.287          37.000                                                                  
R18  24752410.519   132130002.279        2108.480          37.000    24752419.553                        1639.705          30.000  
R12  23230238.567   124091876.329        2750.395          51.000    23230243.475    96515964.677        2139.166          46.000  
R17  22392424.047   119826393.220       -1079.303          53.000    22392422.556    93198307.108        -839.441          48.000  
E07  25391309.332   133432238.726        -464.493          48.000    25391314.383   102240309.289        -355.859          51.000  
E08  26308004.954   138249472.223       -2317.877          48.000    26308008.620   105931414.471       -1776.074          51.000  
E13  25764002.798   135390713.840       -2866.445          48.000    25764009.143   103740944.693       -2196.337          52.000  
E26  25845244.427   135817682.512         -13.210          45.000    25845247.096   104068115.065         -10.121          50.000  
G06  22681631.804   119192752.000         130.732          45.000    22681634.507    92877524.380         102.028          47.000  
G30  25721806.695   135169053.936        2987.101          36.000    25721819.253   105326548.169        2327.983          35.000  
E30  29072489.771   152776989.212        1617.704          43.000    29072506.310   117062979.842        1239.382          45.000  
E02  28751142.944   151088386.566         491.010          38.000    28751154.940   115769106.449         375.890          42.000  
E15                                                                  29421390.582                       -3061.477          27.000  
> 2024 04 15 15 42 00.0050000  0 24                     
G03  23519798.772   123597327.822       -2670.908          48.000    23519802.701    96309596.325       -2081.037          44.000  
G04  23123708.634   121515873.846       -2854.728          49.000    23123708.915    94687678.327       -2224.434          48.000  
G09  22173005.373   116519939.434        -821.794          49.000    22173005.384    90794760.131        -640.447          45.000  
G11  25464811.805   133818485.865        2034.778          34.000    25464817.414                3       1584.337          23.000  
R02  22352050.460   119274851.944         265.192          52.000    22352053.214    92769345.612         206.293          48.000  
R11  22732543.022   121475891.189        -960.293          48.000    22732545.383    94481286.269        -746.917          48.000  
R01  22212467.834   118738348.161       -1813.294          49.000    22212470.490    92352046.494       -1410.303          44.000  
R24  23155100.079   123820655.005       -4467.186          49.000    23155100.666    96304931.901       -3474.398          40.000  
G07  22976984.348   120744951.189        2388.080          49.000    22976984.327    94087068.811        1860.708          44.000  
S31  40309111.737   211825791.726        -810.938          44.000  
S33  41259421.856   216819698.384        -810.193          42.000  
G16  26580792.455   139683002.568         190.109          35.000                                                                  
R18  24740609.220   132067006.867        2090.448          33.000    24740621.896   102718951.0901       1626.465          34.000  
R12  23214821.695   124009524.719        2739.535          50.000    23214826.920    96451913.659        2130.907          48.000  
R17  22398546.968   119859163.657       -1105.634          52.000    22398546.419    93223795.183        -859.845          49.000  
E07  25393971.797   133446233.528        -468.786          47.000    25393977.147   102251032.588        -359.189          51.000  
E08  26321238.822   138319018.686       -2318.786          47.000    26321242.803   105984703.245       -1776.689          50.000  
E13  25780395.852   135476862.945       -2877.024          47.000    25780402.498   103806954.973       -2204.470          51.000  
E26  25845356.222   135818277.237         -26.712          44.000    25845359.986   104068570.779         -20.403          50.000  
G06  22680941.552   119189120.142         111.041          47.000    22680943.350    92874694.381          86.610          46.000  
G30  25704761.517   135079474.594        2984.301          37.000    25704773.976   105256746.388        2325.526          36.000  
E30  29063251.576   152728444.543        1618.659          42.000    29063268.414   117025783.461        1240.045          45.000  
E02  28748367.770   151073801.924         481.301          38.000    28748379.491   115757931.369         368.874          43.000  
E15                                                                  29444197.804                3      -3062.657          25.000  
> 2024 04 15 15 42 30.0050000  0 24                     
G03  23535076.266   123677609.831       -2681.220          47.000    23535079.011    96372153.596       -2089.316          43.000  
G04  23140017.819   121601579.352       -2859.058          49.000    23140018.605    94754461.762       -2227.892          48.000  
G09  22177721.267   116544719.531        -830.208          49.000    22177720.703    90814069.282        -646.913          45.000  
G11  25453233.855   133757636.359        2022.485          38.000    25453252.850                        1575.763          25.000  
R02  22350572.167   119266966.314         260.474          51.000    22350574.901    92763212.399         202.716          48.000  
R11  22738010.377   121505105.364        -987.246          49.000    22738013.042    94504008.427        -767.750          49.000  
R01  22222657.558   118792813.623       -1817.816          50.000    22222659.698    92394408.493       -1413.916          44.000  
R24  23180193.575   123954846.820       -4479.093          46.000    23180195.264    96409303.084       -3483.629          41.000  
G07  22963390.180   120673510.957        2374.506          49.000    22963390.330    94031401.184        1850.193          45.000  
S31  40313743.539   211850132.601        -811.567          44.000  
S33  41264047.574   216844008.031        -810.868          42.000  
G16  26579739.848                         179.807          33.000                                                                  
R18  24728911.188   132004574.299        2071.168          37.000    24728928.219                1       1610.593          28.000  
R12  23199469.446   123927514.852        2727.645          51.000    23199473.286    96388128.479        2121.497          47.000  
R17  22404822.213   119892741.728       -1132.916          52.000    22404822.018    93249911.424        -881.165          49.000  
E07  25396663.321   133460376.906        -474.041          47.000    25396668.506   102261869.733        -363.178          51.000  
E08  26334481.006   138388607.692       -2320.422          47.000    26334485.040   106038024.646       -1778.003          50.000  
E13  25796853.827   135563348.226       -2888.621          48.000    25796859.863   103873222.838       -2213.354          51.000  
E26  25845549.310   135819294.426         -41.042          44.000    25845553.455   104069350.189         -31.448          50.000  
G06  22680366.832   119186101.915          90.222          46.000    22680368.951    92872342.501          70.288          47.000  
G30  25687733.838   134990000.326        2980.743          38.000    25687746.562   105187026.418        2322.593          35.000  
E30  29054012.288   152679891.078        1618.407          42.000    29054029.419   116988580.370        1240.126          45.000  
E02  28745646.279   151059514.768         471.048          36.000    28745660.854   115746984.309         360.984          44.000  
E15                                                                  29467009.344                3      -3061.494          25.000  
> 2024 04 15 15 43 00.0050000  0 24                     
G03  23550412.947   123758205.382       -2691.844          46.000    23550416.564    96434955.199       -2097.666          44.000  
G04  23156351.621   121687414.633       -2863.416          49.000    23156352.032    94821346.338       -2231.246          48.000  
G09  22182484.181   116569749.388        -838.539          49.000    22182483.619    90833573.059        -653.388          46.000  
G11  25441722.185   133697142.028        2010.437          39.000    25441735.361                1       1566.101          31.000  
R02  22349121.361   119259220.232         255.768          51.000    22349124.169    92757187.725         199.017          49.000  
R11  22743628.067   121535125.622       -1014.149          49.000    22743630.065    94527357.528        -788.832          47.000  
R01  22232871.274   118847415.330       -1822.339          50.000    22232874.361    92436876.413       -1417.413          45.000  
R24  23205354.428   124089393.642       -4490.772          46.000    23205357.286    96513950.375       -3492.976          41.000  
G07  22949872.620   120602477.111        2360.878          48.000    22949872.754    93976050.246        1839.646          45.000  
S31  40318378.661   211874488.780        -812.307          45.000  
S33  41268676.529   216868332.299        -811.158          41.000  
G16  26578753.884   139672286.8431        166.534          36.000                                                                  
R18  24717325.697   131942718.477        2052.238          39.000    24717352.319   102622190.4041       1596.183          35.000  
R12  23184182.882   123845861.581        2715.704          50.000    23184187.300    96324620.583        2112.165          47.000  
R17  22411248.796   119927136.871       -1160.107          51.000    22411248.883    93276663.151        -902.283          49.000  
E07  25399384.456   133474678.544        -479.327          47.000    25399390.002   102272828.142        -367.271          51.000  
E08  26347734.182   138458249.042       -2322.269          47.000    26347737.455   106091386.114       -1779.444          50.000  
E13  25813377.186   135650178.602       -2900.042          47.000    25813383.158   103939755.135       -2222.260          50.000  
E26  25845825.059   135820745.306         -55.509          44.000    25845830.295   104070461.916         -42.668          50.000  
G06  22679911.419   119183708.805          69.173          47.000    22679914.049    92870477.706          54.113          47.000  
G30  25670732.204   134900643.778        2976.343          42.000    25670742.471   105117398.193        2319.495          36.000  
E30  29044773.607   152631341.249        1618.199          42.000    29044790.496   116951380.053        1239.961          45.000  
E02  28742987.487   151045537.125         460.655          37.000    28743001.335   115736274.396         353.065          44.000  
E15                                                                  29489822.406                3      -3062.517          24.000  
> 2024 04 15 15 43 30.0050000  0 24                     
G03  23565808.368   123839106.222       -2701.944          47.000    23565811.546    96497994.635       -2105.457          43.000  
G04  23172707.775   121773370.146       -2867.418          48.000    23172709.317    94888324.557       -2234.362          47.000  
G09  22187293.026   116595019.842        -846.515          49.000    22187292.131    90853264.288        -659.503          45.000  
G11  25430276.303   133636996.993        1998.688          37.000    25430294.754   104132744.2301       1556.915          33.000  
R02  22347694.473   119251604.809         251.373          51.000    22347696.426    92751264.635         195.709          48.000  
R11  22749397.011   121565943.545       -1040.809          51.000    22749396.974    94551327.042        -809.516          46.000  
R01  22243109.774   118902144.441       -1826.624          50.000    22243112.227    92479443.468       -1420.825          44.000  
R24  23230581.229   124224282.460       -4502.115          48.000    23230582.370    96618863.690       -3501.790          41.000  
G07  22936431.905   120531844.445        2347.372          49.000    22936432.307    93921011.919        1829.272          45.000  
S31  40323014.785   211898852.947        -812.485          44.000  
S33  41273306.829   216892664.422        -811.570          42.000  
G16  26577838.317   139667453.402         155.273          37.000                                                                  
R18  24705845.192   131881434.262        2032.926          40.000    24705864.093   102574524.996        1581.001          35.000  
R12  23168963.532   123764561.193        2703.845          51.000    23168968.890    96261387.221        2102.965          48.000  
R17  22417828.075   119962339.758       -1187.122          52.000    22417827.271    93304043.108        -923.248          50.000  
E07  25402133.963   133489129.421        -484.402          46.000    25402140.490   102283900.905        -371.151          52.000  
E08  26360995.161   138527933.780       -2323.703          48.000    26360998.417   106144780.835       -1780.577          50.000  
E13  25829964.978   135737344.428       -2911.292          48.000    25829969.963   104006544.430       -2230.734          50.000  
E26  25846182.444   135822622.477         -70.167          43.000    25846187.712   104071900.251         -53.642          51.000  
G06  22679573.847   119181933.552          48.554          48.000    22679575.746    92869094.404          37.938          46.000  
G30  25653749.121   134811399.087        2972.729          41.000    25653758.417   105047857.142        2315.887          33.000  
E30  29035534.440   152582788.771        1618.142          42.000    29035551.144   116914177.682        1239.957          45.000  
E02  28740383.929   151031862.330         450.466          37.000    28740398.390   115725796.508         345.135          43.000  
E15                                                                  29512636.705                3      -3062.764          25.000  
> 2024 04 15 15 44 00.0050000  0 24                     
G03  23581261.413   123920313.657       -2712.366          46.000    23581264.368    96561273.047       -2113.484          42.000  
G04  23189087.714   121859445.925       -2871.832          48.000    23189089.422    94955396.513       -2237.721          48.000  
G09  22192147.705   116620531.119        -854.926          49.000    22192147.169    90873143.211        -666.052          46.000  
G11  25418895.861   133577209.0731       1986.749          35.000    25418909.845   104086153.263        1548.352          34.000  
R02  22346292.461   119244120.992         246.753          52.000    22346293.694    92745443.934         191.858          48.000  
R11  22755313.178   121597560.864       -1067.800          51.000    22755315.161    94575918.317        -830.486          47.000  
R01  22253371.135   118957002.716       -1831.134          49.000    22253374.314    92522110.950       -1424.262          45.000  
R24  23255869.249   124359509.912       -4513.611          48.000    23255869.487    96724040.365       -3510.767          40.000  
G07  22923068.171   120461616.421        2333.722          50.000    22923068.240    93866288.903        1818.444          45.000  
S31  40327652.647   211923224.825        -813.029          44.000  
S33  41277938.754   216917004.492        -811.632          42.000  
R18  24694472.105   131820726.552        2013.506          38.000    24694485.570   102527307.998        1565.571          32.000  
R12  23153811.919   123683619.514        2691.590          52.000    23153816.690    96198432.799        2093.342          49.000  
R17  22424557.249   119998350.376       -1214.294          53.000    22424557.380    93332051.310        -944.446          50.000  
E07  25404913.785   133503730.022        -489.739          47.000    25404918.912   102295088.395        -375.253          52.000  
E08  26374264.062   138597662.476       -2325.426          48.000    26374267.108   106198209.259       -1781.830          50.000  
E13  25846615.847   135824845.353       -2922.734          48.000    25846620.978   104073590.523       -2239.589          50.000  
E26  25846620.936   135824927.836         -84.534          43.000    25846626.264   104073666.707         -64.678          51.000  
G06  22679354.320   119180778.397          27.639          48.000    22679355.742    92868194.313          21.519          46.000  
G30  25636788.970   134722269.847        2968.539          42.000    25636794.466                        2313.318          29.000  
E30  29026295.388   152534236.795        1617.852          41.000    29026312.127   116876975.742        1239.616          46.000  
E02  28737841.833   151018493.141         439.932          37.000    28737855.153   115715552.726         337.184          45.000  
E15                                                                  29535452.457                3      -3062.250          25.000  
R03                                                                  25622952.537                3       1547.266          11.000  
> 2024 04 15 15 44 30.0050000  0 24                     
G03  23596773.975   124001833.711       -2722.844          46.000    23596778.132    96624795.007       -2121.693          43.000  
G04  23205491.416   121945646.657       -2875.630          49.000    23205492.680    95022565.815       -2240.723          47.000  
G09  22197049.280   116646288.180        -862.891          49.000    22197048.397    90893213.668        -672.333          46.000  
R02  22344915.061   119236774.747         242.438          51.000    22344917.285    92739730.219         188.586          49.000  
R11  22761378.977   121629983.730       -1094.262          50.000    22761381.816    94601136.101        -851.177          46.000  
R01  22263659.747   119011996.389       -1835.523          49.000    22263662.030    92564883.710       -1427.490          44.000  
R24  23281220.696   124495077.075       -4524.805          47.000    23281220.316    96829481.307       -3519.279          40.000  
G07  22909782.536   120391801.660        2319.971          49.000    22909782.706    93811887.895        1808.005          45.000  
S31  40332293.258   211947612.030        -813.088          43.000  
S33  41282573.136   216941358.697        -812.081          42.000  
R18  24683206.247   131760604.751        1994.091          35.000    24683219.533                1       1550.791          28.000  
R12  23138727.575   123603047.194        2679.391          50.000    23138733.086    96135765.668        2083.896          49.000  
R17  22431438.464   120035173.668       -1241.248          50.000    22431437.779    93360691.614        -965.430          48.000  
E07  25407721.902   133518485.505        -494.602          47.000    25407726.645   102306394.557        -378.903          52.000  
E08  26387542.671   138667440.433       -2326.886          48.000    26387545.813   106251675.407       -1782.977          50.000  
E13  25863330.769   135912685.842       -2933.847          47.000    25863336.914   104140896.780       -2248.030          51.000  
E26  25847142.710   135827668.131         -98.830          43.000    25847147.689   104075766.422         -75.661          50.000  
G06  22679253.020   119180250.303           6.865          47.000    22679255.003    92867782.783           5.507          46.000  
G30  25619851.761   134633264.359        2964.735          41.000    25619857.867   104909051.307        2309.656          33.000  
E30  29017057.328   152485693.294        1617.671          42.000    29017074.085   116839780.271        1239.598          46.000  
E02  28735354.371   151005436.834         429.686          36.000    28735370.577   115705548.802         329.352          46.000  
E15                                                                  29558270.002                3      -3062.625          24.000  
G11                                                                  25407595.641                        1538.232          32.000  
R03                                                                  25612814.749                3       1546.009          11.000  
