     3.00           OBSERVATION DATA    M: Mixed            RINEX VERSION / TYPE
CONVBIN 2.4.3                           20240415 144442 UTC PGM / RUN BY / DATE 
format: u-blox UBX                                          COMMENT             
log: /home/regis/git/gnsspwv/obsdata/VERT00CHL/2024-04-15/VECOMMENT             
{self.marker}                                               MARKER NAME         
                                                            MARKER NUMBER       
GEODETIC                                                    MARKER TYPE         
{self.observer}     {self.institution}                      OBSERVER / AGENCY   
UNKNOWN             UBLOX-ZED-F9P                           REC # / TYPE / VERS 
UNKNOWN             TWIVSP6037L                             ANT # / TYPE        
  1713381.0000 -5047934.0000 -3490983.0000                  APPROX POSITION XYZ 
        0.0000        0.0000        0.0000                  ANTENNA: DELTA H/E/N
G    8 C1C L1C D1C S1C C2L L2L D2L S2L                      SYS / # / OBS TYPES 
R    8 C1C L1C D1C S1C C2C L2C D2C S2C                      SYS / # / OBS TYPES 
E    8 C1C L1C D1C S1C C7Q L7Q D7Q S7Q                      SYS / # / OBS TYPES 
S    4 C1C L1C D1C S1C                                      SYS / # / OBS TYPES 
  2024    04    15    14    30   00.0030000     GPS         TIME OF FIRST OBS   
  2024    04    15    14    44   30.0030000     GPS         TIME OF LAST OBS    
                                                            END OF HEADER       
> 2024 04 15 14 30 00.0030000  0 27                     
G02  23960394.789   125912714.2241      -4581.479          46.000                                                                  
G03  21878710.987   114973402.5981      -1372.137          48.000    21878712.301    89589666.3301      -1069.098          46.000  
G04  21147940.595   111133174.9781      -1741.544          47.000    21147939.996    86597270.9241      -1356.965          48.000  
G09  22049283.398   115869770.3311        628.295          48.000    22049284.461    90288133.0211        489.640          45.000  
G17  23885315.889   125518177.9931      -3181.789          44.000    23885317.026    97806368.4711      -2479.493          41.000  
G19  24294575.348   127668849.9341      -1564.228          44.000                                                                  
R10  23760524.509   126656975.6091       -876.099          42.000                                                                  
R02  22863881.525   122006059.6941       1100.095          50.000    22863885.911    94893612.6331        855.602          47.000  
R11  23324506.393   124639122.6161       2096.794          46.000    23324512.689    96941564.9571       1630.710          48.000  
R01  21002856.000   112272299.8901      -1091.912          49.000    21002856.931    87322903.1481       -849.228          44.000  
R24  20609274.593   110207051.9511      -1419.801          52.000    20609273.794    85716589.6381      -1104.412          48.000  
G21  24948033.379   131102770.7111      -5061.188          43.000                                                                  
G07  25433915.225   133656110.2261       3269.414          44.000    25433920.999   104147688.6511       2547.070          38.000  
S31  39646758.498   208345119.5451       -780.989          44.000  
S33  40597796.978   213342861.1071       -780.370          42.000  
E03  27790830.933   146041780.1971      -3149.808          38.000    27790839.658   111902170.6381      -2413.451          44.000  
R23  22565512.126   120710258.2641      -4921.903          49.000    22564418.345                3      -3640.064          12.000  
R17  23004701.260   123102810.8151       2391.918          48.000    23004701.799    95746629.6431       1860.410          48.000  
R08  23205710.949   124265514.5301      -3375.520          46.000    23205709.685    96650955.5241      -2625.343          43.000  
E07  25360621.063   133270971.1621        477.300          46.000    25360627.225   102116738.9681        365.769          51.000  
E08  24570670.430   129119738.7801      -1806.884          49.000    24570671.817    98935911.4331      -1384.509          52.000  
E13  24167533.972   127001240.0431       -965.461          49.000    24167537.892    97312654.6151       -739.798          53.000  
E15  26329623.165   138363091.8261      -3379.432          46.000    26329630.856   106018499.5221      -2589.562          49.000  
E26  26533914.175   139436662.7171       1546.674          42.000    26533919.080   106841097.2011       1185.294          46.000  
G06  23799780.715   125068642.7641       2353.492          42.000    23799783.955    97456136.2811       1833.723          42.000  
G31  24807780.791   130365743.9771      -3026.550          40.000    24807780.109   101583705.3351      -2358.362          40.000  
E18  28146325.647   147909914.8661       -426.510          38.000                                                                  
> 2024 04 15 14 30 30.0030000  0 27                     
G02  23986564.819   126050234.581       -4586.424          47.000                                                                  
G03  21886559.262   115014650.415       -1377.372          48.000    21886561.886    89621807.420       -1073.350          46.000  
G04  21157911.282   111185570.884       -1751.483          48.000    21157910.075    86638098.855       -1364.626          48.000  
G09  22045724.186   115851066.968         618.644          47.000    22045725.502    90273558.999         481.961          45.000  
G17  23903504.090   125613759.919       -3189.993          44.000    23903505.135    97880847.797       -2485.671          40.000  
G19  24303542.777   127715976.073       -1577.204          43.000                                                                  
R10  23765517.346   126683593.913        -898.216          37.000                                                                  
R02  22857713.816   121973143.688        1094.365          50.000    22857717.356    94868011.322         851.159          47.000  
R11  23312767.380   124576383.360        2085.860          48.000    23312772.058    96892768.014        1622.565          48.000  
R01  21008999.199   112305137.475       -1096.931          49.000    21008999.179    87348443.460        -852.965          43.000  
R24  20617312.772   110250034.577       -1445.538          52.000    20617311.974    85750020.509       -1124.309          48.000  
G21  24976929.955   131254624.042       -5062.152          42.000                                                                  
G07  25415244.320   133557992.786        3272.108          42.000    25415249.010   104071233.736        2549.528          37.000  
S31  39651213.155   208368528.388        -779.231          44.000  
S33  40602246.815   213366244.901        -778.716          42.000  
E03  27808805.027   146136243.321       -3147.890          37.000    27808815.719   111974551.213       -2411.745          43.000  
R23  22593139.243   120858047.087       -4930.617          48.000                                                                  
R17  22991336.912   123031290.402        2376.154          49.000    22991336.967    95691002.679        1848.176          49.000  
R08  23224616.343   124366746.416       -3373.079          45.000    23224613.765    96729691.183       -2623.578          42.000  
E07  25357914.416   133256744.519         471.428          47.000    25357919.991   102105838.020         361.299          50.000  
E08  24580997.579   129174010.309       -1811.010          49.000    24580999.326    98977496.075       -1387.670          52.000  
E13  24173080.289   127030386.438        -977.443          49.000    24173084.387    97334987.520        -748.887          53.000  
E15  26348933.751   138464568.638       -3385.511          46.000    26348941.789   106096254.313       -2593.938          49.000  
E26  26525098.168   139390335.286        1541.816          42.000    26525103.205   106805599.619        1181.363          46.000  
G06  23786367.378   124998156.362        2345.542          42.000    23786370.279    97401211.828        1827.993          42.000  
G31  24825091.741   130456710.879       -3037.653          41.000    24825090.978   101654588.413       -2366.888          40.000  
E18  28148740.326   147922604.151        -419.820          38.000                                                                  
> 2024 04 15 14 31 00.0030000  0 27                     
G02  24012763.457   126187907.372       -4591.530          47.000                                                                  
G03  21894441.294   115056068.062       -1383.415          47.000    21894442.963    89654080.841       -1078.065          46.000  
G04  21167939.620   111238269.923       -1761.752          48.000    21167937.715    86679163.019       -1372.822          47.000  
G09  22042221.236   115832659.076         608.588          48.000    22042222.847    90259215.201         474.143          46.000  
G17  23921740.729   125709593.951       -3198.794          44.000    23921741.665    97955523.504       -2492.360          41.000  
G19  24312586.641   127763497.967       -1590.879          44.000                                                                  
R10  23770635.160   126710873.713        -920.254          36.000                                                                  
R02  22851577.232   121940401.293        1088.310          49.000    22851581.493    94842545.092         846.427          47.000  
R11  23301089.973   124513972.252        2074.811          51.000    23301091.738    96844226.288        1613.686          47.000  
R01  21015170.964   112338132.378       -1102.508          49.000    21015171.106    87374106.141        -857.595          43.000  
R24  20625495.552   110293791.762       -1471.625          52.000    20625494.477    85784053.828       -1144.644          48.000  
G21  25005833.945   131406509.157       -5063.542          42.000                                                                  
G07  25396558.792   133459801.951        3274.033          42.000    25396563.706   103994721.605        2551.324          38.000  
S31  39655659.322   208391892.680        -778.122          44.000  
S33  40606688.122   213389584.324        -777.435          42.000  
E03  27826767.869   146230641.453       -3145.724          37.000    27826779.361   112046882.004       -2410.319          42.000  
R23  22620817.005   121006104.745       -4939.804          48.000                                                                  
R17  22978062.068   122960249.153        2359.997          50.000    22978061.395    95635748.396        1835.455          49.000  
R08  23243507.533   124467912.166       -3371.220          45.000    23243505.998    96808375.478       -2622.101          42.000  
E07  25355242.453   133242700.965         464.950          47.000    25355247.717   102095077.365         356.301          50.000  
E08  24591349.639   129228413.397       -1815.722          49.000    24591351.744    99019181.513       -1391.244          52.000  
E13  24178694.868   127059895.051        -989.831          48.000    24178699.762    97357597.975        -758.425          53.000  
E15  26368279.007   138566228.809       -3391.906          46.000    26368287.369   106174149.596       -2598.983          49.000  
E26  26516313.527   139344168.290        1536.120          42.000    26516317.693   106770224.939        1176.983          46.000  
G06  23772997.693   124927899.746        2337.976          41.000    23773000.313    97346466.454        1821.754          41.000  
G31  24842466.004   130548011.034       -3048.853          40.000    24842465.133   101725731.184       -2375.763          40.000  
E18  28151117.727   147935097.948        -413.210          37.000                                                                  
> 2024 04 15 14 31 30.0030000  0 27                     
G02  24038992.826   126325742.561       -4596.988          47.000                                                                  
G03  21902358.404   115097669.057       -1389.843          47.000    21902359.780    89686497.137       -1082.917          46.000  
G04  21178028.005   111291283.078       -1772.315          47.000    21178025.151    86720471.900       -1381.013          47.000  
G09  22038777.045   115814559.155         597.967          49.000    22038777.642    90245111.379         466.033          45.000  
G17  23940026.649   125805689.116       -3207.513          43.000    23940028.948    98030402.734       -2499.203          41.000  
G19  24321707.061   127811426.491       -1604.488          44.000                                                                  
R10  23775880.500   126738828.551        -942.987          38.000                                                                  
R02  22845477.658   121907844.775        1082.100          50.000    22845480.290    94817223.421         841.742          47.000  
R11  23289474.815   124451906.879        2062.992          51.000    23289475.724    96795953.386        1604.562          46.000  
R01  21021375.071   112371296.291       -1108.251          49.000    21021375.528    87399900.288        -862.138          44.000  
R24  20633824.992   110338335.654       -1498.042          51.000    20633824.090    85818699.017       -1165.012          47.000  
G21  25034745.493   131558436.110       -5065.017          42.000                                                                  
G07  25377862.404   133361553.301        3275.804          42.000    25377867.784   103918164.468        2552.392          40.000  
S31  39660098.942   208415223.423        -777.209          44.000  
S33  40611123.159   213412890.471        -776.475          42.000  
E03  27844723.119   146324986.487       -3144.077          37.000    27844732.970   112119172.115       -2409.113          41.000  
R23  22648547.388   121154440.116       -4949.125          49.000                                                                  
R17  22964877.967   122889704.156        2343.147          49.000    22964877.896    95580880.072        1822.378          48.000  
R08  23262390.614   124569024.056       -3369.494          46.000    23262390.413    96887017.849       -2620.718          45.000  
E07  25352608.022   133228852.917         458.390          48.000    25352612.861   102084466.503         351.240          51.000  
E08  24601729.656   129282959.578       -1820.709          48.000    24601731.392    99060976.580       -1394.976          51.000  
E13  24184381.248   127089779.078       -1002.400          48.000    24184386.512    97380496.075        -768.146          53.000  
E15  26387662.339   138668083.812       -3398.325          47.000    26387669.807   106252194.159       -2604.010          50.000  
E26  26507561.856   139298176.212        1530.062          42.000    26507565.590   106734984.302        1172.447          45.000  
G06  23759675.246   124857888.576        2329.759          41.000    23759677.900    97291912.323        1815.290          41.000  
G31  24859904.081   130639655.073       -3060.608          41.000    24859905.264   101797141.949       -2384.735          41.000  
E18  28153461.145   147947408.567        -407.258          37.000                                                                  
> 2024 04 15 14 32 00.0030000  0 27                     
G02  24065254.147   126463743.348       -4602.273          47.000                                                                  
G03  21910311.141   115139460.077       -1395.877          47.000    21910312.781    89719061.496       -1087.679          47.000  
G04  21188176.380   111344614.440       -1782.525          47.000    21188174.635    86762028.743       -1388.969          48.000  
G09  22035392.626   115796772.758         588.135          48.000    22035392.637    90231251.847         458.268          44.000  
G17  23958362.903   125902048.097       -3215.981          43.000    23958366.009    98105487.544       -2505.757          41.000  
G19  24330906.501   127859766.191       -1617.983          44.000                                                                  
R10  23781251.820   126767464.818        -965.439          36.000                                                                  
R02  22839412.024   121875479.480        1076.019          50.000    22839414.329    94792050.454         836.947          46.000  
R11  23277924.128   124390197.482        2051.309          49.000    23277928.238    96747957.434        1595.486          47.000  
R01  21027611.386   112404633.770       -1113.609          49.000    21027612.711    87425829.418        -866.236          45.000  
R24  20642303.877   110383671.283       -1523.989          52.000    20642302.296    85853959.997       -1185.273          47.000  
G21  25063665.374   131710407.776       -5066.128          41.000                                                                  
G07  25359156.715   133263255.438        3277.568          43.000    25359161.685   103841568.933        2554.432          39.000  
S31  39664533.639   208438527.839        -775.975          44.000  
S33  40615552.817   213436170.135        -774.932          42.000  
E03  27862666.657   146419283.518       -3142.048          37.000    27862677.120   112191425.404       -2407.762          43.000  
R23  22676329.724   121303054.658       -4958.069          50.000                                                                  
R17  22951788.393   122819665.337        2326.575          48.000    22951788.725    95526405.458        1809.572          48.000  
R08  23281264.857   124670087.454       -3367.490          45.000    23281263.659    96965622.514       -2619.350          44.000  
E07  25350010.462   133215205.905         451.903          47.000    25350015.659   102074009.690         346.361          51.000  
E08  24612137.052   129337653.483       -1825.274          48.000    24612139.341    99102884.854       -1398.600          51.000  
E13  24190141.165   127120044.789       -1014.917          48.000    24190145.676    97403686.618        -777.532          53.000  
E15  26407082.903   138770138.260       -3404.761          47.000    26407090.085   106330391.563       -2608.887          49.000  
E26  26498845.563   139252366.714        1524.259          42.000    26498848.077   106699883.561        1167.963          45.000  
G06  23746401.354   124788131.544        2321.395          42.000    23746403.460    97237556.244        1808.580          42.000  
G31  24877409.994   130731647.076       -3071.710          41.000    24877411.428   101868823.858       -2393.652          42.000  
E18  28155769.945   147959541.431        -401.394          36.000                                                                  
> 2024 04 15 14 32 30.0030000  0 27                     
G02  24091544.248   126601895.349       -4607.476          47.000                                                                  
G03  21918297.987   115181430.420       -1401.860          48.000    21918299.793    89751765.589       -1092.300          47.000  
G04  21198382.911   111398250.810       -1792.840          47.000    21198381.864    86803823.275       -1397.014          48.000  
G09  22032065.218   115779288.163         577.975          49.000    22032065.391    90217627.470         450.478          43.000  
G17  23976747.822   125998656.377       -3224.230          45.000    23976749.297    98180766.616       -2512.330          41.000  
G19  24340179.863   127908503.600       -1631.027          40.000                                                                  
R10  23786748.206   126796771.626        -987.964          36.000                                                                  
R02  22833379.843   121843292.964        1070.076          50.000    22833381.990    94767016.522         832.329          45.000  
R11  23266440.854   124328836.993        2039.625          48.000    23266444.595    96700232.760        1586.355          47.000  
R01  21033878.472   112438131.987       -1119.046          49.000    21033879.617    87451883.538        -870.588          45.000  
R24  20650928.330   110429785.870       -1549.942          53.000    20650926.721    85889826.815       -1205.508          48.000  
G21  25092591.263   131862409.794       -5067.045          42.000                                                                  
G07  25340440.308   133164899.597        3279.237          43.000    25340445.552   103764928.281        2555.291          40.000  
S31  39668961.144   208461794.601        -774.590          44.000  
S33  40619975.847   213459411.260        -773.967          42.000  
E03  27880601.142   146513520.254       -3140.214          38.000    27880609.841   112263632.446       -2405.838          42.000  
R23  22704161.207   121451932.621       -4966.662          49.000                                                                  
R17  22938793.749   122750124.880        2309.830          48.000    22938792.650    95472318.479        1796.520          47.000  
R08  23300125.479   124771090.029       -3365.493          44.000    23300124.173    97044179.826       -2617.563          44.000  
E07  25347449.043   133201748.153         445.566          47.000    25347455.045   102063697.890         341.525          51.000  
E08  24622570.133   129392482.452       -1829.716          48.000    24622573.114    99144896.602       -1401.982          52.000  
E13  24195971.046   127150681.131       -1027.211          48.000    24195975.438    97427161.175        -787.079          52.000  
E15  26426538.893   138872379.413       -3410.950          47.000    26426545.864   106408732.015       -2613.662          49.000  
E26  26490162.165   139206730.138        1518.524          43.000    26490163.987   106664915.315        1163.570          45.000  
G06  23733173.848   124718620.032        2313.290          42.000    23733176.701    97183391.499        1802.407          42.000  
G31  24894978.842   130823973.368       -3082.795          41.000    24894981.262   101940766.255       -2402.424          41.000  
E18  28158042.546   147971484.523        -394.898          37.000                                                                  
> 2024 04 15 14 33 00.0030000  0 27                     
G02  24117861.547   126740193.134       -4612.442          48.000                                                                  
G03  21926318.573   115223578.100       -1407.906          48.000    21926320.044    89784607.884       -1097.074          47.000  
G04  21208646.966   111452187.594       -1802.963          47.000    21208645.555    86845851.893       -1404.935          48.000  
G09  22028795.624   115762102.226         567.894          49.000    22028794.897    90204235.835         442.512          44.000  
G17  23995177.435   126095507.615       -3232.429          44.000    23995178.986    98256235.002       -2519.021          40.000  
G19  24349529.504   127957634.538       -1644.437          41.000                                                                  
R10  23792371.395   126826746.818       -1010.478          38.000                                                                  
R02  22827381.273   121811282.046        1064.079          51.000    22827383.408    94742119.184         827.743          46.000  
R11  23255022.981   124267826.657        2027.624          48.000    23255028.391    96652780.539        1577.088          48.000  
R01  21040174.116   112471786.883       -1124.476          49.000    21040175.492    87478059.532        -874.504          45.000  
R24  20659696.493   110476675.569       -1575.959          52.000    20659694.486    85926296.517       -1225.827          47.000  
G21  25121521.017   132014436.641       -5067.965          42.000                                                                  
G07  25321711.742   133066485.729        3281.265          43.000    25321717.442   103688242.369        2557.058          40.000  
S31  39673380.651   208485019.218        -773.655          44.000  
S33  40624390.335   213482611.343        -772.998          42.000  
E03  27898523.876   146607693.058       -3138.115          40.000    27898529.567   112335790.613       -2404.580          39.000  
R23  22732040.247   121601066.331       -4975.499          50.000                                                                  
R17  22925891.202   122681083.716        2292.929          46.000    22925891.555    95418619.841        1783.434          47.000  
R08  23318975.294   124872028.366       -3363.540          45.000    23318975.314    97122687.191       -2616.156          45.000  
E07  25344923.316   133188476.535         439.337          46.000    25344929.736   102053528.734         336.562          51.000  
E08  24633029.110   129447442.484       -1834.286          48.000    24633031.811    99187008.766       -1405.420          52.000  
E13  24201870.880   127181685.714       -1039.747          48.000    24201875.170    97450917.874        -796.585          52.000  
E15  26446028.967   138974803.179       -3417.173          47.000    26446036.253   106487212.401       -2618.280          49.000  
E26  26481510.400   139161265.427        1512.624          44.000    26481512.556   106630078.791        1158.930          46.000  
G06  23719992.712   124649354.142        2304.350          41.000    23719996.379    97129418.128        1795.779          42.000  
G31  24912610.066   130916629.076       -3094.122          42.000    24912613.549   102012965.319       -2410.900          41.000  
E18  28160278.829   147983234.651        -388.548          36.000                                                                  
> 2024 04 15 14 33 30.0030000  0 27                     
G02  24144206.417   126878638.474       -4617.901          47.000                                                                  
G03  21934373.223   115265908.367       -1414.532          47.000    21934375.467    89817592.458       -1102.290          47.000  
G04  21218969.219   111506427.484       -1813.646          48.000    21218966.961    86888116.677       -1413.112          48.000  
G09  22025583.533   115745219.093         557.190          49.000    22025582.688    90191080.129         434.200          45.000  
G17  24013655.755   126192602.984       -3241.098          45.000    24013656.717    98331893.575       -2525.428          41.000  
G19  24358953.582   128007161.415       -1657.867          42.000                                                                  
R10  23798120.920   126857394.970       -1033.095          33.000                                                                  
R02  22821415.540   121779450.223        1057.594          50.000    22821419.442    94717361.138         822.463          47.000  
R11  23243674.652   124207175.912        2015.057          50.000    23243679.018    96605607.934        1567.338          48.000  
R01  21046500.183   112505601.692       -1130.350          48.000    21046501.363    87504359.916        -879.091          45.000  
R24  20668610.407   110524343.876       -1602.469          52.000    20668608.563    85963371.766       -1246.421          47.000  
G21  25150456.012   132166490.011       -5069.419          41.000                                                                  
G07  25302973.742   132968020.745        3282.503          43.000    25302980.425   103611516.635        2557.710          40.000  
S31  39677793.297   208508208.021        -772.910          44.000  
S33  40628798.216   213505775.637        -771.999          42.000  
E03  27916430.847   146701805.597       -3136.618          39.000    27916439.378   112407902.643       -2403.440          40.000  
R23  22759967.749   121750456.674       -4984.465          50.000                                                                  
R17  22913083.450   122612550.494        2275.449          47.000    22913084.716    95365316.293        1769.682          47.000  
R08  23337813.882   124972906.483       -3362.142          46.000    23337814.434    97201147.730       -2614.980          46.000  
E07  25342433.651   133175395.165         432.455          46.000    25342440.128   102043505.336         331.381          51.000  
E08  24643514.253   129502536.841       -1839.227          48.000    24643516.044    99229223.853       -1409.299          52.000  
E13  24207842.039   127213063.357       -1052.814          48.000    24207846.112    97474960.416        -806.545          52.000  
E15  26465554.978   139077412.716       -3423.947          47.000    26465562.391   106565835.149       -2623.608          49.000  
E26  26472891.660   139115978.847        1506.038          43.000    26472894.860   106595378.744        1153.828          46.000  
G06  23706859.222   124580341.086        2295.589          41.000    23706863.495    97075641.782        1789.081          42.000  
G31  24930305.814   131009616.677       -3105.786          42.000    24930307.385   102085422.985       -2420.090          40.000  
E18  28162477.735   147994795.867        -382.704          34.000                                                                  
> 2024 04 15 14 34 00.0030000  0 27                     
G02  24170586.636   127017264.332       -4623.912          47.000                                                                  
G03  21942470.738   115308457.689       -1422.030          48.000    21942472.313    89850747.718       -1108.035          47.000  
G04  21229354.699   111561004.368       -1824.777          48.000    21229352.750    86930644.104       -1422.028          48.000  
G09  22022434.457   115728674.134         545.720          48.000    22022434.387    90178187.990         425.222          45.000  
G17  24032185.123   126289974.694       -3250.491          45.000    24032185.605    98407767.501       -2532.775          41.000  
G19  24368460.742   128057118.265       -1672.579          42.000                                                                  
R10  23804005.190   126888752.748       -1057.117          34.000                                                                  
R02  22815490.954   121747832.898        1050.297          50.000    22815495.073    94692769.931         816.736          49.000  
R11  23232398.817   124146925.391        2001.514          49.000    23232402.215    96558746.605        1556.598          46.000  
R01  21052862.249   112539611.348       -1136.943          48.000    21052863.048    87530811.834        -884.396          44.000  
R24  20677676.322   110572825.700       -1629.747          52.000    20677674.763    86001079.792       -1267.675          47.000  
G21  25179402.090   132318602.874       -5071.686          41.000                                                                  
G07  25284233.596   132869543.184        3282.756          43.000    25284240.046   103534781.091        2557.969          40.000  
S31  39682205.847   208531395.858        -773.146          44.000  
S33  40633206.158   213528938.289        -772.102          42.000  
E03  27934333.216   146795892.842       -3136.257          37.000    27934344.643   112479995.201       -2402.859          42.000  
R23  22787948.848   121900135.094       -4994.072          49.000                                                                  
R17  22900380.292   122544565.413        2256.804          48.000    22900379.645    95312439.044        1755.355          48.000  
R08  23356647.884   125073759.741       -3362.008          45.000    23356649.658    97279588.861       -2614.860          47.000  
E07  25339988.089   133162539.381         424.586          46.000    25339993.682   102033654.786         325.397          51.000  
E08  24654031.350   129557799.987       -1845.057          49.000    24654032.502    99271568.257       -1413.735          52.000  
E13  24213891.233   127244850.088       -1066.498          48.000    24213894.863    97499316.426        -817.158          52.000  
E15  26485123.849   139180242.408       -3431.443          48.000    26485130.917   106644626.574       -2629.264          49.000  
E26  26464314.786   139070907.865        1498.581          43.000    26464317.673   106560843.848        1148.406          45.000  
G06  23693781.341   124511619.478        2285.698          41.000    23693786.022    97022092.539        1781.183          43.000  
G31  24948070.798   131102969.709       -3118.021          42.000    24948070.932   102158165.403       -2429.374          38.000  
E18  28164649.064   148006203.305        -377.718          36.000                                                                  
> 2024 04 15 14 34 30.0030000  0 27                     
G02  24197004.144   127156087.222       -4630.467          47.000                                                                  
G03  21950613.075   115351246.127       -1430.294          48.000    21950614.230    89884089.290       -1114.426          46.000  
G04  21239807.364   111615935.768       -1836.972          48.000    21239805.575    86973447.731       -1431.350          48.000  
G09  22019353.427   115712486.173         533.840          48.000    22019354.049    90165574.016         415.923          45.000  
G17  24050769.471   126387638.692       -3260.261          45.000    24050770.387    98483869.203       -2540.641          41.000  
G19  24378052.318   128107522.519       -1687.401          43.000                                                                  
R10  23810025.065   126920840.610       -1081.809          36.000                                                                  
R02  22809609.474   121716449.187        1042.358          51.000    22809613.271    94668360.411         810.653          48.000  
R11  23221203.065   124087098.958        1987.157          50.000    23221207.664    96512215.125        1545.615          47.000  
R01  21059264.171   112573834.265       -1144.044          48.000    21059265.262    87557429.623        -889.861          45.000  
R24  20686897.341   110622139.552       -1657.470          51.000    20686896.964    86039434.936       -1289.212          47.000  
G21  25208363.662   132470791.517       -5074.186          41.000                                                                  
G07  25265495.538   132771075.201        3282.235          43.000    25265502.252   103458053.021        2557.532          40.000  
S31  39686621.538   208554600.973        -773.857          44.000  
S33  40637617.238   213552119.708        -772.551          42.000  
E03  27952234.980   146889973.138       -3135.747          35.000    27952247.310   112552082.443       -2402.676          41.000  
R23  22815986.271   122050117.545       -5004.260          49.000                                                                  
R17  22887782.498   122477151.645        2237.722          46.000    22887781.879    95260006.177        1740.295          48.000  
R08  23375478.695   125174607.457       -3361.570          43.000    23375481.128    97358025.768       -2614.463          45.000  
E07  25337588.010   133149928.034         416.478          46.000    25337593.993   102023991.548         319.135          51.000  
E08  24664583.083   129613249.922       -1851.250          49.000    24664584.432    99314055.803       -1418.495          52.000  
E13  24220021.453   127277065.515       -1080.796          48.000    24220025.321    97524000.925        -828.264          52.000  
E15  26504737.254   139283310.161       -3439.488          48.000    26504744.553   106723600.400       -2635.428          50.000  
E26  26455781.773   139026073.438        1490.733          42.000    26455785.776   106526490.225        1142.153          45.000  
G06  23680764.473   124443211.383        2274.988          41.000    23680767.993    96968787.590        1772.810          43.000  
G31  24965907.869   131196705.519       -3130.553          42.000    24965908.943   102231206.107       -2439.543          39.000  
E18  28166794.776   148017475.760        -373.324          38.000                                                                  
> 2024 04 15 14 35 00.0030000  0 27                     
G02  24223457.472   127295098.750       -4636.734          47.000                                                                  
G03  21958800.161   115394268.499       -1437.862          48.000    21958801.144    89917613.174       -1120.540          46.000  
G04  21250325.899   111671213.898       -1848.239          47.000    21250324.592    87016521.573       -1440.213          48.000  
G09  22016339.039   115696648.950         522.266          47.000    22016340.538    90153233.327         407.051          45.000  
G17  24069408.319   126485585.549       -3269.462          45.000    24069409.491    98560191.316       -2547.815          41.000  
G19  24387727.728   128158366.492       -1701.998          44.000                                                                  
R10  23816182.333                       -1105.318          31.000                                                                  
R02  22803770.653   121685292.213        1035.014          51.000    22803773.203    94644127.244         805.039          47.000  
R11  23210086.676   124027695.055        1973.161          50.000    23210090.770    96466012.277        1534.663          47.000  
R01  21065704.927   112608263.161       -1150.849          49.000    21065705.978    87584207.646        -895.107          45.000  
R24  20696274.002   110672278.049       -1684.836          51.000    20696273.432    86078431.488       -1310.410          48.000  
G21  25237337.350   132623047.531       -5076.102          39.000                                                                  
G07  25246759.157   132672613.457        3281.981          43.000    25246765.040   103381329.802        2557.421          40.000  
S31  39691040.008   208577819.848        -774.292          44.000  
S33  40642030.881   213575313.406        -773.221          42.000  
E03  27970136.865   146984039.795       -3135.111          37.000    27970147.294   112624159.274       -2402.362          40.000  
R23  22844078.837   122200392.836       -5013.822          49.000                                                                  
R17  22875288.909   122410307.125        2218.577          42.000    22875290.669    95208016.053        1725.631          47.000  
R08  23394310.615   125275442.799       -3360.821          45.000    23394311.323    97436452.995       -2613.974          44.000  
E07  25335233.670   133137554.828         408.749          46.000    25335239.534   102014510.794         313.168          51.000  
E08  24675168.021   129668879.558       -1857.124          48.000    24675170.607    99356681.058       -1422.971          52.000  
E13  24226232.417   127309704.033       -1094.865          48.000    24226236.229    97549009.597        -838.889          52.000  
E15  26524394.633   139386608.753       -3446.975          48.000    26524401.804   106802751.089       -2641.191          50.000  
E26  26447294.161   138981471.452        1483.140          43.000    26447297.956   106492314.701        1136.455          45.000  
G06  23667806.411   124375113.720        2264.789          42.000    23667808.794    96915724.536        1764.913          42.000  
G31  24983816.387   131290816.036       -3143.011          44.000    24983818.032   102304538.773       -2449.086          38.000  
E18  28168911.548   148028606.854        -368.516          35.000                                                                  
> 2024 04 15 14 35 30.0030000  0 27                     
G02  24249951.105   127434322.451       -4644.638          46.000                                                                  
G03  21967036.395   115437552.320       -1447.413          48.000    21967037.131    89951340.783       -1127.892          46.000  
G04  21260915.560   111726863.699       -1861.322          47.000    21260914.861    87059885.018       -1450.458          49.000  
G09  22013397.306   115681188.825         508.814          47.000    22013398.419    90141186.472         396.469          44.000  
G17  24088105.071   126583838.771       -3280.514          45.000    24088107.125    98636752.116       -2556.420          41.000  
G19  24397492.276   128209675.045       -1718.383          44.000                                                                  
R10  23822482.106                3      -1121.118          18.000                                                                  
R02  22797978.721   121654388.055        1025.640          50.000    22797981.327    94620090.768         797.602          46.000  
R11  23199054.359   123968745.360        1957.233          50.000    23199058.498    96420162.719        1522.188          47.000  
R01  21072188.882   112642924.050       -1159.430          48.000    21072190.440    87611166.087        -901.806          45.000  
R24  20705808.947   110723267.257       -1713.963          51.000    20705809.318    86118089.721       -1333.205          48.000  
G21  25266328.201   132775394.552       -5079.897          35.000                                                                  
G07  25228029.610   132574187.353        3280.302          43.000    25228034.228   103304634.422        2555.797          40.000  
S31  39695465.989   208601077.603        -775.989          44.000  
S33  40646452.570   213598546.596        -775.254          42.000  
E03  27988040.664   147078118.779       -3136.266          37.000    27988050.331   112696245.508       -2403.215          41.000  
R23  22872230.732   122350984.264       -5025.207          50.000                                                                  
R17  22862909.193   122344062.721        2197.920          43.000    22862911.621    95156492.667        1709.267          48.000  
R08  23413145.056   125376292.612       -3361.908          45.000    23413143.296    97514891.494       -2614.961          44.000  
E07  25332929.522   133125446.135         399.133          46.000    25332935.288   102005232.704         305.852          51.000  
E08  24685792.948   129724714.377       -1864.688          49.000    24685795.622    99399463.539       -1428.812          52.000  
E13  24232528.264   127342792.676       -1110.597          47.000    24232533.151    97574363.193        -851.031          52.000  
E15  26544099.964   139490163.530       -3456.175          47.000    26544107.689   106882098.089       -2648.325          50.000  
E26  26438856.335   138937130.405        1473.442          43.000    26438859.931   106458339.117        1129.064          45.000  
G06  23654912.769   124307356.080        2252.693          42.000    23654915.008    96862926.481        1755.229          42.000  
G31  25001800.687   131385325.777       -3157.251          42.000    25001802.903   102378182.562       -2460.102          38.000  
E18  28171010.117   148039622.837        -365.054          37.000                                                                  
> 2024 04 15 14 36 00.0030000  0 27                     
G02  24276486.845   127573767.037       -4652.211          46.000                                                                  
G03  21975325.433   115481109.812       -1457.035          49.000    21975326.606    89985281.612       -1135.277          46.000  
G04  21271578.847   111782894.843       -1874.490          47.000    21271577.841    87103545.570       -1460.485          49.000  
G09  22010529.979   115666116.823         495.517          48.000    22010529.586    90129442.046         386.241          44.000  
G17  24106861.954   126682406.522       -3291.356          45.000    24106863.973    98713558.013       -2564.339          40.000  
G19  24407346.113   128261457.904       -1734.388          43.000                                                                  
R10  23828936.577                3      -1157.793          26.000                                                                  
R02  22792237.281   121623748.212        1016.430          50.000    22792239.137    94596259.849         790.467          46.000  
R11  23188111.252   123910265.885        1940.895          51.000    23188115.080    96374678.897        1509.547          47.000  
R01  21078718.517   112677827.367       -1167.867          49.000    21078720.183    87638313.069        -908.345          46.000  
R24  20715505.597   110775117.303       -1743.126          51.000    20715506.359    86158417.455       -1355.715          49.000  
G21  25295337.663                       -5083.484          31.000                                                                  
G07  25209309.667   132475811.032        3278.009          43.000    25209312.882   103227977.781        2553.966          40.000  
S31  39699901.324   208624385.262        -778.245          44.000  
S33  40650883.097   213621829.492        -777.641          42.000  
E03  28005946.614   147172220.731       -3137.778          37.000    28005958.127   112768349.305       -2404.037          42.000  
R23  22900442.628   122501899.163       -5036.246          49.000                                                                  
R17  22850646.587   122278433.998        2176.870          46.000    22850647.546    95105448.173        1693.073          49.000  
R08  23431983.246   125477167.621       -3363.428          44.000    23431981.892    97593349.568       -2615.983          45.000  
E07  25330677.583   133113612.976         389.380          46.000    25330683.584   101996165.740         298.365          51.000  
E08  24696459.511   129780764.622       -1872.458          49.000    24696461.782    99442411.077       -1434.699          53.000  
E13  24238912.338   127376343.172       -1126.588          47.000    24238917.817    97600070.667        -863.183          52.000  
E15  26563856.814   139593984.634       -3465.626          47.000    26563864.316   106961649.131       -2655.459          50.000  
E26  26430470.401   138893063.461        1464.043          43.000    26430474.036   106424573.573        1121.684          45.000  
G06  23642085.885   124239952.679        2240.322          42.000    23642088.385    96810404.451        1745.756          42.000  
G31  25019862.653   131480244.249       -3171.152          42.000    25019865.404   102452144.856       -2471.618          36.000  
E18  28173087.209   148050534.604        -362.627          39.000                                                                  
> 2024 04 15 14 36 30.0030000  0 27                     
G02  24303070.750   127713467.115       -4661.470          47.000                                                                  
G03  21983673.223   115524978.932       -1468.216          49.000    21983674.282    90019465.292       -1144.010          46.000  
G04  21282321.071   111839342.665       -1889.207          48.000    21282319.476    87147530.836       -1471.936          49.000  
G09  22007742.891   115651469.756         480.558          48.000    22007742.711    90118028.774         374.379          45.000  
G17  24125684.451   126781322.678       -3303.547          43.000    24125687.312    98790635.430       -2574.347          40.000  
G19  24417296.013   128313750.344       -1752.156          43.000                                                                  
R10  23835520.346                1      -1185.016          27.000                                                                  
R02  22786550.941   121593409.242        1005.688          49.000    22786554.095    94572662.907         782.067          46.000  
R11  23177262.272   123852298.585        1923.048          50.000    23177266.223    96329593.406        1495.691          46.000  
R01  21085300.965   112713009.638       -1177.930          49.000    21085301.537    87665677.048        -916.481          45.000  
R24  20725369.765   110827864.591       -1773.834          52.000    20725370.669    86199443.052       -1379.630          50.000  
G21  25324372.231   133080422.154       -5089.563          29.000                                                                  
G07  25190606.298   132377524.796        3274.156          45.000    25190609.270   103151391.332        2551.366          40.000  
S31  39704353.343   208647781.481        -781.810          44.000  
S33  40655330.310   213645200.980        -781.020          42.000  
E03  28023866.793   147266382.070       -3140.227          38.000    28023877.002   112840498.593       -2406.363          42.000  
R23  22928721.790   122653171.103       -5048.899          49.000                                                                  
R17  22838505.257   122213462.834        2154.041          47.000    22838506.003    95054915.111        1675.476          49.000  
R08  23450831.137   125578105.734       -3366.115          42.000    23450831.225    97671856.680       -2618.095          42.000  
E07  25328485.135   133102092.189         378.198          47.000    25328491.223   101987338.110         289.816          51.000  
E08  24707173.321   129837066.275       -1881.541          49.000    24707175.613    99485551.255       -1441.687          53.000  
E13  24245391.815   127410393.024       -1144.028          47.000    24245397.582    97626160.761        -876.469          52.000  
E15  26583670.769   139698107.888       -3476.306          46.000    26583678.012   107041431.695       -2663.680          49.000  
E26  26422144.437   138849309.618        1452.723          43.000    26422147.975   106391047.915        1113.240          45.000  
G06  23629334.204   124172943.639        2226.261          42.000    23629337.084    96758189.661        1735.038          42.000  
G31  25038010.240   131575606.448       -3186.602          42.000    25038012.445   102526452.836       -2483.172          36.000  
E18  28175149.299   148061378.934        -361.099          38.000                                                                  
> 2024 04 15 14 37 00.0030000  0 27                     
G02  24329710.797   127853461.259       -4670.788          46.000                                                                  
G03  21992088.549   115569201.811       -1479.601          48.000    21992089.853    90053924.611       -1152.878          46.000  
G04  21293148.929   111896246.635       -1903.864          48.000    21293147.969    87191871.589       -1483.613          49.000  
G09  22005043.872   115637288.527         465.349          48.000    22005044.957    90106978.524         362.550          45.000  
G17  24144581.068   126880625.337       -3316.179          43.000    24144584.303    98868013.984       -2583.954          40.000  
G19  24427351.418   128366591.641       -1769.883          42.000                                                                  
R10  23842258.884                1      -1212.767          32.000                                                                  
R02  22780929.000   121563412.522         994.609          49.000    22780934.232    94549332.138         773.638          48.000  
R11  23166519.553   123794890.245        1904.725          50.000    23166522.466    96284942.667        1481.370          45.000  
R01  21091942.194   112748511.942       -1188.314          49.000    21091942.767    87693289.895        -924.157          45.000  
R24  20735409.807   110881549.904       -1804.599          52.000    20735410.183    86241198.242       -1403.669          49.000  
G07  25171928.453   132279372.374        3269.919          45.000    25171931.543   103074909.170        2548.137          40.000  
S31  39708829.620   208671305.917        -785.980          44.000  
S33  40659802.377   213668701.567        -785.209          42.000  
E03  28041804.890   147360643.340       -3143.267          39.000    28041815.258   112912724.518       -2408.335          42.000  
R23  22957074.279   122804837.499       -5061.542          49.000    22956271.165                3      -3831.196          12.000  
R17  22826496.116   122149194.708        2131.032          48.000    22826496.197    95004928.868        1657.371          48.000  
R08  23469701.089   125679148.110       -3369.231          43.000    23469701.578    97750444.894       -2620.558          44.000  
E07  25326360.439   133090924.687         366.904          47.000    25326366.092   101978781.194         281.119          51.000  
E08  24717942.306   129893659.451       -1890.849          49.000    24717944.920    99528914.791       -1448.786          53.000  
E13  24251974.287   127444983.763       -1161.650          47.000    24251979.836    97652665.314        -890.030          52.000  
E15  26603549.244   139802573.246       -3487.527          46.000    26603557.280   107121476.404       -2672.141          49.000  
E26  26413886.570   138805911.923        1440.905          44.000    26413890.235   106357795.146        1104.247          46.000  
G06  23616667.063   124106373.053        2212.177          42.000    23616668.735    96706316.528        1723.740          41.000  
G31  25056249.390   131671451.684       -3202.353          42.000    25056251.492   102601137.216       -2495.316          36.000  
E18  28177207.332   148072196.658        -359.783          37.000                                                                  
E02  29451899.172                1       1253.912          30.000                                                                  
> 2024 04 15 14 37 30.0030000  0 27                     
G02  24356403.740   127993731.568       -4680.635          47.000                                                                  
G03  22000568.521   115613764.079       -1491.514          48.000    22000569.653    90088648.401       -1162.253          46.000  
G04  21304061.034   111953589.901       -1919.074          48.000    21304059.905    87236554.609       -1495.455          49.000  
G09  22002430.810   115623557.648         449.739          48.000    22002431.632    90096279.145         350.625          45.000  
G17  24163548.555   126980295.148       -3328.692          45.000    24163550.759    98945678.629       -2593.607          40.000  
G19  24437508.155   128419964.874       -1788.351          42.000                                                                  
R10  23849161.792   127129434.0581      -1240.851          33.000                                                                  
R02  22775369.395   121533742.184         983.267          50.000    22775374.168    94526255.249         764.744          48.000  
R11  23155878.241   123738029.544        1885.837          49.000    23155881.208    96240717.892        1466.748          43.000  
R01  21098639.335   112784317.112       -1198.791          47.000    21098641.233    87721138.319        -932.593          45.000  
R24  20745622.333   110936156.210       -1835.913          52.000    20745621.488    86283669.762       -1427.920          49.000  
G07  25153273.177   132181341.503        3265.243          45.000    25153276.816   102998521.724        2544.245          40.000  
S31  39713328.375   208694944.791        -790.223          44.000  
S33  40664296.444   213692315.371        -789.454          42.000  
E03  28059759.204   147454988.661       -3146.692          40.000    28059769.207   112985014.842       -2411.002          43.000  
R23  22985496.858   122956878.719       -5074.529          48.000                                                                  
R17  22814615.640   122085618.200        2107.118          48.000    22814614.866    94955480.527        1638.905          48.000  
R08  23488585.763   125780278.810       -3372.847          43.000    23488586.852    97829101.833       -2623.408          44.000  
E07  25324300.018   133080094.963         355.027          48.000    25324305.055   101970483.086         272.085          51.000  
E08  24728763.894   129950527.797       -1900.512          49.000    24728766.406    99572489.191       -1456.208          52.000  
E13  24258656.501   127480100.555       -1179.703          46.000    24258662.330    97679572.933        -903.893          52.000  
E15  26623489.941   139907364.242       -3498.842          45.000    26623498.554   107201770.603       -2680.854          49.000  
E26  26405693.619   138762857.018        1428.996          45.000    26405697.581   106324805.032        1095.042          46.000  
G06  23604080.431   124040228.664        2197.366          41.000    23604081.107    96654775.493        1712.182          41.000  
G31  25074576.771   131767762.591       -3218.576          44.000    25074579.312   102676184.460       -2508.064          36.000  
E18  28179257.343   148082972.181        -358.667          37.000                                                                  
E02  29444751.233   154733223.8901       1248.064          32.000    29444769.340   118561877.9761        955.894          36.000  
> 2024 04 15 14 38 00.0030000  0 27                     
G02  24383151.630   128134292.411       -4690.229          47.000                                                                  
G03  22009115.911   115658683.435       -1503.325          48.000    22009117.968    90123650.443       -1171.457          46.000  
G04  21315059.764   112011387.533       -1934.230          48.000    21315058.273    87281591.681       -1507.210          49.000  
G09  21999906.679   115610293.545         434.442          48.000    21999907.186    90085943.480         338.408          45.000  
G17  24182588.037   127080346.250       -3341.564          44.000    24182590.205    99023640.396       -2603.993          41.000  
G19  24447769.787   128473885.181       -1806.600          43.000                                                                  
R10  23856221.935   127167079.537       -1269.399          39.000                                                                  
R02  22769873.397   121504413.912         971.856          51.000    22769877.335    94503444.440         755.847          49.000  
R11  23145343.584   123681738.074        1866.759          48.000    23145346.261    96196935.767        1452.020          45.000  
R01  21105397.424   112820441.660       -1209.506          48.000    21105399.167    87749235.191        -941.054          45.000  
R24  20756009.629   110991699.208       -1867.121          53.000    20756008.865    86326869.809       -1452.178          49.000  
G07  25134645.040   132083451.787        3260.522          44.000    25134648.872   102922244.239        2540.703          39.000  
S31  39717851.587   208718714.571        -794.415          44.000  
S33  40668815.004   213716060.670        -793.727          42.000  
E03  28077729.418   147549434.202       -3150.061          38.000    28077742.211   113057381.889       -2413.512          43.000  
R23  23013991.676   123109307.912       -5087.461          47.000                                                                  
R17  22802866.201   122022754.114        2083.358          48.000    22802866.904    94906586.262        1620.422          47.000  
R08  23507490.843   125881514.430       -3376.104          43.000    23507491.754    97907840.378       -2626.043          44.000  
E07  25322306.641   133069619.506         343.249          47.000    25322311.269   101962456.428         263.054          50.000  
E08  24739640.786   130007687.035       -1910.221          48.000    24739643.511    99616286.493       -1463.653          52.000  
E13  24265443.006   127515760.542       -1197.723          47.000    24265448.086    97706896.768        -917.697          52.000  
E15  26643496.591   140012496.435       -3510.155          46.000    26643504.378   107282326.242       -2689.529          49.000  
E26  26397569.128   138720163.563        1417.005          45.000    26397573.690   106292091.873        1085.667          47.000  
G06  23591577.703   123974530.221        2182.454          41.000    23591579.328    96603581.938        1700.833          41.000  
G31  25092996.165   131864554.212       -3234.486          45.000    25092998.167   102751606.250       -2520.140          35.000  
E18  28181303.580   148093721.960        -357.906          38.000                                                                  
E02  29437640.599   154695876.657        1241.932          35.000    29437661.912   118533261.635         951.713          38.000  
> 2024 04 15 14 38 30.0030000  0 27                     
G02  24409952.621   128275129.842       -4698.947          47.000                                                                  
G03  22017730.106   115703949.706       -1514.348          49.000    22017732.220    90158922.794       -1179.955          46.000  
G04  21326141.548   112069626.783       -1948.366          47.000    21326140.502    87326972.866       -1518.152          48.000  
G09  21997469.373   115597484.847         419.657          48.000    21997470.085    90075962.687         327.011          45.000  
G17  24201697.881   127180764.322       -3353.023          45.000    24201699.832    99101888.049       -2612.771          41.000  
G19  24458132.292   128528339.624       -1823.609          43.000                                                                  
R10  23863440.739   127205559.312       -1296.196          40.000                                                                  
R02  22764440.147   121475416.537         961.471          51.000    22764443.276    94480890.974         747.751          49.000  
R11  23134915.281   123626009.298        1848.611          48.000    23134919.236    96153591.337        1437.708          47.000  
R01  21112212.595   112856873.076       -1218.969          48.000    21112213.752    87777570.694        -948.122          45.000  
R24  20766568.592   111048166.140       -1897.277          52.000    20766567.326    86370788.465       -1475.752          48.000  
G07  25116042.352   131985695.098        3256.673          45.000    25116046.333   102846070.434        2537.260          40.000  
S31  39722397.676   208742603.329        -797.761          44.000  
S33  40673356.164   213739925.681        -797.369          42.000  
E03  28095719.934   147643968.229       -3152.304          37.000    28095731.129   113129816.743       -2415.521          41.000  
R23  23042555.542   123262109.484       -5099.135          46.000    23041562.135                3      -3918.260          12.000  
R17  22791250.587   121960595.196        2060.611          48.000    22791251.386    94858240.462        1602.767          48.000  
R08  23526412.747   125982843.666       -3378.754          44.000    23526414.847    97986651.754       -2628.065          44.000  
E07  25320378.154   133059486.911         332.356          47.000    25320382.852   101954692.488         254.715          50.000  
E08  24750571.616   130065124.975       -1918.936          49.000    24750573.575    99660297.355       -1470.336          52.000  
E13  24272330.165   127551952.981       -1214.977          47.000    24272335.229    97734628.589        -930.929          52.000  
E15  26663565.497   140117957.468       -3520.514          46.000    26663573.450   107363133.851       -2697.463          49.000  
E26  26389511.522   138677822.394        1405.670          45.000    26389516.439   106259648.634        1077.091          47.000  
G06  23579157.997   123909269.569        2168.429          41.000    23579160.812    96552729.565        1689.697          42.000  
G31  25111504.874   131961813.142       -3249.252          44.000    25111506.073   102827392.237       -2531.347          34.000  
E18  28183341.014   148104434.508        -356.218          37.000                                                                  
E02  29430568.185   154658696.866        1236.899          35.000    29430587.294   118504773.614         947.833          39.000  
> 2024 04 15 14 39 00.0030000  0 27                     
G02  24436798.491   128416203.194       -4706.467          46.000                                                                  
G03  22026403.627   115749525.761       -1524.303          49.000    22026404.967    90194436.542       -1187.673          47.000  
G04  21337301.059   112128267.903       -1961.441          47.000    21337300.079    87372667.202       -1528.310          49.000  
G09  21995110.852   115585093.175         406.158          48.000    21995111.270    90066306.894         316.494          44.000  
G17  24220869.848   127281508.041       -3363.555          45.000    24220870.706    99180389.458       -2620.596          41.000  
G19  24468587.865   128583288.272       -1839.685          42.000                                                                  
R10  23870808.528   127244835.523       -1322.535          39.000                                                                  
R02  22759060.776   121446710.552         951.952          51.000    22759063.408    94458564.179         740.470          48.000  
R11  23124584.795   123570808.659        1831.148          48.000    23124588.872    96110657.704        1424.276          47.000  
R01  21119078.520   112893571.828       -1227.657          49.000    21119078.485    87806114.147        -954.793          45.000  
R24  20777293.542   111105516.992       -1926.381          52.000    20777292.154    86415394.627       -1498.277          48.000  
G07  25097458.194   131888036.172        3253.564          45.000    25097462.462   102769972.762        2535.072          40.000  
S31  39726959.352   208766574.856        -800.519          44.000  
S33  40677913.359   213763872.973        -799.861          42.000  
E03  28113717.141   147738552.040       -3153.227          35.000    28113729.406   113202289.810       -2416.339          38.000  
R23  23071182.048   123415240.388       -5109.780          47.000                                                                  
R17  22779759.577   121899106.267        2038.419          49.000    22779760.586    94810415.788        1585.521          48.000  
R08  23545347.376   126084227.485       -3380.369          45.000    23545347.279    98065505.574       -2629.275          43.000  
E07  25318507.829   133049658.866         322.685          47.000    25318512.666   101947161.915         247.276          50.000  
E08  24761546.967   130122802.501       -1926.429          49.000    24761549.152    99704491.795       -1476.089          52.000  
E13  24279312.965   127588640.163       -1230.994          48.000    24279316.551    97762739.494        -943.230          52.000  
E15  26683690.456   140223708.050       -3529.757          47.000    26683697.609   107444163.317       -2704.634          49.000  
E26  26381513.922   138635797.326        1395.329          45.000    26381519.470   106227447.581        1069.471          47.000  
G06  23566815.321   123844411.699        2155.279          40.000    23566819.288    96502190.998        1679.259          42.000  
G31  25130093.261   132059499.207       -3263.419          44.000    25130096.882   102903511.038       -2542.893          36.000  
E18  28185365.833   148115071.524        -353.329          36.000                                                                  
E02  29423516.602   154621648.706        1232.497          36.000    29423536.942   118476386.527         944.834          39.000  
> 2024 04 15 14 39 30.0030000  0 27                     
G02  24463686.590   128557502.632       -4713.600          46.000                                                                  
G03  22035134.381   115795405.124       -1534.296          49.000    22035135.071    90230186.640       -1195.458          46.000  
G04  21348535.017   112187301.800       -1974.314          47.000    21348534.487    87418667.615       -1538.405          49.000  
G09  21992831.417   115573110.889         392.669          49.000    21992831.139    90056970.092         306.052          44.000  
G17  24240100.614   127382566.641       -3373.634          44.000    24240102.011    99259136.259       -2628.835          41.000  
G19  24479136.902   128638721.995       -1855.697          43.000                                                                  
R10  23878323.640   127284900.248       -1348.690          39.000                                                                  
R02  22753734.017   121418287.900         942.763          50.000    22753736.048    94436457.722         733.243          47.000  
R11  23114352.008   123516133.140        1813.877          48.000    23114356.805    96068132.498        1410.738          47.000  
R01  21125992.252   112930528.993       -1236.088          49.000    21125992.697    87834858.581        -961.466          45.000  
R24  20788181.441   111163742.466       -1955.274          52.000    20788181.152    86460681.044       -1520.865          49.000  
G07  25078892.164   131790470.688        3250.801          45.000    25078896.580   102693947.917        2532.867          40.000  
S31  39731535.208   208790620.624        -802.652          44.000  
S33  40682484.415   213787894.713        -801.860          42.000  
E03  28131722.701   147833177.780       -3154.490          34.000    28131736.454   113274794.955       -2417.078          39.000  
R23  23099868.659   123568689.015       -5120.140          46.000                                                                  
R17  22768392.361   121838283.737        2016.351          48.000    22768393.736    94763109.435        1568.279          48.000  
R08  23564288.558   126185657.518       -3381.636          44.000    23564289.948    98144395.329       -2630.128          45.000  
E07  25316694.303   133040127.713         312.969          47.000    25316699.054   101939858.840         239.787          50.000  
E08  24772566.779   130180711.181       -1933.997          49.000    24772568.950    99748863.356       -1481.884          52.000  
E13  24286387.010   127625815.045       -1247.126          48.000    24286390.639    97791224.106        -955.520          51.000  
E15  26703866.983   140329739.527       -3538.853          46.000    26703874.929   107525408.034       -2711.705          49.000  
E26  26373575.301   138594082.885        1385.227          44.000    26373581.741   106195484.555        1061.623          47.000  
G06  23554549.525   123779952.213        2142.189          39.000    23554553.214    96451962.823        1669.008          42.000  
G31  25148762.121   132157603.214       -3277.002          45.000    25148766.514   102979955.521       -2553.175          38.000  
E18  28187376.011   148125625.199        -349.965          38.000                                                                  
E02  29416490.117   154584726.915        1228.938          36.000    29416510.638   118448096.227         941.748          40.000  
> 2024 04 15 14 40 00.0030000  0 27                     
G02  24490616.232   128699019.643       -4721.268          46.000                                                                  
G03  22043921.334   115841582.747       -1544.685          49.000    22043922.375    90266169.166       -1203.694          46.000  
G04  21359841.814   112246720.852       -1987.460          47.000    21359841.418    87464968.167       -1548.702          49.000  
G09  21990628.787   115561531.697         378.746          49.000    21990627.563    90047947.345         295.221          44.000  
G17  24259389.640   127483930.983       -3384.250          45.000    24259391.285    99338121.277       -2637.139          40.000  
G19  24489776.968   128694633.243       -1872.024          42.000                                                                  
R10  23885986.648   127325748.023       -1375.160          39.000                                                                  
R02  22748458.539   121390142.180         932.997          49.000    22748461.498    94414566.604         725.783          47.000  
R11  23104220.030   123461981.246        1795.842          50.000    23104222.669    96026014.488        1396.786          47.000  
R01  21132952.457   112967737.582       -1244.952          48.000    21132953.526    87863798.562        -968.352          46.000  
R24  20799232.036   111222835.090       -1984.622          52.000    20799232.005    86506641.917       -1543.555          49.000  
G07  25060342.439   131692995.855        3247.246          44.000    25060347.131   102617993.693        2530.509          40.000  
S31  39736123.842   208814735.314        -805.363          43.000  
S33  40687068.993   213811984.898        -804.854          42.000  
E03  28149739.224   147927838.882       -3156.258          35.000    28149749.789   113347327.150       -2418.378          39.000  
R23  23128613.528   123722445.139       -5130.772          47.000    23128353.279                3      -4050.552          10.000  
R17  22757151.453   121778125.466        1993.684          49.000    22757151.589    94716319.737        1550.760          47.000  
R08  23583236.669   126287127.653       -3383.370          42.000    23583238.155    98223316.317       -2631.600          43.000  
E07  25314936.198   133030887.226         302.658          47.000    25314940.763   101932778.471         231.976          51.000  
E08  24783629.243   130238844.019       -1941.911          48.000    24783631.307    99793406.662       -1487.959          52.000  
E13  24293552.250   127663472.048       -1263.749          47.000    24293556.776    97820078.129        -968.318          52.000  
E15  26724096.678   140436044.771       -3548.480          46.000    26724104.229   107606862.504       -2719.023          49.000  
E26  26365696.224   138552675.017        1374.808          44.000    26365701.818   106163756.429        1053.321          47.000  
G06  23542359.969   123715888.066        2128.165          40.000    23542362.591    96402042.750        1658.698          42.000  
G31  25167509.245   132256117.281       -3291.021          45.000    25167513.948   103056719.514       -2564.364          37.000  
E18  28189367.590   148136089.234        -347.692          38.000                                                                  
E02  29409489.334   154547927.660        1224.399          36.000    29409508.439   118419899.827         937.869          40.000  
> 2024 04 15 14 40 30.0030000  0 27                     
G02  24517589.950   128840764.178       -4728.528          46.000                                                                  
G03  22052768.113   115888072.214       -1554.962          48.000    22052769.263    90302394.663       -1211.617          46.000  
G04  21371223.954   112306535.982       -2000.398          47.000    21371223.599    87511577.344       -1558.692          49.000  
G09  21988503.853   115550367.831         365.101          49.000    21988504.226    90039248.257         284.701          45.000  
G17  24278739.408   127585610.425       -3394.415          44.000    24278739.259    99417351.818       -2645.097          39.000  
G19  24500509.608   128751032.451       -1887.951          43.000                                                                  
R10  23893798.467   127367391.255       -1401.529          35.000                                                                  
R02  22743238.795   121362285.075         923.763          50.000    22743241.458    94392900.027         718.592          47.000  
R11  23094188.052   123408370.194        1777.978          51.000    23094190.272    95984317.161        1382.739          47.000  
R01  21139962.003   113005209.567       -1253.458          47.000    21139963.486    87892943.394        -974.819          46.000  
R24  20810446.649   111282806.018       -2013.665          51.000    20810447.123    86553285.916       -1566.192          49.000  
G07  25041814.074   131595626.819        3243.821          45.000    25041818.299   102542121.928        2527.432          40.000  
S31  39740728.725   208838932.406        -807.862          44.000  
S33  40691668.866   213836157.567        -806.984          41.000  
E03  28167762.436   148022547.288       -3157.458          35.000    28167771.313   113419895.614       -2419.831          37.000  
R23  23157415.727   123876517.336       -5140.982          47.000                                                                  
R17  22746035.665   121718647.823        1971.087          48.000    22746036.906    94670059.420        1533.271          47.000  
R08  23602195.325   126388650.445       -3384.965          40.000    23602195.929    98302278.156       -2632.720          43.000  
E07  25313234.686   133021949.689         292.793          47.000    25313240.019   101925930.253         224.460          50.000  
E08  24794736.266   130297212.569       -1949.558          48.000    24794738.579    99838130.575       -1493.791          52.000  
E13  24300812.811   127701624.042       -1279.949          48.000    24300816.952    97849311.419        -980.657          52.000  
E15  26744379.744   140542635.037       -3557.762          46.000    26744387.961   107688535.376       -2726.093          49.000  
E26  26357879.190   138511588.227        1364.213          45.000    26357883.058   106132274.331        1045.240          47.000  
G06  23530247.155   123652234.911        2114.929          41.000    23530250.005    96352442.921        1648.171          42.000  
G31  25186335.837   132355051.808       -3304.911          46.000    25186339.904   103133811.102       -2575.035          37.000  
E18  28191340.698   148146475.989        -345.376          35.000                                                                  
E02  29402512.570   154511265.604        1219.998          36.000    29402530.579   118391808.576         934.673          39.000  
> 2024 04 15 14 41 00.0030000  0 27                     
G02  24544603.442   128982717.470       -4735.358          47.000                                                                  
G03  22061671.414   115934858.435       -1564.634          48.000    22061673.517    90338851.371       -1219.178          47.000  
G04  21382679.319   112366729.615       -2012.916          48.000    21382677.888    87558481.417       -1568.414          48.000  
G09  21986455.242   115539603.013         351.879          49.000    21986456.064    90030860.117         274.360          46.000  
G17  24298143.865   127687585.674       -3404.108          42.000    24298145.090    99496812.843       -2652.773          38.000  
G19  24511331.402   128807901.876       -1903.602          43.000                                                                  
R10  23901757.374   127409814.065       -1427.330          38.000                                                                  
R02  22738069.278   121334699.769         914.958          50.000    22738071.671    94371444.858         711.528          47.000  
R11  23084253.654   123355288.146        1760.442          51.000    23084256.103    95943031.261        1369.099          47.000  
R01  21147018.900   113042927.732       -1261.376          49.000    21147018.730    87922279.737        -981.185          45.000  
R24  20821822.998   111343637.301       -2042.116          52.000    20821822.707    86600599.084       -1588.325          49.000  
G07  25023302.415   131498350.743        3240.963          45.000    25023307.244   102466322.607        2525.135          40.000  
S31  39745345.605   208863193.987        -809.894          44.000  
S33  40696281.036   213860394.838        -809.364          41.000  
E03  28185792.581   148117286.547       -3159.067          36.000    28185799.900   113492487.734       -2420.469          36.000  
R23  23186272.677   124030885.231       -5150.540          47.000                                                                  
R17  22735045.282   121659838.465        1949.010          48.000    22735047.047    94624318.859        1515.791          47.000  
R08  23621160.674   126490209.344       -3385.564          41.000    23621162.717    98381268.104       -2633.418          44.000  
E07  25311588.253   133013298.861         283.464          47.000    25311593.771   101919301.726         217.207          50.000  
E08  24805885.096   130355799.789       -1956.782          47.000    24805887.347    99883022.032       -1499.306          52.000  
E13  24308164.193   127740255.385       -1295.890          48.000    24308168.339    97878912.017        -992.892          52.000  
E15  26764714.050   140649493.165       -3566.585          45.000    26764722.100   107770413.488       -2732.793          49.000  
E26  26350118.540   138470808.440        1354.020          45.000    26350122.720   106101027.479        1037.414          47.000  
G06  23518209.409   123588979.729        2101.866          42.000    23518212.416    96303153.247        1637.133          42.000  
G31  25205239.231   132454389.218       -3318.127          46.000    25205241.896   103211216.656       -2585.630          37.000  
E18  28193298.588   148156769.189        -341.920          33.000                                                                  
E02  29395558.575   154474726.970        1215.761          34.000    29395576.488   118363811.837         931.532          36.000  
> 2024 04 15 14 41 30.0030000  0 27                     
G02  24571655.577   129124879.116       -4742.304          45.000                                                                  
G03  22070632.117   115981944.209       -1574.706          49.000    22070633.162    90375541.529       -1227.135          47.000  
G04  21394205.311   112427301.877       -2025.532          48.000    21394204.550    87605680.545       -1578.297          49.000  
G09  21984482.842   115529238.791         338.574          49.000    21984483.089    90022784.140         263.646          45.000  
G17  24317604.653   127789855.570       -3413.928          41.000    24317606.780    99576503.516       -2660.316          38.000  
G19  24522242.323   128865241.412       -1919.362          42.000                                                                  
R10  23909861.018   127453018.297       -1453.200          39.000                                                                  
R02  22732950.255   121307388.001         905.570          50.000    22732953.780    94350202.390         704.463          47.000  
R11  23074419.343   123302741.726        1742.399          49.000    23074424.661    95902162.012        1355.203          49.000  
R01  21154120.998   113080892.753       -1269.863          48.000    21154120.676    87951808.054        -987.630          45.000  
R24  20833360.049   111405329.336       -2070.915          52.000    20833358.840    86648581.697       -1610.672          49.000  
G07  25004809.748   131401172.787        3237.415          44.000    25004814.636   102390599.692        2522.821          39.000  
S31  39749975.071   208887523.674        -812.567          44.000  
S33  40700906.386   213884700.742        -811.640          42.000  
E03  28203828.760   148212057.866       -3159.642          38.000    28203833.832   113565104.416       -2421.371          37.000  
R23  23215185.161   124185546.415       -5160.391          48.000                                                                  
R17  22724183.085   121601702.969        1926.400          49.000    22724183.233    94579102.392        1498.278          47.000  
R08  23640134.443   126591805.784       -3387.640          41.000    23640135.996    98460287.263       -2634.514          44.000  
E07  25309997.574   133004936.326         273.852          48.000    25310002.533   101912894.098         209.811          50.000  
E08  24817074.931   130414606.490       -1964.035          47.000    24817078.000    99928081.674       -1504.951          52.000  
E13  24315606.237   127779368.225       -1311.962          48.000    24315611.401    97908881.556       -1005.243          52.000  
E15  26785098.542   140756619.711       -3575.420          44.000    26785107.716   107852497.288       -2739.702          48.000  
E26  26342416.449   138430339.407        1343.729          43.000    26342421.696   106070018.770        1029.456          47.000  
G06  23506248.556   123526127.412        2088.180          42.000    23506251.607    96254177.415        1627.188          41.000  
G31  25224219.421   132554128.853       -3331.683          45.000    25224221.887   103288935.567       -2596.141          37.000  
E18  28195243.953   148166970.293        -339.162          35.000                                                                  
E02  29388630.289   154438315.805        1211.178          36.000    29388647.077   118335912.706         928.153          37.000  
> 2024 04 15 14 42 00.0030000  0 27                     
G02  24598745.124   129267236.306       -4748.150          45.000                                                                  
G03  22079646.991   116029320.273       -1583.900          49.000    22079648.879    90412457.880       -1234.211          47.000  
G04  21405801.534   112488240.934       -2037.123          48.000    21405800.970    87653165.503       -1587.515          49.000  
G09  21982584.554   115519264.654         326.087          49.000    21982583.931    90015012.097         254.060          44.000  
G17  24337119.641   127892406.656       -3423.045          39.000    24337121.986    99656413.233       -2667.024          38.000  
G19  24533240.902   128923038.846       -1933.727          42.000                                                                  
R10  23918110.791   127496993.294       -1478.427          38.000                                                                  
R02  22727881.319   121280338.260         897.533          51.000    22727885.011    94329163.751         698.109          47.000  
R11  23064685.687   123250724.564        1725.287          51.000    23064689.899    95861704.404        1341.786          48.000  
R01  21161267.166   113119093.541       -1276.924          49.000    21161267.630    87981519.750        -993.353          46.000  
R24  20845055.087   111467869.869       -2098.573          51.000    20845054.224    86697224.281       -1632.209          48.000  
G07  24986334.475   131304084.984        3234.836          45.000    24986338.988   102314947.073        2520.743          40.000  
S31  39754616.326   208911911.217        -813.341          44.000  
S33  40705542.709   213909064.544        -812.943          42.000  
E03  28221867.396   148306850.627       -3159.414          37.000    28221873.986   113637737.478       -2421.010          39.000  
R23  23244149.969   124340486.466       -5169.010          48.000                                                                  
R17  22713443.766   121544234.793        1904.771          49.000    22713443.485    94534404.942        1481.419          47.000  
R08  23659112.037   126693429.309       -3387.449          42.000    23659114.706    98539327.624       -2634.725          46.000  
E07  25308458.474   132996851.608         265.235          47.000    25308464.170   101906699.325         203.284          50.000  
E08  24828305.727   130473621.497       -1970.316          48.000    24828308.067    99973300.904       -1509.713          52.000  
E13  24323139.371   127818952.690       -1327.017          48.000    24323144.137    97939212.481       -1016.829          52.000  
E15  26805533.905   140864003.309       -3583.375          46.000    26805542.038   107934778.028       -2745.782          48.000  
E26  26334773.335   138390172.941        1334.130          44.000    26334778.260   106039241.878        1022.131          47.000  
G06  23494363.058   123463670.766        2075.492          42.000    23494366.066    96205509.928        1617.233          41.000  
G31  25243273.155   132654258.482       -3343.965          44.000    25243275.707   103366958.415       -2605.916          38.000  
E18  28197163.980   148177068.807        -335.234          34.000                                                                  
E02  29381722.224   154402024.013        1208.221          36.000    29381739.503   118308105.055         925.636          37.000  
> 2024 04 15 14 42 30.0030000  0 27                     
G02  24625868.610   129409769.058       -4753.809          45.000                                                                  
G03  22088714.627   116076970.364       -1592.786          49.000    22088716.610    90449587.739       -1241.031          47.000  
G04  21417464.523   112549527.900       -2048.518          48.000    21417463.587    87700921.535       -1596.235          49.000  
G09  21980756.566   115509662.991         314.102          48.000    21980756.714    90007530.277         244.559          44.000  
G17  24356683.458   127995218.182       -3430.924          39.000    24356687.360    99736525.952       -2673.400          36.000  
G19  24544322.868   128981275.684       -1948.223          41.000                                                                  
R10  23926503.261   127541721.968       -1503.215          41.000                                                                  
R02  22722858.330   121253532.668         889.688          52.000    22722861.972    94308315.029         691.870          47.000  
R11  23055047.603   123199223.575        1708.279          50.000    23055051.696    95821648.240        1328.551          47.000  
R01  21168453.993   113157511.735       -1283.992          48.000    21168455.345    88011400.531        -998.603          46.000  
R24  20856905.392   111531239.854       -2125.881          51.000    20856904.424    86746511.969       -1653.532          48.000  
G07  24967873.710   131207073.467        3232.564          46.000    24967877.964   102239353.862        2519.386          39.000  
S31  39759264.798   208936338.702        -814.609          44.000  
S33  40710186.519   213933468.353        -813.928          42.000  
E03  28239907.312   148401647.061       -3159.798          37.000    28239914.675   113710373.327       -2421.121          40.000  
R23  23273162.819   124495683.498       -5177.205          48.000                                                                  
R17  22702825.834   121487420.025        1883.135          49.000    22702825.934    94490215.729        1464.546          47.000  
R08  23678090.605   126795062.006       -3387.685          42.000    23678093.915    98618374.938       -2634.973          45.000  
E07  25306969.649   132989027.153         256.715          47.000    25306975.099   101900703.978         196.813          50.000  
E08  24839572.112   130532826.516       -1976.380          48.000    24839574.545   100018665.740       -1514.447          52.000  
E13  24330758.997   127858991.824       -1341.964          48.000    24330763.239    97969891.762       -1028.256          52.000  
E15  26826014.480   140971625.384       -3591.059          47.000    26826021.832   108017241.507       -2751.629          48.000  
E26  26327183.599   138350293.620        1324.739          42.000    26327189.841   106008685.002        1015.142          48.000  
G06  23482550.878   123401595.492        2062.902          43.000    23482553.539    96157139.602        1607.452          42.000  
G31  25262397.933   132754759.080       -3356.008          43.000    25262400.367   103445270.304       -2615.074          38.000  
E18  28199064.094   148187047.217        -330.475          35.000                                                                  
E02  29374835.406   154365836.661        1204.370          37.000    29374854.693   118280377.369         923.112          41.000  
> 2024 04 15 14 43 00.0030000  0 27                     
G02  24653022.659   129552465.245       -4759.277          45.000                                                                  
G03  22097832.654   116124885.603       -1601.478          49.000    22097834.147    90486924.216       -1247.908          47.000  
G04  21429190.418   112611151.344       -2059.725          47.000    21429190.355    87748939.769       -1604.945          49.000  
G09  21978998.622   115500423.739         301.859          48.000    21978998.835    90000330.851         235.104          44.000  
G17  24376294.995   128098277.586       -3439.880          37.000    24376299.274    99816831.811       -2680.007          36.000  
G19  24555485.343   129039939.886       -1962.428          39.000                                                                  
R10  23935033.752   127587193.950       -1528.118          40.000                                                                  
R02  22717879.886   121226960.739         881.915          51.000    22717882.151    94287647.989         685.864          47.000  
R11  23045504.805   123148233.665        1691.170          50.000    23045508.778    95781989.562        1315.338          46.000  
R01  21175679.202   113196136.033       -1290.877          49.000    21175680.556    88041441.632       -1003.936          45.000  
R24  20868907.860   111595427.287       -2153.180          51.000    20868907.449    86796435.469       -1674.794          48.000  
G07  24949426.244   131110131.486        3230.356          46.000    24949430.382   102163814.879        2516.805          40.000  
S31  39763919.070   208960798.399        -815.975          44.000  
S33  40714836.429   213957903.848        -814.889          42.000  
E03  28257942.212   148496436.828       -3159.508          36.000    28257953.556   113783004.028       -2420.857          39.000  
R23  23302220.514   124651123.778       -5185.262          48.000    23301092.893                3      -4106.902          10.000  
R17  22692328.461   121431252.568        1861.375          49.000    22692330.202    94446529.946        1447.840          47.000  
R08  23697069.754   126896693.851       -3387.733          42.000    23697073.792    98697421.676       -2634.868          45.000  
E07  25305528.163   132981452.931         248.264          47.000    25305533.686   101894900.340         190.354          50.000  
E08  24850872.917   130592210.754       -1982.447          49.000    24850874.954   100064167.908       -1518.998          52.000  
E13  24338462.579   127899476.095       -1356.877          48.000    24338467.198    98000912.142       -1039.678          52.000  
E15  26846537.711   141079474.953       -3598.834          46.000    26846545.429   108099879.310       -2757.533          48.000  
E26  26319648.446   138310693.594        1315.132          43.000    26319653.924   105978342.143        1007.937          48.000  
G06  23470809.713   123339894.881        2050.631          43.000    23470812.475    96109061.203        1597.883          41.000  
G31  25281590.539   132855618.864       -3368.081          41.000    25281594.098   103523862.070       -2624.543          38.000  
E18  28200938.179   148196895.414        -325.867          35.000                                                                  
E02  29367968.247   154329746.097        1201.475          38.000    29367987.710   118252723.907         920.504          42.000  
> 2024 04 15 14 43 30.0030000  0 27                     
G02  24680205.846   129695310.947       -4763.831          45.000                                                                  
G03  22106999.587   116173055.877       -1609.778          50.000    22107000.432    90524459.423       -1254.321          46.000  
G04  21440978.187   112673098.470       -2070.167          47.000    21440978.080    87797210.214       -1613.203          49.000  
G09  21977307.653   115491535.331         290.603          49.000    21977307.968    89993404.834         226.347          45.000  
G17  24395950.855   128201570.235       -3446.671          40.000    24395955.261    99897319.386       -2686.117          35.000  
G19  24566726.902   129099018.289       -1976.088          39.000                                                                  
R10  23943702.108   127633398.419       -1551.930          39.000                                                                  
R02  22712941.074   121200610.553         874.797          49.000    22712943.758    94267153.434         680.357          47.000  
R11  23036056.830   123097747.330        1674.459          50.000    23036061.944    95742722.589        1302.454          48.000  
R01  21182940.959   113234954.532       -1296.947          48.000    21182941.597    88071633.767       -1008.782          45.000  
R24  20881062.915   111660418.949       -2179.703          52.000    20881062.160    86846984.480       -1695.239          49.000  
G07  24930990.560   131013250.771        3228.350          46.000    24930994.516   102088323.608        2515.662          40.000  
S31  39768577.367   208985277.338        -816.167          44.000  
S33  40719489.955   213982358.773        -815.358          42.000  
E03  28275975.820   148591208.142       -3158.264          39.000    28275986.442   113855620.650       -2420.278          34.000  
R23  23331321.211   124806791.561       -5192.569          48.000                                                                  
R17  22681953.224   121375724.472        1840.254          50.000    22681953.739    94403341.471        1431.332          47.000  
R08  23716047.071   126998313.041       -3387.025          41.000    23716050.275    98776458.559       -2634.585          44.000  
E07  25304131.855   132974117.428         240.694          47.000    25304137.783   101889279.662         184.396          50.000  
E08  24862205.341   130651762.084       -1987.656          49.000    24862207.373   100109798.108       -1523.061          51.000  
E13  24346248.842   127940394.645       -1371.117          47.000    24346253.734    98032265.280       -1050.597          52.000  
E15  26867100.340   141187539.593       -3605.574          45.000    26867109.601   108182681.875       -2762.635          48.000  
E26  26312163.942   138271363.624        1306.541          42.000    26312169.609   105948206.223        1001.212          48.000  
G06  23459138.920   123278560.804        2038.536          44.000    23459141.290    96061268.445        1588.245          41.000  
G31  25300850.270   132956824.483       -3379.305          41.000    25300852.896   103602723.355       -2633.405          39.000  
E18  28202786.019   148206602.025        -321.510          37.000                                                                  
E02  29361116.509   154293743.326        1198.595          38.000    29361136.452   118225137.627         918.527          43.000  
> 2024 04 15 14 44 00.0030000  0 27                     
G02  24707415.285   129838300.294       -4769.062          44.000                                                                  
G03  22116214.736   116221478.700       -1618.468          50.000    22116215.685    90562191.430       -1261.111          47.000  
G04  21452827.795   112735364.257       -2080.897          48.000    21452826.791    87845728.954       -1621.553          49.000  
G09  21975682.867   115482994.086         278.923          50.000    21975682.953    89986749.334         217.058          45.000  
G17  24415649.581   128305089.587       -3454.308          38.000    24415654.472    99977983.588       -2691.384          34.000  
G19  24578048.058   129158505.978       -1989.852          42.000                                                                  
R10  23952506.460   127680331.366       -1576.653          40.000                                                                  
R02  22708043.329   121174477.869         867.346          50.000    22708046.483    94246828.044         674.480          47.000  
R11  23026702.915   123047765.622        1657.422          49.000    23026707.184    95703848.091        1289.128          47.000  
R01  21190238.389   113273962.713       -1303.486          49.000    21190238.699    88101973.448       -1013.887          44.000  
R24  20893367.232   111726209.567       -2206.477          52.000    20893366.431    86898154.910       -1716.143          50.000  
G07  24912566.706   130916431.317        3226.118          46.000    24912569.994   102012880.074        2513.802          40.000  
S31  39773238.744   209009772.913        -816.933          44.000  
S33  40724147.126   214006831.583        -816.347          42.000  
E03  28294006.132   148685957.265       -3158.106          38.000    28294016.278                       -2419.880          31.000  
R23  23360463.725   124962679.212       -5199.992          49.000                                                                  
R17  22671696.038   121320836.314        1818.744          49.000    22671696.577    94360650.699        1414.454          48.000  
R08  23735021.465   127099916.056       -3386.612          41.000    23735024.502    98855482.773       -2634.138          44.000  
E07  25302781.347   132967017.035         232.607          47.000    25302786.621   101883839.111         178.284          50.000  
E08  24873568.880   130711476.128       -1993.341          49.000    24873570.282   100155552.980       -1527.351          51.000  
E13  24354117.602   127981744.301       -1385.645          48.000    24354122.514    98063948.749       -1061.737          52.000  
E15  26887704.429   141295814.721       -3612.732          44.000    26887714.079   108265645.704       -2768.320          48.000  
E26  26304731.605   138232302.297        1297.249          42.000    26304736.321   105918276.135         994.034          48.000  
G06  23447537.223   123217592.815        2026.022          44.000    23447539.839    96013760.972        1578.600          42.000  
G31  25320174.191   133058370.618       -3390.717          40.000    25320176.553   103681849.932       -2642.228          38.000  
E18  28204603.654   148216163.291        -316.268          36.000                                                                  
E02  29354281.764   154257827.078        1195.668          38.000    29354300.978   118197617.634         916.000          43.000  
> 2024 04 15 14 44 30.0030000  0 27                     
G02  24734651.335   129981425.327       -4773.017          45.000                                                                  
G03  22125476.308   116270149.577       -1626.498          50.000    22125477.463    90600116.729       -1267.427          47.000  
G04  21464736.528   112797941.644       -2091.035          47.000    21464734.711    87894490.489       -1629.402          48.000  
G09  21974122.667   115474794.229         267.673          50.000    21974122.286    89980359.806         208.696          45.000  
G17  24435391.172   128408827.121       -3461.180          41.000    24435393.637                       -2696.877          31.000  
G19  24589444.632   129218395.358       -2003.027          43.000                                                                  
R10  23961446.143   127727986.801       -1600.768          40.000                                                                  
R02  22703185.392   121148556.926         860.547          50.000    22703188.945    94226667.322         669.206          47.000  
R11  23017445.454   122998287.775        1640.859          50.000    23017449.429    95665365.457        1276.171          48.000  
R01  21197570.630   113313154.176       -1309.428          50.000    21197570.538    88132455.687       -1018.362          44.000  
R24  20905819.003   111792791.909       -2232.576          52.000    20905817.922    86949941.130       -1736.361          49.000  
G07  24894153.869   130819670.243        3224.604          45.000    24894157.009   101937482.066        2512.505          40.000  
S31  39777902.731   209034281.011        -817.217          44.000  
S33  40728806.262   214031315.292        -816.038          42.000  
E03  28312033.200   148780678.234       -3156.630          38.000    28312042.500   114000798.498       -2418.712          35.000  
R23  23389644.497   125118777.471       -5206.586          48.000                                                                  
R17  22661558.151   121266586.279        1797.756          49.000    22661557.889    94318456.244        1398.178          47.000  
R08  23753990.449   127201497.482       -3385.401          39.000    23753993.666    98934490.195       -2633.350          44.000  
E07  25301474.255   132960146.010         225.267          48.000    25301479.247   101878574.330         172.572          51.000  
E08  24884961.919   130771346.413       -1998.191          49.000    24884963.174   100201427.565       -1531.051          51.000  
E13  24362067.583   128023519.897       -1399.526          48.000    24362072.001    98095958.574       -1072.344          52.000  
E15  26908348.306   141404293.537       -3619.233          45.000    26908357.074   108348765.637       -2773.197          48.000  
E26  26297348.856   138193506.047        1288.964          42.000    26297353.591   105888549.175         987.555          48.000  
G06  23436003.849   123156988.505        2014.091          44.000    23436006.958    95966536.880        1569.478          42.000  
G31  25339561.578   133160249.480       -3401.465          38.000    25339563.745   103761235.832       -2650.241          39.000  
E18  28206395.776   148225573.576        -311.143          37.000                                                                  
E02  29347462.177   154221994.301        1192.963          37.000    29347482.101   118170161.453         914.044          43.000  
