     3.00           OBSERVATION DATA    M: Mixed            RINEX VERSION / TYPE
CONVBIN 2.4.3                           20240415 222942 UTC PGM / RUN BY / DATE 
format: u-blox UBX                                          COMMENT             
log: /home/regis/git/gnsspwv/obsdata/VERT00CHL/2024-04-15/VECOMMENT             
{self.marker}                                               MARKER NAME         
                                                            MARKER NUMBER       
GEODETIC                                                    MARKER TYPE         
{self.observer}     {self.institution}                      OBSERVER / AGENCY   
UNKNOWN             UBLOX-ZED-F9P                           REC # / TYPE / VERS 
UNKNOWN             TWIVSP6037L                             ANT # / TYPE        
  1713381.0000 -5047934.0000 -3490983.0000                  APPROX POSITION XYZ 
        0.0000        0.0000        0.0000                  ANTENNA: DELTA H/E/N
G    8 C1C L1C D1C S1C C2L L2L D2L S2L                      SYS / # / OBS TYPES 
R    8 C1C L1C D1C S1C C2C L2C D2C S2C                      SYS / # / OBS TYPES 
E    8 C1C L1C D1C S1C C7Q L7Q D7Q S7Q                      SYS / # / OBS TYPES 
S    4 C1C L1C D1C S1C                                      SYS / # / OBS TYPES 
  2024    04    15    22    15   00.4960000     GPS         TIME OF FIRST OBS   
  2024    04    15    22    29   30.4970000     GPS         TIME OF LAST OBS    
                                                            END OF HEADER       
> 2024 04 15 22 15 00.4960000  0 24                     
G05  23438763.098   123171175.8791      -3708.249          41.000    23438786.722    95977449.6501      -2889.693          38.000  
E19  22244778.951   116897105.8331       -548.235          43.000    22244780.642    89570657.4051       -420.071          46.000  
G24  21262983.320   111737853.8721       1262.328          45.000    21262984.135    87068490.2801        983.761          44.000  
E27  24895212.463   130825235.7201      -3063.474          40.000    24895217.327   100243037.4321      -2347.305          49.000  
R16  20942033.436   111868578.5911       1167.067          50.000    20942037.882    87009072.4491        907.718          49.000  
R17  22050028.427   117994426.9001       2635.880          50.000    22050041.077    91773573.4531       2049.947          49.000  
R04  19834367.282   106212134.0931      -4585.318          52.000    19834367.708    82609431.1981      -3566.451          49.000  
R06  22116702.486   118018969.0131       2910.243          29.000                                                                  
R15  18851998.033   100739581.8071      -1248.345          51.000    18851997.926    78353313.8381       -970.858          49.000  
R05  18406573.600    98393749.8691       -994.110          53.000    18406573.325    76528375.0951       -773.179          49.000  
G19  20119327.537   105728242.3761          6.163          48.000                                                                  
S31  37619517.871   197691913.3601       -784.390          44.000  
S33  38569672.603   202685013.2091       -785.801          42.000  
G14  22595433.609   118740046.0551      -3973.779          39.000    22595432.798    92524841.2601      -3096.484          40.000  
R24  21626631.831   115647526.1511        288.348          44.000    21626632.787    89948156.8511        224.380          42.000  
R14  20796291.017   110856194.0131      -3327.759          51.000    20796292.865    86221665.4071      -2588.263          50.000  
E04  25770731.875   135425992.3841       1805.618          32.000    25770726.908   103768077.6101       1383.184          34.000  
G12  21999570.271   115608609.5681       1733.535          43.000    21999574.893    90084774.7521       1350.849          39.000  
G13  19190089.711   100844693.8801      -2161.105          49.000                                                                  
G17  20478775.741   107617119.9311      -1292.951          47.000    20478773.580    83857703.2641      -1007.615          45.000  
G15  19492476.312   102433700.3721       -395.068          49.000    19492474.104    79818501.4821       -307.831          46.000  
G22  20404209.381   107225146.9671      -3321.069          50.000                                                                  
G30  23860908.028   125389922.1801      -3349.056          40.000    23860914.521    97706460.3721      -2609.599          38.000  
E21  22363570.336   117521360.7881      -1244.953          47.000    22363573.625    90049284.9271       -953.924          52.000  
> 2024 04 15 22 15 30.4960000  0 24                     
G05  23459926.913   123282385.786       -3705.631          40.000    23459950.576    96064105.580       -2887.420          39.000  
E19  22247944.119   116913735.691        -560.292          43.000    22247945.114    89583399.779        -429.272          46.000  
G24  21255780.510   111700003.988        1261.082          44.000    21255781.619    87038996.960         982.638          45.000  
E27  24912702.278   130917150.535       -3064.160          37.000    24912708.403   100313465.695       -2347.895          49.000  
R16  20935498.922   111833677.954        1159.785          50.000    20935504.483    86981927.692         902.031          49.000  
R17  22035263.254   117915421.515        2631.146          50.000    22035274.645    91712125.966        2046.430          47.000  
R04  19860093.165   106349901.262       -4599.077          52.000    19860094.601    82716583.192       -3577.119          49.000  
R06  22100355.875                1       2898.666          26.000                                                                  
R15  18859027.679   100777146.238       -1255.964          51.000    18859027.885    78382530.683        -976.918          49.000  
R05  18412229.256    98423985.841       -1021.575          52.000    18412229.076    76551891.946        -794.515          49.000  
G19  20119347.168   105728344.388         -12.847          48.000                                                                  
S31  37623995.341   197715442.391        -784.091          44.000  
S33  38574158.370   202708586.311        -785.667          42.000  
G14  22618119.551   118859261.135       -3973.926          39.000    22618117.068    92617736.196       -3096.594          37.000  
R24  21625072.597   115639198.432         266.828          43.000    21625075.176    89941679.895         207.741          43.000  
R14  20815017.732   110956022.438       -3327.441          52.000    20815019.695    86299309.757       -2587.938          49.000  
E04  25760428.886                        1800.974          32.000    25760433.061   103726626.102        1380.109          34.000  
G12  21989700.098   115556739.687        1724.771          43.000    21989704.206    90044356.960        1344.091          40.000  
G13  19202473.961   100909773.175       -2177.729          50.000                                                                  
G17  20486214.645   107656214.774       -1313.324          47.000    20486213.490    83888166.879       -1023.349          46.000  
G15  19494781.529   102445814.345        -412.604          48.000    19494778.913    79827940.930        -321.405          46.000  
G22  20423191.718   107324899.112       -3328.986          50.000                                                                  
G30  23880033.593   125490423.437       -3350.866          41.000    23880039.655    97784772.931       -2611.153          40.000  
E21  22370698.499   117558819.694       -1252.290          47.000    22370701.646    90077987.263        -959.609          52.000  
> 2024 04 15 22 16 00.4960000  0 24                     
G05  23481073.372   123393507.989       -3702.417          40.000    23481097.957    96150693.137       -2884.874          38.000  
E19  22251177.922   116930732.214        -572.580          43.000    22251179.525    89596423.102        -438.604          46.000  
G24  21248585.093   111662192.424        1259.850          45.000    21248586.171    87009533.510         981.721          45.000  
E27  24930200.153   131009087.682       -3064.825          39.000    24930202.576   100383911.047       -2348.295          48.000  
R16  20929007.231   111798999.108        1152.450          50.000    20929012.409    86954955.420         896.272          48.000  
R17  22020525.733   117836561.760        2626.293          50.000    22020536.439    91650791.766        2042.632          47.000  
R04  19885896.558   106488080.333       -4612.570          51.000    19885898.632    82824055.541       -3587.425          49.000  
R06  22084092.559                3       2881.268          25.000                                                                  
R15  18866099.888   100814942.144       -1263.510          50.000    18866100.443    78411927.576        -982.800          49.000  
R05  18418039.479    98455046.204       -1048.863          52.000    18418039.617    76576049.993        -815.936          49.000  
G19  20119474.819   105729015.343         -31.722          48.000                                                                  
S31  37628470.917   197738962.492        -783.778          44.000  
S33  38578642.266   202732150.714        -785.192          42.000  
G14  22640806.028   118978480.039       -3973.840          39.000    22640804.117    92710634.137       -3096.656          37.000  
R24  21623636.715   115631511.277         245.733          45.000    21623637.652    89935701.197         191.082          44.000  
R14  20833743.754   111055844.482       -3327.208          51.000    20833745.641    86376949.156       -2587.733          50.000  
E04  25750153.032   135317907.743        1797.387          33.000    25750160.525   103685259.832        1377.767          34.000  
G12  21979878.622   115505131.864        1716.103          43.000    21979884.175    90004143.370        1337.284          40.000  
G13  19214953.302   100975353.903       -2194.207          50.000                                                                  
G17  20493771.875   107695923.792       -1333.505          47.000    20493769.197    83919109.025       -1039.319          45.000  
G15  19497186.510   102458454.772        -430.035          49.000    19497184.089    79837790.634        -335.114          46.000  
G22  20442219.606   107424890.056       -3337.148          49.000                                                                  
G30  23899169.629   125590980.236       -3352.564          41.000    23899175.024    97863128.746       -2612.332          39.000  
E21  22377868.675   117596504.713       -1259.837          47.000    22377872.758    90106862.841        -965.252          52.000  
> 2024 04 15 22 16 30.4960000  0 24                     
G05  23502204.688   123504542.584       -3699.535          39.000    23502228.534    96237212.502       -2882.579          37.000  
E19  22254482.508   116948098.919        -584.801          43.000    22254484.414    89609730.071        -448.134          46.000  
G24  21241397.227   111624422.859        1258.500          45.000    21241398.662    86980102.795         980.573          45.000  
E27  24947696.683   131101048.799       -3065.571          37.000    24947702.898   100454374.744       -2348.793          48.000  
R16  20922557.797   111764543.988        1145.095          50.000    20922562.370    86928157.156         890.680          48.000  
R17  22005816.928   117757855.407        2621.197          49.000    22005827.595    91589576.855        2038.728          48.000  
R04  19911777.654   106626670.174       -4626.154          51.000    19911779.680    82931847.392       -3598.084          49.000  
R06  22067896.025                        2874.958          27.000                                                                  
R15  18873216.583   100852970.436       -1271.180          50.000    18873216.636    78441505.172        -988.614          48.000  
R05  18424005.384    98486933.739       -1076.381          52.000    18424005.095    76600851.385        -837.089          49.000  
G19  20119711.532   105730259.269         -50.836          49.000                                                                  
S31  37632945.651   197762476.399        -783.126          44.000  
S33  38583125.367   202755708.608        -784.975          42.000  
G14  22663493.098   119097703.959       -3973.792          39.000    22663491.882    92803535.954       -3096.680          39.000  
R24  21622319.620   115624470.089         224.191          45.000    21622320.086    89930224.910         174.470          45.000  
R14  20852470.794   111155662.221       -3326.883          52.000    20852471.669    86454585.179       -2587.686          50.000  
E04  25739902.139   135264036.711        1794.031          33.000    25739909.958   103643982.258        1374.885          34.000  
G12  21970108.489   115453789.659        1707.431          43.000    21970113.073    89964136.750        1330.602          41.000  
G13  19227529.190   101041438.394       -2211.018          49.000                                                                  
G17  20501445.289   107736249.559       -1354.236          47.000    20501443.316    83950531.755       -1055.170          45.000  
G15  19499692.454   102471625.279        -447.522          48.000    19499690.968    79848053.381        -348.785          46.000  
G22  20461292.573   107525120.549       -3344.697          48.000                                                                  
G30  23918316.200   125691595.404       -3354.542          42.000    23918321.193    97941530.084       -2614.010          39.000  
E21  22385083.426   117634417.511       -1267.229          47.000    22385087.199    90135912.942        -971.017          52.000  
> 2024 04 15 22 17 00.4960000  0 24                     
G05  23523317.431   123615484.456       -3696.510          36.000    23523340.493    96323659.611       -2880.052          35.000  
E19  22257858.025   116965834.046        -597.603          44.000    22257859.218    89623319.341        -457.936          46.000  
G24  21234217.399   111586693.481        1256.714          45.000    21234218.969    86950703.403         979.294          45.000  
E27  24965202.348   131193030.088       -3066.781          40.000    24965205.601   100524853.919       -2349.733          47.000  
R16  20916148.263   111730309.571        1137.197          49.000    20916152.617    86901530.573         884.536          47.000  
R17  21991136.874   117679304.003        2615.537          50.000    21991147.402    91528482.443        2034.295          47.000  
R04  19937734.259   106765663.688       -4639.994          51.000    19937737.019    83039953.203       -3608.859          50.000  
R06  22051789.651                        2862.754          27.000                                                                  
R15  18880376.771   100891227.314       -1279.220          52.000    18880374.966    78471260.581        -994.967          48.000  
R05  18430124.733    98519645.824       -1104.382          52.000    18430124.399    76626294.105        -858.933          50.000  
G19  20120056.741   105732074.909         -70.248          49.000                                                                  
S31  37637418.169   197785980.290        -783.477          44.000  
S33  38587606.309   202779257.281        -784.981          42.000  
G14  22686180.952   119216928.701       -3974.207          41.000    22686179.709    92896438.365       -3096.875          37.000  
R24  21621122.622   115618074.495         202.230          44.000    21621123.403    89925250.752         157.183          45.000  
R14  20871195.091   111255472.016       -3327.092          53.000    20871194.558    86532215.031       -2587.728          48.000  
E04  25729669.630   135210280.453        1789.945          32.000    25729681.235   103602792.567        1371.509          35.000  
G12  21960388.703   115402710.914        1697.816          42.000    21960391.555    89924335.401        1323.234          40.000  
G13  19240199.662   101108023.125       -2228.145          50.000                                                                  
G17  20509236.382   107777189.349       -1375.198          48.000    20509234.143    83982432.957       -1071.570          45.000  
G15  19502299.517   102485323.886        -465.607          48.000    19502297.601    79858727.611        -362.927          46.000  
G22  20480410.636   107625585.745       -3352.774          50.000                                                                  
G30  23937472.348   125792266.298       -3356.631          41.000    23937478.034    98019974.860       -2615.870          40.000  
E21  22392340.049   117672554.322       -1275.280          46.000    22392344.238    90165134.689        -977.070          52.000  
> 2024 04 15 22 17 30.4960000  0 24                     
G05  23544414.059   123726340.478       -3693.892          33.000    23544436.465    96410039.886       -2877.744          33.000  
E19  22261304.711   116983948.583        -609.787          43.000    22261306.359    89637199.326        -467.271          46.000  
G24  21227047.383   111549015.335        1255.254          46.000    21227049.077    86921343.903         978.206          45.000  
E27  24982710.714   131285040.701       -3067.166          40.000    24982714.759   100595355.586       -2350.100          47.000  
R16  20909782.640   111696305.297        1129.869          49.000    20909786.763    86875083.009         878.616          47.000  
R17  21976488.218   117600922.735        2610.031          50.000    21976497.447    91467520.318        2030.152          46.000  
R04  19963767.020   106905067.157       -4653.406          51.000    19963769.378    83148377.863       -3619.324          49.000  
R06  22035732.382                        2849.756          29.000                                                                  
R15  18887580.419   100929721.447       -1286.950          52.000    18887579.315    78501200.506       -1000.912          49.000  
R05  18436399.714    98553192.131       -1131.987          51.000    18436400.293    76652385.663        -880.377          50.000  
G19  20120512.916   105734473.261         -89.480          48.000                                                                  
S31  37641891.231   197809486.076        -783.531          44.000  
S33  38592087.763   202802807.481        -784.875          42.000  
G14  22708871.123   119336162.839       -3974.493          42.000    22708869.276    92989348.220       -3097.412          33.000  
R24  21620050.433   115612337.467         180.399          44.000    21620051.658    89920788.764         140.221          46.000  
R14  20889918.568   111355282.923       -3326.976          53.000    20889919.595    86609845.764       -2587.535          50.000  
E04  25719456.804                        1785.099          30.000    25719475.400   103561699.868        1367.990          35.000  
G12  21950719.631   115351906.585        1688.865          43.000    21950723.655    89884747.910        1316.176          40.000  
G13  19252967.174   101175118.153       -2244.918          49.000                                                                  
G17  20517145.901   107818752.604       -1395.579          47.000    20517142.577    84014819.966       -1087.421          45.000  
G15  19505008.694   102499561.957        -483.447          48.000    19505007.073    79869822.227        -376.801          46.000  
G22  20499573.906   107726293.625       -3360.699          49.000                                                                  
G30  23956641.793   125893003.168       -3358.867          41.000    23956648.158    98098471.015       -2617.197          40.000  
E21  22399641.915   117710924.204       -1282.669          47.000    22399645.691    90194535.043        -982.826          52.000  
> 2024 04 15 22 18 00.4960000  0 24                     
G05  23565491.319   123837105.706       -3690.525          29.000    23565515.440                       -2876.006          31.000  
E19  22264823.869   117002441.227        -622.843          43.000    22264825.356    89651369.026        -477.331          46.000  
G24  21219887.638   111511387.460        1253.339          47.000    21219888.676    86892023.568         976.636          45.000  
E27  25000224.279   131377077.668       -3068.385          42.000    25000228.738   100665877.466       -2351.026          46.000  
R16  20903459.784   111662528.852        1121.950          50.000    20903464.025    86848812.662         872.630          48.000  
R17  21961873.115   117522714.322        2603.968          51.000    21961880.690    91406692.642        2025.345          45.000  
R04  19989874.993   107044874.397       -4666.961          52.000    19989878.299    83257116.557       -3629.837          50.000  
R06  22019745.847   117501589.3811       2837.264          29.000                                                                  
R15  18894826.861   100968449.211       -1294.853          51.000    18894827.024    78531322.173       -1007.084          50.000  
R05  18442830.554    98587571.079       -1159.895          51.000    18442831.989    76679124.808        -902.191          50.000  
G19  20121080.355   105737454.228        -109.109          49.000                                                                  
S31  37646363.856   197832991.353        -783.447          44.000  
S33  38596568.847   202826356.291        -785.261          42.000  
G14  22731561.621   119455402.985       -3974.786          41.000    22731558.824    93082262.726       -3097.388          36.000  
R24  21619101.180   115607259.410         157.980          45.000    21619101.682    89916839.276         123.085          46.000  
R14  20908642.113   111455092.459       -3327.073          53.000    20908643.467    86687475.406       -2587.739          48.000  
E04  25709281.849                        1781.519          28.000    25709293.136   103520703.903        1365.106          35.000  
G12  21941104.067   115301375.279        1679.832          44.000    21941107.047    89845373.162        1309.157          39.000  
G13  19265831.651   101242720.880       -2262.027          50.000                                                                  
G17  20525172.904   107860937.185       -1416.696          46.000    20525169.973    84047691.145       -1103.809          45.000  
G15  19507820.120   102514338.052        -501.495          47.000    19507819.596    79881336.053        -390.784          47.000  
G22  20518783.058   107827239.933       -3368.874          49.000                                                                  
G30  23975824.193   125993804.164       -3361.353          42.000    23975830.667    98177017.149       -2619.317          40.000  
E21  22406987.589   117749524.184       -1290.500          48.000    22406991.149    90224111.702        -988.838          52.000  
> 2024 04 15 22 18 30.4960000  0 24                     
G05  23586549.794   123948161.2721      -3687.548          29.000    23586576.194                       -2873.520          28.000  
E19  22268414.065   117021311.180        -635.506          43.000    22268416.299    89665827.842        -486.814          46.000  
G24  21212736.607   111473809.089        1251.696          47.000    21212737.346    86862741.819         975.467          44.000  
E27  25017743.669   131469138.420       -3069.148          42.000    25017746.964   100736417.570       -2351.706          45.000  
R16  20897178.380   111628978.023        1114.454          50.000    20897182.680    86822717.719         866.848          48.000  
R17  21947289.391   117444681.658        2597.975          50.000    21947298.464    91346001.588        2020.680          47.000  
R04  20016058.913   107185079.864       -4680.120          52.000    20016060.246    83366164.979       -3640.084          49.000  
R06  22003829.451                        2824.246          28.000                                                                  
R15  18902117.906   101007407.633       -1302.519          51.000    18902117.299    78561623.233       -1012.993          49.000  
R05  18449417.229    98622780.347       -1187.515          51.000    18449417.973    76706509.751        -923.621          49.000  
G19  20121758.434   105741017.082        -128.528          48.000                                                                  
S31  37650836.295   197856493.414        -783.608          45.000  
S33  38601049.859   202849903.504        -784.801          42.000  
G14  22754251.931   119574646.019       -3974.805          40.000    22754250.408    93175179.462       -3097.308          39.000  
R24  21618275.728   115602840.995         136.013          46.000    21618274.309    89913402.864         105.925          45.000  
R14  20927364.957   111554898.109       -3326.904          52.000    20927365.343    86765102.072       -2587.623          46.000  
E04  25699122.608                        1777.226          29.000    25699135.052   103479804.810        1361.836          35.000  
G12  21931540.801   115251116.071        1670.541          44.000    21931542.600    89806210.421        1301.727          39.000  
G13  19278792.327   101310829.157       -2278.870          50.000                                                                  
G17  20533317.177   107903741.155       -1437.136          45.000    20533316.064    84081044.980       -1119.873          46.000  
G15  19510734.728   102529651.117        -519.482          48.000    19510733.769    79893268.314        -404.889          47.000  
G22  20538036.784   107928420.837       -3376.593          48.000                                                                  
G30  23995018.205   126094667.745       -3363.173          41.000    23995023.526    98255612.011       -2620.911          39.000  
E21  22414377.034   117788351.566       -1298.135          48.000    22414379.610    90253862.602        -994.699          52.000  
> 2024 04 15 22 19 00.4960000  0 24                     
G05  23607594.224   124058737.544       -3684.224          29.000    23607616.655                       -2871.035          29.000  
E19  22272076.841   117040561.085        -648.203          43.000    22272079.762    89680577.775        -496.748          47.000  
G24  21205595.652   111436283.186        1249.937          47.000    21205596.114    86833500.949         973.882          44.000  
E27  25035265.818   131561223.806       -3070.063          42.000    25035271.405   100806976.543       -2352.426          47.000  
R16  20890939.706   111595654.178        1106.895          50.000    20890944.357    86796799.330         860.951          48.000  
R17  21932739.850   117366831.581        2591.761          49.000    21932747.918    91285452.521        2015.902          45.000  
R04  20042315.377   107325681.069       -4693.449          51.000    20042316.280    83475521.194       -3650.490          49.000  
R06  21987986.085                        2810.791          30.000                                                                  
R15  18909451.228   101046597.010       -1310.334          51.000    18909450.420    78592103.897       -1019.123          49.000  
R05  18456160.385    98658821.605       -1215.435          52.000    18456160.121    76734541.868        -945.272          49.000  
G19  20122547.457   105745164.665        -148.320          48.000                                                                  
S31  37655308.764   197879995.579        -783.610          44.000  
S33  38605530.728   202873450.409        -785.171          42.000  
G14  22776943.644   119693892.453       -3975.116          40.000    22776942.879    93268098.805       -3097.595          39.000  
R24  21617572.752   115599086.760         113.929          44.000    21617572.622    89910483.002          88.569          47.000  
R14  20946087.099   111654700.967       -3326.907          52.000    20946088.493    86842726.506       -2587.584          47.000  
E04  25688987.659                1       1771.716          30.000    25689002.091   103439005.312        1358.406          36.000  
G12  21922027.849   115201131.743        1661.314          43.000    21922031.329    89767261.916        1294.487          41.000  
G13  19291849.309   101379444.569       -2295.770          50.000                                                                  
G17  20541580.795   107947166.246       -1458.009          46.000    20541579.653    84114882.752       -1136.137          45.000  
G15  19513751.685   102545504.357        -537.543          49.000    19513750.413    79905621.499        -418.909          47.000  
G22  20557336.632   108029836.362       -3384.641          49.000                                                                  
G30  24014223.850   126195595.913       -3365.463          41.000    24014230.089    98334257.221       -2622.386          39.000  
E21  22421808.766   117827407.257       -1305.842          48.000    22421811.558    90283788.436       -1000.603          52.000  
> 2024 04 15 22 19 30.4960000  0 24                     
G05  23628617.515   124169217.6661      -3680.320          28.000    23628639.705                       -2866.932          27.000  
E19  22275811.594   117060184.133        -660.163          43.000    22275814.107    89695613.631        -505.791          47.000  
G24  21198463.359   111398803.033        1248.817          47.000    21198463.635    86804295.735         973.167          44.000  
E27  25052793.180   131653325.235       -3070.253          43.000    25052796.733   100877547.803       -2352.294          46.000  
R16  20884741.741   111562548.888        1100.205          49.000    20884746.701    86771050.928         855.752          48.000  
R17  21918225.221   117289160.804        2586.236          49.000    21918233.446    91225042.966        2011.413          47.000  
R04  20068642.622   107466666.203       -4705.601          52.000    20068644.716    83585176.016       -3659.859          49.000  
R06  21972217.013   117248007.914        2797.361          32.000                                                                  
R15  18916826.328   101086008.075       -1317.066          51.000    18916825.977    78622756.997       -1024.539          48.000  
R05  18463056.900    98695687.004       -1242.295          52.000    18463056.332    76763214.944        -966.225          49.000  
G19  20123447.070   105749890.682        -167.007          48.000                                                                  
S31  37659779.300   197903490.409        -782.742          44.000  
S33  38610009.908   202896989.284        -784.152          42.000  
G14  22799634.155   119813133.108       -3974.485          40.000    22799633.290    93361013.658       -3096.915          36.000  
R24  21616992.272   115595991.148          92.503          41.000    21616993.999    89908075.408          71.897          46.000  
R14  20964807.902   111754492.300       -3325.908          51.000    20964810.297    86920342.047       -2586.817          48.000  
E04  25678890.322                        1768.705          28.000    25678892.737   103398300.853        1355.502          36.000  
G12  21912566.515   115151414.854        1653.058          44.000    21912569.400    89728521.717        1288.254          40.000  
G13  19305001.078   101448558.540       -2311.946          49.000                                                                  
G17  20549960.467   107991203.777       -1477.823          45.000    20549959.885    84149197.793       -1151.561          46.000  
G15  19516869.690   102561890.169        -554.840          49.000    19516868.055    79918389.667        -432.324          46.000  
G22  20576678.340   108131476.459       -3391.445          50.000                                                                  
G30  24033440.559   126296581.059       -3366.917          40.000    24033447.660    98412946.870       -2623.568          40.000  
E21  22429282.819   117866682.500       -1312.560          48.000    22429285.384    90313882.487       -1005.679          52.000  
> 2024 04 15 22 20 00.4960000  0 24                     
G05  23649614.603                       -3675.992          26.000    23649653.870                3      -2864.316          23.000  
E19  22279614.560   117080166.077        -671.856          43.000    22279616.586    89710924.489        -514.867          47.000  
G24  21191336.992   111361354.751        1247.932          47.000    21191337.755    86775115.340         972.284          45.000  
E27  25070319.690   131745426.785       -3069.788          43.000    25070324.240   100948119.150       -2352.176          47.000  
R16  20878583.830   111529646.487        1093.631          51.000    20878585.841    86745460.364         850.763          47.000  
R17  21903741.581   117211659.059        2580.723          49.000    21903749.878    91164764.850        2007.249          48.000  
R04  20095039.923   107608015.860       -4717.537          52.000    20095041.449    83695114.347       -3669.185          49.000  
R06  21956517.192                        2786.097          32.000                                                                  
R15  18924240.529   101125624.569       -1323.837          52.000    18924239.950    78653569.879       -1029.641          49.000  
R05  18470103.944    98733361.001       -1269.138          51.000    18470104.622    76792516.927        -986.984          49.000  
G19  20124453.051   105755181.474        -185.560          48.000                                                                  
S31  37664246.113   197926962.099        -781.728          44.000  
S33  38614485.014   202920506.000        -783.136          42.000  
G14  22822320.769   119932351.659       -3973.378          41.000    22822319.477    93453911.320       -3096.059          37.000  
R24  21616535.936   115593541.498          71.084          45.000    21616535.512    89906170.245          55.321          46.000  
R14  20983524.413   111854256.645       -3324.805          52.000    20983525.409    86997936.562       -2586.119          48.000  
E04  25668800.368   134890385.8581       1765.538          30.000    25668804.283   103357681.361        1352.475          37.000  
G12  21903153.786   115101951.303        1644.687          44.000    21903157.023    89689978.981        1281.684          41.000  
G13  19318245.483   101518156.130       -2327.840          50.000                                                                  
G17  20558453.373   108035839.078       -1497.581          44.000    20558453.274    84183978.609       -1166.963          45.000  
G15  19520086.018   102578795.009        -571.985          49.000    19520084.805    79931562.293        -445.892          47.000  
G22  20596059.096   108233324.446       -3398.180          49.000                                                                  
G30  24052665.260   126397608.446       -3368.270          38.000    24052672.190    98491669.341       -2624.415          38.000  
E21  22436795.469   117906161.401       -1319.093          48.000    22436798.061    90344132.602       -1010.741          52.000  
> 2024 04 15 22 20 30.4960000  0 24                     
G05  23670587.844                3      -3671.742          25.000    23670617.976                3      -2862.327          24.000  
E19  22283485.204   117100505.621        -684.046          44.000    22283487.008    89726509.342        -524.083          47.000  
G24  21184216.411   111323937.227        1246.571          47.000    21184218.027    86745958.928         971.181          45.000  
E27  25087846.589   131837525.418       -3069.858          44.000    25087849.102   101018688.268       -2352.273          46.000  
R16  20872460.585   111496944.014        1086.720          49.000    20872463.277    86720025.318         845.218          47.000  
R17  21889289.699   117134328.936        2574.755          50.000    21889297.745    91104620.140        2002.443          47.000  
R04  20121502.745   107749723.823       -4729.504          52.000    20121504.611    83805331.384       -3678.613          50.000  
R06  21940887.794                        2773.003          30.000                                                                  
R15  18931690.908   101165442.766       -1330.677          51.000    18931690.654    78684539.648       -1034.924          49.000  
R05  18477302.516    98771840.429       -1295.978          52.000    18477303.264    76822445.345       -1008.087          49.000  
G19  20125567.273   105761036.253        -204.645          47.000                                                                  
S31  37668707.925   197950408.430        -781.157          45.000  
S33  38618954.860   202943997.758        -782.607          42.000  
G14  22845002.745   120051544.580       -3972.615          41.000    22845001.357    93546789.024       -3095.788          38.000  
R24  21616197.472   115591737.976          49.250          45.000    21616197.769    89904767.646          38.466          46.000  
R14  21002235.103   111953991.011       -3323.943          52.000    21002235.933    87075507.761       -2585.271          49.000  
E04  25658728.523                        1761.010          30.000    25658737.092   103317146.525        1349.561          38.000  
G12  21893788.651   115052739.832        1635.964          44.000    21893791.539    89651632.687        1275.009          40.000  
G13  19331580.447   101588234.616       -2344.007          49.000                                                                  
G17  20567061.830   108081069.671       -1517.346          46.000    20567058.826    84219223.278       -1182.506          43.000  
G15  19523401.626   102596217.037        -589.380          49.000    19523400.497    79945137.898        -459.308          47.000  
G22  20615478.812   108335375.915       -3405.090          49.000                                                                  
G30  24071897.543   126498675.946       -3369.247          39.000    24071904.197    98570423.224       -2625.509          38.000  
E21  22444345.665   117945840.823       -1325.993          48.000    22444348.875    90374536.371       -1016.073          52.000  
> 2024 04 15 22 21 00.4960000  0 24                     
E19  22287423.468   117121203.991        -695.944          44.000    22287425.820    89742369.157        -533.272          47.000  
G24  21177102.353   111286552.140        1245.451          46.000    21177103.910    86716827.777         970.643          46.000  
E27  25105370.929   131929620.854       -3069.876          43.000    25105374.918   101089254.936       -2352.113          46.000  
R16  20866375.668   111464441.862        1080.053          50.000    20866379.132    86694746.033         839.998          47.000  
R17  21874871.685   117057175.729        2568.797          48.000    21874878.953    91044613.010        1997.855          48.000  
R04  20148031.848   107891786.682       -4741.262          52.000    20148034.458    83915824.410       -3687.641          50.000  
R06  21925332.219   116997840.145        2760.513          32.000                                                                  
R15  18939179.309   101205461.821       -1337.399          50.000    18939179.722    78715665.637       -1040.006          49.000  
R05  18484652.524    98811125.971       -1323.041          52.000    18484652.066    76853000.739       -1028.977          49.000  
G19  20126788.837   105767456.495        -223.525          47.000                                                                  
S31  37673165.147   197973832.305        -780.372          45.000  
S33  38623420.633   202967465.248        -781.847          42.000  
G14  22867678.548   120170711.136       -3971.649          41.000    22867678.053    93639646.169       -3094.825          37.000  
R24  21615982.521   115590583.634          27.522          45.000    21615982.206    89903869.980          21.343          45.000  
R14  21020939.525   112053694.882       -3323.076          51.000    21020940.756    87153055.255       -2584.647          49.000  
E04  25648680.152   134784695.372        1758.004          32.000    25648691.606   103276698.189        1346.977          39.000  
G12  21884472.093   115003781.687        1627.641          45.000    21884474.317    89613483.763        1268.287          40.000  
G13  19345008.314   101658793.945       -2360.084          49.000                                                                  
G17  20575782.758   108126895.351       -1537.357          46.000    20575779.144    84254931.636       -1197.969          44.000  
G15  19526815.119   102614157.679        -606.805          49.000    19526814.476    79959117.636        -472.839          47.000  
G22  20634936.745   108437629.403       -3411.775          49.000                                                                  
G30  24091138.418   126599784.530       -3370.886          38.000    24091144.361    98649208.921       -2626.856          38.000  
E21  22451934.089   117985720.386       -1332.644          48.000    22451937.709    90405093.487       -1021.083          52.000  
G05                                                                  23691555.447                3      -2856.704          22.000  
> 2024 04 15 22 21 30.4960000  0 24                     
E19  22291430.066   117142259.010        -707.686          44.000    22291432.467    89758502.236        -542.469          47.000  
G24  21169994.120   111249197.329        1244.546          47.000    21169995.543    86687720.216         969.783          46.000  
E27  25122894.586   132021708.951       -3069.642          43.000    25122898.376   101159815.974       -2352.081          46.000  
R16  20860326.967   111432135.977        1073.488          50.000    20860332.401    86669619.437         834.846          47.000  
R17  21860485.662   116980200.960        2562.667          49.000    21860492.202    90984744.685        1993.203          45.000  
R04  20174625.641   108034197.130       -4752.769          51.000    20174628.704    84026587.783       -3696.531          49.000  
R06  21909850.038   116915211.615        2747.473          34.000                                                                  
R15  18946706.578   101245677.194       -1343.847          52.000    18946706.017    78746944.325       -1045.034          49.000  
R05  18492151.604    98851214.211       -1349.745          51.000    18492151.768    76884180.479       -1049.762          50.000  
G19  20128117.881   105774440.359        -242.296          48.000                                                                  
S31  37677616.866   197997228.001        -779.588          44.000  
S33  38627881.536   202990905.956        -781.045          43.000  
G14  22890348.862   120289846.789       -3970.767          41.000    22890347.821    93732479.185       -3093.845          38.000  
R24  21615886.931   115590077.098           5.974          44.000    21615887.494    89903476.117           4.615          46.000  
R14  21039636.191   112153364.953       -3321.861          50.000    21039637.799    87230576.436       -2583.614          48.000  
E04  25638657.321   134732018.049        1753.936          31.000    25638667.141   103236335.254        1343.875          40.000  
G12  21875203.270   114955074.103        1619.501          46.000    21875205.618    89575530.103        1261.676          40.000  
G13  19358525.669   101729830.276       -2376.020          49.000                                                                  
G17  20584616.101   108173312.478       -1557.190          46.000    20584611.822    84291100.907       -1213.315          43.000  
G15  19530327.417   102632614.671        -623.901          49.000    19530326.640    79973499.716        -486.200          47.000  
G22  20654432.595   108540079.407       -3418.266          49.000                                                                  
G30  24110387.567   126700930.982       -3372.541          39.000    24110391.358    98728024.158       -2627.617          38.000  
E21  22459559.845   118025795.864       -1339.204          47.000    22459563.584    90435800.721       -1026.221          52.000  
G05                                                                  23712507.234                3      -2863.280          16.000  
> 2024 04 15 22 22 00.4960000  0 24                     
E19  22295505.655   117163676.215        -720.099          44.000    22295507.916    89774912.831        -551.765          47.000  
G24  21162892.561   111211878.718        1243.156          47.000    21162893.781    86658640.868         968.828          45.000  
E27  25140418.251   132113793.686       -3069.470          42.000    25140421.208   101230374.436       -2352.057          45.000  
R16  20854317.409   111400030.746        1066.684          51.000    20854321.701    86644648.846         829.443          48.000  
R17  21846136.544   116903414.404        2556.171          50.000    21846141.621    90925022.695        1987.953          46.000  
R04  20201285.233   108176955.658       -4764.526          52.000    20201287.616    84137621.883       -3705.766          48.000  
R06  21894440.406   116832973.810        2734.643          33.000                                                                  
R15  18954269.772   101286092.422       -1350.569          52.000    18954269.265    78778378.454       -1050.547          49.000  
R05  18499801.895    98892108.797       -1376.661          52.000    18499802.638    76915987.380       -1070.809          50.000  
G19  20129555.300   105781993.503        -261.483          48.000                                                                  
S31  37682064.820   198020602.102        -778.977          44.000  
S33  38632338.323   203014325.737        -780.407          42.000  
G14  22913014.797   120408955.043       -3970.126          42.000    22913013.825    93825290.914       -3093.572          38.000  
R24  21615913.889   115590225.920         -16.115          44.000    21615915.752    89903592.033         -12.630          46.000  
R14  21058327.389   112253004.894       -3320.997          50.000    21058328.776    87308074.171       -2583.081          47.000  
E04  25628654.781   134679458.836        1749.849          31.000    25628664.868   103196062.823        1340.715          40.000  
G12  21865983.426   114906622.958        1610.597          45.000    21865985.469    89537776.255        1254.910          41.000  
G13  19372134.511   101801348.081       -2392.060          48.000                                                                  
G17  20593562.171   108220325.491       -1577.234          45.000    20593558.711    84327734.452       -1228.749          43.000  
G15  19533939.413   102651593.139        -641.418          49.000    19533938.440    79988288.125        -499.915          48.000  
G22  20673966.723   108642728.800       -3425.124          49.000                                                                  
G30  24129643.180   126802120.266       -3374.105          39.000    24129647.235    98806872.801       -2629.203          39.000  
E21  22467224.229   118066071.114       -1345.952          47.000    22467227.820    90466661.019       -1031.361          52.000  
G05                                                                  23733384.897                3      -2847.642          18.000  
> 2024 04 15 22 22 30.4960000  0 24                     
E19  22299651.585   117185465.219        -732.521          44.000    22299654.130    89791608.328        -561.476          47.000  
G24  21155799.875   111174606.374        1241.392          48.000    21155801.024    86629597.562         967.417          45.000  
E27  25157941.485   132205883.083       -3069.847          42.000    25157944.324   101300936.520       -2352.283          44.000  
R16  20848347.134   111368134.923        1059.516          52.000    20848350.436    86619841.187         823.951          46.000  
R17  21831824.476   116826829.791        2549.125          51.000    21831829.867    90865457.764        1982.552          47.000  
R04  20228009.424   108320067.594       -4776.423          51.000    20228013.061    84248930.859       -3714.961          49.000  
R06  21879102.737                        2720.554          29.000                                                                  
R15  18961871.179   101326715.198       -1357.846          51.000    18961871.563    78809974.011       -1055.969          49.000  
R05  18507604.188    98933818.791       -1404.107          52.000    18507604.331    76948428.457       -1092.111          49.000  
G19  20131102.513   105790126.086        -280.974          47.000                                                                  
S31  37686510.141   198043963.505        -778.748          44.000  
S33  38636791.845   203037731.590        -780.220          42.000  
G14  22935676.440   120528043.535       -3969.320          41.000    22935676.368    93918087.250       -3093.276          39.000  
R24  21616066.670   115591041.379         -38.553          45.000    21616066.827    89904226.410         -30.065          43.000  
R14  21077014.689   112352623.935       -3320.472          50.000    21077019.249    87385555.645       -2582.631          48.000  
E04  25618678.413   134627028.494        1745.052          32.000    25618686.865   103155889.126        1337.309          40.000  
G12  21856814.150   114858437.746        1601.673          46.000    21856815.601    89500229.625        1247.995          41.000  
G13  19385837.641   101873355.784       -2408.742          49.000                                                                  
G17  20602621.474   108267943.206       -1597.464          45.000    20602619.005    84364839.259       -1244.648          42.000  
G15  19537652.207   102671103.096        -659.412          50.000    19537651.407    80003490.689        -513.745          48.000  
G22  20693538.654   108745584.610       -3432.120          49.000                                                                  
G30  24148908.192   126903361.503       -3375.672          40.000    24148913.617    98885761.980       -2630.509          40.000  
E21  22474928.323   118106554.150       -1353.125          47.000    22474931.282    90497680.522       -1036.747          52.000  
G05                                                                  23754239.591                3      -2837.338          14.000  
> 2024 04 15 22 23 00.4960000  0 24                     
E19  22303869.291   117207627.158        -745.085          44.000    22303871.065    89808589.542        -570.882          47.000  
G24  21148716.371   111137381.733        1239.852          48.000    21148716.652    86600591.415         966.317          45.000  
E27  25175466.145   132297976.635       -3069.972          43.000    25175469.871   101371501.754       -2352.189          45.000  
R16  20842414.569   111336448.053        1052.691          51.000    20842418.186    86595196.017         818.640          48.000  
R17  21817550.337   116750452.675        2542.367          50.000    21817556.678    90806054.164        1977.364          48.000  
R04  20254800.626   108463529.343       -4787.900          51.000    20254803.796    84360511.895       -3723.954          48.000  
R06  21863842.470                        2708.201          30.000                                                                  
R15  18969511.732   101367544.594       -1364.380          51.000    18969510.813    78841730.244       -1061.207          48.000  
R05  18515559.291    98976343.911       -1431.072          52.000    18515559.159    76981503.531       -1113.071          49.000  
G19  20132760.254   105798839.816        -300.220          46.000                                                                  
S31  37690953.459   198067312.222        -778.093          44.000  
S33  38641243.661   203061125.374        -779.606          41.000  
G14  22958333.738   120647111.315       -3968.833          41.000    22958333.886    94010867.357       -3092.444          40.000  
R24  21616345.533   115592526.011         -60.678          47.000    21616344.109    89905381.316         -47.345          43.000  
R14  21095699.773   112452220.914       -3319.643          51.000    21095701.766    87463020.014       -2582.004          46.000  
E04  25608719.527   134574729.114        1741.315          32.000    25608734.376   103115815.727        1334.064          41.000  
G12  21847695.312   114810519.209        1592.734          46.000    21847697.151    89462890.777        1240.955          40.000  
G13  19399633.717   101945853.011       -2424.806          50.000                                                                  
G17  20611798.108   108316165.189       -1617.511          44.000    20611796.581    84402414.863       -1260.333          44.000  
G15  19541466.292   102691145.602        -676.959          49.000    19541465.175    80019108.227        -527.667          47.000  
G22  20713150.299   108848645.251       -3438.822          49.000                                                                  
G30  24168184.529   127004655.215       -3377.254          40.000    24168189.689    98964691.979       -2631.638          39.000  
E21  22482670.720   118147244.240       -1359.714          47.000    22482674.318    90528858.708       -1041.929          52.000  
G05                                                                  23775110.199                3      -2842.926          15.000  
> 2024 04 15 22 23 30.4960000  0 23                     
E19  22308156.418   117230155.046        -756.828          44.000    22308158.124    89825851.179        -579.735          47.000  
G24  21141640.901   111100198.223        1238.882          48.000    21141640.351    86571617.328         965.372          44.000  
E27  25192989.202   132390065.703       -3069.183          42.000    25192993.108   101442063.590       -2351.797          44.000  
R16  20836520.530   111304961.721        1046.403          51.000    20836523.146    86570706.883         814.053          48.000  
R17  21803314.445   116674279.678        2535.788          50.000    21803320.884    90746809.336        1972.346          47.000  
R04  20281652.993   108607328.676       -4798.660          50.000    20281657.650    84472355.518       -3732.270          48.000  
R06  21848657.919                        2694.219          29.000                                                                  
R15  18977189.282   101408571.166       -1370.688          51.000    18977188.136    78873639.846       -1066.029          48.000  
R05  18523666.026    99019675.677       -1457.602          52.000    18523665.581    77015205.974       -1133.763          49.000  
G19  20134526.998   105808127.412        -319.026          46.000                                                                  
S31  37695392.931   198090640.617        -777.105          44.000  
S33  38645691.673   203084498.187        -778.691          42.000  
G14  22980987.199   120766149.339       -3967.111          43.000    22980984.949    94103624.279       -3091.454          38.000  
R24  21616747.114   115594674.271         -82.468          47.000    21616745.164    89907052.345         -64.277          42.000  
R14  21114379.238   112551788.055       -3318.242          51.000    21114381.669    87540461.177       -2580.957          48.000  
E04  25598792.696   134522554.885        1736.960          33.000    25598805.916   103075838.174        1331.115          41.000  
G12  21838626.515   114762860.523        1584.504          46.000    21838628.852    89425754.389        1234.641          42.000  
G13  19413520.670   102018831.483       -2440.635          49.000                                                                  
G17  20621087.373   108364983.204       -1636.967          45.000    20621084.372    84440454.972       -1275.440          41.000  
G15  19545380.327   102711713.484        -694.122          49.000    19545378.732    80035135.134        -540.881          47.000  
G22  20732799.679   108951900.907       -3444.880          49.000                                                                  
G30  24187468.861   127105993.757       -3378.403          41.000    24187474.273    99043656.975       -2632.658          40.000  
E21  22490451.412   118188132.725       -1366.035          47.000    22490455.148    90560188.903       -1046.653          52.000  
> 2024 04 15 22 24 00.4960000  0 23                     
E19  22312510.407   117253038.207        -769.027          43.000    22312512.281    89843385.036        -589.220          47.000  
G24  21134570.813   111063045.506        1237.693          47.000    21134569.772    86542667.247         964.628          43.000  
E27  25210510.465   132482138.070       -3069.208          42.000    25210514.390   101512612.618       -2351.582          45.000  
R16  20830660.695   111273663.959        1039.869          51.000    20830664.447    86546364.424         808.760          48.000  
R17  21789116.101   116598304.120        2528.986          50.000    21789123.283    90687718.032        1966.816          47.000  
R04  20308567.727   108751449.826       -4809.545          51.000    20308571.606    84584449.419       -3740.828          47.000  
R06  21833550.959                        2680.579          31.000                                                                  
R15  18984901.145   101449782.324       -1376.960          51.000    18984900.485    78905693.021       -1070.972          49.000  
R05  18531920.323    99063801.657       -1484.352          52.000    18531919.781    77049526.170       -1154.414          49.000  
G19  20136402.082   105817978.788        -338.064          47.000                                                                  
S31  37699826.203   198113938.291        -776.456          44.000  
S33  38650133.603   203107841.498        -777.914          42.000  
G14  23003631.560   120885144.866       -3966.044          43.000    23003628.123    94196348.141       -3090.599          38.000  
R24  21617271.422   115597476.434        -104.468          47.000    21617268.903    89909231.945         -81.107          41.000  
R14  21133050.217   112651312.950       -3317.033          52.000    21133052.129    87617869.463       -2579.933          46.000  
E04  25588894.679   134470496.078        1733.247          34.000    25588899.302   103035949.095        1327.969          42.000  
G12  21829604.024   114715450.705        1575.976          47.000    21829606.670    89388811.923        1227.953          42.000  
G13  19427497.406   102092279.260       -2456.491          49.000                                                                  
G17  20630488.421   108414385.148       -1656.681          46.000    20630487.514    84478950.059       -1291.069          45.000  
G15  19549392.158   102732796.014        -711.603          49.000    19549390.750    80051563.072        -554.517          47.000  
G22  20752482.786   109055337.976       -3451.112          49.000                                                                  
G30  24206758.919   127207365.939       -3379.646          39.000    24206764.696    99122648.171       -2633.769          38.000  
E21  22498267.758   118229207.201       -1372.563          47.000    22498271.164    90591661.609       -1051.579          52.000  
> 2024 04 15 22 24 30.4960000  0 23                     
E19  22316934.612   117276286.288        -781.379          43.000    22316935.962    89861198.500        -598.739          46.000  
G24  21127508.363   111025933.572        1236.138          47.000    21127507.665    86513748.931         963.396          44.000  
E27  25228029.273   132574201.729       -3069.036          41.000    25228033.406   101583154.938       -2351.580          46.000  
R16  20824838.356   111242563.232        1033.019          51.000    20824841.550    86522175.115         803.424          47.000  
R17  21774957.256   116522539.655        2521.485          49.000    21774963.435    90628790.863        1961.368          47.000  
R04  20335542.850   108895897.787       -4820.737          52.000    20335545.883    84696797.471       -3749.429          48.000  
R06  21818517.660                        2666.260          28.000                                                                  
R15  18992649.529   101491185.303       -1383.668          51.000    18992648.822    78937895.372       -1076.148          49.000  
R05  18540325.353    99108730.081       -1511.377          52.000    18540325.591    77084470.445       -1175.418          50.000  
G19  20138385.853   105828403.932        -357.496          46.000                                                                  
S31  37704255.142   198137213.215        -775.775          44.000  
S33  38654570.848   203131161.761        -777.329          42.000  
G14  23026268.980   121004105.499       -3965.195          43.000    23026265.496    94289044.757       -3089.744          38.000  
R24  21617918.952   115600943.995        -127.107          45.000    21617917.775    89911929.070         -98.725          40.000  
R14  21151713.743   112750803.693       -3316.209          51.000    21151716.051    87695251.266       -2579.233          47.000  
E04  25579013.101   134418563.421        1728.601          36.000    25579016.690   102996156.666        1324.542          42.000  
G12  21820631.493   114668299.265        1567.032          48.000    21820634.276    89352070.760        1221.037          43.000  
G13  19441565.286   102166204.668       -2472.659          49.000                                                                  
G17  20640002.749   108464379.277       -1676.696          47.000    20639999.783    84517906.597       -1306.483          44.000  
G15  19553503.924   102754402.474        -729.315          49.000    19553502.502    80068399.274        -568.372          48.000  
G22  20772201.951   109158963.471       -3457.682          49.000                                                                  
G30  24226057.672   127308780.715       -3381.462          39.000    24226062.937    99201672.485       -2634.648          37.000  
E21  22506120.764   118270475.490       -1379.272          46.000    22506124.312    90623282.830       -1056.852          52.000  
> 2024 04 15 22 25 00.4960000  0 23                     
E19  22321428.514   117299900.661        -793.172          43.000    22321429.724    89879292.630        -607.890          46.000  
G24  21120454.121   110988864.366        1234.926          46.000    21120454.099    86484863.920         962.313          44.000  
E27  25245547.772   132666256.581       -3068.394          43.000    25245550.719   101653690.556       -2351.193          46.000  
R16  20819053.843   111211659.551        1026.746          51.000    20819056.910    86498139.096         798.606          47.000  
R17  21760838.924   116446992.168        2514.474          49.000    21760845.139    90570032.487        1955.704          47.000  
R04  20362579.442   109040669.122       -4831.159          52.000    20362580.584    84809397.054       -3757.613          46.000  
R06  21803568.197                        2652.731          30.000                                                                  
R15  19000433.183   101532780.023       -1389.796          50.000    19000431.933    78970246.867       -1080.958          49.000  
R05  18548880.129    99154461.239       -1537.885          52.000    18548880.547    77120039.095       -1196.010          50.000  
G19  20140479.334   105839404.500        -376.459          47.000                                                                  
S31  37708680.315   198160467.129        -774.856          44.000  
S33  38659004.706   203154460.693        -776.448          42.000  
G14  23048899.404   121123030.757       -3963.686          46.000    23048896.411    94381713.875       -3088.671          38.000  
R24  21618692.128   115605079.428        -149.000          47.000    21618690.421    89915145.685        -115.549          39.000  
R14  21170372.807   112850260.767       -3314.763          51.000    21170373.460    87772606.806       -2578.127          47.000  
E04  25569155.521   134366759.540        1724.257          36.000    25569158.431   102956462.894        1321.218          43.000  
G12  21811708.049   114621407.833        1558.385          48.000    21811711.300    89315532.210        1214.505          43.000  
G13  19455723.740   102240607.278       -2488.111          49.000                                                                  
G17  20649628.981   108514965.686       -1696.161          48.000    20649628.266    84557324.621       -1321.843          44.000  
G15  19557715.190   102776534.043        -746.545          48.000    19557713.733    80085644.648        -581.757          47.000  
G22  20791957.023   109262776.281       -3463.664          48.000                                                                  
G30  24245365.164   127410239.024       -3382.787          38.000    24245370.223    99280730.789       -2636.013          38.000  
E21  22514010.529   118311937.432       -1385.334          46.000    22514014.076    90655052.414       -1061.534          52.000  
> 2024 04 15 22 25 30.4960000  0 23                     
E19  22325991.888   117323887.091        -806.120          43.000    22325994.157    89897671.833        -617.575          46.000  
G24  21113409.189   110951843.987        1232.693          47.000    21113409.444    86456016.962         960.643          45.000  
E27  25263063.515   132758306.803       -3068.591          42.000    25263068.355   101724222.586       -2351.265          47.000  
R16  20813305.631   111180957.428        1019.721          49.000    20813309.150    86474259.854         793.068          48.000  
R17  21746762.926   116371671.306        2506.537          50.000    21746768.932    90511450.370        1949.496          47.000  
R04  20389675.235   109185764.832       -4842.184          52.000    20389677.528    84922248.934       -3766.205          48.000  
R06  21788695.623                3       2637.847          26.000                                                                  
R15  19008253.975   101574570.254       -1396.562          51.000    19008252.437    79002750.444       -1086.185          48.000  
R05  18557586.309    99200998.973       -1565.032          52.000    18557586.923    77156235.113       -1217.227          50.000  
G19  20142682.737   105850986.194        -396.084          46.000                                                                  
S31  37713102.234   198183704.562        -774.813          44.000  
S33  38663435.017   203177743.218        -776.436          41.000  
G14  23071523.748   121241924.367       -3962.947          45.000    23071521.244    94474358.343       -3088.260          38.000  
R24  21619592.516   115609889.937        -172.089          47.000    21619589.692    89918887.309        -133.621          41.000  
R14  21189024.787   112949688.701       -3314.162          51.000    21189026.434    87849939.705       -2577.706          47.000  
E04  25559323.090   134315091.192        1719.545          37.000    25559326.157   102916872.966        1317.616          43.000  
G12  21802834.902   114574781.671        1549.395          48.000    21802838.290    89279200.380        1207.535          43.000  
G13  19469973.616   102315491.422       -2504.537          49.000                                                                  
G17  20659369.239   108566148.306       -1716.297          49.000    20659367.036    84597207.288       -1337.386          44.000  
G15  19562027.263   102799196.466        -764.453          48.000    19562025.988    80103303.657        -595.740          47.000  
G22  20811747.163   109366779.550       -3470.234          47.000                                                                  
G30  24264680.218   127511746.059       -3385.193          34.000    24264686.674    99359826.974       -2637.798          37.000  
E21  22521937.868   118353596.993       -1392.284          46.000    22521942.000    90686973.416       -1066.726          52.000  
> 2024 04 15 22 26 00.4960000  0 23                     
E19  22330628.427   117348253.615        -818.574          42.000    22330631.121    89916342.290        -627.170          47.000  
G24  21106375.144   110914881.125        1231.167          46.000    21106376.213    86427214.796         959.180          46.000  
E27  25280581.514   132850358.995       -3068.626          43.000    25280584.826   101794756.114       -2351.205          47.000  
R16  20807596.987   111150463.995        1012.919          50.000    20807600.977    86450542.894         787.975          49.000  
R17  21732731.729   116296589.566        2498.584          50.000    21732737.385    90453054.178        1943.394          46.000  
R04  20416832.486   109331188.296       -4852.828          51.000    20416835.073    85035355.705       -3774.305          48.000  
R06  21773891.936                3       2623.761          24.000                                                                  
R15  19016112.039   101616562.133       -1403.047          52.000    19016111.182    79035410.874       -1091.324          49.000  
R05  18566444.019    99248350.326       -1591.932          52.000    18566444.128    77193063.907       -1238.134          50.000  
G19  20144999.481   105863157.745        -415.576          47.000                                                                  
S31  37717522.152   198206933.713        -774.159          44.000  
S33  38667864.379   203201016.875        -775.782          42.000  
G14  23094142.769   121360792.553       -3962.040          45.000    23094142.635    94566983.019       -3087.188          39.000  
R24  21620619.377   115615385.131        -194.624          47.000    21620618.404    89923161.483        -151.509          43.000  
R14  21207672.676   113049094.812       -3313.149          50.000    21207674.644    87927255.616       -2576.859          46.000  
E04  25549517.738   134263567.658        1715.182          38.000    25549521.583   102877394.012        1314.266          43.000  
G12  21794013.088   114528429.031        1540.491          47.000    21794016.760    89243081.687        1200.449          42.000  
G13  19484316.214   102390864.352       -2520.656          49.000                                                                  
G17  20669224.133   108617934.941       -1736.273          49.000    20669221.592    84637560.605       -1352.916          44.000  
G15  19566442.286   102822398.007        -782.343          48.000    19566440.686    80121382.765        -609.735          46.000  
G22  20831576.184   109470978.041       -3476.341          47.000                                                                  
G30  24284007.813   127613309.243       -3386.318          37.000    24284013.809    99438966.896       -2638.406          37.000  
E21  22529904.723   118395460.660       -1398.844          47.000    22529908.533    90719050.812       -1071.822          52.000  
> 2024 04 15 22 26 30.4960000  0 23                     
E19  22335336.235   117372992.816        -831.247          43.000    22335339.171    89935298.295        -636.708          47.000  
G24  21099351.326   110877968.818        1229.341          47.000    21099352.153    86398452.020         957.871          46.000  
E27  25298096.511   132942404.194       -3068.000          43.000    25298100.043   101865284.348       -2351.037          47.000  
R16  20801926.358   111120170.343        1006.175          51.000    20801929.876    86426981.343         782.615          49.000  
R17  21718743.573   116221743.680        2490.620          48.000    21718749.590    90394841.436        1937.084          46.000  
R04  20444047.423   109476927.261       -4863.452          51.000    20444051.356    85148707.848       -3782.624          48.000  
R06  21759196.832                        2609.740          27.000                                                                  
R15  19024006.673   101658745.968       -1409.593          52.000    19024004.858    79068220.569       -1096.272          49.000  
R05  18575452.051    99296506.070       -1618.820          52.000    18575452.134    77230518.324       -1259.056          49.000  
G19  20147426.020   105875911.584        -435.088          46.000                                                                  
S31  37721939.656   198230145.890        -773.563          44.000  
S33  38672290.047   203224274.919        -775.229          42.000  
G14  23116755.265   121479625.942       -3960.757          44.000    23116756.641    94659580.606       -3086.279          40.000  
R24  21621774.504   115621558.822        -217.410          47.000    21621772.535    89927963.417        -169.046          42.000  
R14  21226314.996   113148469.828       -3312.276          49.000    21226316.568    88004547.353       -2576.110          46.000  
E04  25539739.678   134212182.757        1710.174          39.000    25539743.251   102838021.268        1310.574          44.000  
G12  21785243.345   114482342.318        1531.563          45.000    21785245.842    89207170.171        1193.411          43.000  
G13  19498750.264   102466717.176       -2536.780          49.000                                                                  
G17  20679192.097   108670316.475       -1756.316          48.000    20679189.123    84678377.459       -1368.610          43.000  
G15  19570959.040   102846130.825        -800.183          49.000    19570957.307    80139875.857        -623.450          47.000  
G22  20851439.662   109575361.954       -3483.018          48.000                                                                  
G30  24303343.983   127714920.712       -3388.135          38.000    24303349.264    99518144.456       -2639.907          37.000  
E21  22537907.770   118437519.296       -1405.477          47.000    22537911.937    90751277.614       -1076.863          52.000  
> 2024 04 15 22 27 00.4960000  0 23                     
E19  22340115.733   117398108.843        -843.902          43.000    22340118.349    89954543.048        -646.717          46.000  
G24  21092337.946   110841111.450        1227.092          46.000    21092338.414    86369732.053         956.133          46.000  
E27  25315611.702   133034444.858       -3068.365          43.000    25315615.372   101935809.043       -2351.182          49.000  
R16  20796292.801   111090079.103         999.079          51.000    20796295.958    86403577.214         777.196          48.000  
R17  21704802.220   116147141.539        2481.992          49.000    21704808.367    90336818.234        1930.328          47.000  
R04  20471323.069   109622980.942       -4874.225          51.000    20471326.541    85262304.797       -3791.090          48.000  
R06  21744569.779                3       2592.901          24.000                                                                  
R15  19031937.345   101701123.913       -1416.330          52.000    19031935.707    79101181.239       -1101.684          49.000  
R05  18584611.426    99345468.480       -1646.102          51.000    18584611.276    77268600.162       -1280.266          49.000  
G19  20149964.018   105889251.834        -455.084          46.000                                                                  
S31  37726354.105   198253344.715        -773.580          44.000  
S33  38676713.175   203247519.419        -774.910          42.000  
G14  23139362.395   121598426.615       -3960.075          44.000    23139363.559    94752152.677       -3085.521          42.000  
R24  21623055.744   115628416.299        -240.604          45.000    21623054.057    89933297.104        -186.871          40.000  
R14  21244952.750   113247816.605       -3311.699          49.000    21244953.787    88081817.121       -2575.803          46.000  
E04  25529989.380   134160941.480        1704.797          40.000    25529992.242   102798758.556        1306.555          44.000  
G12  21776524.565   114436525.470        1522.337          45.000    21776526.651    89171468.966        1186.148          43.000  
G13  19513277.350   102543052.173       -2553.101          50.000                                                                  
G17  20689272.304   108723295.027       -1776.446          47.000    20689270.264    84719659.494       -1384.236          44.000  
G15  19575576.518   102870398.435        -818.433          49.000    19575575.314    80158785.662        -637.659          47.000  
G22  20871338.876   109679932.918       -3489.301          48.000                                                                  
G30  24322689.241   127816583.698       -3390.002          40.000    24322696.453    99597362.207       -2641.921          38.000  
E21  22545948.296   118479775.139       -1412.275          46.000    22545952.866    90783655.528       -1082.120          52.000  
> 2024 04 15 22 27 30.4960000  0 23                     
E19  22344967.938   117423605.903        -856.059          43.000    22344970.434    89974079.749        -655.981          47.000  
G24  21085335.673   110804313.990        1225.684          46.000    21085336.083    86341058.765         955.235          46.000  
E27  25333127.717   133126483.912       -3067.789          44.000    25333129.462   102006332.516       -2350.721          48.000  
R16  20790697.167   111060193.689         992.913          49.000    20790701.190    86380333.233         772.224          48.000  
R17  21690908.300   116072791.897        2474.354          49.000    21690913.946    90278991.446        1924.370          47.000  
R04  20498656.138   109769348.873       -4883.839          51.000    20498660.584    85376146.140       -3798.685          49.000  
R06  21730014.448                1       2580.312          31.000                                                                  
R15  19039904.131   101743698.545       -1422.186          51.000    19039902.799    79134294.891       -1106.214          49.000  
R05  18593922.172    99395240.143       -1672.329          51.000    18593922.373    77307311.445       -1300.755          49.000  
G19  20152615.168   105903183.087        -474.213          46.000                                                                  
S31  37730767.117   198276535.327        -772.836          44.000  
S33  38681134.930   203270755.245        -774.115          42.000  
G14  23161964.156   121717197.073       -3958.281          45.000    23161965.092    94844701.203       -3084.410          43.000  
R24  21624466.978   115635963.092        -263.068          43.000    21624466.016    89939166.968        -204.626          41.000  
R14  21263586.119   113347138.782       -3310.200          47.000    21263587.367    88159067.783       -2574.657          48.000  
E04  25520267.402   134109849.412        1700.748          41.000    25520269.892   102759610.209        1303.184          44.000  
G12  21767858.745   114390982.626        1513.833          46.000    21767860.515    89135981.247        1179.372          43.000  
G13  19527895.395   102619872.074       -2568.536          50.000                                                                  
G17  20699468.242   108776873.855       -1795.916          47.000    20699465.213    84761409.306       -1399.305          43.000  
G15  19580297.031   102895205.274        -835.620          49.000    19580295.946    80178115.662        -651.135          47.000  
G22  20891273.803   109784692.321       -3494.760          47.000                                                                  
G30  24342045.621   127918302.238       -3391.238          39.000    24342052.994    99676623.261       -2643.029          38.000  
E21  22554027.399   118522231.003       -1418.328          47.000    22554032.204    90816186.707       -1086.836          53.000  
> 2024 04 15 22 28 00.4960000  0 23                     
E19  22349890.673   117449473.915        -868.731          43.000    22349893.136    89993900.695        -665.551          47.000  
G24  21078342.341   110767566.967        1223.878          46.000    21078343.246    86312424.796         953.662          46.000  
E27  25350637.231   133218509.811       -3067.460          43.000    25350641.902   102076845.942       -2350.391          50.000  
R16  20785140.067   111030502.464         986.318          51.000    20785142.562    86357240.236         767.336          47.000  
R17  21677059.590   115998689.027        2465.750          50.000    21677065.990    90221356.483        1917.840          47.000  
R04  20526046.638   109916016.069       -4894.089          52.000    20526049.536    85490220.257       -3806.591          49.000  
R06  21715558.222   115878294.3871       2564.431          31.000                                                                  
R15  19047905.645   101786457.690       -1428.617          51.000    19047904.671    79167552.050       -1111.141          50.000  
R05  18603382.168    99445809.649       -1699.176          52.000    18603382.834    77346643.217       -1321.594          49.000  
G19  20155377.655   105917695.402        -493.538          47.000                                                                  
S31  37735175.771   198299705.072        -772.258          44.000  
S33  38685552.269   203293970.781        -773.635          42.000  
G14  23184557.754   121835925.439       -3957.113          46.000    23184557.804    94937216.883       -3083.475          43.000  
R24  21626006.293   115644190.187        -285.612          43.000    21626004.399    89945565.856        -222.137          43.000  
R14  21282211.032   113446424.764       -3309.230          48.000    21282212.561    88236290.225       -2573.765          48.000  
E04  25510571.407   134058897.755        1695.783          42.000    25510574.198   102720569.422        1299.353          45.000  
G12  21759242.365   114345703.687        1504.784          46.000    21759244.944    89100699.193        1172.516          45.000  
G13  19542603.572   102697165.869       -2584.637          50.000                                                                  
G17  20709775.225   108831041.298       -1815.488          47.000    20709772.297    84803617.797       -1414.910          42.000  
G15  19585118.520   102920540.855        -853.583          49.000    19585117.095    80197857.656        -665.131          47.000  
G22  20911242.168   109889627.586       -3501.316          47.000                                                                  
G30  24361411.167   128020065.734       -3393.004          41.000    24361417.573    99755919.261       -2644.006          38.000  
E21  22562143.595   118564875.215       -1424.770          48.000    22562147.213    90848862.180       -1091.791          53.000  
> 2024 04 15 22 28 30.4960000  0 23                     
E19  22354883.953   117475714.415        -881.149          43.000    22354886.660    90014007.047        -675.199          47.000  
G24  21071359.990   110730872.522        1222.026          47.000    21071360.510    86283831.783         952.274          46.000  
E27  25368147.315   133310522.750       -3066.911          44.000    25368151.110   102147349.417       -2350.065          49.000  
R16  20779617.823   111001005.848         979.796          51.000    20779620.728    86334298.604         761.917          47.000  
R17  21663257.468   115924837.986        2457.271          49.000    21663263.172    90163917.465        1911.153          48.000  
R04  20553491.084   110062979.557       -4903.919          51.000    20553493.988    85604524.735       -3814.184          49.000  
R06  21701179.688                3       2550.478          24.000                                                                  
R15  19055941.774   101829401.179       -1434.714          50.000    19055940.448    79200952.583       -1115.959          49.000  
R05  18612992.304    99497176.763       -1725.753          52.000    18612992.796    77386595.387       -1342.186          50.000  
G19  20158250.102   105932790.631        -513.065          47.000                                                                  
S31  37739581.181   198322856.189        -771.727          43.000  
S33  38689966.942   203317167.887        -773.146          43.000  
G14  23207143.140   121954611.452       -3955.781          46.000    23207142.524    95029699.547       -3082.290          43.000  
R24  21627671.563   115653100.246        -308.723          40.000    21627672.160    89952496.009        -239.996          42.000  
R14  21300828.928   113545675.143       -3308.089          47.000    21300830.919    88313485.032       -2572.895          48.000  
E04  25500901.526   134008089.183        1691.144          41.000    25500905.253   102681638.293        1295.695          45.000  
G12  21750675.244   114300690.211        1495.823          46.000    21750678.622    89065623.970        1165.606          43.000  
G13  19557402.860   102774933.386       -2600.409          50.000                                                                  
G17  20720195.242   108885797.845       -1835.176          46.000    20720193.504    84846285.260       -1430.125          44.000  
G15  19590040.310   102946406.528        -871.271          48.000    19590038.888    80218012.724        -678.839          46.000  
G22  20931243.770   109994737.803       -3506.848          46.000                                                                  
G30  24380784.234   128121875.172       -3394.691          41.000    24380791.720    99835251.036       -2645.106          37.000  
E21  22570294.181   118607707.650       -1431.089          48.000    22570297.895    90881681.882       -1096.537          53.000  
> 2024 04 15 22 29 00.4970000  0 23                     
E19  22359949.537   117502329.662        -893.490          44.000    22359951.508    90034400.545        -684.625          47.000  
G24  21064387.432   110694231.193        1220.320          47.000    21064387.402    86255280.205         950.868          46.000  
E27  25385653.907   133402525.558       -3066.588          43.000    25385658.342   102217845.153       -2349.691          49.000  
R16  20774131.386   110971702.948         973.447          50.000    20774136.020    86311507.626         757.094          49.000  
R17  21649503.734   115851242.308        2448.559          49.000    21649510.076    90106677.027        1904.412          48.000  
R04  20580990.366   110210240.444       -4913.437          50.000    20580993.457    85719060.554       -3821.500          48.000  
R06  21686864.049                3       2530.656          17.000                                                                  
R15  19064013.083   101872529.361       -1440.712          51.000    19064012.311    79234496.773       -1120.589          50.000  
R05  18622750.720    99549342.377       -1752.279          52.000    18622751.618    77427168.622       -1362.828          50.000  
G19  20161233.309   105948470.682        -532.546          47.000                                                                  
S31  37743983.889   198345990.655        -770.950          44.000  
S33  38694377.700   203340348.650        -772.339          42.000  
G14  23229720.547   122073258.468       -3954.146          45.000    23229720.635    95122151.927       -3081.379          41.000  
R24  21629466.655   115662696.267        -331.634          39.000    21629465.593    89959959.639        -257.748          41.000  
R14  21319442.172   113644893.415       -3306.630          46.000    21319443.391    88390654.827       -2571.901          47.000  
E04  25491260.534   133957424.523        1686.258          42.000    25491264.331   102642817.417        1291.908          45.000  
G12  21742160.519   114255941.835        1487.023          46.000    21742162.991    89030755.332        1158.382          44.000  
G13  19572292.343   102853177.259       -2616.133          50.000                                                                  
G17  20730726.996   108941144.725       -1854.697          47.000    20730724.579    84889412.799       -1445.239          44.000  
G15  19595063.965   102972804.488        -888.874          49.000    19595062.372    80238582.538        -692.615          46.000  
G22  20951278.975   110100024.886       -3512.178          45.000                                                                  
G30  24400168.338   128223734.742       -3396.086          43.000    24400174.968    99914621.898       -2646.291          39.000  
E21  22578480.720   118650729.389       -1437.225          48.000    22578484.579    90914646.641       -1101.239          53.000  
> 2024 04 15 22 29 30.4970000  0 23                     
E19  22365086.961   117529329.624        -906.269          43.000    22365089.169    90055088.835        -694.594          47.000  
G24  21057427.429   110657658.231        1217.797          47.000    21057427.744    86226781.875         948.972          46.000  
E27  25403160.640   133494522.833       -3066.518          43.000    25403165.153   102288336.590       -2349.693          50.000  
R16  20768684.493   110942606.917         966.405          50.000    20768688.551    86288877.531         751.686          48.000  
R17  21635803.439   115777923.151        2439.231          50.000    21635807.676    90049651.614        1897.170          47.000  
R04  20608545.520   110357796.367       -4923.484          50.000    20608549.312    85833825.846       -3829.338          49.000  
R06  21672665.279                3       2527.716          18.000                                                                  
R15  19072119.977   101915850.325       -1447.234          52.000    19072118.972    79268190.893       -1125.678          49.000  
R05  18632659.819    99602313.469       -1779.217          52.000    18632660.769    77468368.329       -1383.770          50.000  
G19  20164330.014   105964746.788        -552.561          46.000                                                                  
S31  37748384.695   198369117.786        -770.667          44.000  
S33  38698787.074   203363521.286        -772.281          42.000  
G14  23252291.233   122191868.859       -3952.956          45.000    23252291.444    95214575.730       -3080.025          39.000  
R24  21631388.874   115672990.878        -354.952          34.000    21631390.539    89967966.525        -275.946          40.000  
R14  21338051.001   113744084.185       -3306.051          47.000    21338050.292    88467803.242       -2571.452          45.000  
E04  25481648.556   133906920.433        1680.773          41.000    25481653.598   102604119.544        1287.861          46.000  
G12  21733698.776   114211473.562        1477.465          46.000    21733699.795    88996104.930        1151.374          43.000  
G13  19587272.824   102931902.697       -2632.294          49.000                                                                  
G17  20741373.475   108997089.051       -1874.882          48.000    20741371.280    84933005.815       -1460.883          44.000  
G15  19600190.639   102999745.049        -907.111          48.000    19600188.738    80259575.185        -707.071          46.000  
G22  20971348.348   110205491.858       -3518.561          45.000                                                                  
G30  24419562.004   128325649.132       -3398.006          43.000    24419568.912    99994035.473       -2647.903          39.000  
E21  22586705.343   118693948.013       -1444.043          48.000    22586708.816    90947762.268       -1106.581          53.000  
