     3.00           OBSERVATION DATA    M: Mixed            RINEX VERSION / TYPE
CONVBIN 2.4.3                           20240415 055942 UTC PGM / RUN BY / DATE 
format: u-blox UBX                                          COMMENT             
log: /home/regis/git/gnsspwv/obsdata/VERT00CHL/2024-04-15/VECOMMENT             
{self.marker}                                               MARKER NAME         
                                                            MARKER NUMBER       
GEODETIC                                                    MARKER TYPE         
{self.observer}     {self.institution}                      OBSERVER / AGENCY   
UNKNOWN             UBLOX-ZED-F9P                           REC # / TYPE / VERS 
UNKNOWN             TWIVSP6037L                             ANT # / TYPE        
  1713381.0000 -5047934.0000 -3490983.0000                  APPROX POSITION XYZ 
        0.0000        0.0000        0.0000                  ANTENNA: DELTA H/E/N
G    8 C1C L1C D1C S1C C2L L2L D2L S2L                      SYS / # / OBS TYPES 
R    8 C1C L1C D1C S1C C2C L2C D2C S2C                      SYS / # / OBS TYPES 
E    8 C1C L1C D1C S1C C7Q L7Q D7Q S7Q                      SYS / # / OBS TYPES 
S    4 C1C L1C D1C S1C                                      SYS / # / OBS TYPES 
  2024    04    15    05    45   00.0150000     GPS         TIME OF FIRST OBS   
  2024    04    15    05    59   30.0160000     GPS         TIME OF LAST OBS    
                                                            END OF HEADER       
> 2024 04 15 05 45 00.0150000  0 27                     
S33  44313192.276   232867557.1421       -674.621          42.000  
E02  27863218.671   146422228.6681       -153.876          47.000    27863218.695   112193689.2731       -118.016          51.000  
G28  28203839.791                       -3651.965          27.000    28203851.360   115489969.9861      -2845.911          41.000  
E36  28006053.337   147173157.2591      -1367.531          48.000    28006053.385   112769256.5891      -1047.925          49.000  
G26  25301720.610   132961471.0241        910.199          48.000    25301718.024   103606299.9151        709.167          45.000  
R20  24576276.627   131420462.2421       -667.045          42.000    24576274.369   102216003.5531       -518.929          43.000  
R10  24371267.752   129912646.3781        535.800          48.000                                                                  
R09  24455078.510   130588747.3971      -3187.963          52.000    24455073.692   101569287.6861      -2479.521          51.000  
R16  28386690.143                3      -5153.251          22.000                                                                  
R04  27896105.744   149382422.0901       1590.764          39.000    27896101.217   116186327.7661       1237.181          45.000  
G16  28004191.393   147163023.8451       2514.264          42.000                                                                  
E11  29828876.212   156752213.8441      -3120.677          43.000    29828872.203   120109068.5411      -2391.231          46.000  
G18  25066471.073   131725565.7121      -1760.567          48.000    25066467.154   102643412.7051      -1371.895          50.000  
G29  27260277.988   143254135.8871      -2486.718          46.000    27260272.920   111626871.1831      -1937.442          40.000  
S31  43358821.248   227852269.6421       -674.519          44.000  
E30  31066996.590   163258280.3001       1849.614          42.000    31066997.439   125093900.4751       1417.097          46.000  
R11  28066302.364   149977758.7021       3354.215          39.000    28066301.019   116649344.4481       2608.953          37.000  
R21  27651143.366   147967102.0831       1851.878          51.000    27651141.830   115085345.3511       1440.273          46.000  
R19  26580890.815   142190214.2751      -3602.916          38.000    26580887.092   110591993.3401      -2802.104          46.000  
G05  29152583.139   153197859.3411      -3077.490          43.000    29152578.069   119374905.3131      -2398.336          36.000  
G23  26527380.441   139402451.2191       2155.340          48.000    26527375.036   108625314.9321       1679.459          45.000  
E34  29406031.023   154529932.3411       1038.639          47.000    29406032.660   118406197.8761        795.870          51.000  
G10  28882959.099                3       3167.860          30.000    28882953.529   118270887.4341       2469.382          34.000  
G25  28067805.022   147497525.9951      -4021.957          40.000    28067805.887   114933202.9901      -3133.593          41.000  
E25  29240799.146   153661730.8551      -2650.430          47.000    29240799.189   117740960.5961      -2030.891          52.000  
G31  27059448.175   142198290.2851      -2416.480          46.000    27059444.271   110803934.0901      -1883.248          43.000  
E14  34859987.539   183190612.8731      -1308.932          36.000    34859986.452   140366888.7801      -1003.088          43.000  
> 2024 04 15 05 45 30.0150000  0 27                     
S33  44317044.619   232887801.508        -674.774          42.000  
E02  27864130.667   146427016.648        -165.231          47.000    27864129.936   112197357.975        -126.588          51.000  
G28  28224696.896                1      -3655.389          31.000    28224709.289   115575378.373       -2847.998          39.000  
E36  28013886.923   147214324.249       -1376.671          47.000    28013887.272   112800800.137       -1054.850          49.000  
G26  25296569.057   132934397.592         894.739          49.000    25296566.183   103585203.748         697.235          45.000  
R20  24580053.634   131440658.923        -679.086          42.000    24580050.045   102231712.111        -528.671          42.000  
R10  24368324.185   129896958.020         510.112          47.000                                                                  
R09  24473048.895   130684707.304       -3209.322          52.000    24473044.600   101643923.131       -2496.119          51.000  
R16  28415679.969                3      -5160.880          21.000    27516255.351                3      -4019.355          15.000  
R04  27887236.772   149334922.838        1575.703          42.000    27887231.068   116149383.894        1225.608          43.000  
G16  27989849.222   147087655.210        2510.424          42.000                                                                  
E11  29846697.626   156845863.969       -3122.311          43.000    29846693.642   120180826.422       -2392.406          47.000  
G18  25076562.721   131778594.712       -1774.597          48.000    25076558.717   102684734.013       -1382.745          50.000  
G29  27274483.239   143328784.635       -2489.740          46.000    27274478.810   111685039.024       -1939.943          41.000  
S31  43362672.173   227872507.049        -674.643          44.000  
E30  31056447.784   163202844.283        1846.236          42.000    31056448.109   125051423.555        1414.633          46.000  
R11  28047491.037   149877249.807        3346.860          38.000    28047491.118   116571170.911        2603.208          32.000  
R21  27640786.294   147911678.356        1843.164          51.000    27640783.852   115042238.232        1433.619          46.000  
R19  26601097.553   142298303.351       -3602.912          36.000    26601092.877   110676062.629       -2802.425          46.000  
G05  29170188.890   153290377.506       -3090.282          43.000    29170184.388   119446997.371       -2407.726          37.000  
G23  26515108.343   139337965.416        2143.936          48.000    26515103.256   108575066.307        1670.492          44.000  
E34  29400127.649   154498906.606        1029.769          47.000    29400128.336   118382424.967         789.031          51.000  
G10  28864859.396                1       3169.818          30.000    28864860.568   118196804.812        2469.741          33.000  
G25  28090785.508   147618287.804       -4028.931          42.000    28090786.782   115027303.031       -3139.405          41.000  
E25  29255955.133   153741380.489       -2659.596          46.000    29255956.271   117801990.832       -2037.797          53.000  
G31  27073283.151   142270992.796       -2430.076          46.000    27073278.972   110860585.366       -1893.777          43.000  
E14  34867436.806   183229752.187       -1300.458          37.000    34867434.253   140396878.634        -996.373          43.000  
> 2024 04 15 05 46 00.0150000  0 26                     
S33  44320897.039   232908045.802        -674.471          42.000  
E02  27865105.164   146432137.863        -176.094          48.000    27865104.602   112201282.036        -134.917          51.000  
G28  28245575.550   148431537.8571      -3657.599          34.000    28245583.507   115660854.729       -2850.135          40.000  
E36  28021772.561   147255764.467       -1385.646          48.000    28021773.244   112832553.046       -1061.728          50.000  
G26  25291506.376   132907790.736         879.370          49.000    25291503.243   103564471.140         685.248          46.000  
R20  24583899.228   131461224.594        -691.515          41.000    24583895.888   102247707.636        -537.886          42.000  
R10  24365524.850   129882041.497         484.654          46.000                                                                  
R09  24491138.733   130781308.150       -3230.398          52.000    24491134.155   101719057.107       -2512.604          51.000  
R04  27878451.022   149287867.275        1561.424          44.000    27878442.809   116112785.203        1214.344          40.000  
G16  27975529.568   147012401.102        2506.713          42.000                                                                  
E11  29864528.591   156939562.317       -3123.963          44.000    29864523.303   120252621.267       -2393.620          46.000  
G18  25086733.732   131832045.709       -1788.519          48.000    25086729.916   102726384.150       -1393.628          50.000  
G29  27288706.468   143403529.550       -2492.646          45.000    27288701.316   111743281.784       -1942.288          39.000  
S31  43366523.019   227892744.201        -674.287          44.000  
E30  31045916.465   163147502.790        1843.447          42.000    31045916.964   125009019.047        1412.498          46.000  
R11  28028725.162   149776977.902        3338.840          39.000    28028719.043                3       2596.870          23.000  
R21  27630478.125   147856517.919        1834.535          50.000    27630475.780   114999335.881        1426.731          47.000  
R19  26621306.227   142406402.975       -3603.050          38.000    26621301.194   110760140.062       -2802.490          46.000  
G05  29187867.490   153383274.553       -3102.423          43.000    29187862.179   119519384.710       -2417.621          37.000  
G23  26502902.146   139273823.046        2132.587          47.000    26502897.557   108525085.300        1661.621          45.000  
E34  29394273.416   154468147.624        1021.059          46.000    29394274.938   118358856.450         782.379          50.000  
G10  28846760.128                        3169.455          31.000    28846762.662                        2469.540          30.000  
G25  28113807.538   147739264.132       -4035.974          43.000    28113808.202   115121570.230       -3144.670          42.000  
E25  29271163.071   153821303.950       -2668.491          45.000    29271165.281   117863230.871       -2044.704          53.000  
G31  27087195.839   142344104.575       -2443.668          46.000    27087192.108   110917555.529       -1904.128          42.000  
E14  34874835.228   183268634.584       -1291.586          37.000    34874833.833   140426671.647        -989.631          44.000  
> 2024 04 15 05 46 30.0150000  0 27                     
S33  44324749.939   232928293.225        -675.190          42.000  
E02  27866143.265   146437595.457        -187.917          47.000    27866143.269   112205463.827        -143.937          51.000  
G28  28266470.455   148541318.488       -3660.565          34.000    28266474.142   115746397.890       -2852.704          39.000  
E36  28029711.093   147297478.633       -1395.342          48.000    28029711.699   112864515.869       -1069.152          50.000  
G26  25286532.941   132881654.606         862.994          49.000    25286529.819   103544105.333         672.382          46.000  
R20  24587813.974   131482158.507        -704.122          42.000    24587812.123   102263989.623        -547.855          44.000  
R10  24362872.504   129867900.743         457.991          47.000                                                                  
R09  24509349.187   130878548.671       -3252.360          52.000    24509344.769   101794688.591       -2529.434          51.000  
R16  28473679.743                3      -5134.587          13.000                                                                  
R04  27869748.891   149241261.965        1545.581          44.000    27869739.097   116076536.554        1202.191          39.000  
G16  27961231.651   146937265.549        2502.170          42.000                                                                  
E11  29882366.281   157033309.506       -3126.270          42.000    29882363.809   120324453.512       -2395.295          47.000  
G18  25096984.894   131885918.743       -1803.060          48.000    25096980.862   102768363.154       -1405.025          50.000  
G29  27302948.633   143478372.846       -2496.701          45.000    27302943.247   111801601.247       -1945.387          40.000  
S31  43370374.742   227912984.113        -675.007          44.000  
E30  31035403.450   163092259.344        1839.402          42.000    31035404.678   124966689.680        1409.461          46.000  
R11  28010003.523   149676949.312        3330.208          37.000    28010006.596   116415365.6981       2590.008          33.000  
R21  27620220.189   147801622.956        1824.894          50.000    27620217.050   114956640.029        1419.466          45.000  
R19  26641517.067   142514514.439       -3603.965          38.000    26641511.341   110844226.750       -2803.310          46.000  
G05  29205616.936   153476551.172       -3115.759          43.000    29205612.813   119592067.806       -2427.875          37.000  
G23  26490762.983   139210029.293        2120.284          48.000    26490758.757   108475375.917        1651.958          46.000  
E34  29388472.049   154437657.546        1011.540          47.000    29388472.652   118335493.981         775.067          50.000  
G10  28828657.094                1       3170.740          30.000    28828658.607                        2470.685          28.000  
G25  28136870.209   147860455.087       -4043.649          44.000    28136869.986   115216004.707       -3150.906          41.000  
E25  29286424.789   153901502.634       -2678.132          46.000    29286426.676   117924681.807       -2052.129          53.000  
G31  27101186.335   142417625.124       -2457.860          46.000    27101181.590   110974844.221       -1915.083          41.000  
E14  34882186.354   183307262.879       -1283.643          37.000    34882184.748   140456269.925        -983.627          45.000  
> 2024 04 15 05 47 00.0150000  0 27                     
S33  44328603.110   232948542.930        -674.982          42.000  
E02  27867246.474   146443390.208        -198.732          47.000    27867245.959   112209903.958        -152.283          51.000  
G28  28287376.825   148651181.502       -3663.257          34.000    28287380.337   115832005.234       -2854.456          38.000  
E36  28037700.910   147339465.223       -1404.027          48.000    28037701.859   112896687.426       -1075.777          50.000  
G26  25281648.714   132855990.997         847.656          48.000    25281646.127   103524107.735         660.394          46.000  
R20  24591797.292   131503459.538        -715.879          41.000    24591795.439   102280557.109        -556.816          43.000  
R10  24360366.886   129854537.710         432.593          48.000                                                                  
R09  24527678.517   130976425.898       -3273.093          53.000    24527673.618   101870815.291       -2545.660          51.000  
R16  28502717.226                3      -5177.355          19.000                                                                  
R04  27861129.227   149195110.409        1531.095          41.000    27861121.721   116040640.917        1190.760          41.000  
G16  27946957.298   146862251.211        2498.560          43.000                                                                  
E11  29900215.539   157127103.926       -3127.225          43.000    29900211.253   120396322.010       -2396.144          45.000  
G18  25107316.519   131940211.638       -1816.725          48.000    25107311.302   102810669.318       -1415.515          48.000  
G29  27317208.728   143553314.334       -2499.390          45.000    27317205.071   111859997.229       -1947.736          41.000  
S31  43374226.824   227933226.696        -674.586          44.000  
E30  31024908.982   163037115.264        1836.589          42.000    31024910.839   124924436.465        1407.077          46.000  
R11  27991330.147   149577167.690        3321.742          37.000    27991333.164                        2583.715          30.000  
R21  27610011.790   147746993.409        1816.725          50.000    27610007.731   114914150.557        1413.044          46.000  
R19  26661729.383   142622635.351       -3603.883          38.000    26661723.381   110928320.827       -2803.226          47.000  
G05  29223438.091   153570204.398       -3127.779          43.000    29223434.255   119665044.376       -2437.429          38.000  
G23  26478690.148   139146587.013        2108.956          49.000    26478686.329   108425940.418        1643.349          47.000  
E34  29382721.423   154407436.317        1002.927          47.000    29382721.907   118312337.479         768.466          51.000  
G25  28159972.554   147981858.551       -4050.238          44.000    28159972.325   115310604.764       -3155.870          42.000  
E25  29301739.263   153981975.738       -2686.984          46.000    29301740.197   117986342.995       -2058.818          53.000  
G31  27115253.604   142491551.749       -2470.690          46.000    27115249.326   111032449.376       -1925.192          41.000  
E14  34889487.440   183345637.542       -1274.573          34.000    34889487.063   140485673.877        -976.815          45.000  
G10                                                                  28810554.735                        2471.300          28.000  
> 2024 04 15 05 47 30.0150000  0 27                     
S33  44332456.729   232968793.498        -675.145          42.000  
E02  27868413.774   146449522.262        -210.194          48.000    27868412.756   112214602.544        -160.989          51.000  
G28  28308296.651   148761123.394       -3665.967          32.000    28308301.712   115917674.062       -2856.616          37.000  
E36  28045742.019   147381722.066       -1413.217          47.000    28045743.055   112929066.065       -1082.906          51.000  
G26  25276854.650   132830801.140         831.696          48.000    25276852.349   103504479.278         648.206          46.000  
R20  24595849.250   131525125.292        -728.189          41.000    24595846.452   102297408.295        -566.243          43.000  
R10  24358006.636   129841953.637         406.472          48.000                                                                  
R09  24546125.183   131074935.822       -3294.257          52.000    24546121.449   101947434.109       -2562.152          51.000  
R16  28531765.514                3      -5185.069          13.000                                                                  
R04  27852595.355   149149415.820        1515.275          42.000    27852589.987   116005100.709        1178.613          42.000  
G16  27932705.570   146787359.232        2494.177          43.000                                                                  
E11  29918072.767   157220943.429       -3128.705          43.000    29918069.782   120468224.981       -2397.369          48.000  
G18  25117727.853   131994921.474       -1830.676          49.000    25117721.826   102853300.374       -1426.452          48.000  
G29  27331488.287   143628353.549       -2503.139          45.000    27331485.374   111918469.335       -1950.648          42.000  
S31  43378079.046   227953470.909        -674.667          44.000  
E30  31014434.190   162982071.207        1833.053          41.000    31014436.145   124882259.877        1404.460          46.000  
R11  27972704.808   149477636.128        3313.328          39.000    27972701.548                        2576.890          28.000  
R21  27599851.659   147692628.080        1807.747          51.000    27599848.598   114871866.638        1406.019          45.000  
R19  26681942.291   142730762.908       -3604.488          38.000    26681936.687   111012420.046       -2803.327          47.000  
G05  29241330.598   153664231.096       -3140.477          43.000    29241327.764   119738311.930       -2447.098          38.000  
G23  26466684.799   139083498.467        2096.918          48.000    26466680.825   108376780.524        1633.961          47.000  
E34  29377021.500   154377483.096         993.867          48.000    29377022.333   118289386.354         761.536          51.000  
G25  28183114.593   148103471.725       -4057.214          43.000    28183114.541   115405368.210       -3161.701          41.000  
E25  29317104.362   154062721.687       -2696.185          46.000    29317105.531   118048213.260       -2065.881          53.000  
G31  27129397.534   142565880.587       -2484.405          46.000    27129393.676   111090367.910       -1935.918          42.000  
E14  34896741.572   183383758.408       -1266.565          35.000    34896741.244   140514883.361        -970.501          45.000  
G10                                                                  28792444.483                        2471.381          31.000  
> 2024 04 15 05 48 00.0150000  0 26                     
S33  44336310.286   232989043.510        -675.050          42.000  
E02  27869644.112   146455989.795        -221.276          47.000    27869643.408   112219558.187        -169.541          51.000  
G28  28329234.946   148871138.118       -3668.335          37.000    28329236.900   116003399.528       -2858.795          38.000  
E36  28053833.231   147424244.992       -1422.077          47.000    28053834.856   112961648.588       -1089.637          50.000  
G26  25272151.369   132806084.235         815.942          48.000    25272149.073   103485219.364         635.907          46.000  
R20  24599967.329   131547149.831        -740.146          40.000    24599964.676   102314538.527        -575.704          42.000  
R10  24355792.306   129830147.836         380.495          49.000                                                                  
R09  24564690.375   131174072.461       -3315.075          52.000    24564686.649   102024540.381       -2578.291          51.000  
R04  27844149.112   149104179.410        1500.269          46.000    27844142.895   115969916.893        1166.987          40.000  
G16  27918477.466   146712588.774        2490.504          42.000                                                                  
E11  29935937.457   157314823.795       -3130.126          42.000    29935933.683   120540159.301       -2398.167          46.000  
G18  25128217.588   132050043.414       -1844.424          48.000    25128212.009   102896252.546       -1437.154          49.000  
G29  27345786.935   143703487.765       -2506.264          46.000    27345782.653   111977015.450       -1952.813          41.000  
S31  43381931.138   227973713.231        -674.890          44.000  
E30  31003978.059   162927125.842        1829.777          42.000    31003980.251   124840158.911        1401.974          46.000  
R11  27954127.493   149378355.804        3305.170          39.000    27954127.031                        2571.059          28.000  
R21  27589740.514   147638524.362        1799.039          50.000    27589736.769   114829786.159        1399.341          44.000  
R19  26702156.213   142838892.549       -3604.583          35.000    26702150.561   111096520.859       -2803.323          47.000  
G05  29259294.018   153758626.368       -3152.512          44.000    29259289.858   119811866.724       -2456.709          36.000  
G23  26454746.848   139020763.889        2085.099          48.000    26454743.562   108327896.487        1624.752          47.000  
E34  29371371.868   154347795.147         985.081          48.000    29371372.950   118266638.499         754.741          52.000  
G10  28774331.526   151210119.5471       3172.646          33.000    28774331.379                        2472.073          30.000  
G25  28206296.036   148225289.802       -4064.050          44.000    28206294.923   115500291.298       -3166.595          39.000  
E25  29332520.969   154143737.036       -2705.009          47.000    29332522.285   118110289.934       -2072.698          52.000  
G31  27143617.234   142640606.210       -2497.611          46.000    27143613.629   111148595.577       -1946.018          41.000  
E14  34903948.134   183421623.342       -1258.014          37.000    34903947.074   140543896.786        -964.085          46.000  
> 2024 04 15 05 48 30.0150000  0 27                     
S33  44340163.246   233009291.039        -674.864          42.000  
E02  27870938.939   146462793.296        -232.575          47.000    27870937.960   112224771.268        -178.210          51.000  
G28  28350184.468   148981222.094       -3670.404          39.000    28350185.223   116089179.086       -2860.449          38.000  
E36  28061974.949   147467032.203       -1430.815          47.000    28061976.870   112994433.614       -1096.294          50.000  
G26  25267537.793   132781841.822         800.140          48.000    25267536.099   103466329.182         623.572          46.000  
R20  24604152.690   131569531.622        -751.962          41.000    24604150.167   102331946.580        -585.000          43.000  
R10  24353723.432   129819121.780         354.435          48.000                                                                  
R09  24583372.554   131273832.581       -3335.786          52.000    24583368.275   102102131.578       -2594.482          50.000  
R16  28589851.618                3      -5164.016          16.000    28589932.149                3      -4026.708          17.000  
R04  27835789.210   149059404.372        1484.737          47.000    27835780.846   115935091.907        1154.952          38.000  
G16  27904272.143   146637941.805        2486.312          42.000                                                                  
E11  29953811.567   157408743.203       -3131.555          44.000    29953806.616   120612123.517       -2399.355          47.000  
G18  25138784.889   132105574.892       -1857.978          48.000    25138779.964   102939523.858       -1447.798          49.000  
G29  27360103.064   143778716.498       -2509.026          47.000    27360097.584   112035635.224       -1955.366          41.000  
S31  43385782.592   227993953.792        -674.691          44.000  
E30  30993541.641   162872280.201        1826.243          41.000    30993543.414   124798134.333        1399.483          46.000  
R11  27935597.577   149279329.835        3296.547          39.000    27935590.063                        2563.818          30.000  
R21  27579678.079   147584681.519        1790.394          49.000    27579675.245   114787908.617        1392.633          45.000  
R19  26722368.753   142947022.149       -3604.394          38.000    26722364.497   111180621.639       -2803.436          48.000  
G05  29277326.681   153853387.674       -3164.804          43.000    29277321.901   119885706.684       -2466.427          38.000  
G23  26442876.790   138958385.885        2073.251          48.000    26442872.721   108279290.297        1615.563          47.000  
E34  29365773.024   154318372.086         976.198          48.000    29365773.825   118244093.594         748.010          52.000  
G10  28756221.577                        3172.785          31.000    28756214.239                1       2472.465          31.000  
G25  28229515.853   148347310.317       -4070.746          43.000    28229513.860   115595372.170       -3172.150          39.000  
E25  29347988.520   154225020.617       -2714.067          46.000    29347989.789   118172572.141       -2079.632          52.000  
G31  27157913.394   142715725.374       -2510.900          47.000    27157908.446   111207129.935       -1956.117          42.000  
E14  34911103.783   183459232.606       -1249.317          37.000    34911103.781   140572714.270        -957.384          46.000  
> 2024 04 15 05 49 00.0150000  0 27                     
S33  44344015.137   233029533.723        -674.810          42.000  
E02  27872296.992   146469931.000        -243.632          47.000    27872296.169   112230240.427        -186.745          51.000  
G28  28371144.961   149091369.559       -3672.571          40.000    28371146.049   116175008.054       -2861.823          37.000  
E36  28070167.411   147510079.644       -1439.458          47.000    28070168.484   113027418.029       -1102.914          50.000  
G26  25263014.911   132758073.198         784.174          48.000    25263013.794   103447808.171         611.121          46.000  
R20  24608404.546   131592265.905        -763.678          41.000    24608401.982   102349628.815        -594.028          44.000  
R10  24351800.651   129808874.472         328.499          48.000                                                                  
R09  24602169.681   131374209.971       -3356.252          52.000    24602166.395   102180202.844       -2610.259          51.000  
R04  27827511.466   149015091.838        1469.286          45.000    27827504.851   115900626.677        1142.823          40.000  
G16  27890090.875   146563418.394        2481.737          41.000                                                                  
E11  29971688.508   157502697.542       -3132.850          41.000    29971685.154   120684114.504       -2400.317          47.000  
G18  25149429.653   132161511.200       -1871.364          49.000    25149424.276   102983110.596       -1458.229          50.000  
G29  27374435.950   143854037.105       -2512.552          46.000    27374430.550   112094326.596       -1957.664          40.000  
S31  43389633.488   228014189.801        -674.614          44.000  
E30  30983124.438   162817533.031        1823.105          42.000    30983125.522   124756185.230        1397.083          46.000  
R11  27917114.288   149180559.714        3288.229          37.000    27917102.423                        2557.355          28.000  
R21  27569663.693   147531096.668        1781.828          49.000    27569661.671   114746231.698        1385.899          44.000  
R19  26742581.738   143055146.841       -3604.206          39.000    26742576.114   111264718.634       -2803.163          47.000  
G05  29295427.888   153948509.769       -3176.612          44.000    29295423.490   119959827.779       -2475.289          39.000  
G23  26431074.893   138896364.805        2061.346          49.000    26431070.919   108230962.229        1606.111          47.000  
E34  29360224.467   154289211.219         967.545          48.000    29360224.725   118221749.592         741.362          52.000  
G25  28252772.649   148469528.575       -4077.222          43.000    28252771.710   115690607.073       -3176.941          39.000  
E25  29363507.135   154306569.007       -2722.908          46.000    29363507.663   118235057.258       -2086.324          52.000  
G31  27172282.577   142791232.519       -2523.297          48.000    27172278.165   111265966.641       -1966.192          43.000  
E14  34918212.220   183496584.212       -1240.918          37.000    34918211.569   140601334.324        -950.965          46.000  
R16                                                                  27719770.880                3      -4104.805          11.000  
G10                                                                  28738094.737                        2473.638          30.000  
> 2024 04 15 05 49 30.0150000  0 26                     
S33  44347866.113   233049771.148        -674.481          42.000  
E02  27873719.027   146477402.626        -254.519          47.000    27873718.084   112235965.430        -195.012          51.000  
G28  28392117.272   149201575.992       -3674.396          42.000    28392117.533   116260882.976       -2862.787          36.000  
E36  28078408.862   147553384.695       -1447.694          48.000    28078409.163   113060599.826       -1109.284          50.000  
G26  25258582.304   132734779.058         768.610          49.000    25258581.214   103429656.871         598.853          46.000  
R20  24612721.813   131615349.300        -774.913          42.000    24612719.643   102367582.590        -602.807          44.000  
R10  24350024.291   129799406.490         302.751          48.000                                                                  
R09  24621081.679   131475200.154       -3376.468          51.000    24621078.630   102258750.729       -2626.101          50.000  
R04  27819322.571   148971244.854        1453.694          46.000    27819317.488   115866523.463        1130.561          42.000  
G16  27875932.836   146489019.219        2477.871          41.000                                                                  
E11  29989575.008   157596684.124       -3133.037          42.000    29989570.461   120756130.207       -2400.738          47.000  
G18  25160149.712   132217848.924       -1884.473          48.000    25160144.542   103027010.132       -1468.526          49.000  
G29  27388785.840   143929448.500       -2515.222          45.000    27388781.318   112153088.728       -1960.239          41.000  
S31  43393483.307   228034420.203        -674.100          44.000  
E30  30972725.765   162762884.591        1820.017          42.000    30972726.228   124714311.791        1394.594          47.000  
R11  27898676.890   149082048.192        3279.770          34.000    27898666.304                        2550.922          29.000  
R21  27559697.600   147477768.303        1773.436          50.000    27559695.224   114704754.252        1379.255          44.000  
R19  26762792.290   143163263.890       -3603.935          37.000    26762788.189   111348809.624       -2802.960          47.000  
G05  29313597.621   154043989.131       -3188.372          43.000    29313593.187   120034227.303       -2484.760          39.000  
G23  26419340.780   138834702.384        2049.422          49.000    26419337.429   108182913.642        1597.036          48.000  
E34  29354723.977   154260311.273         959.104          47.000    29354725.067   118199605.536         734.918          52.000  
G10  28719990.189   150924567.0521       3173.743          31.000    28719977.568   117603509.7851       2473.727          33.000  
G25  28276067.484   148591941.294       -4083.667          43.000    28276065.627   115785993.537       -3182.257          39.000  
E25  29379075.131   154388380.196       -2731.290          46.000    29379076.067   118297743.765       -2092.887          52.000  
G31  27186723.282   142867123.733       -2535.946          47.000    27186720.110   111325102.607       -1976.188          41.000  
E14  34925271.321   183533677.549       -1232.395          37.000    34925270.495   140629756.471        -944.064          46.000  
> 2024 04 15 05 50 00.0150000  0 26                     
S33  44351715.069   233069996.354        -674.205          42.000  
E02  27875204.415   146485204.399        -265.940          48.000    27875202.787   112241943.413        -203.706          51.000  
G28  28413098.926   149311833.553       -3676.788          41.000    28413099.801   116346797.702       -2864.673          38.000  
E36  28086697.303   147596941.308       -1456.416          48.000    28086697.625   113093974.383       -1116.008          50.000  
G26  25254239.698   132711956.682         752.448          48.000    25254238.393   103411873.183         586.414          47.000  
R20  24617101.823   131638774.630        -786.893          41.000    24617099.389   102385802.327        -612.090          43.000  
R10  24348393.877   129790714.736         276.346          48.000                                                                  
R09  24640107.962   131576795.387       -3396.948          53.000    24640103.457   102337769.244       -2642.076          51.000  
R04  27811219.453   148927862.380        1437.908          43.000    27811215.919   115832781.520        1118.211          41.000  
G16  27861798.218   146414741.811        2473.414          40.000                                                                  
E11  30007463.108   157690697.072       -3134.267          39.000    30007460.409   120828166.084       -2401.577          47.000  
G18  25170945.055   132274581.343       -1897.995          48.000    25170940.199   103071217.232       -1479.062          48.000  
G29  27403152.937   144004946.123       -2518.315          46.000    27403147.843   112211918.032       -1962.506          40.000  
S31  43397330.923   228054639.235        -674.177          43.000  
E30  30962344.820   162708331.672        1816.441          43.000    30962345.350   124672511.533        1391.773          47.000  
R11  27880288.936   148983794.233        3270.539          34.000    27880281.398                3       2544.766          26.000  
R21  27549779.769   147424691.738        1764.755          51.000    27549777.303   114663472.671        1372.523          45.000  
R19  26783000.390   143271366.997       -3603.386          35.000    26782997.522   111432889.798       -2802.687          48.000  
G05  29331833.189   154139818.740       -3200.759          42.000    29331828.724   120108899.750       -2494.017          38.000  
G23  26407674.237   138773396.998        2037.130          48.000    26407670.681   108135143.254        1587.389          47.000  
E34  29349273.008   154231667.618         949.986          47.000    29349274.307   118177657.849         728.022          52.000  
G10  28701860.433   150829326.834        3174.390          32.000    28701857.957   117529296.872        2473.398          34.000  
G25  28299397.189   148714541.789       -4090.240          43.000    28299395.752   115881526.357       -3187.323          38.000  
E25  29394691.796   154470448.869       -2740.273          46.000    29394693.236   118360627.525       -2099.721          52.000  
G31  27201236.708   142943391.702       -2548.849          48.000    27201233.410   111384532.166       -1985.978          42.000  
E14  34932277.725   183570508.619       -1224.090          35.000    34932279.407   140657977.682        -937.624          46.000  
> 2024 04 15 05 50 30.0150000  0 26                     
S33  44355562.191   233090214.740        -673.640          42.000  
E02  27876752.219   146493339.568        -276.910          48.000    27876750.680   112248176.847        -212.181          51.000  
G28  28434090.731   149422141.727       -3677.972          43.000    28434090.340   116432751.847       -2865.833          38.000  
E36  28095033.468   147640750.419       -1464.645          47.000    28095033.765   113127542.417       -1122.270          50.000  
G26  25249987.685   132689610.325         736.749          49.000    25249985.847   103394460.429         574.103          47.000  
R20  24621545.839   131662543.500        -798.346          40.000    24621544.221   102404289.262        -620.859          43.000  
R10  24346910.205   129782803.731         250.553          48.000                                                                  
R09  24659247.757   131678994.916       -3416.873          53.000    24659242.184   102417257.749       -2657.595          50.000  
R04  27803207.235   148884950.274        1422.311          45.000    27803201.607   115799405.496        1106.342          41.000  
G16  27847687.692   146340590.865        2469.615          40.000                                                                  
E11  30025358.525   157784737.247       -3135.134          40.000    30025355.637   120900222.863       -2402.262          47.000  
G18  25181816.490   132331708.657       -1910.902          48.000    25181811.698   103115732.030       -1489.045          49.000  
G29  27417535.992   144080532.540       -2521.250          45.000    27417532.874   112270816.532       -1964.667          41.000  
S31  43401176.548   228074850.462        -673.657          44.000  
E30  30951983.247   162653878.120        1813.152          43.000    30951983.295   124630787.418        1389.419          47.000  
R11  27861951.888   148885804.368        3261.698          38.000    27861993.594                1       2536.674          25.000  
R21  27539909.645   147371869.250        1756.334          51.000    27539905.977   114622388.699        1365.975          46.000  
R19  26803208.690   143379456.537       -3602.661          38.000    26803203.803   111516959.480       -2802.130          48.000  
G05  29350135.642   154235999.070       -3211.819          41.000    29350129.970   120183845.482       -2502.605          37.000  
G23  26396076.828   138712453.948        2025.146          48.000    26396073.581   108087655.197        1577.923          48.000  
E34  29343872.147   154203282.547         941.709          47.000    29343872.822   118155908.303         721.488          52.000  
G10  28683726.664   150734076.290        3175.637          32.000    28683731.468   117455075.874        2473.880          34.000  
G25  28322763.035   148837330.415       -4096.295          43.000    28322762.449   115977205.691       -3191.504          39.000  
E25  29410359.669   154552776.529       -2748.710          47.000    29410359.885   118423709.744       -2106.112          52.000  
G31  27215822.530   143020035.728       -2561.247          49.000    27215819.065   111444254.714       -1995.814          42.000  
E14  34939235.418   183607080.483       -1215.268          34.000    34939238.108   140686000.266        -930.906          45.000  
> 2024 04 15 05 51 00.0150000  0 27                     
S33  44359408.206   233110425.786        -673.683          42.000  
E02  27878364.182   146501811.289        -287.634          48.000    27878362.739   112254668.160        -220.463          51.000  
G28  28455091.235   149532499.914       -3678.961          44.000    28455090.100   116518745.209       -2866.974          38.000  
E36  28103418.369   147684812.917       -1472.627          47.000    28103418.053   113161304.608       -1128.392          49.000  
G26  25245826.361   132667744.137         721.057          49.000    25245824.392   103377421.861         561.774          47.000  
R20  24626055.363   131686655.394        -808.962          40.000    24626053.885   102423042.974        -629.198          43.000  
R10  24345573.330   129775677.176         224.682          49.000                                                                  
R09  24678498.102   131781797.344       -3436.514          52.000    24678493.828   102497215.154       -2672.835          51.000  
R04  27795282.503   148842515.086        1406.790          43.000    27795277.051   115766400.381        1094.209          40.000  
G16  27833602.511   146266571.189        2465.323          40.000                                                                  
E11  30043259.157   157878805.561       -3135.687          40.000    30043256.802   120972301.175       -2402.945          48.000  
G18  25192762.559   132389231.072       -1923.767          47.000    25192758.384   103160554.709       -1499.152          49.000  
G29  27431937.253   144156209.870       -2523.763          46.000    27431932.487   112329785.855       -1966.702          40.000  
S31  43405021.603   228095054.903        -673.232          43.000  
E30  30941640.938   162599527.665        1810.281          43.000    30941640.769   124589142.302        1387.126          47.000  
R11  27843665.619   148788084.638        3253.053          39.000    27843704.904                3       2535.151          19.000  
R21  27530085.771   147319302.713        1748.208          51.000    27530082.833   114581503.781        1359.714          46.000  
R19  26823413.186   143487533.185       -3602.232          39.000    26823407.047   111601019.064       -2801.750          47.000  
R05  28747902.870                3       2756.727          15.000                                                                  
G05  29368504.474   154332529.858       -3223.238          41.000    29368498.939   120259064.283       -2511.950          37.000  
G23  26384549.536   138651878.516        2013.262          48.000    26384546.363   108040453.592        1568.762          48.000  
E34  29338519.527   154175158.320         933.559          47.000    29338520.979   118134358.613         715.174          52.000  
G10  28665603.302   150638820.584        3176.225          33.000    28665605.167   117380850.906        2474.469          35.000  
G25  28346165.618   148960307.310       -4102.044          44.000    28346164.441   116073031.757       -3196.368          40.000  
E25  29426074.826   154635364.707       -2756.991          46.000    29426075.899   118486991.567       -2112.468          53.000  
G31  27230478.443   143097055.038       -2573.309          48.000    27230475.590   111504269.744       -2005.264          42.000  
E14  34946147.514   183643395.988       -1205.815          35.000    34946148.740   140713826.454        -924.072          45.000  
> 2024 04 15 05 51 30.0150000  0 26                     
S33  44363253.230   233130630.994        -673.244          42.000  
E02  27880040.231   146510620.514        -299.302          47.000    27880039.137   112261418.071        -229.290          51.000  
G28  28476100.113   149642904.688       -3680.750          43.000    28476098.692   116604774.838       -2868.091          37.000  
E36  28111850.332   147729127.452       -1481.264          47.000    28111850.870   113195259.917       -1134.933          49.000  
G26  25241756.476   132646360.120         704.785          49.000    25241754.951   103360759.000         549.078          46.000  
R20  24630628.833   131711108.526        -820.660          41.000    24630626.206   102442062.084        -638.330          44.000  
R10  24344384.260   129769336.639         198.348          50.000                                                                  
R09  24697862.853   131885199.899       -3456.672          53.000    24697858.130   102577639.339       -2688.538          51.000  
R04  27787446.846   148800560.544        1390.608          42.000    27787443.174   115733769.037        1081.544          42.000  
G16  27819542.308   146192684.828        2460.717          41.000                                                                  
E11  30061164.865   157972900.680       -3136.909          40.000    30061162.175   121044400.046       -2403.799          47.000  
G18  25203783.062   132447146.427       -1936.914          47.000    25203779.077   103205683.579       -1509.283          49.000  
G29  27446356.285   144231978.282       -2527.122          46.000    27446351.461   112388826.162       -1969.291          40.000  
S31  43408865.125   228115253.213        -673.319          44.000  
E30  30931317.998   162545281.825        1806.626          44.000    30931318.014   124547577.361        1384.152          47.000  
R11  27825431.411   148690639.260        3243.413          38.000    27825425.697                1       2522.884          27.000  
R21  27520310.367   147266992.136        1739.497          51.000    27520307.106   114540817.956        1352.792          46.000  
R19  26843614.336   143595594.922       -3601.829          38.000    26843608.385   111685067.069       -2801.426          48.000  
G05  29386940.153   154429408.514       -3235.065          40.000    29386934.008   120334554.094       -2521.086          35.000  
G23  26373092.740   138591673.710        2000.694          48.000    26373089.748   107993540.791        1558.952          48.000  
E34  29333217.532   154147294.953         924.376          47.000    29333219.025   118113008.800         708.363          53.000  
G10  28647476.374   150543562.643        3175.378          36.000    28647477.223   117306624.185        2474.361          36.000  
G25  28369602.592   149083470.461       -4108.636          44.000    28369602.262   116169002.964       -3201.355          41.000  
E25  29441840.632   154718212.686       -2765.847          47.000    29441841.499   118550472.458       -2119.347          53.000  
G31  27245205.411   143174447.020       -2585.800          46.000    27245202.612   111564575.169       -2015.059          42.000  
E14  34953010.824   183679455.940       -1198.048          37.000    34953010.635   140741456.783        -917.717          44.000  
> 2024 04 15 05 52 00.0150000  0 26                     
S33  44367096.788   233150831.194        -673.158          42.000  
E02  27881780.804   146519769.285        -310.547          47.000    27881780.045   112268428.170        -237.946          51.000  
G28  28497117.330   149753354.263       -3682.291          41.000    28497116.600   116690839.448       -2869.598          39.000  
E36  28120331.851   147773693.813       -1489.689          48.000    28120331.684   113229408.181       -1141.438          49.000  
G26  25237780.082   132625461.327         688.586          48.000    25237777.919   103344474.216         536.493          47.000  
R20  24635265.258   131735902.005        -832.092          41.000    24635262.974   102461345.903        -647.227          44.000  
R10  24343343.280   129763785.245         171.821          50.000                                                                  
R09  24717338.463   131989200.287       -3476.601          53.000    24717334.079   102658528.484       -2704.031          51.000  
R04  27779702.134   148759091.445        1374.193          42.000    27779698.415   115701515.277        1068.721          42.000  
G16  27805508.555   146118935.404        2456.024          41.000                                                                  
E11  30079075.843   158067022.424       -3137.514          40.000    30079073.278   121116519.290       -2404.200          48.000  
G18  25214878.244   132505453.806       -1950.055          47.000    25214874.266   103251117.920       -1519.476          49.000  
G29  27460791.867   144307839.058       -2530.182          46.000    27460787.676   112447938.448       -1971.667          40.000  
S31  43412707.886   228135446.649        -672.997          44.000  
E30  30921015.903   162491143.299        1802.905          44.000    30921015.928   124506094.630        1381.529          47.000  
R11  27807246.325   148593473.387        3234.642          35.000    27807260.981                        2515.442          26.000  
R21  27510582.098   147214938.521        1730.743          51.000    27510578.837   114500331.990        1346.234          47.000  
R19  26863811.517   143703641.276       -3601.075          38.000    26863806.767   111769103.104       -2800.921          47.000  
G05  29405441.755   154526634.089       -3246.311          39.000    29405435.680   120410314.256       -2529.248          34.000  
G23  26361707.889   138531843.692        1987.968          48.000    26361703.855   107946920.012        1549.168          48.000  
E34  29327965.246   154119693.580         915.787          47.000    29327966.602   118091859.750         701.678          53.000  
G10  28629347.882   150448306.612        3174.834          37.000    28629350.179   117232398.957        2473.922          36.000  
G25  28393074.957   149206819.033       -4114.575          44.000    28393075.212   116265118.663       -3206.348          41.000  
E25  29457655.695   154801320.854       -2774.580          47.000    29457656.360   118614152.721       -2125.983          52.000  
G31  27260002.771   143252209.950       -2598.117          45.000    27259998.883   111625169.625       -2024.543          40.000  
E14  34959824.948   183715262.153       -1189.370          38.000    34959824.085   140768892.700        -911.209          43.000  
> 2024 04 15 05 52 30.0150000  0 26                     
S33  44370939.683   233171024.651        -673.366          43.000  
E02  27883586.700   146529257.150        -322.222          48.000    27883585.454   112275698.103        -247.037          51.000  
G28  28518142.828   149863844.101       -3683.850          41.000    28518142.816   116776935.342       -2870.604          41.000  
E36  28128860.029   147818509.255       -1498.435          48.000    28128859.953   113263747.302       -1148.174          50.000  
G26  25233895.653   132605048.238         671.997          49.000    25233893.748   103328567.905         523.572          47.000  
R20  24639964.583   131761032.780        -843.416          41.000    24639962.529   102480892.084        -656.179          44.000  
R10  24342449.769   129759022.963         145.187          49.000                                                                  
R09  24736925.841   132093793.851       -3496.618          53.000    24736921.566   102739879.011       -2719.629          51.000  
R04  27772049.142   148718110.523        1357.556          39.000    27772045.941   115669641.271        1055.976          42.000  
G16  27791501.015   146045323.797        2451.107          42.000                                                                  
E11  30096992.235   158161168.131       -3138.833          40.000    30096988.085   121188656.896       -2405.059          47.000  
G18  25226047.559   132564149.738       -1963.361          47.000    25226043.835   103296855.022       -1529.901          49.000  
G29  27475245.159   144383791.074       -2533.626          46.000    27475239.046   112507121.849       -1974.371          38.000  
S31  43416549.099   228155633.031        -673.067          44.000  
E30  30910733.783   162437112.232        1798.815          44.000    30910733.991   124464694.239        1378.432          47.000  
R11  27789108.629                        3223.888          27.000    27789138.590                3       2505.563          22.000  
R21  27500902.525   147163140.406        1722.089          51.000    27500899.544   114460044.721        1339.437          47.000  
R19  26884003.383   143811669.993       -3601.101          36.000    26884002.167   111853125.410       -2800.756          48.000  
G05  29424008.884   154624202.911       -3258.076          41.000    29424002.099   120486341.869       -2538.889          33.000  
G23  26350394.417   138472390.058        1975.165          48.000    26350390.909   107900592.558        1539.002          48.000  
E34  29322761.157   154092352.806         906.714          46.000    29322763.810   118070910.373         694.728          53.000  
G10  28611221.035   150353054.057        3174.727          37.000    28611224.061   117158176.448        2473.896          37.000  
G25  28416581.824   149330349.622       -4121.094          44.000    28416582.580   116361376.182       -3211.243          41.000  
E25  29473519.612   154884687.084       -2783.455          47.000    29473520.502   118678030.718       -2132.757          53.000  
G31  27274870.485   143330340.042       -2610.824          45.000    27274866.753   111686050.142       -2034.260          40.000  
E14  34966589.029   183750814.007       -1181.126          37.000    34966589.224   140796133.728        -905.188          43.000  
> 2024 04 15 05 53 00.0150000  0 27                     
S33  44374780.699   233191208.193        -672.915          42.000  
E02  27885456.664   146539082.331        -333.333          48.000    27885455.176   112283226.493        -255.343          51.000  
G28  28539175.453   149974368.432       -3684.765          40.000    28539174.192   116863058.118       -2871.320          41.000  
E36  28137434.772   147863569.718       -1506.304          48.000    28137434.996   113298274.161       -1154.186          50.000  
G26  25230103.197   132585120.095         655.908          48.000    25230101.535   103313039.480         511.017          46.000  
R20  24644726.497   131786495.918        -854.606          41.000    24644724.302   102500696.750        -664.633          44.000  
R10  24341703.287   129755048.997         119.201          49.000                                                                  
R09  24756622.437   132198974.476       -3515.945          53.000    24756619.243   102821686.150       -2734.683          52.000  
R04  27764490.642   148677618.517        1341.394          39.000    27764484.156   115638147.532        1043.259          40.000  
G16  27777519.802   145971849.763        2446.448          43.000                                                                  
E11  30114912.495   158255333.800       -3139.395          41.000    30114907.200   121260809.800       -2405.553          46.000  
G18  25237290.860   132623229.387       -1975.873          48.000    25237286.368   103342891.125       -1539.630          49.000  
G29  27489714.573   144459831.926       -2536.287          45.000    27489709.211   112566374.454       -1976.177          38.000  
S31  43420388.897   228175810.602        -672.834          44.000  
E30  30900472.071   162383187.463        1795.462          44.000    30900472.505   124423375.292        1375.847          47.000  
R11  27771030.612                        3215.280          31.000    27771027.348                3       2495.274          23.000  
R21  27491269.686   147111594.663        1713.747          52.000    27491267.072   114419953.759        1332.943          47.000  
R19  26904195.264   143919675.704       -3600.004          37.000    26904191.416   111937129.856       -2799.918          46.000  
G05  29442640.185   154722110.041       -3268.986          40.000    29442634.363   120562633.140       -2547.469          32.000  
G23  26339152.077   138413313.089        1962.794          48.000    26339148.739   107854558.624        1529.336          48.000  
E34  29317607.674   154065269.933         898.247          47.000    29317610.011   118050158.601         688.303          53.000  
G10  28593094.100   150257805.277        3175.012          35.000    28593098.587   117083956.883        2473.846          38.000  
G25  28440122.839   149454057.519       -4126.477          43.000    28440123.306   116457771.879       -3215.814          40.000  
E25  29489431.659   154968307.930       -2791.701          46.000    29489432.849   118742103.840       -2139.176          52.000  
G31  27289807.337   143408831.322       -2622.474          45.000    27289802.689   111747212.140       -2043.447          40.000  
E14  34973306.909   183786109.562       -1172.719          38.000    34973305.839   140823178.372        -898.411          42.000  
R05                                                                  28685879.677                3       2146.724          26.000  
> 2024 04 15 05 53 30.0150000  0 27                     
S33  44378619.656   233211384.468        -672.599          42.000  
E02  27887390.937   146549247.278        -344.601          48.000    27887389.710   112291015.232        -264.051          51.000  
G28  28560213.539   150084925.749       -3686.092          38.000    28560212.058   116949206.475       -2872.191          41.000  
E36  28146055.657   147908875.410       -1514.432          48.000    28146056.403   113332988.933       -1160.350          50.000  
G26  25226403.669   132565680.365         639.655          48.000    25226401.937   103297891.638         498.444          47.000  
R20  24649550.105   131812291.435        -865.457          40.000    24649548.265   102520759.951        -673.171          43.000  
R10  24341105.708   129751866.017          92.871          48.000                                                                  
R09  24776428.946   132304740.545       -3535.433          52.000    24776425.548   102903948.617       -2749.769          51.000  
R05  28670386.118                1       2761.406          28.000    28670393.695                1       2147.455          28.000  
R04  27757022.246   148637621.413        1324.922          40.000    27757013.712   115607038.690        1030.596          38.000  
G16  27763565.041   145898517.506        2441.832          43.000                                                                  
E11  30132835.357   158349519.666       -3139.965          40.000    30132830.285   121332978.206       -2406.052          46.000  
G18  25248606.212   132682692.282       -1988.592          49.000    25248601.261   103389225.856       -1549.524          49.000  
G29  27504201.631   144535962.823       -2539.159          45.000    27504196.146   112625697.219       -1978.544          38.000  
S31  43424226.875   228195979.859        -672.141          44.000  
E30  30890231.357   162329372.112        1791.836          43.000    30890231.725   124382140.196        1372.996          47.000  
R11  27753014.101   148303677.289        3205.948          34.000    27753071.096                3       2492.262          23.000  
R21  27481684.001   147060302.877        1705.301          51.000    27481681.595   114380060.302        1326.293          46.000  
R19  26924380.010   144027659.289       -3599.559          37.000    26924378.215   112021117.031       -2799.345          46.000  
G05  29461335.831   154820354.824       -3280.588          38.000    29461327.917                       -2557.261          30.000  
G23  26327983.103   138354617.425        1950.050          49.000    26327979.074   107808821.784        1519.536          48.000  
E34  29312502.932   154038446.531         889.745          46.000    29312505.470   118029605.637         681.724          53.000  
G10  28574970.801   150162564.895        3174.342          35.000    28574973.807   117009743.791        2473.854          38.000  
G25  28463696.911   149577942.294       -4132.623          41.000    28463697.363   116554305.370       -3220.184          40.000  
E25  29505392.295   155052184.226       -2800.186          46.000    29505394.069   118806372.689       -2145.646          52.000  
G31  27304811.888   143487682.568       -2634.228          45.000    27304807.141   111808654.604       -2052.832          39.000  
E14  34979972.653   183821151.076       -1163.641          35.000    34979974.585   140850028.342        -891.822          43.000  
> 2024 04 15 05 54 00.0150000  0 27                     
S33  44382457.520   233231551.821        -672.050          42.000  
E02  27889389.606   146559752.579        -355.920          48.000    27889389.026   112299064.744        -272.697          51.000  
G28  28581257.165   150195512.623       -3687.117          37.000    28581257.182   117035377.859       -2872.655          42.000  
E36  28154723.106   147954424.638       -1522.269          48.000    28154724.208   113367890.325       -1166.656          51.000  
G26  25222797.869   132546730.565         623.352          49.000    25222795.697   103283125.555         485.675          46.000  
R20  24654435.059   131838416.277        -876.038          40.000    24654433.589   102541079.305        -681.847          44.000  
R10  24340657.056   129749475.639          66.286          49.000                                                                  
R09  24796344.689   132411088.462       -3554.653          52.000    24796341.448   102986663.633       -2764.766          51.000  
R05  28654897.645                        2762.215          30.000    28654889.450                        2148.237          27.000  
R04  27749645.676   148598121.877        1308.383          38.000    27749636.425   115576316.804        1017.580          42.000  
G16  27749636.999   145825328.863        2437.239          43.000                                                                  
E11  30150760.787   158443724.124       -3140.608          39.000    30150756.375   121405160.832       -2406.477          45.000  
G18  25259993.159   132742535.910       -2001.221          47.000    25259988.950   103435857.265       -1559.393          49.000  
G29  27518706.740   144612183.999       -2542.267          45.000    27518701.804   112685090.345       -1980.909          38.000  
S31  43428063.640   228216141.340        -671.849          44.000  
E30  30880011.954   162275667.367        1788.186          43.000    30880011.898   124340989.826        1370.217          47.000  
R11  27735047.647   148207658.250        3195.547          36.000    27735110.245                3       2484.308          24.000  
R21  27472145.749   147009264.495        1696.997          51.000    27472142.987   114340363.964        1319.992          46.000  
R19  26944561.366   144135618.158       -3598.329          35.000    26944560.350   112105085.046       -2798.625          46.000  
G05  29480094.234   154918934.573       -3291.747          38.000    29480090.894   120716002.924       -2565.463          31.000  
G23  26316886.590   138296305.637        1937.332          49.000    26316882.940   107763384.074        1509.493          48.000  
E34  29307447.450   154011882.218         881.129          46.000    29307450.245   118009251.194         675.180          52.000  
G10  28556849.506   150067335.399        3173.808          33.000    28556850.758   116935539.203        2473.501          36.000  
G25  28487304.767   149702001.550       -4138.295          41.000    28487304.861   116650974.819       -3224.703          40.000  
E25  29521402.246   155136314.876       -2808.618          46.000    29521403.500   118870836.415       -2152.089          52.000  
G31  27319884.302   143566890.479       -2646.353          45.000    27319880.360   111870374.986       -2062.167          40.000  
E14  34986592.528   183855938.977       -1155.459          36.000    34986594.698   140876683.999        -885.525          44.000  
> 2024 04 15 05 54 30.0150000  0 27                     
S33  44386293.966   233251712.726        -672.029          42.000  
E02  27891453.244   146570600.022        -367.304          48.000    27891453.142   112307376.428        -281.578          51.000  
G28  28602306.882   150306127.179       -3687.734          39.000    28602307.574   117121570.791       -2873.465          43.000  
E36  28163438.360   148000217.030       -1530.605          49.000    28163438.441   113402977.999       -1172.950          51.000  
G26  25219285.041   132528273.484         606.854          49.000    25219283.065   103268743.434         472.821          46.000  
R20  24659382.473   131864869.867        -887.326          41.000    24659380.623   102561654.319        -690.139          44.000  
R10  24340358.199   129747880.204          39.686          49.000                                                                  
R09  24816369.037   132518015.670       -3573.964          53.000    24816365.450   103069829.211       -2779.732          51.000  
R05  28639393.926                        2762.690          27.000    28639385.516                        2148.479          27.000  
R04  27742356.465                3       1291.951          25.000    27742355.160   115545986.080        1004.260          41.000  
G16  27735737.339   145752287.204        2432.097          42.000                                                                  
E11  30168689.063   158537946.780       -3140.861          37.000    30168686.868   121477357.428       -2406.710          46.000  
G18  25271453.818   132802759.142       -2013.861          48.000    25271449.270   103482784.464       -1569.183          49.000  
G29  27533228.402   144688496.560       -2545.399          45.000    27533223.795   112744554.653       -1983.685          38.000  
S31  43431898.814   228236295.881        -671.951          44.000  
E30  30869813.815   162222075.766        1784.297          43.000    30869813.742   124299926.161        1367.105          47.000  
R11  27717135.121   148111936.810        3185.430          36.000    27717140.166                        2477.277          30.000  
R21  27462655.735   146958480.316        1688.394          51.000    27462651.845   114300865.336        1313.161          45.000  
R19  26964739.540   144243551.786       -3597.540          37.000    26964737.080   112189033.445       -2798.210          46.000  
G05  29498916.056   155017847.398       -3302.375          35.000    29498914.383                       -2573.867          30.000  
G23  26305864.071   138238381.667        1924.105          49.000    26305859.956   107718248.547        1499.375          47.000  
E34  29302441.737   153985577.909         872.199          46.000    29302444.455   117989095.990         668.314          52.000  
G10  28538729.973   149972120.694        3173.452          35.000    28538731.104   116861346.216        2472.729          36.000  
G25  28510945.790   149826234.181       -4144.175          41.000    28510946.011   116747779.373       -3229.366          40.000  
E25  29537460.651   155220700.023       -2817.278          47.000    29537461.682   118935495.151       -2158.667          52.000  
G31  27335024.937   143646453.361       -2658.241          44.000    27335020.309   111932371.952       -2071.382          39.000  
E14  34993166.993   183890474.942       -1147.054          38.000    34993167.032   140903146.584        -879.123          44.000  
> 2024 04 15 05 55 00.0150000  0 27                     
S33  44390129.650   233271867.253        -671.545          42.000  
E02  27893582.839   146581791.778        -378.652          47.000    27893582.913   112315951.923        -290.117          51.000  
G28  28623361.618   150416767.793       -3688.213          40.000    28623361.960   117207784.129       -2873.988          43.000  
E36  28172198.691   148046252.422       -1538.466          49.000    28172198.695   113438251.863       -1178.733          51.000  
G26  25215867.404   132510312.260         590.454          48.000    25215865.258   103254747.676         460.101          46.000  
R20  24664391.551   131891651.528        -897.711          41.000    24664389.154   102582484.529        -698.363          44.000  
R10  24340209.106   129747082.311          13.446          49.000                                                                  
R09  24836500.485   132625520.008       -3592.914          52.000    24836497.314   103153443.686       -2794.552          51.000  
R05  28623885.866                1       2764.493          30.000    28623881.690                        2149.335          27.000  
R04  27735167.035   148520540.9751       1274.430          36.000    27735168.260   115516049.867         991.441          41.000  
G16  27721865.903   145679396.192        2427.351          42.000                                                                  
E11  30186623.598   158632187.770       -3141.409          38.000    30186620.620   121549568.036       -2407.061          47.000  
G18  25282986.245   132863361.116       -2026.331          48.000    25282981.374   103530006.780       -1578.845          49.000  
G29  27547767.943   144764901.835       -2548.356          46.000    27547762.561   112804091.202       -1985.547          38.000  
S31  43435732.711   228256443.824        -671.300          44.000  
E30  30859637.350   162168600.065        1780.760          43.000    30859637.747   124258951.298        1364.428          47.000  
R11  27699278.911   148016518.151        3175.918          39.000    27699282.862                        2469.303          32.000  
R21  27453212.269   146907951.137        1680.189          50.000    27453208.589   114261565.039        1306.768          46.000  
R19  26984912.185   144351460.347       -3596.248          37.000    26984910.429   112272962.285       -2797.028          47.000  
G05  29517800.510   155117092.820       -3313.581          31.000    29517801.829                       -2581.916          29.000  
G23  26294915.976   138180849.687        1911.328          49.000    26294911.186   107673418.459        1489.248          47.000  
E34  29297486.428   153959534.798         863.785          46.000    29297488.636   117969140.915         661.871          52.000  
G10  28520615.884   149876925.235        3173.106          37.000    28520616.499   116787168.147        2472.801          37.000  
G25  28534620.233   149950639.393       -4149.406          42.000    28534619.555   116844718.412       -3233.465          40.000  
E25  29553566.892   155305340.150       -2825.429          47.000    29553568.214   119000349.250       -2164.997          52.000  
G31  27350232.787   143726369.445       -2669.685          46.000    27350228.213   111994644.179       -2080.303          40.000  
E14  34999691.594   183924760.975       -1138.678          38.000    34999690.690   140929417.665        -872.479          43.000  
> 2024 04 15 05 55 30.0160000  0 27                     
S33  44393964.247   233292019.379        -671.762          42.000  
E02  27895779.638   146593332.148        -390.734          48.000    27895779.057   112324794.534        -299.338          51.000  
G28  28644422.270   150527438.178       -3689.447          42.000    28644421.724   117294020.707       -2875.189          44.000  
E36  28181005.480   148092534.052       -1546.948          49.000    28181005.789   113473714.432       -1185.359          51.000  
G26  25212544.577   132492851.177         573.375          48.000    25212542.953   103241141.644         446.627          46.000  
R20  24669461.360   131918762.706        -909.286          40.000    24669459.419   102603571.003        -707.364          44.000  
R10  24340209.915   129747086.713         -13.701          49.000                                                                  
R09  24856741.482   132733604.782       -3612.498          52.000    24856737.986   103237509.589       -2809.760          50.000  
R05  28608376.164                        2764.233          31.000    28608378.195   118944089.3281       2149.579          34.000  
R04  27728078.989   148482565.006        1256.853          38.000    27728075.990   115486513.056         977.590          42.000  
G16  27708024.080   145606658.857        2421.447          42.000                                                                  
E11  30204562.329   158726451.923       -3142.373          38.000    30204558.037   121621796.428       -2408.120          46.000  
G18  25294591.173   132924344.802       -2039.425          48.000    25294586.329   103577526.548       -1589.095          50.000  
G29  27562325.380   144841405.785       -2551.903          43.000    27562321.440   112863704.733       -1988.900          39.000  
S31  43439566.637   228276589.889        -671.645          44.000  
E30  30849483.217   162115243.162        1776.256          42.000    30849484.343   124218067.455        1361.049          47.000  
R11  27681479.268   147921406.371        3164.718          39.000    27681484.051   115050104.8841       2461.987          32.000  
R21  27443817.767   146857678.514        1671.181          50.000    27443814.377   114222464.321        1299.700          47.000  
R19  27005083.233   144459348.502       -3596.000          40.000    27005078.702   112356875.310       -2796.918          47.000  
G05  29536750.351                       -3324.539          28.000    29536749.701                       -2591.155          27.000  
G23  26284043.057   138123713.868        1897.429          48.000    26284038.664   107628897.051        1478.635          47.000  
E34  29292580.660   153933755.047         854.547          46.000    29292583.105   117949387.656         654.841          52.000  
G10  28502505.808   149781751.878        3171.448          40.000    28502505.842   116713007.281        2471.631          38.000  
G25  28558327.724   150075222.359       -4155.774          43.000    28558326.749   116941795.950       -3238.153          40.000  
E25  29569723.369   155390240.376       -2834.401          47.000    29569724.439   119065402.632       -2171.858          52.000  
G31  27365508.166   143806641.508       -2682.113          45.000    27365503.840   112057193.773       -2089.711          40.000  
E14  35006170.584   183958801.984       -1130.648          39.000    35006168.205   140955501.038        -866.504          42.000  
> 2024 04 15 05 56 00.0160000  0 27                     
S33  44397799.119   233312172.093        -671.594          42.000  
E02  27898042.926   146605225.170        -402.306          48.000    27898042.124   112333907.366        -308.191          51.000  
G28  28665486.035   150638131.809       -3690.302          41.000    28665485.105   117380275.413       -2875.421          43.000  
E36  28189858.512   148139061.434       -1554.927          48.000    28189859.615   113509365.299       -1191.414          51.000  
G26  25209318.381   132475897.164         556.726          49.000    25209317.018   103227930.720         433.839          46.000  
R20  24674592.128   131946205.052        -920.064          39.000    24674591.252   102624915.054        -715.703          44.000  
R10  24340361.861   129747897.967         -40.567          49.000                                                                  
R09  24877089.917   132842263.522       -3631.492          52.000    24877085.983   103322021.913       -2824.480          50.000  
R05  28592866.906   152845276.2371       2763.513          39.000    28592866.893   118879610.900        2149.091          38.000  
R04  27721087.501   148445112.279        1239.821          42.000    27721083.026   115457383.237         964.151          41.000  
G16  27694213.822   145534086.517        2416.614          42.000                                                                  
E11  30222502.967   158820735.627       -3143.235          37.000    30222499.653   121694039.780       -2408.396          46.000  
G18  25306268.424   132985707.934       -2051.752          48.000    25306263.527   103625341.984       -1598.737          49.000  
G29  27576902.362   144918007.228       -2554.888          43.000    27576898.683   112923394.129       -1991.119          38.000  
S31  43443400.130   228296736.102        -671.689          44.000  
E30  30839353.716   162062014.094        1772.240          42.000    30839355.260   124177281.564        1357.933          47.000  
R11  27663740.959   147826615.771        3154.094          38.000    27663738.712                        2453.757          27.000  
R21  27434472.157   146807669.337        1662.707          50.000    27434468.935   114183568.474        1293.163          46.000  
R19  27025246.598   144567211.891       -3594.980          39.000    27025242.535   112440768.987       -2796.092          46.000  
G05  29555753.342                3      -3336.771          25.000    29555756.888                3      -2601.323          24.000  
G23  26273247.670   138066984.834        1884.175          48.000    26273243.637   107584692.647        1468.149          47.000  
E34  29287726.936   153908244.259         846.045          46.000    29287728.390   117929840.470         648.278          52.000  
G10  28484401.753   149686613.822        3170.959          41.000    28484401.767   116638873.997        2471.124          39.000  
G25  28582067.548   150199976.671       -4161.456          44.000    28582066.369   117039006.989       -3242.169          39.000  
E25  29585927.531   155475398.163       -2842.879          47.000    29585929.355   119130653.365       -2178.195          52.000  
G31  27380849.657   143887265.627       -2693.254          43.000    27380846.209   112120017.733       -2098.444          39.000  
E14  35012600.297   183992600.387       -1122.502          38.000    35012600.142   140981398.539        -859.984          43.000  
> 2024 04 15 05 56 30.0160000  0 29                     
S33  44401632.989   233332320.070        -671.771          42.000  
E02  27900372.161   146617466.410        -413.869          47.000    27900371.611   112343287.018        -317.101          51.000  
G28  28686554.433   150748843.782       -3690.771          41.000    28686553.017   117466544.465       -2875.739          43.000  
E36  28198758.035   148185829.079       -1562.962          48.000    28198759.142   113545200.265       -1197.554          51.000  
G26  25206187.991   132459445.807         540.026          49.000    25206186.127   103215111.481         420.597          46.000  
R20  24679785.275   131973971.459        -930.818          39.000    24679783.487   102646511.187        -724.051          44.000  
R10  24340664.482   129749512.624         -67.240          49.000                                                                  
R09  24897545.546   132951490.415       -3650.450          53.000    24897540.464   103406976.148       -2839.132          50.000  
R05  28577358.311   152762373.114        2763.373          46.000    28577356.771   118815130.758        2149.274          44.000  
R04  27714189.888   148408179.866        1222.616          40.000    27714185.202   115428657.980         950.389          40.000  
G16  27680434.443   145461673.446        2411.061          42.000                                                                  
E11  30240447.371   158915035.161       -3143.392          36.000    30240444.624   121766295.255       -2408.826          47.000  
G18  25318016.576   133047444.749       -2064.094          49.000    25318011.262   103673448.600       -1608.443          49.000  
G29  27591496.776   144994703.286       -2558.129          43.000    27591491.850   112983157.320       -1993.600          38.000  
S31  43447232.851   228316877.794        -671.490          44.000  
E30  30829247.949   162008907.017        1768.220          42.000    30829249.278   124136589.159        1354.737          47.000  
R11  27646061.155   147732141.714        3144.039          38.000    27646059.683                        2445.171          27.000  
R21  27425174.747   146757916.076        1654.120          51.000    27425171.501   114144871.678        1286.493          46.000  
R19  27045405.462   144675046.826       -3593.392          39.000    27045401.204   112524640.661       -2795.231          46.000  
R16  29055737.628                3      -5133.438          10.000                                                                  
G23  26262528.881   138010658.012        1870.887          48.000    26262525.565   107540801.652        1457.795          48.000  
E34  29282921.927   153882995.837         837.282          47.000    29282923.918   117910494.325         641.480          52.000  
G10  28466303.231   149591505.382        3169.807          42.000    28466302.954   116564763.757        2469.556          39.000  
G25  28605839.843   150324898.765       -4166.888          44.000    28605837.695   117136348.808       -3246.906          38.000  
E25  29602181.640   155560809.880       -2851.265          47.000    29602182.537   119196098.669       -2184.772          51.000  
G31  27396258.870   143968235.720       -2704.741          45.000    27396253.959   112183111.219       -2107.679          39.000  
E14  35018983.075   184026152.466       -1113.991          36.000    35018984.898   141007107.290        -853.872          43.000  
G05                                                                  29574827.368                3      -2606.952          25.000  
G27                                                                  29035512.588                3       1284.618          23.000  
> 2024 04 15 05 57 00.0160000  0 28                     
S33  44405465.752   233352462.312        -671.305          42.000  
E02  27902767.820   146630056.275        -425.488          47.000    27902767.511   112352933.806        -326.028          52.000  
G28  28707624.315   150859570.490       -3691.650          37.000    28707624.166   117552824.973       -2876.105          43.000  
E36  28207702.895   148232835.171       -1570.920          48.000    28207704.015   113581217.938       -1203.662          51.000  
G26  25203153.768   132443498.427         523.175          49.000    25203151.069   103202684.951         407.580          45.000  
R20  24685037.167   132002059.042        -941.878          38.000    24685035.897   102668357.096        -732.474          44.000  
R10  24341117.565   129751930.887         -94.033          49.000                                                                  
R09  24918105.811   133061281.819       -3669.192          52.000    24918101.335   103492369.428       -2853.761          51.000  
R05  28561849.718   152679471.455        2763.245          48.000    28561847.064   118750651.767        2149.072          45.000  
R04  27707392.163   148371770.521        1204.932          43.000    27707386.278   115400339.599         937.196          41.000  
G16  27666684.924   145389421.572        2405.739          43.000                                                                  
E11  30258396.610   159009348.808       -3144.050          38.000    30258391.604   121838561.520       -2408.895          46.000  
G18  25329835.149   133109552.674       -2076.497          48.000    25329830.166   103721844.415       -1618.110          49.000  
G29  27606110.875   145071493.458       -2561.235          44.000    27606105.068   113042993.787       -1995.888          38.000  
S31  43451064.676   228337013.938        -671.282          44.000  
E30  30819165.536   161955923.065        1764.128          42.000    30819166.866   124095991.078        1351.588          47.000  
R11  27628440.516   147637987.732        3132.936          37.000    27628450.535                3       2424.623          20.000  
R21  27415924.628   146708418.031        1645.596          50.000    27415921.487   114106373.344        1279.938          46.000  
R19  27065558.514   144782851.040       -3593.082          39.000    27065553.431   112608488.380       -2794.550          45.000  
G05  29593979.222                3      -3357.804          26.000    29593976.721                       -2616.362          27.000  
G23  26251887.590   137954735.864        1857.399          47.000    26251884.430   107497225.979        1447.183          48.000  
E34  29278167.195   153858009.296         828.551          47.000    29278169.076   117891348.836         634.892          52.000  
G27  29026059.780                3       1651.799          25.000    29026078.246                        1287.530          26.000  
G10  28448210.044   149496429.071        3168.756          41.000    28448209.803   116490678.469        2469.287          38.000  
G25  28629643.112   150449986.157       -4172.431          44.000    28629641.033   117233819.435       -3251.257          39.000  
E25  29618482.915   155646474.290       -2859.739          47.000    29618483.496   119261737.616       -2191.257          51.000  
G31  27411732.537   144049548.276       -2716.177          44.000    27411727.280   112246471.608       -2116.635          39.000  
E14  35025321.585   184059458.590       -1106.025          36.000    35025322.370   141032627.561        -847.749          42.000  
> 2024 04 15 05 57 30.0160000  0 28                     
S33  44409298.449   233372603.072        -671.278          42.000  
E02  27905230.711   146642999.202        -437.392          48.000    27905230.672   112362851.118        -335.199          52.000  
G28  28728698.774   150970312.616       -3691.907          39.000    28728697.336   117639117.487       -2876.563          43.000  
E36  28216693.474   148280081.970       -1578.877          47.000    28216694.745   113617420.035       -1209.871          51.000  
G26  25200216.045   132428060.412         506.011          49.000    25200213.094   103190655.335         394.219          45.000  
R20  24690349.831   132030469.574        -952.325          38.000    24690349.166   102690454.207        -740.715          44.000  
R10  24341723.309   129755157.979        -121.182          49.000                                                                  
R09  24938771.641   133171637.695       -3687.891          53.000    24938767.429   103578201.740       -2868.372          51.000  
R05  28546342.185   152596579.076        2762.781          47.000    28546339.694   118686179.968        2148.700          42.000  
R04  27700692.510   148335891.855        1187.030          44.000    27700685.805   115372434.041         923.152          38.000  
G16  27652967.756   145317337.092        2400.135          43.000                                                                  
E11  30276345.779   159103678.957       -3144.575          35.000    30276341.688   121910840.476       -2409.647          46.000  
G18  25341724.569   133172033.194       -2088.830          48.000    25341720.330   103770530.555       -1627.729          50.000  
G29  27620741.614   145148381.965       -2564.676          42.000    27620738.112   113102906.867       -1998.400          39.000  
S31  43454896.131   228357148.570        -671.130          44.000  
E30  30809107.332   161903067.386        1759.692          41.000    30809108.729   124055491.288        1348.316          47.000  
R11  27610882.429   147544161.150        3121.716          40.000    27610937.907                2       2428.071          27.000  
R21  27406723.653   146659178.421        1636.911          51.000    27406719.961   114068076.048        1273.117          47.000  
R19  27085705.615   144890627.275       -3591.927          37.000    27085701.428   112692314.334       -2793.859          46.000  
G05  29613170.503                1      -3368.644          25.000    29613173.498                3      -2619.765          20.000  
G23  26241324.471   137899224.859        1843.431          48.000    26241321.095   107453970.683        1436.475          49.000  
E34  29273462.789   153833288.152         819.505          47.000    29273464.837   117872406.700         627.912          53.000  
G27  29016638.564   152483421.1331       1653.121          29.000    29016637.809   118818337.7701       1288.053          29.000  
G10  28430124.845   149401391.550        3167.248          40.000    28430125.095   116416623.448        2467.717          39.000  
G25  28653478.552   150575240.366       -4177.802          45.000    28653476.838   117331420.039       -3255.536          39.000  
E25  29634832.473   155732394.179       -2868.318          47.000    29634833.392   119327572.324       -2197.758          50.000  
G31  27427270.497   144131203.982       -2727.501          44.000    27427265.989   112310099.366       -2125.608          39.000  
E14  35031612.758   184092523.031       -1098.121          36.000    35031614.926   141057962.662        -841.505          43.000  
> 2024 04 15 05 58 00.0160000  0 27                     
S33  44413130.931   233392742.172        -671.141          42.000  
E02  27907760.811   146656295.787        -449.259          47.000    27907760.956   112373039.415        -344.310          52.000  
G28  28749773.925   151081067.199       -3691.925          37.000    28749773.080   117725419.845       -2876.990          42.000  
E36  28225729.800   148327567.835       -1587.016          47.000    28225731.164   113653805.299       -1216.048          51.000  
G26  25197375.775   132413133.250         488.781          49.000    25197372.849   103179023.788         380.747          45.000  
R20  24695723.506   132059200.604        -963.297          39.000    24695721.405   102712800.579        -749.196          44.000  
R10  24342481.362   129759195.224        -148.256          49.000                                                                  
R09  24959542.393   133282554.340       -3706.695          52.000    24959539.059   103664470.206       -2882.916          51.000  
R05  28530839.094   152513699.899        2762.335          48.000    28530833.416   118621718.458        2148.297          42.000  
R04  27694091.776   148300547.209        1169.067          44.000    27694084.443   115344943.697         909.010          36.000  
G16  27639283.061   145245422.013        2394.243          44.000                                                                  
E11  30294298.743   159198024.129       -3145.653          37.000    30294295.528   121983130.870       -2410.034          46.000  
G18  25353684.585   133234883.903       -2101.195          47.000    25353680.165   103819505.136       -1637.359          49.000  
G29  27635392.193   145225368.750       -2567.822          43.000    27635386.974   113162896.608       -2001.284          37.000  
S31  43458727.338   228377281.629        -671.172          44.000  
E30  30799074.058   161850341.332        1754.915          41.000    30799075.238   124015090.825        1344.814          47.000  
R11  27593387.026   147450666.165        3110.341          41.000    27593397.042                1       2419.473          31.000  
R21  27397570.154   146610197.044        1628.261          51.000    27397567.044   114029979.571        1266.361          46.000  
R19  27105848.040   144998373.150       -3591.046          38.000    27105843.211   112776116.631       -2793.161          46.000  
G23  26230839.614   137844127.648        1829.524          47.000    26230835.414   107411037.827        1425.514          48.000  
E34  29268808.838   153808832.045         810.650          47.000    29268811.103   117853667.653         621.082          53.000  
G27  29007197.826   152433809.074        1654.110          34.000    29007200.069   118779679.014        1288.968          32.000  
G10  28412047.682   149306395.559        3165.737          40.000    28412048.771   116342600.788        2466.741          41.000  
G25  28677345.090   150700659.099       -4183.331          44.000    28677343.512   117429148.817       -3259.814          39.000  
E25  29651230.463   155818568.459       -2876.986          47.000    29651231.942   119393601.961       -2204.469          51.000  
G31  27442874.591   144213199.815       -2738.808          44.000    27442869.722   112373992.144       -2134.302          39.000  
E14  35037859.518   184125346.355       -1090.214          37.000    35037860.303   141083112.985        -835.495          43.000  
> 2024 04 15 05 58 30.0160000  0 27                     
S33  44416963.819   233412883.294        -671.669          42.000  
E02  27910359.231   146669951.458        -461.357          47.000    27910359.382   112383502.846        -353.497          52.000  
G28  28770852.035   151191835.702       -3692.590          37.000    28770851.707   117811732.992       -2877.259          43.000  
E36  28234812.671   148375295.981       -1595.115          48.000    28234813.707   113690376.214       -1222.287          52.000  
G26  25194633.203   132398723.290         471.513          49.000    25194630.916   103167795.241         367.473          46.000  
R20  24701157.081   132088255.313        -973.694          39.000    24701154.812   102735398.730        -757.507          44.000  
R10  24343391.353   129764047.551        -175.571          49.000                                                                  
R09  24980418.564   133394032.855       -3725.536          52.000    24980415.694   103751175.674       -2897.555          51.000  
R05  28515339.434   152430842.769        2761.334          48.000    28515335.061   118557274.118        2147.723          45.000  
R04  27687591.386   148265744.778        1150.646          43.000    27687585.297   115317875.220         895.170          39.000  
G16  27625632.048   145173683.713        2388.006          44.000                                                                  
E11  30312255.458   159292387.509       -3145.942          38.000    30312252.350   122055435.323       -2410.486          47.000  
G18  25365715.378   133298107.293       -2113.808          48.000    25365710.731   103868770.108       -1647.176          49.000  
G29  27650061.311   145302458.179       -2571.461          43.000    27650056.952   113222966.277       -2003.707          36.000  
S31  43462558.772   228397417.157        -671.557          44.000  
E30  30789066.586   161797751.081        1750.387          41.000    30789067.537   123974794.416        1341.521          47.000  
R11  27575954.065   147357511.473        3099.473          41.000    27575965.626   114611526.5271       2409.899          32.000  
R21  27388465.676   146561477.993        1619.305          50.000    27388462.680   113992087.134        1259.591          46.000  
R19  27125984.704   145106092.532       -3590.362          37.000    27125979.379   112859898.344       -2792.643          45.000  
G23  26220434.294   137789451.757        1815.186          47.000    26220430.481   107368433.293        1414.556          47.000  
E34  29264205.874   153784645.527         801.575          47.000    29264208.427   117835135.158         614.243          53.000  
G27  28997753.645   152384167.285        1655.116          39.000    28997752.939   118740997.111        1290.140          34.000  
G10  28393979.709   149211448.803        3163.837          40.000    28393980.286   116268616.529        2464.979          41.000  
G25  28701243.341   150826244.918       -4189.197          43.000    28701242.009   117527007.775       -3264.087          38.000  
E25  29667678.509   155905000.934       -2885.585          47.000    29667679.478   119459829.420       -2211.006          51.000  
G31  27458542.285   144295537.257       -2750.467          42.000    27458539.162   112438151.126       -2142.998          40.000  
E14  35044061.475   184157933.928       -1082.522          39.000    35044062.028   141108082.652        -829.255          44.000  
> 2024 04 15 05 59 00.0160000  0 29                     
S33  44420798.525   233433036.976        -671.672          43.000  
E02  27913027.913   146683976.025        -473.551          47.000    27913027.958   112394248.931        -362.773          52.000  
G28  28791934.598   151302624.279       -3693.094          40.000    28791934.276   117898061.893       -2877.527          43.000  
E36  28243942.528   148423274.048       -1603.250          48.000    28243943.605   113727138.637       -1228.430          52.000  
G26  25191991.466   132384841.296         454.021          49.000    25191989.272   103156978.095         353.968          46.000  
R20  24706652.347   132117640.771        -984.556          39.000    24706650.212   102758254.077        -765.766          44.000  
R10  24344456.550   129769725.557        -202.740          49.000                                                                  
R09  25001401.456   133506079.113       -3744.053          52.000    25001398.528   103838322.761       -2912.059          51.000  
R16  28002677.711                3      -5243.666          13.000                                                                  
R05  28499845.043   152348021.204        2760.376          45.000    28499841.882   118492857.444        2146.863          45.000  
R04  27681194.976   148231497.444        1132.507          43.000    27681190.132   115291238.480         880.865          39.000  
G16  27612016.826   145102133.563        2382.123          45.000                                                                  
E11  30330217.925   159386777.234       -3146.671          39.000    30330214.067   122127759.884       -2411.047          47.000  
G18  25377818.807   133361710.149       -2126.103          48.000    25377813.646   103918330.785       -1656.830          49.000  
G29  27664751.828   145379659.472       -2574.988          42.000    27664747.142   113283123.112       -2006.657          37.000  
S31  43466392.866   228417564.352        -671.536          44.000  
E30  30779087.234   161745307.219        1745.714          41.000    30779087.633   123934610.196        1337.588          47.000  
R11  27558587.374   147264710.092        3087.956          41.000    27558596.938                        2401.418          31.000  
R21  27379412.141   146513030.282        1610.618          51.000    27379408.406   113954405.749        1252.566          45.000  
R19  27146119.179   145213793.044       -3589.504          41.000    27146113.346   112943665.417       -2791.832          46.000  
G23  26210112.413   137735209.066        1800.974          47.000    26210108.317   107326166.293        1403.486          47.000  
E34  29259655.707   153760737.491         792.397          46.000    29259658.517   117816816.045         607.225          52.000  
G27  28988304.596   152334504.853        1655.820          42.000    28988302.008   118702299.128        1290.409          37.000  
G10  28375923.968   149116563.364        3162.223          43.000    28375923.395   116194680.016        2463.659          41.000  
G25  28725174.806   150952004.730       -4194.336          43.000    28725172.922   117625002.322       -3268.713          38.000  
E25  29684176.979   155991699.737       -2894.189          48.000    29684177.944   119526260.971       -2217.675          51.000  
G31  27474276.863   144378222.686       -2761.589          44.000    27474274.551   112502581.286       -2152.174          40.000  
E14  35050220.869   184190295.544       -1074.957          40.000    35050220.521   141132879.171        -823.641          44.000  
G05                                                                  29671139.027                3      -2651.683          21.000  
> 2024 04 15 05 59 30.0160000  0 29                     
S33  44424633.276   233453188.242        -671.775          42.000  
E02  27915764.229   146698356.734        -485.489          47.000    27915764.372   112405267.921        -371.974          52.000  
G28  28813018.111   151413416.488       -3693.303          41.000    28813017.821   117984393.718       -2877.675          43.000  
E36  28253117.204   148471487.135       -1611.254          48.000    28253118.057   113764081.147       -1234.540          51.000  
G26  25189447.831   132371475.382         436.730          49.000    25189445.653   103146563.123         340.196          46.000  
R20  24712205.525   132147340.968        -995.515          39.000    24712204.112   102781354.244        -774.255          44.000  
R10  24345674.045   129776216.150        -230.026          49.000                                                                  
R09  25022487.106   133618675.429       -3762.514          52.000    25022483.914   103925897.623       -2926.325          50.000  
R16  29230456.166                3      -5263.667          11.000                                                                  
R05  28484356.143   152265225.735        2759.216          46.000    28484353.486   118428461.012        2146.027          45.000  
R04  27674902.128   148197794.910        1114.038          45.000    27674896.263   115265025.380         866.604          41.000  
G16  27598435.150   145030760.508        2375.999          46.000                                                                  
E11  30348182.849   159481178.346       -3147.096          39.000    30348177.888   122200093.183       -2411.232          46.000  
G18  25389991.109   133425676.839       -2138.398          48.000    25389986.426   103968174.962       -1666.309          49.000  
G29  27679461.853   145456959.982       -2578.430          42.000    27679455.930   113343357.312       -2009.218          36.000  
S31  43470226.437   228437709.828        -671.672          44.000  
E30  30769132.492   161692997.762        1741.314          41.000    30769133.312   123894528.957        1334.183          47.000  
R11  27541285.845   147172252.797        3075.906          43.000    27541289.914   114467436.390        2392.078          34.000  
R21  27370406.073   146464839.733        1601.782          51.000    27370402.717   113916924.368        1245.876          46.000  
R19  27166245.851   145321459.079       -3588.543          40.000    27166238.943   113027405.661       -2790.771          45.000  
G05  29690590.693                1      -3411.877          26.000                                                                  
G23  26199870.465   137681388.902        1786.772          47.000    26199866.534   107284228.529        1392.263          47.000  
E34  29255154.936   153737094.264         783.546          44.000    29255159.200   117798699.852         600.385          52.000  
G27  28978848.038   152284808.105        1656.866          43.000    28978845.211   118663574.417        1291.258          39.000  
G10  28357877.536   149021728.820        3160.112          43.000    28357876.573   116120783.129        2462.323          41.000  
G25  28749136.314   151077922.894       -4199.927          44.000    28749133.961   117723120.275       -3272.705          37.000  
E25  29700723.513   156078650.540       -2902.682          48.000    29700724.413   119592885.592       -2224.151          51.000  
G31  27490074.310   144461239.370       -2772.758          44.000    27490071.839   112567269.577       -2160.639          40.000  
E14  35056333.998   184222418.367       -1066.971          40.000    35056332.697   141157492.758        -817.380          43.000  
