     3.00           OBSERVATION DATA    M: Mixed            RINEX VERSION / TYPE
CONVBIN 2.4.3                           20240415 194442 UTC PGM / RUN BY / DATE 
format: u-blox UBX                                          COMMENT             
log: /home/regis/git/gnsspwv/obsdata/VERT00CHL/2024-04-15/VECOMMENT             
{self.marker}                                               MARKER NAME         
                                                            MARKER NUMBER       
GEODETIC                                                    MARKER TYPE         
{self.observer}     {self.institution}                      OBSERVER / AGENCY   
UNKNOWN             UBLOX-ZED-F9P                           REC # / TYPE / VERS 
UNKNOWN             TWIVSP6037L                             ANT # / TYPE        
  1713381.0000 -5047934.0000 -3490983.0000                  APPROX POSITION XYZ 
        0.0000        0.0000        0.0000                  ANTENNA: DELTA H/E/N
G    8 C1C L1C D1C S1C C2L L2L D2L S2L                      SYS / # / OBS TYPES 
R    8 C1C L1C D1C S1C C2C L2C D2C S2C                      SYS / # / OBS TYPES 
E    8 C1C L1C D1C S1C C7Q L7Q D7Q S7Q                      SYS / # / OBS TYPES 
S    4 C1C L1C D1C S1C                                      SYS / # / OBS TYPES 
  2024    04    15    19    30   00.4910000     GPS         TIME OF FIRST OBS   
  2024    04    15    19    44   30.4920000     GPS         TIME OF LAST OBS    
                                                            END OF HEADER       
> 2024 04 15 19 30 00.4910000  0 22                     
G05  18920886.325    99429907.6431        221.303          48.000    18920887.794    77477845.7081        172.278          44.000  
E19  23710041.516   124597116.3601       1311.049          36.000    23710049.567    95470583.2381       1004.628          42.000  
G09  21432347.299   112627506.8431      -3420.362          44.000    21432362.227    87761633.0931      -2665.192          42.000  
E27  21017463.598   110447704.5261       -292.165          48.000    21017470.454    84628903.3311       -223.803          54.000  
R13  17975775.878    95989776.2631      -3791.943          42.000    17975778.921    74658808.8981      -2949.371          42.000  
R02  19711902.794   105186301.6221      -4076.664          51.000    19711915.800    81811526.9191      -3170.735          48.000  
R04  17987157.760    96320454.3661       2206.079          51.000    17987157.144    74915911.3511       1715.820          49.000  
R03  16690792.574    89347233.7221      -1169.109          52.000    16690791.615    69492334.7221       -909.350          50.000  
R15  20377476.419   108891151.5211       3000.723          44.000    20377491.193    84693248.1391       2333.703          39.000  
G07  20213017.116   106220051.8131      -3758.802          45.000    20213021.104    82768857.3741      -2928.894          40.000  
S31  36143533.332   189935474.6651       -796.196          44.000  
S33  37092075.948   194920088.0341       -796.205          41.000  
G14  17675159.180    92883793.3931        -41.519          49.000    17675160.152    72377102.5781        -32.357          48.000  
G20  18561989.438    97543946.8771      -2433.450          47.000                                                                  
R14  16832233.046    89725494.6851        436.125          53.000    16832237.238    69786665.9721        339.213          50.000  
E07  22181119.275   116562501.8201      -2018.804          48.000    22181128.652    89314121.3961      -1546.891          51.000  
G13  19394355.360   101918076.9841       1406.787          47.000                                                                  
G22  18770264.295    98638627.6511       1919.047          47.000                                                                  
G30  18301886.219    96177112.9801      -2328.672          49.000    18301889.653    74943244.8951      -1814.613          47.000  
E21  23131598.490   121557565.6861       1959.271          46.000    23131611.755    93141657.5151       1501.061          49.000  
E30  23339061.281   122647663.9081      -2855.864          43.000    23339070.125    93976850.0991      -2188.081          50.000  
E18  19695388.000   103500033.6291      -1365.433          40.000                                                                  
> 2024 04 15 19 30 30.4910000  0 22                     
G05  18919677.473    99423552.703         202.673          48.000    18919678.505    77472893.740         157.759          44.000  
E19  23702556.530   124557780.016        1311.776          36.000    23702564.610    95440442.382        1004.904          43.000  
G09  21451892.522   112730216.271       -3426.424          42.000    21451908.086    87841665.876       -2669.916          43.000  
E27  21019171.061   110456679.947        -305.909          48.000    21019178.401    84635780.639        -234.418          54.000  
R13  17997114.620    96103721.214       -3803.888          43.000    17997117.738    74747432.650       -2958.758          43.000  
R02  19734855.542   105308782.779       -4088.589          48.000    19734868.832    81906789.434       -3179.882          47.000  
R04  17974826.495    96254420.918        2196.409          50.000    17974825.884    74864552.051        1708.379          50.000  
R03  16697402.582    89382621.302       -1189.690          52.000    16697402.229    69519858.352        -925.357          49.000  
R15  20360655.442   108801274.162        2991.630          44.000    20360671.516    84623344.050        2326.606          41.000  
G07  20234481.746   106332842.295       -3760.207          46.000    20234483.240    82856745.955       -2930.449          39.000  
S31  36148079.159   189959362.955        -796.027          44.000  
S33  37096622.039   194943979.506        -796.023          43.000  
G14  17675452.686    92885338.132         -61.290          48.000    17675454.546    72378306.306         -47.683          48.000  
G20  18575929.419    97617200.321       -2449.817          46.000                                                                  
R14  16829840.520    89712742.476         414.282          53.000    16829844.922    69776747.674         322.204          50.000  
E07  22192662.443   116623161.250       -2024.780          46.000    22192672.157    89360600.570       -1551.492          51.000  
G13  19386330.281   101875907.177        1404.648          47.000                                                                  
G22  18759348.837    98581265.210        1905.524          48.000                                                                  
G30  18315201.040    96247083.347       -2335.772          48.000    18315204.978    74997767.225       -1820.205          47.000  
E21  23120432.728   121498888.424        1952.891          46.000    23120445.299    93096697.190        1496.476          48.000  
E30  23355389.015   122733473.002       -2864.679          44.000    23355399.514    94042599.845       -2194.887          50.000  
E18  19703249.404   103541356.817       -1388.612          39.000                                                                  
> 2024 04 15 19 31 00.4910000  0 22                     
G05  18918572.927    99417746.551         185.265          49.000    18918573.351    77468369.424         144.375          44.000  
E19  23695066.131   124518413.860        1313.487          37.000    23695073.188    95410278.685        1006.502          42.000  
G09  21471470.286   112833091.523       -3431.007          44.000    21471485.444    87921827.825       -2673.425          43.000  
E27  21020954.295   110466052.226        -318.048          48.000    21020961.926    84642962.031        -243.692          54.000  
R13  18018516.089    96218006.824       -3814.417          41.000    18018519.578    74836321.364       -2966.650          43.000  
R02  19757871.555   105431600.613       -4098.674          48.000    19757885.243    82002313.828       -3187.591          46.000  
R04  17962546.017    96188659.298        2188.420          50.000    17962544.973    74813404.145        1702.006          49.000  
R03  16704126.332    89418610.459       -1208.763          52.000    16704125.265    69547849.849        -940.081          50.000  
R15  20343883.891   108711655.505        2983.972          42.000    20343900.537    84553641.204        2320.815          45.000  
G07  20255949.842   106445660.612       -3760.154          43.000    20255952.125    82944656.103       -2930.096          40.000  
S31  36152622.087   189983237.208        -794.718          44.000  
S33  37101165.894   194967857.369        -794.228          41.000  
G14  17675857.187    92887460.983         -79.478          48.000    17675857.689    72379960.506         -61.786          47.000  
G20  18589959.615    97690932.495       -2464.791          47.000                                                                  
R14  16827568.186    89700630.353         393.935          53.000    16827572.073    69767327.224         306.476          49.000  
E07  22204236.321   116683987.646       -2029.408          46.000    22204247.306    89407207.682       -1554.959          51.000  
G13  19378315.038   101833786.359        1404.018          47.000                                                                  
G22  18748506.408    98524287.130        1893.734          48.000                                                                  
G30  18328553.689    96317250.459       -2341.268          48.000    18328557.201    75052442.809       -1824.242          47.000  
E21  23109299.280   121440383.231        1948.319          46.000    23109312.139    93051868.761        1492.878          49.000  
E30  23371767.610   122819531.396       -2871.671          42.000    23371775.401    94108540.589       -2200.395          49.000  
E18  19711242.101   103583362.836       -1410.797          38.000                                                                  
> 2024 04 15 19 31 30.4910000  0 22                     
G05  18917570.285    99412480.605         165.451          48.000    18917571.901    77464266.022         129.030          45.000  
E19  23687567.607   124479009.302        1313.119          38.000    23687574.726    95380085.587        1006.213          43.000  
G09  21491076.209   112936122.909       -3437.817          43.000    21491091.224    88002111.510       -2678.863          42.000  
E27  21022811.702   110475812.243        -332.645          48.000    21022818.879    84650440.513        -254.908          54.000  
R13  18039978.955    96332619.822       -3826.819          40.000    18039982.751    74925464.690       -2976.398          43.000  
R02  19780949.146   105554744.196       -4111.194          48.000    19780963.668    82098091.539       -3197.598          47.000  
R04  17950315.392    96123163.771        2177.758          52.000    17950314.521    74762463.216        1693.854          50.000  
R03  16710960.424    89455193.242       -1230.316          52.000    16710959.543    69576303.080        -956.960          50.000  
R15  20327161.201   108622288.718        2973.635          45.000    20327175.810    84484134.249        2312.873          45.000  
G07  20277421.951   106558496.509       -3762.456          46.000    20277423.567    83032580.071       -2931.720          40.000  
S31  36157160.634   190007087.173        -795.570          43.000  
S33  37105705.263   194991711.685        -795.631          42.000  
G14  17676368.826    92890153.299        -100.198          48.000    17676370.373    72382058.474         -78.022          48.000  
G20  18604079.860    97765132.147       -2482.052          48.000                                                                  
R14  16825415.175    89689149.437         371.177          54.000    16825418.504    69758397.714         288.741          49.000  
E07  22215842.220   116744972.355       -2036.350          46.000    22215852.398    89453936.107       -1560.364          51.000  
G13  19370307.550   101791706.888        1400.907          48.000                                                                  
G22  18737735.195    98467686.700        1879.396          48.000                                                                  
G30  18341941.450    96387603.718       -2349.078          48.000    18341944.263    75107263.480       -1830.336          46.000  
E21  23098196.700   121382042.534        1941.102          46.000    23098210.282    93007166.371        1487.233          49.000  
E30  23388190.293   122905828.312       -2881.448          42.000    23388197.319    94174664.097       -2207.760          49.000  
E18  19719366.123   103626043.115       -1435.060          40.000                                                                  
> 2024 04 15 19 32 00.4910000  0 22                     
G05  18916678.445    99407795.548         146.926          47.000    18916680.652    77460615.292         114.011          45.000  
E19  23680069.212   124439606.223        1313.707          39.000    23680076.618    95349893.623        1006.600          43.000  
G09  21510720.454   113039349.215       -3444.131          44.000    21510735.728    88082547.052       -2683.649          44.000  
E27  21024750.341   110485999.028        -346.436          48.000    21024757.265    84658246.024        -265.446          54.000  
R13  18061510.876    96447596.051       -3838.410          42.000    18061514.297    75014890.534       -2985.339          43.000  
R02  19804095.668   105678251.398       -4122.656          50.000    19804110.890    82194152.077       -3206.376          49.000  
R04  17938141.389    96057977.313        2167.930          51.000    17938140.851    74711762.667        1686.211          49.000  
R03  16717912.640    89492410.665       -1250.903          52.000    16717912.156    69605249.917        -973.014          50.000  
R15  20310492.158   108533216.232        2964.465          46.000    20310506.681    84414856.217        2305.649          46.000  
G07  20298904.844   106671387.292       -3763.844          45.000    20298907.519    83120546.735       -2932.928          40.000  
S31  36161702.278   190030953.391        -795.921          44.000  
S33  37110247.748   195015581.210        -795.487          42.000  
G14  17676997.139    92893454.630        -119.938          48.000    17676998.801    72384630.991         -93.517          49.000  
G20  18618295.818    97839836.067       -2498.313          48.000                                                                  
R14  16823386.951    89678339.127         349.421          54.000    16823390.231    69749989.733         271.858          49.000  
E07  22227484.361   116806154.780       -2042.566          46.000    22227494.813    89500816.034       -1564.952          51.000  
G13  19362315.804   101749708.575        1398.863          48.000                                                                  
G22  18727044.537    98411505.568        1865.942          47.000                                                                  
G30  18355371.494    96458180.773       -2356.024          48.000    18355374.610    75162258.537       -1835.981          46.000  
E21  23087135.040   121323906.855        1934.628          46.000    23087147.332    92962621.010        1482.461          49.000  
E30  23404663.197   122992401.076       -2890.027          42.000    23404671.919    94240998.934       -2214.476          50.000  
E18  19727621.708   103669437.170       -1458.090          38.000                                                                  
> 2024 04 15 19 32 30.4910000  0 22                     
G05  18915893.089    99403669.088         129.906          48.000    18915895.489    77457399.814         101.448          46.000  
E19  23672566.475   124400182.143        1316.065          38.000    23672574.331    95319685.572        1008.852          42.000  
G09  21530396.004   113142746.819       -3447.757          43.000    21530411.754    88163116.075       -2686.420          42.000  
E27  21026765.338   110496589.504        -357.978          48.000    21026772.568    84666360.836        -274.271          54.000  
R13  18083105.441    96562908.395       -3847.650          41.000    18083108.587    75104577.846       -2992.645          43.000  
R02  19827303.875   105802097.174       -4132.197          49.000    19827318.680    82290475.924       -3213.876          47.000  
R04  17926022.544    95993080.483        2160.093          51.000    17926022.041    74661287.402        1680.009          49.000  
R03  16724979.156    89530240.226       -1269.531          51.000    16724978.627    69634672.855        -987.384          49.000  
R15  20293873.782   108444416.515        2957.051          45.000    20293888.214    84345790.300        2299.905          46.000  
G07  20320393.357   106784308.919       -3762.935          45.000    20320394.965    83208537.484       -2932.220          40.000  
S31  36166242.805   190054812.382        -793.704          44.000  
S33  37114788.882   195039444.033        -793.979          42.000  
G14  17677736.923    92897342.344        -137.596          48.000    17677738.407    72387660.424        -107.231          48.000  
G20  18632602.148    97915019.160       -2512.469          47.000                                                                  
R14  16821480.512    89668175.760         329.650          54.000    16821484.643    69742085.017         256.329          50.000  
E07  22239159.953   116867512.229       -2046.207          46.000    22239170.861    89547830.113       -1567.904          51.000  
G13  19354334.729   101707769.278        1398.411          48.000                                                                  
G22  18716428.846    98355722.847        1854.275          48.000                                                                  
G30  18368840.274    96528957.054       -2360.899          49.000    18368843.205    75217408.814       -1839.752          47.000  
E21  23076105.644   121265954.539        1930.401          46.000    23076119.263    92918216.217        1479.180          49.000  
E30  23421185.887   123079224.976       -2896.477          41.000    23421192.802    94307526.289       -2219.421          48.000  
E18  19736010.460   103713522.544       -1479.434          38.000                                                                  
> 2024 04 15 19 33 00.4910000  0 22                     
G05  18915208.420    99400070.551         110.833          47.000    18915210.479    77454595.716          86.497          46.000  
E19  23665054.396   124360706.107        1316.341          38.000    23665061.912    95289437.757        1008.769          42.000  
G09  21550099.231   113246283.788       -3453.684          43.000    21550115.103    88243793.738       -2691.278          42.000  
E27  21028851.073   110507552.156        -371.761          48.000    21028858.480    84674760.847        -284.918          53.000  
R13  18104756.285    96678521.092       -3858.820          42.000    18104758.657    75194498.776       -3001.367          42.000  
R02  19850570.886   105926247.825       -4143.636          50.000    19850583.738    82387036.945       -3222.892          45.000  
R04  17913952.262    95928444.664        2149.925          50.000    17913951.853    74611015.162        1672.204          49.000  
R03  16732155.030    89568651.190       -1290.235          52.000    16732154.487    69664547.967       -1003.475          50.000  
R15  20277300.951   108355859.973        2947.478          45.000    20277315.373    84276913.526        2292.663          45.000  
G07  20341881.011   106897228.734       -3764.250          45.000    20341883.870    83296526.729       -2932.842          41.000  
S31  36170775.043   190078631.190        -793.495          44.000  
S33  37119322.101   195063267.132        -793.423          42.000  
G14  17678582.414    92901785.417        -157.584          48.000    17678583.671    72391122.622        -122.800          48.000  
G20  18646994.020    97990647.916       -2528.500          48.000                                                                  
R14  16819689.144    89658627.844         307.825          53.000    16819693.816    69734658.934         239.500          51.000  
E07  22250864.703   116929013.733       -2052.604          46.000    22250874.569    89594954.532       -1572.797          51.000  
G13  19346359.646   101665858.778        1396.230          49.000                                                                  
G22  18705884.366    98300309.913        1840.897          46.000                                                                  
G30  18382340.514    96599899.698       -2367.667          49.000    18382343.470    75272688.718       -1844.929          47.000  
E21  23065106.752   121208155.637        1923.884          47.000    23065120.379    92873928.998        1474.064          49.000  
E30  23437747.733   123166266.873       -2905.396          38.000    23437757.452    94374220.672       -2225.943          49.000  
E18  19744524.487   103758268.096       -1502.580          38.000                                                                  
> 2024 04 15 19 33 30.4910000  0 22                     
G05  18914634.406    99397051.945          90.924          48.000    18914635.905    77452243.499          71.007          45.000  
E19  23657542.243   124321229.330        1316.010          39.000    23657549.914    95259189.398        1008.470          43.000  
G09  21569837.865   113350010.642       -3460.752          43.000    21569854.246    88324619.332       -2696.675          43.000  
E27  21031017.365   110518937.828        -386.455          47.000    21031024.993    84683484.970        -296.064          54.000  
R13  18126471.971    96794482.250       -3870.947          40.000    18126474.892    75284690.706       -3010.693          43.000  
R02  19873904.364   106050752.987       -4155.981          51.000    19873917.479    82483873.730       -3232.380          48.000  
R04  17901941.117    95864125.098        2138.769          52.000    17901940.793    74560988.901        1663.618          49.000  
R03  16739449.615    89607696.110       -1311.960          52.000    16739448.168    69694916.198       -1020.489          50.000  
R15  20260783.744   108267600.978        2937.202          44.000    20260798.514    84208268.136        2284.506          44.000  
G07  20363376.837   107010196.251       -3766.173          43.000    20363380.121    83384553.256       -2934.870          40.000  
S31  36175310.184   190102462.278        -794.539          44.000  
S33  37123857.567   195087102.224        -794.608          42.000  
G14  17679543.144    92906835.108        -178.427          48.000    17679544.253    72395057.492        -138.967          48.000  
G20  18661480.532    98066771.134       -2545.591          48.000                                                                  
R14  16818022.618    89649746.583         285.016          53.000    16818027.246    69727751.387         221.517          50.000  
E07  22262603.565   116990710.453       -2059.625          46.000    22262614.993    89642228.544       -1578.179          51.000  
G13  19338400.304   101624029.302        1392.897          49.000                                                                  
G22  18695419.698    98245319.553        1826.228          47.000                                                                  
G30  18395881.183    96671058.115       -2375.458          48.000    18395884.846    75328136.787       -1851.111          47.000  
E21  23054146.647   121150562.510        1916.428          46.000    23054160.185    92829799.401        1468.475          49.000  
E30  23454361.143   123253575.897       -2914.424          38.000    23454370.941    94441119.760       -2233.300          48.000  
E18  19753175.446   103803725.280       -1527.471          39.000                                                                  
> 2024 04 15 19 34 00.4910000  0 22                     
G05  18914170.042    99394608.673          72.021          49.000    18914171.341    77450339.646          56.050          46.000  
E19  23650028.645   124281747.378        1316.399          38.000    23650036.670    95228937.094        1008.610          43.000  
G09  21589611.897   113453921.209       -3466.362          43.000    21589628.512    88405588.102       -2701.135          43.000  
E27  21033263.953   110530740.882        -400.207          48.000    21033271.103    84692528.917        -306.567          54.000  
R13  18148251.069    96910782.255       -3882.355          42.000    18148254.387    75375146.201       -3019.299          44.000  
R02  19897301.569   106175605.507       -4167.345          49.000    19897316.216    82580980.664       -3241.287          48.000  
R04  17889988.508    95800119.777        2128.434          53.000    17889987.758    74511207.052        1655.491          50.000  
R03  16746860.981    89647370.525       -1332.784          52.000    16746860.239    69725773.997       -1036.538          50.000  
R15  20244322.191   108179635.771        2927.490          47.000    20244336.698    84139851.264        2277.086          43.000  
G07  20384883.171   107123204.950       -3767.469          45.000    20384885.812    83472611.785       -2935.626          41.000  
S31  36179846.197   190126299.363        -794.435          43.000  
S33  37128394.608   195110944.406        -794.307          42.000  
G14  17680617.942    92912486.240        -198.167          47.000    17680619.138    72399461.078        -154.566          47.000  
G20  18676058.842    98143381.088       -2561.448          47.000                                                                  
R14  16816481.024    89641525.792         263.239          54.000    16816484.513    69721357.497         204.682          49.000  
E07  22274381.520   117052597.271       -2065.776          46.000    22274391.735    89689648.210       -1582.925          51.000  
G13  19330454.990   101582276.309        1390.578          49.000                                                                  
G22  18685035.529    98190748.976        1812.212          48.000                                                                  
G30  18409461.277    96742425.300       -2382.044          47.000    18409465.584    75383747.486       -1856.034          47.000  
E21  23043224.830   121093171.007        1909.874          46.000    23043238.925    92785824.348        1463.441          48.000  
E30  23471025.297   123341144.982       -2923.196          40.000    23471035.442    94508218.042       -2239.655          47.000  
E18  19761960.344   103849888.863       -1550.451          41.000                                                                  
> 2024 04 15 19 34 30.4910000  0 23                     
G05  18913812.199    99392728.453          53.492          48.000    18913815.152    77448874.479          41.620          47.000  
E19  23642511.231   124242247.060        1316.935          38.000    23642519.462    95198670.672        1009.333          42.000  
G09  21609418.118   113558001.803       -3471.907          43.000    21609434.740    88486689.323       -2705.477          43.000  
E27  21035587.046   110542947.892        -413.431          48.000    21035594.348    84701882.394        -316.814          54.000  
R13  18170090.653    97027403.784       -3892.334          41.000    18170093.704    75465851.780       -3027.301          43.000  
R02  19920760.501   106300790.047       -4178.140          49.000    19920776.697    82678345.693       -3249.780          48.000  
R04  17878091.935    95736418.363        2118.480          52.000    17878092.217    74461661.561        1647.736          50.000  
R03  16754387.710    89687661.801       -1353.048          52.000    16754386.516    69757111.586       -1052.403          49.000  
R15  20227912.982   108091953.227        2918.469          45.000    20227928.116    84071654.307        2269.603          44.000  
G07  20406392.556   107236239.596       -3768.022          44.000    20406395.920    83560690.585       -2936.343          41.000  
S31  36184381.179   190150129.452        -793.977          45.000  
S33  37132930.259   195134779.248        -793.956          41.000  
G14  17681805.885    92918725.824        -217.586          48.000    17681805.969    72404323.121        -169.570          47.000  
G20  18690726.934    98220462.149       -2576.969          47.000                                                                  
R14  16815059.071    89633952.157         241.874          54.000    16815064.027    69715466.952         188.240          49.000  
E07  22286191.622   117114661.139       -2071.583          46.000    22286201.512    89737203.570       -1587.241          50.000  
G13  19322521.986   101540587.425        1388.646          50.000                                                                  
G15  22154968.930                3       2140.158          29.000                                                                  
G22  18674729.011    98136586.895        1798.843          48.000                                                                  
G30  18423079.611    96813986.531       -2388.471          49.000    18423082.616    75439509.459       -1861.014          46.000  
E21  23032339.622   121035969.299        1903.768          45.000    23032353.532    92741994.693        1458.846          48.000  
E30  23487736.493   123428958.841       -2930.956          41.000    23487745.264    94575503.920       -2245.753          47.000  
E18  19770877.836   103896746.028       -1573.204          44.000                                                                  
> 2024 04 15 19 35 00.4910000  0 22                     
G05  18913560.415    99391405.868          34.881          48.000    18913562.831    77447843.871          27.268          46.000  
E19  23634989.440   124202723.099        1318.194          37.000    23634998.466    95168386.187        1010.176          43.000  
G09  21629255.381   113662245.713       -3477.437          42.000    21629272.364    88567917.782       -2709.762          43.000  
E27  21037985.377   110555552.581        -426.626          47.000    21037992.607    84711540.568        -326.879          54.000  
R13  18191988.351    97144336.746       -3902.722          42.000    18191992.145    75556799.593       -3035.461          44.000  
R02  19944282.446   106426298.105       -4188.769          52.000    19944296.901    82775962.459       -3257.713          47.000  
R04  17866253.497    95673018.475        2108.426          52.000    17866252.992    74412350.589        1639.866          50.000  
R03  16762027.797    89728564.483       -1373.485          51.000    16762028.018    69788924.738       -1068.188          50.000  
R15  20211555.929   108004549.481        2908.925          48.000    20211570.294    84003674.140        2262.559          42.000  
G07  20427906.457   107349293.111       -3768.500          40.000    20427908.961    83648784.111       -2936.781          39.000  
S31  36188912.982   190173945.549        -793.418          44.000  
S33  37137463.200   195158599.515        -793.827          42.000  
G14  17683104.020    92925547.972        -236.918          47.000    17683104.468    72409639.114        -184.623          48.000  
G20  18705483.230    98298005.918       -2592.273          48.000                                                                  
R14  16813758.595    89627018.731         220.541          53.000    16813763.186    69710074.380         171.563          49.000  
E07  22298034.598   117176896.280       -2077.224          46.000    22298044.747    89784890.122       -1591.525          50.000  
G13  19314599.480   101498957.590        1386.658          49.000                                                                  
G22  18664499.504    98082829.562        1785.378          49.000                                                                  
G30  18436733.108    96885734.142       -2394.646          48.000    18436735.430    75495416.683       -1865.953          47.000  
E21  23021489.841   120978952.592        1897.583          46.000    23021503.123    92698306.804        1454.031          48.000  
E30  23504493.576   123517009.697       -2938.878          43.000    23504501.144    94642971.373       -2251.788          48.000  
E18  19779924.561   103944290.775       -1595.826          41.000                                                                  
> 2024 04 15 19 35 30.4910000  0 23                     
G05  18913415.173    99390641.238          16.398          48.000    18913417.194    77447248.038          12.536          46.000  
E19  23627464.860   124163175.622        1318.950          38.000    23627471.804    95138083.676        1010.293          42.000  
G09  21649123.470   113766651.915       -3482.969          42.000    21649140.076    88649272.717       -2713.964          42.000  
E27  21040459.073   110568554.401        -439.793          48.000    21040466.901    84721503.039        -337.016          54.000  
R13  18213944.073    97261576.715       -3912.866          43.000    18213947.582    75647986.175       -3043.481          43.000  
R02  19967863.695   106552127.564       -4199.445          51.000    19967877.329    82873829.216       -3266.260          47.000  
R04  17854471.036    95609923.116        2098.179          52.000    17854470.046    74363276.472        1631.920          49.000  
R03  16769782.807    89770079.517       -1393.894          51.000    16769782.705    69821214.102       -1084.110          49.000  
R15  20195252.458   107917426.101        2899.569          49.000    20195265.799    83935911.963        2255.149          40.000  
G07  20449422.429   107462363.938       -3768.919          45.000    20449425.127    83736891.129       -2937.008          40.000  
S31  36193442.737   190197747.484        -793.103          44.000  
S33  37141993.679   195182406.903        -793.289          42.000  
G14  17684512.511    92932952.486        -256.401          47.000    17684513.576    72415408.943        -199.672          48.000  
G20  18720326.821    98376009.640       -2607.734          47.000                                                                  
R14  16812577.323    89620725.387         199.264          53.000    16812582.821    69705179.636         155.017          49.000  
E07  22309909.839   117239302.643       -2083.009          46.000    22309920.005    89832707.892       -1595.945          50.000  
G13  19306688.609   101457387.604        1384.814          50.000                                                                  
G15  22130510.758                3       2143.435          25.000    22130501.599                3       1671.828          18.000  
G22  18654346.798    98029478.909        1771.658          48.000                                                                  
G30  18450421.447    96957666.304       -2400.686          49.000    18450424.390    75551467.657       -1870.720          47.000  
E21  23010675.175   120922121.902        1891.392          46.000    23010687.869    92654761.457        1449.298          47.000  
E30  23521292.397   123605295.327       -2946.500          41.000    23521301.138    94710618.803       -2257.717          46.000  
E18  19789102.158   103992522.980       -1618.965          40.000                                                                  
> 2024 04 15 19 36 00.4910000  0 23                     
G05  18913375.054    99390438.912          -2.769          48.000    18913378.573    77447090.338          -2.146          46.000  
E19  23619936.651   124123608.546        1318.951          39.000    23619942.460    95107766.082        1010.758          41.000  
G09  21669022.283   113871223.180       -3488.666          42.000    21669039.139    88730756.291       -2718.560          41.000  
E27  21043009.757   110581956.471        -453.618          47.000    21043017.431    84731772.172        -347.497          54.000  
R13  18235956.972    97379123.726       -3923.401          44.000    18235960.321    75739411.543       -3051.599          43.000  
R02  19991504.320   106678279.891       -4210.575          49.000    19991519.300    82971947.069       -3274.834          47.000  
R04  17842746.529    95547139.215        2087.480          52.000    17842745.775    74314444.590        1623.576          49.000  
R03  16777653.092    89812210.593       -1414.793          50.000    16777653.662    69853982.649       -1100.324          49.000  
R15  20179000.552   107830588.738        2889.608          48.000    20179015.982    83868372.307        2247.542          42.000  
G07  20470943.897   107575453.939       -3770.191          46.000    20470947.566    83825013.010       -2937.594          42.000  
S31  36197969.899   190221539.473        -793.012          44.000  
S33  37146522.091   195206203.521        -792.991          42.000  
G14  17686033.206    92940942.952        -276.152          47.000    17686034.055    72421635.340        -215.170          49.000  
G20  18735257.991    98454474.378       -2623.198          47.000                                                                  
R14  16811517.606    89615074.412         177.473          53.000    16811521.898    69700784.528         138.016          48.000  
E07  22321818.668   117301883.832       -2089.135          46.000    22321828.968    89880659.592       -1600.676          50.000  
G13  19298790.379   101415881.909        1382.315          49.000                                                                  
G22  18644272.630    97976540.536        1757.672          49.000                                                                  
G30  18464144.898    97029784.809       -2407.123          48.000    18464147.964    75607663.845       -1875.665          46.000  
E21  22999896.951   120865481.909        1884.620          46.000    22999909.067    92611362.217        1444.303          46.000  
E30  23538137.657   123693817.336       -2954.844          42.000    23538146.015    94778447.320       -2263.982          45.000  
E18  19798412.429   104041446.035       -1642.233          40.000                                                                  
G15                                                                  22118274.421                3       1673.234          12.000  
> 2024 04 15 19 36 30.4910000  0 23                     
G05  18913445.492    99390800.786         -21.701          48.000    18913447.363    77447372.270         -16.864          46.000  
E19  23612402.682   124084022.785        1319.758          38.000    23612409.814    95077434.273        1011.008          42.000  
G09  21688954.846   113975959.751       -3494.298          43.000    21688971.313    88812368.628       -2722.756          42.000  
E27  21045635.524   110595759.345        -467.119          47.000    21045644.009    84742348.418        -357.795          55.000  
R13  18258026.187    97496974.302       -3933.716          43.000    18258029.680    75831073.034       -3059.399          44.000  
R02  20015204.658   106804753.949       -4221.400          47.000    20015221.678    83070315.126       -3283.306          48.000  
R04  17831081.329    95484671.095        2076.688          52.000    17831080.010    74265858.347        1615.202          49.000  
R03  16785639.124    89854959.406       -1435.553          51.000    16785639.563    69887231.679       -1116.473          49.000  
R15  20162804.323   107744040.405        2880.029          48.000    20162819.256    83801057.496        2239.852          40.000  
G07  20492466.916   107688562.701       -3770.759          44.000    20492471.355    83913149.587       -2938.557          42.000  
S31  36202495.029   190245321.075        -792.831          44.000  
S33  37151048.566   195229989.550        -793.067          42.000  
G14  17687665.289    92949520.247        -295.890          47.000    17687666.894    72428318.974        -230.644          49.000  
G20  18750277.515    98533398.705       -2638.567          47.000                                                                  
R14  16810577.905    89610066.675         155.985          53.000    16810582.332    69696889.623         121.383          49.000  
E07  22333760.958   117364640.843       -2095.059          46.000    22333771.317    89928746.030       -1605.303          50.000  
G13  19290904.350   101374442.784        1379.808          49.000                                                                  
G15  22106006.507                3       2148.574          25.000    22106010.235                3       1668.811          23.000  
G22  18634278.077    97924017.408        1743.627          49.000                                                                  
G30  18477904.378    97102088.986       -2413.494          48.000    18477906.809    75664004.711       -1880.689          45.000  
E21  22989154.908   120809034.726        1878.054          46.000    22989167.621    92568110.720        1439.046          47.000  
E30  23555025.391   123782574.666       -2962.552          41.000    23555036.553    94846456.175       -2269.994          46.000  
E18  19807852.602   104091060.923       -1665.323          40.000                                                                  
> 2024 04 15 19 37 00.4910000  0 23                     
G05  18913615.044    99391692.306         -38.255          48.000    18913617.034    77448066.944         -29.871          45.000  
E19  23604859.887   124044385.324        1322.333          38.000    23604867.087    95047062.825        1013.019          42.000  
G09  21708910.407   114080826.755       -3497.751          43.000    21708927.066    88894082.605       -2725.359          41.000  
E27  21048331.714   110609928.590        -478.060          47.000    21048340.160    84753205.386        -366.347          54.000  
R13  18280146.214    97615090.220       -3941.229          44.000    18280149.040    75922940.981       -3065.527          42.000  
R02  20038960.448   106931512.794       -4229.716          50.000    20038977.228    83168904.619       -3289.751          48.000  
R04  17819468.792    95422487.272        2068.354          51.000    17819467.595    74217493.223        1608.575          49.000  
R03  16793734.733    89898292.097       -1453.801          51.000    16793734.343    69920934.807       -1130.870          49.000  
R15  20146655.143   107657748.570        2872.476          49.000    20146669.192    83733942.142        2234.051          41.000  
G07  20513987.485   107801654.804       -3769.176          45.000    20513991.102    84001273.136       -2936.957          40.000  
S31  36207012.574   190269057.563        -790.189          44.000  
S33  37155566.391   195253732.070        -790.430          42.000  
G14  17689402.387    92958650.277        -313.207          47.000    17689403.885    72435433.317        -244.018          49.000  
G20  18765377.142    98612745.997       -2651.589          48.000                                                                  
R14  16809753.116    89605666.911         136.873          53.000    16809758.102    69693467.627         106.470          50.000  
E07  22345729.715   117427539.788       -2098.651          45.000    22345741.296    89976941.220       -1608.121          50.000  
G13  19283024.869   101333036.325        1379.890          49.000                                                                  
G22  18624355.228    97871877.618        1731.859          49.000                                                                  
G30  18491690.850    97174543.049       -2417.242          48.000    18491694.409    75720462.407       -1883.737          45.000  
E21  22978443.746   120752747.502        1873.857          46.000    22978455.989    92524981.780        1435.740          47.000  
E30  23571955.937   123871531.359       -2968.171          44.000    23571963.744    94914617.746       -2274.343          45.000  
E18  19817418.387   104141333.546       -1686.429          37.000                                                                  
G15                                                                  22093714.851                3       1678.623          19.000  
> 2024 04 15 19 37 30.4910000  0 23                     
G05  18913887.121    99393121.597         -57.063          49.000    18913888.536    77449180.642         -44.397          45.000  
E19  23597308.243   124004702.171        1322.949          38.000    23597315.792    95016656.377        1013.788          42.000  
G09  21728892.267   114185829.678       -3502.875          42.000    21728908.895    88975902.506       -2729.570          41.000  
E27  21051099.255   110624469.971        -491.361          47.000    21051107.397    84764347.496        -376.525          55.000  
R13  18302315.013    97733473.671       -3950.958          43.000    18302318.295    76015016.878       -3072.807          43.000  
R02  20062771.761   107058560.923       -4240.124          51.000    20062785.681    83267719.156       -3297.889          47.000  
R04  17807910.732    95360597.322        2057.636          51.000    17807910.233    74169356.663        1600.274          49.000  
R03  16801939.160    89942215.449       -1474.462          51.000    16801940.130    69955097.351       -1146.696          49.000  
R15  20130555.989   107571721.243        2862.951          48.000    20130570.394    83667032.443        2226.451          43.000  
G07  20535506.280   107914734.850       -3769.540          43.000    20535509.922    84089387.362       -2937.274          41.000  
S31  36211521.932   190292756.660        -789.871          44.000  
S33  37160077.039   195277435.071        -790.001          42.000  
G14  17691245.505    92968339.190        -332.709          47.000    17691246.860    72442983.190        -259.322          48.000  
G20  18780557.375    98692519.817       -2666.672          47.000                                                                  
R14  16809042.501    89601880.864         115.505          53.000    16809047.534    69690523.004          89.835          49.000  
E07  22357728.223   117490586.911       -2104.594          47.000    22357738.913    90025249.950       -1612.597          51.000  
G13  19275152.845   101291669.801        1377.682          48.000                                                                  
G22  18614508.320    97820129.326        1717.957          50.000                                                                  
G30  18505507.877    97247151.640       -2423.444          47.000    18505511.867    75777040.475       -1888.304          46.000  
E21  22967764.490   120696627.602        1867.382          46.000    22967776.922    92481981.053        1430.774          47.000  
E30  23588923.188   123960691.643       -2975.973          44.000    23588931.532    94982935.339       -2280.222          46.000  
E18  19827110.757   104192269.707       -1709.634          38.000                                                                  
G15                                                                  22081429.956                        1678.147          26.000  
> 2024 04 15 19 38 00.4910000  0 23                     
G05  18914269.418    99395130.061         -76.582          49.000    18914270.405    77450745.656         -59.815          45.000  
E19  23589757.159   123965015.681        1322.924          39.000    23589763.905    94986247.363        1013.627          43.000  
G09  21748908.201   114291009.390       -3508.954          42.000    21748923.764    89057860.143       -2734.136          40.000  
E27  21053945.616   110639424.763        -505.422          48.000    21053953.075    84775806.378        -387.228          54.000  
R13  18324542.314    97852162.803       -3961.153          43.000    18324545.190    76107330.629       -3080.917          43.000  
R02  20086641.016   107185938.357       -4251.447          49.000    20086656.965    83366789.794       -3306.571          48.000  
R04  17796417.025    95299047.311        2046.056          52.000    17796415.902    74121484.489        1591.498          49.000  
R03  16810263.567    89986772.883       -1495.721          51.000    16810263.651    69989753.048       -1163.374          49.000  
R15  20114515.135   107486002.972        2852.296          47.000    20114528.838    83600363.228        2218.356          43.000  
G07  20557030.300   108027843.281       -3770.724          43.000    20557034.499    84177523.622       -2938.120          41.000  
S31  36216032.417   190316457.471        -790.210          44.000  
S33  37164588.427   195301141.866        -789.927          42.000  
G14  17693203.956    92978628.607        -353.011          47.000    17693204.303    72451000.940        -274.977          48.000  
G20  18795827.509    98772759.438       -2682.340          49.000                                                                  
R14  16808455.446    89598749.891          93.479          53.000    16808459.575    69688087.832          72.686          49.000  
E07  22369762.558   117553824.011       -2111.039          47.000    22369772.400    90073704.223       -1617.515          50.000  
G13  19267296.833   101250386.084        1374.665          48.000                                                                  
G22  18604743.109    97768816.352        1703.212          48.000                                                                  
G30  18519362.542    97319954.801       -2429.967          48.000    18519366.209    75833770.165       -1893.495          47.000  
E21  22957126.297   120640717.866        1860.221          47.000    22957137.665    92439141.367        1425.273          48.000  
E30  23605935.483   124050095.173       -2984.042          44.000    23605943.903    95051439.286       -2286.500          46.000  
E18  19836939.414   104243911.140       -1733.171          39.000                                                                  
G15                                                                  22069137.907                        1679.312          29.000  
> 2024 04 15 19 38 30.4910000  0 23                     
G05  18914760.094    99397709.373         -95.321          49.000    18914760.859    77452755.451         -74.208          45.000  
E19  23582202.006   123925317.900        1323.655          39.000    23582209.692    94955829.709        1014.161          43.000  
G09  21768954.712   114396356.640       -3514.282          43.000    21768971.837    89139948.387       -2738.250          40.000  
E27  21056868.927   110654784.094        -518.464          47.000    21056876.062    84787575.211        -397.266          55.000  
R13  18346823.321    97971145.456       -3970.724          42.000    18346827.258    76199872.624       -3088.405          43.000  
R02  20110571.257   107313634.195       -4261.498          49.000    20110587.936    83466108.070       -3314.639          48.000  
R04  17784986.032    95237831.898        2035.132          52.000    17784984.870    74073872.551        1582.868          49.000  
R03  16818705.158    90031955.580       -1516.223          52.000    16818703.964    70024895.082       -1179.259          49.000  
R15  20098531.060   107400587.021        2842.331          50.000    20098544.534    83533929.084        2210.546          44.000  
G07  20578558.804   108140969.903       -3770.960          42.000    20578561.815    84265674.120       -2938.412          42.000  
S31  36220541.234   190340152.684        -789.560          44.000  
S33  37169098.666   195324842.939        -789.757          42.000  
G14  17695274.459    92989509.927        -372.365          47.000    17695275.630    72459479.909        -290.175          49.000  
G20  18811183.069    98853453.811       -2697.069          48.000                                                                  
R14  16807988.173    89596264.762          72.356          51.000    16807992.680    69686154.989          56.380          49.000  
E07  22381830.551   117617242.739       -2116.664          46.000    22381840.757    90122297.688       -1621.943          50.000  
G13  19259455.699   101209177.427        1372.380          49.000                                                                  
G15  22056824.852                3       2156.235          25.000    22056827.145                        1680.723          28.000  
G22  18595060.282    97717931.994        1689.196          48.000                                                                  
G30  18533251.637    97392942.406       -2435.724          47.000    18533255.016    75890643.582       -1897.980          47.000  
E21  22946523.758   120585010.977        1853.699          46.000    22946537.528    92396457.110        1420.435          50.000  
E30  23622992.783   124139731.571       -2991.532          43.000    23623002.477    95120121.723       -2292.284          48.000  
E18  19846898.174   104296249.032       -1756.068          38.000                                                                  
> 2024 04 15 19 39 00.4910000  0 23                     
G05  18915358.932    99400856.754        -114.290          49.000    18915360.106    77455207.932         -89.084          45.000  
E19  23574645.589   123885605.214        1323.997          39.000    23574652.560    94925400.619        1014.562          43.000  
G09  21789033.253   114501866.754       -3519.670          43.000    21789050.461    89222163.537       -2742.354          41.000  
E27  21059866.505   110670543.564        -531.838          47.000    21059874.943    84799650.665        -407.564          55.000  
R13  18369158.328    98090413.452       -3980.198          43.000    18369162.075    76292636.531       -3095.659          43.000  
R02  20134560.883   107441642.382       -4272.177          50.000    20134577.350    83565669.241       -3322.727          47.000  
R04  17773616.720    95176950.565        2023.857          52.000    17773615.953    74026520.463        1574.139          49.000  
R03  16827261.040    90077760.524       -1537.130          51.000    16827260.799    70060521.073       -1195.579          49.000  
R15  20082601.979   107315471.376        2832.249          47.000    20082614.909    83467728.509        2202.731          45.000  
G07  20600087.341   108254109.650       -3771.152          37.000    20600091.158    84353834.839       -2938.782          40.000  
S31  36225048.491   190363837.312        -789.063          45.000  
S33  37173606.661   195348532.648        -789.580          43.000  
G14  17697457.198    93000979.090        -392.085          48.000    17697458.241    72468416.938        -305.470          49.000  
G20  18826623.724    98934596.358       -2712.108          47.000                                                                  
R14  16807642.843    89594420.725          50.837          52.000    16807647.276    69684720.800          39.542          49.000  
E07  22393933.233   117680839.251       -2122.805          47.000    22393943.251    90171027.362       -1626.426          51.000  
G13  19251627.672   101168041.210        1369.882          49.000                                                                  
G15  22044497.716   115844653.5393       2158.940          31.000    22044500.875                1       1681.208          26.000  
G22  18585458.756    97667474.630        1674.847          49.000                                                                  
G30  18547174.757    97466108.956       -2441.763          47.000    18547177.730    75947656.411       -1902.687          47.000  
E21  22935961.597   120529504.214        1846.798          46.000    22935974.483    92353926.212        1415.171          49.000  
E30  23640093.173   124229594.918       -2999.042          43.000    23640101.833    95188977.985       -2298.040          46.000  
E18  19856986.713   104349279.209       -1779.340          36.000                                                                  
> 2024 04 15 19 39 30.4910000  0 23                     
G05  18916066.708    99404573.378        -133.634          49.000    18916067.988    77458104.013        -104.156          46.000  
E19  23567085.853   123845878.575        1324.316          36.000    23567092.298    94894960.869        1014.630          43.000  
G09  21809142.250   114607539.561       -3525.460          40.000    21809159.831    89304505.385       -2747.142          41.000  
E27  21062942.398   110686703.341        -545.614          48.000    21062950.108    84812032.863        -418.017          55.000  
R13  18391546.622    98209963.178       -3989.807          43.000    18391549.510    76385619.566       -3103.076          43.000  
R02  20158608.889   107569961.330       -4282.735          49.000    20158625.295    83665472.115       -3330.953          48.000  
R04  17762309.936    95116407.127        2012.145          51.000    17762309.248    73979431.173        1565.088          49.000  
R03  16835934.557    90124188.624       -1558.270          52.000    16835934.801    70096631.761       -1211.985          49.000  
R15  20066731.677   107230658.855        2821.785          49.000    20066743.260    83401763.702        2194.678          45.000  
G07  20621620.472   108367261.718       -3772.274          42.000    20621622.779    84442005.160       -2939.473          39.000  
S31  36229553.366   190387512.704        -789.417          44.000  
S33  37178113.046   195372213.857        -789.365          43.000  
G14  17699751.624    93013036.578        -411.982          48.000    17699752.541    72477812.422        -321.034          49.000  
G20  18842149.568    99016185.119       -2727.188          48.000                                                                  
R14  16807417.860    89593217.512          29.089          53.000    16807422.066    69683785.029          22.670          49.000  
E07  22406070.259   117744614.257       -2129.196          48.000    22406079.874    90219893.795       -1631.456          52.000  
G13  19243813.301   101126978.842        1367.045          49.000                                                                  
G22  18575938.649    97617446.828        1660.246          49.000                                                                  
G30  18561132.200    97539453.373       -2447.910          48.000    18561135.545    76004807.884       -1907.611          47.000  
E21  22925436.296   120474199.351        1839.742          44.000    22925449.657    92311549.984        1409.762          49.000  
E30  23657237.551   124319683.936       -3007.065          44.000    23657246.113    95258007.183       -2303.982          48.000  
E18  19867212.429   104403002.113       -1802.406          39.000                                                                  
G15                                                                  22032169.583                1       1683.301          28.000  
> 2024 04 15 19 40 00.4910000  0 23                     
G05  18916880.947    99408857.029        -152.258          49.000    18916882.972    77461441.889        -118.704          45.000  
E19  23559522.072   123806136.069        1324.983          39.000    23559529.530    94864508.890        1015.328          42.000  
G09  21829281.038   114713371.492       -3530.061          39.000    21829299.763    89386971.294       -2750.842          41.000  
E27  21066092.821   110703260.336        -558.469          47.000    21066100.665    84824719.380        -427.926          55.000  
R13  18413985.608    98329788.449       -3998.630          42.000    18413989.358    76478816.975       -3110.075          43.000  
R02  20182713.848   107698585.999       -4292.523          50.000    20182730.114    83765512.768       -3338.648          47.000  
R04  17751067.620    95056202.219        2001.257          52.000    17751065.707    73932605.203        1556.456          48.000  
R03  16844723.550    90171237.890       -1578.616          51.000    16844723.968    70133225.562       -1227.819          49.000  
R15  20050915.315   107146148.215        2812.017          49.000    20050927.761    83336033.674        2187.050          47.000  
G07  20643154.294   108480421.981       -3772.422          38.000    20643157.753    84530181.887       -2939.400          39.000  
S31  36234055.768   190411174.999        -788.464          44.000  
S33  37182617.255   195395882.353        -788.780          42.000  
G14  17702157.418    93025679.516        -431.179          48.000    17702158.742    72487664.084        -335.995          49.000  
G20  18857759.697    99098214.824       -2741.494          47.000                                                                  
R14  16807310.868    89592651.811           8.193          52.000    16807315.186    69683345.070           6.351          49.000  
E07  22418238.580   117808565.161       -2134.506          47.000    22418249.232    90268895.014       -1635.619          51.000  
G13  19236013.123   101085988.391        1365.104          48.000                                                                  
G15  22019834.177   115714962.162        2163.181          32.000    22019831.002                        1684.603          26.000  
G22  18566500.651    97567847.848        1646.081          49.000                                                                  
G30  18575121.272    97612971.377       -2453.437          47.000    18575125.682    76062094.635       -1911.907          47.000  
E21  22914948.697   120419094.777        1833.706          44.000    22914963.679    92269327.262        1404.938          49.000  
E30  23674420.789   124409993.879       -3014.057          43.000    23674430.367    95327205.682       -2309.369          46.000  
E18  19877565.939   104457414.756       -1825.152          40.000                                                                  
> 2024 04 15 19 40 30.4910000  0 23                     
G05  18917803.801    99413706.989        -171.203          48.000    18917805.899    77465221.062        -133.525          45.000  
E19  23551955.599   123766377.117        1325.420          38.000    23551963.452    94834044.338        1015.702          42.000  
G09  21849450.325   114819361.221       -3535.721          39.000    21849469.773    89469560.082       -2755.165          41.000  
E27  21069318.792   110720213.279        -571.825          47.000    21069326.648    84837709.310        -438.160          55.000  
R13  18436476.245    98449884.439       -4007.899          42.000    18436479.255    76572224.851       -3117.197          44.000  
R02  20206874.579   107827513.423       -4302.807          49.000    20206891.255    83865788.882       -3346.416          46.000  
R04  17739888.480    94996338.935        1989.543          51.000    17739886.811    73886044.941        1547.472          48.000  
R03  16853628.331    90218907.490       -1599.514          52.000    16853628.725    70170301.842       -1244.038          49.000  
R15  20035155.845   107061941.016        2801.635          48.000    20035168.346    83270539.650        2178.998          45.000  
G07  20664688.523   108593588.563       -3773.370          35.000    20664693.500    84618363.470       -2939.678          40.000  
S31  36238556.001   190434823.378        -788.306          44.000  
S33  37187118.427   195419536.532        -788.573          42.000  
G14  17704674.710    93038906.979        -450.820          47.000    17704675.751    72497971.207        -351.265          49.000  
G20  18873452.987    99180681.976       -2756.323          48.000                                                                  
R14  16807323.558    89592721.925         -13.069          52.000    16807327.862    69683399.659         -10.225          49.000  
E07  22430441.221   117872691.388       -2140.649          46.000    22430451.806    90318030.544       -1640.155          51.000  
G13  19228226.690   101045070.411        1362.515          48.000                                                                  
G15  22007484.852   115650065.782        2164.435          31.000    22007472.027                1       1686.054          27.000  
G22  18557144.211    97518679.009        1631.587          49.000                                                                  
G30  18589143.978    97686660.755       -2459.291          47.000    18589148.136    76119514.872       -1916.266          47.000  
E21  22904501.813   120364191.045        1826.677          45.000    22904515.341    92227258.410        1399.610          49.000  
E30  23691648.744   124500522.180       -3021.325          44.000    23691657.952    95396571.470       -2315.011          47.000  
E18  19888050.443   104512516.051       -1848.275          40.000                                                                  
> 2024 04 15 19 41 00.4920000  0 23                     
G05  18918831.167    99419106.078        -188.546          49.000    18918832.910    77469428.097        -147.051          45.000  
E19  23544383.975   123726583.273        1327.534          39.000    23544390.896    94803553.042        1017.187          42.000  
G09  21869646.939   114925493.549       -3539.476          37.000    21869666.588    89552259.993       -2757.938          42.000  
E27  21072616.627   110737544.564        -583.387          47.000    21072624.509    84850989.149        -447.019          54.000  
R13  18459013.433    98570233.048       -4014.899          41.000    18459016.310    76665829.302       -3122.992          43.000  
R02  20231090.128   107956727.548       -4311.102          51.000    20231106.867    83966288.038       -3353.085          45.000  
R04  17728769.274    94936800.226        1979.690          51.000    17728767.433    73839737.115        1539.668          48.000  
R03  16862647.271    90267182.013       -1618.522          52.000    16862646.291    70207848.612       -1258.845          49.000  
R15  20019449.739   106978018.169        2793.136          47.000    20019464.167    83205266.793        2172.304          46.000  
G07  20686221.663   108706745.731       -3770.862          36.000    20686226.208    84706537.762       -2938.473          39.000  
S31  36243050.632   190458440.792        -785.986          44.000  
S33  37191613.861   195443159.794        -786.426          42.000  
G14  17707299.726    93052701.447        -468.923          48.000    17707300.626    72508720.174        -365.263          49.000  
G20  18889225.824    99263569.202       -2769.224          48.000                                                                  
R14  16807453.024    89593409.169         -32.648          52.000    16807456.561    69683934.218         -25.538          48.000  
E07  22442674.373   117936977.348       -2144.840          46.000    22442685.406    90367288.506       -1643.484          51.000  
G13  19220450.839   101004207.065        1361.634          48.000                                                                  
G15  21995120.345   115585097.694        2167.307          32.000    21995115.022                        1688.727          28.000  
G22  18547866.044    97469922.765        1618.811          49.000                                                                  
G30  18603196.325    97760504.519       -2462.904          47.000    18603199.453    76177055.454       -1919.505          46.000  
E21  22894089.443   120309469.710        1821.416          46.000    22894102.239    92185329.303        1395.587          49.000  
E30  23708913.213   124591252.054       -3027.051          44.000    23708923.122    95466091.738       -2319.408          47.000  
E18  19898663.583   104568289.707       -1869.555          39.000                                                                  
> 2024 04 15 19 41 30.4920000  0 23                     
G05  18919965.747    99425063.935        -208.304          49.000    18919967.285    77474070.561        -162.271          46.000  
E19  23536806.332   123686767.335        1327.003          38.000    23536814.209    94773044.812        1016.887          43.000  
G09  21889871.537   115031770.356       -3545.493          40.000    21889890.875    89635072.431       -2762.864          41.000  
E27  21075988.521   110755262.253        -597.447          47.000    21075995.960    84864565.072        -457.833          54.000  
R13  18481597.934    98690832.547       -4024.573          42.000    18481601.047    76759628.793       -3130.212          44.000  
R02  20255359.163   108086227.894       -4321.891          50.000    20255377.206    84067009.747       -3361.368          47.000  
R04  17717714.474    94877603.250        1967.210          52.000    17717713.644    73793695.104        1529.933          48.000  
R03  16871779.530    90316067.715       -1640.103          52.000    16871779.153    70245870.762       -1275.686          49.000  
R15  20003801.377   106894397.178        2781.949          49.000    20003815.075    83140228.722        2163.701          46.000  
G07  20707753.197   108819963.4431      -3771.735          36.000    20707757.723    84794705.427       -2939.052          40.000  
S31  36247540.640   190482034.533        -786.388          44.000  
S33  37196105.142   195466760.315        -786.467          42.000  
G14  17710033.870    93067071.439        -488.942          47.000    17710035.726    72519917.621        -381.048          50.000  
G20  18905078.343    99346877.576       -2784.441          47.000                                                                  
R14  16807699.714    89594722.422         -54.638          52.000    16807703.318    69684955.673         -42.459          49.000  
E07  22454938.197   118001428.621       -2151.719          45.000    22454950.008    90416673.123       -1648.597          51.000  
G13  19212687.409   100963411.392        1358.235          48.000                                                                  
G15  21982743.178   115520072.471        2167.688          29.000    21982742.430                        1689.193          28.000  
G22  18538669.091    97421594.252        1603.351          49.000                                                                  
G30  18617278.377    97834505.968       -2469.636          47.000    18617281.455    76234718.889       -1924.403          46.000  
E21  22883714.035   120254945.275        1813.703          46.000    22883726.815    92143551.066        1389.662          49.000  
E30  23726218.609   124682185.282       -3034.949          46.000    23726227.439    95535767.805       -2325.428          47.000  
E18  19909404.856   104624741.408       -1893.823          36.000                                                                  
> 2024 04 15 19 42 00.4920000  0 23                     
G05  18921210.931    99431608.658        -227.687          50.000    18921212.958    77479170.327        -177.336          46.000  
E19  23529231.472   123646955.871        1326.907          38.000    23529238.299    94742539.997        1016.953          42.000  
G09  21910129.022   115138221.825       -3550.770          38.000    21910148.652    89718021.024       -2766.898          41.000  
E27  21079438.879   110773393.837        -610.979          47.000    21079446.177    84878458.135        -468.136          54.000  
R13  18504234.789    98811710.763       -4033.545          41.000    18504238.599    76853645.099       -3137.183          43.000  
R02  20279687.276   108216043.927       -4332.157          50.000    20279705.276    84167977.009       -3369.308          47.000  
R04  17706729.190    94818777.648        1954.961          51.000    17706728.218    73747941.916        1520.427          49.000  
R03  16881031.773    90365595.085       -1661.334          52.000    16881031.966    70284391.978       -1292.141          49.000  
R15  19988214.235   106811104.686        2771.232          50.000    19988227.503    83075446.187        2155.360          44.000  
G07  20729287.725                3      -3772.966          29.000    20729293.710    84882889.915       -2939.514          39.000  
S31  36252031.529   190505633.739        -786.638          44.000  
S33  37200597.176   195490365.737        -786.525          42.000  
G14  17712883.557    93082044.659        -508.876          48.000    17712885.350    72531585.096        -396.535          50.000  
G20  18921016.703    99430635.346       -2799.099          47.000                                                                  
R14  16808067.921    89596688.491         -76.128          51.000    16808072.650    69686484.876         -59.221          49.000  
E07  22467240.984   118066074.845       -2157.814          46.000    22467251.653    90466207.112       -1653.383          51.000  
G13  19204942.402   100922710.819        1355.321          47.000                                                                  
G15  21970359.988                        2168.806          30.000    21970363.771                        1690.706          30.000  
G22  18529559.526    97373721.092        1588.531          49.000                                                                  
G30  18631395.619    97908693.442       -2475.593          47.000    18631398.941    76292527.284       -1929.055          46.000  
E21  22873380.733   120200644.473        1806.496          46.000    22873393.110    92101944.187        1384.288          49.000  
E30  23743566.605   124773350.309       -3042.338          46.000    23743575.363    95605621.473       -2331.196          47.000  
E18  19920282.170   104681899.785       -1916.671          39.000                                                                  
> 2024 04 15 19 42 30.4920000  0 23                     
G05  18922566.651    99438732.307        -247.045          50.000    18922568.002    77484721.228        -192.651          45.000  
E19  23521654.197   123607141.099        1327.168          38.000    23521661.726    94712032.694        1017.031          42.000  
G09  21930418.530   115244838.979       -3556.504          40.000    21930438.073    89801098.683       -2771.216          43.000  
E27  21082965.845   110791930.616        -624.451          47.000    21082974.003    84892661.677        -478.564          55.000  
R13  18526921.070    98932855.328       -4042.786          42.000    18526925.139    76947868.576       -3144.153          42.000  
R02  20304072.299   108346165.333       -4342.533          49.000    20304091.256    84269181.717       -3377.463          48.000  
R04  17695812.990    94760318.329        1942.513          52.000    17695811.857    73702473.612        1510.831          49.000  
R03  16890402.008    90415755.901       -1682.652          53.000    16890400.858    70323405.857       -1308.519          48.000  
R15  19972687.231   106728134.524        2760.366          49.000    19972700.693    83010914.334        2146.978          45.000  
G07  20750825.792   109046294.4231      -3773.187          32.000    20750830.759    84971083.917       -2939.770          36.000  
S31  36256521.157   190529228.955        -786.221          44.000  
S33  37205088.357   195513967.117        -786.409          42.000  
G14  17715846.227    93097612.559        -528.777          48.000    17715848.029    72543715.958        -412.108          50.000  
G20  18937038.694    99514831.534       -2813.820          47.000                                                                  
R14  16808556.381    89599298.422         -97.680          52.000    16808561.910    69688514.834         -75.945          49.000  
E07  22479578.765   118130907.917       -2164.147          45.000    22479589.046    90515884.256       -1658.266          50.000  
G13  19197213.740   100882097.905        1352.133          47.000                                                                  
G15  21957970.895                1       2171.081          30.000    21957978.935                        1691.617          30.000  
G22  18520534.353    97326296.710        1573.254          49.000                                                                  
G30  18645546.474    97983057.157       -2481.739          47.000    18645550.833    76350472.990       -1933.762          46.000  
E21  22863088.900   120146560.264        1799.154          46.000    22863101.181    92060503.257        1378.671          49.000  
E30  23760956.934   124864736.975       -3049.742          45.000    23760965.878    95675645.011       -2336.849          48.000  
E18  19931291.750   104739756.286       -1940.031          41.000                                                                  
> 2024 04 15 19 43 00.4920000  0 23                     
G05  18924033.162    99446436.280        -266.406          49.000    18924033.754    77490724.307        -207.626          45.000  
E19  23514078.103   123567324.607        1327.221          39.000    23514084.747    94681524.028        1017.120          41.000  
G09  21950739.024   115351621.845       -3562.271          41.000    21950758.558    89884305.489       -2775.883          42.000  
E27  21086571.625   110810872.930        -638.170          48.000    21086578.732    84907175.971        -488.909          55.000  
R13  18549657.327    99054263.593       -4051.331          43.000    18549660.717    77042297.151       -3150.983          43.000  
R02  20328514.471   108476590.451       -4352.528          49.000    20328533.320    84370622.673       -3385.225          48.000  
R04  17684965.011    94702229.873        1930.149          51.000    17684964.599    73657293.782        1501.174          50.000  
R03  16899891.206    90466551.585       -1703.803          52.000    16899890.265    70362913.562       -1325.024          48.000  
R15  19957221.033   106645489.583        2749.457          49.000    19957234.864    82946635.418        2138.558          45.000  
S31  36261010.664   190552820.810        -786.463          43.000  
S33  37209579.072   195537565.416        -786.599          43.000  
G14  17718921.967    93113775.725        -548.518          48.000    17718923.497    72556310.662        -427.524          50.000  
G20  18953143.989    99599463.976       -2828.307          47.000                                                                  
R14  16809166.541    89602552.046        -119.240          51.000    16809171.937    69691045.428         -92.648          49.000  
E07  22491952.589   118195928.769       -2170.376          47.000    22491962.083    90565705.291       -1663.012          50.000  
G13  19189502.270   100841574.380        1349.223          48.000                                                                  
G15  21945574.886                3       2171.464          30.000    21945589.636                1       1691.654          28.000  
G22  18511595.193    97279324.479        1558.087          48.000                                                                  
G30  18659731.171    98057596.405       -2487.424          49.000    18659735.018    76408555.497       -1938.197          47.000  
E21  22852837.874   120092694.666        1791.970          45.000    22852850.409    92019229.841        1373.072          49.000  
E30  23778389.988   124956344.311       -3057.064          47.000    23778398.250    95745837.578       -2342.452          48.000  
E18  19942435.697   104798311.295       -1963.764          38.000                                                                  
G07                                                                  20772372.216    85059287.030       -2940.282          38.000  
> 2024 04 15 19 43 30.4920000  0 23                     
G05  18925607.653    99454713.411        -284.387          49.000    18925609.491    77497173.982        -221.488          46.000  
E19  23506498.569   123527499.265        1328.916          38.000    23506506.000    94651008.601        1018.127          42.000  
G09  21971090.292   115458562.156       -3566.251          43.000    21971109.064    89967634.937       -2778.745          41.000  
E27  21090251.597   110830212.788        -650.130          48.000    21090258.653    84921994.864        -498.213          55.000  
R13  18572440.335    99175924.028       -4058.356          41.000    18572443.867    77136921.874       -3156.708          42.000  
R02  20353011.960   108607309.760       -4361.142          50.000    20353030.223    84472292.370       -3391.863          46.000  
R04  17674185.943    94644507.803        1919.080          52.000    17674185.066    73612398.901        1492.576          50.000  
R03  16909498.224    90517974.402       -1723.372          53.000    16909497.999    70402909.018       -1340.461          49.000  
R15  19941814.730   106563163.877        2739.823          50.000    19941826.718    82882604.801        2130.956          44.000  
G07  20793906.680   109272713.8341      -3772.163          32.000    20793912.662    85147492.737       -2939.266          39.000  
S31  36265498.271   190576401.898        -785.004          43.000  
S33  37214067.630   195561153.459        -784.872          42.000  
G14  17722110.095    93130526.384        -567.085          48.000    17722110.700    72569363.145        -441.908          50.000  
G20  18969330.693    99684522.640       -2841.205          48.000                                                                  
R14  16809896.323    89606440.661        -139.056          52.000    16809901.850    69694069.981        -108.189          50.000  
E07  22504359.082   118261130.092       -2175.418          46.000    22504369.155    90615664.610       -1666.751          50.000  
G13  19181806.711   100801134.361        1347.524          47.000                                                                  
G15  21933176.554                3       2174.174          33.000    21933180.438                1       1694.247          29.000  
G22  18502741.842    97232798.573        1544.598          48.000                                                                  
G30  18673947.213    98132302.239       -2491.781          48.000    18673951.045    76466767.804       -1941.655          47.000  
E21  22842628.491   120039041.405        1785.932          45.000    22842640.107    91978119.101        1368.375          49.000  
E30  23795860.896   125048162.869       -3062.898          46.000    23795870.784    95816191.994       -2347.051          48.000  
E18  19953709.075   104857556.651       -1985.222          38.000                                                                  
> 2024 04 15 19 44 00.4920000  0 23                     
G05  18927287.436    99463540.974        -303.135          49.000    18927289.169    77504052.588        -236.335          45.000  
E19  23498913.743   123487642.418        1329.482          39.000    23498921.465    94620469.043        1018.632          41.000  
G09  21991466.318   115565635.835       -3570.899          43.000    21991485.751    90051068.337       -2782.650          43.000  
E27  21094002.366   110849926.445        -662.924          47.000    21094010.181    84937100.171        -508.047          55.000  
R13  18595265.807    99297809.098       -4066.383          43.000    18595268.741    77231721.332       -3162.822          41.000  
R02  20377559.404   108738296.969       -4370.437          50.000    20377577.548    84574170.480       -3399.278          45.000  
R04  17663471.408    94587132.240        1906.975          52.000    17663470.398    73567773.514        1483.240          50.000  
R03  16919218.329    90570001.231       -1744.085          54.000    16919216.336    70443374.260       -1356.617          48.000  
R15  19926464.553   106481135.875        2729.534          50.000    19926476.043    82818805.738        2122.695          45.000  
G07  20815444.943   109385889.616       -3771.513          31.000    20815449.843    85235681.483       -2939.337          38.000  
S31  36269979.139   190599949.104        -783.978          43.000  
S33  37218549.658   195584707.738        -784.462          42.000  
G14  17725403.798    93147840.860        -586.460          48.000    17725405.523    72582854.978        -456.874          50.000  
G20  18985593.469    99769981.643       -2854.978          49.000                                                                  
R14  16810741.381    89610939.489        -159.868          53.000    16810745.158    69697569.078        -124.260          48.000  
E07  22516797.171   118326488.700       -2180.713          47.000    22516806.897    90665744.445       -1670.979          50.000  
G13  19174122.970   100760755.746        1345.167          47.000                                                                  
G15  21920759.098                2       2176.129          30.000    21920762.884                        1696.138          27.000  
G22  18493968.612    97186697.792        1529.779          48.000                                                                  
G30  18688190.790    98207149.912       -2497.021          49.000    18688194.184    76525090.613       -1945.545          47.000  
E21  22832453.350   119985578.366        1779.208          44.000    22832466.789    91937154.103        1363.386          50.000  
E30  23813369.875   125140167.420       -3069.484          48.000    23813378.358    95886688.992       -2351.981          48.000  
E18  19965108.133   104917468.605       -2007.710          36.000                                                                  
> 2024 04 15 19 44 30.4920000  0 23                     
G05  18929079.160    99472958.468        -323.616          48.000    18929081.143    77511390.849        -252.203          45.000  
E19  23491331.743   123447794.443        1328.392          39.000    23491337.998    94589936.251        1017.531          41.000  
G09  22011875.036   115672881.857       -3577.792          41.000    22011894.370    90134636.013       -2787.927          41.000  
E27  21097832.718   110870053.068        -677.642          47.000    21097840.210    84952521.893        -519.198          55.000  
R13  18618139.952    99419955.421       -4075.771          42.000    18618143.557    77326723.952       -3170.051          42.000  
R02  20402164.565   108869590.413       -4381.348          50.000    20402181.866    84676286.752       -3407.683          45.000  
R04  17652829.134    94530146.764        1893.115          52.000    17652828.329    73523451.553        1472.549          50.000  
R03  16929056.932    90622672.777       -1766.380          53.000    16929054.489    70484340.950       -1373.985          47.000  
R15  19911177.079   106399447.599        2717.373          50.000    19911189.049    82755270.862        2113.492          45.000  
G07  20836988.373   109499082.009       -3773.132          33.000    20836990.477    85323883.224       -2940.085          37.000  
S31  36274460.705   190623501.057        -785.117          44.000  
S33  37223032.942   195608267.400        -785.213          42.000  
G14  17728813.892    93165758.551        -607.246          48.000    17728815.293    72596816.843        -473.152          50.000  
G20  19001938.978    99855877.804       -2870.398          49.000                                                                  
R14  16811707.137    89616088.251        -182.375          52.000    16811710.990    69701573.724        -141.782          49.000  
E07  22529273.381   118392044.449       -2188.423          47.000    22529281.866    90715975.332       -1676.884          50.000  
G13  19166458.689   100720478.991        1340.966          48.000                                                                  
G15  21908340.403                1       2176.863          31.000    21908347.384                        1695.182          26.000  
G22  18485285.190    97141063.921        1513.452          47.000                                                                  
G30  18702467.430    98282177.621       -2503.792          48.000    18702471.206    76583553.738       -1950.930          47.000  
E21  22822323.273   119932346.398        1770.570          44.000    22822336.785    91896366.190        1356.732          50.000  
E30  23830920.405   125232395.835       -3077.977          48.000    23830929.152    95957357.451       -2358.336          48.000  
E18  19976641.648   104978086.238       -2032.260          35.000                                                                  
