     3.00           OBSERVATION DATA    M: Mixed            RINEX VERSION / TYPE
CONVBIN 2.4.3                           20240415 014442 UTC PGM / RUN BY / DATE 
format: u-blox UBX                                          COMMENT             
log: /home/regis/git/gnsspwv/obsdata/VERT00CHL/2024-04-15/VECOMMENT             
{self.marker}                                               MARKER NAME         
                                                            MARKER NUMBER       
GEODETIC                                                    MARKER TYPE         
{self.observer}     {self.institution}                      OBSERVER / AGENCY   
UNKNOWN             UBLOX-ZED-F9P                           REC # / TYPE / VERS 
UNKNOWN             TWIVSP6037L                             ANT # / TYPE        
  1713381.0000 -5047934.0000 -3490983.0000                  APPROX POSITION XYZ 
        0.0000        0.0000        0.0000                  ANTENNA: DELTA H/E/N
G    8 C1C L1C D1C S1C C2L L2L D2L S2L                      SYS / # / OBS TYPES 
R    8 C1C L1C D1C S1C C2C L2C D2C S2C                      SYS / # / OBS TYPES 
E    8 C1C L1C D1C S1C C7Q L7Q D7Q S7Q                      SYS / # / OBS TYPES 
S    4 C1C L1C D1C S1C                                      SYS / # / OBS TYPES 
  2024    04    15    01    30   00.0080000     GPS         TIME OF FIRST OBS   
  2024    04    15    01    44   30.0090000     GPS         TIME OF LAST OBS    
                                                            END OF HEADER       
> 2024 04 15 01 30 00.0080000  0 25                     
S33  42217818.805   221856223.3481       -759.292          42.000  
G32  25633232.949   134703560.6721       -807.413          44.000    25633234.853   104963767.5871       -629.142          46.000  
R14  25447856.781   135651428.1921      -3170.984          50.000    25447858.183   105506740.7631      -2466.378          47.000  
R17  22359179.363   119648986.7111      -1858.134          52.000    22359174.017    93060554.0821      -1445.211          52.000  
R16  23653179.136   126351192.3901       1530.156          49.000    23653176.772    98273061.0641       1190.119          47.000  
E11  27253240.302   143217088.9561       1905.354          41.000    27253242.207   109737980.1101       1459.953          45.000  
G06  26055194.104   136920928.9341      -2314.678          41.000    26055192.204   106691881.2931      -1803.860          41.000  
G29  24558543.185   129056368.6561       1814.198          47.000    24558541.013   100563662.0331       1413.896          44.000  
S31  41264981.790   216849023.9161       -758.685          44.000  
E03  28224318.243   148319840.7671      -1029.080          45.000    28224321.538   113647615.8841       -788.542          49.000  
R15  22589005.404   120709028.7671      -1029.524          50.000    22589003.759    93884972.1171       -800.677          51.000  
R18  22625580.575   120776953.1051       2117.651          52.000    22625579.109    93937915.9531       1647.064          50.000  
R19  25786427.732   137939994.8941       3771.309          35.000    25786445.833   107286172.5671       2933.155          41.000  
R24  26073728.985                3      -4737.205          20.000    26073690.690                3      -3688.070          19.000  
E31  30155803.850   158469791.9361      -2489.880          37.000    30155807.833   121424970.8601      -1907.890          39.000  
G11  24922185.261   130967428.6721       -225.740          44.000    24922180.992   102052730.2861       -175.975          43.000  
E24  26963342.126   141693444.4171      -1493.781          47.000    26963342.839   108570360.7921      -1144.633          54.000  
G24  23550733.231   123760029.4461      -2658.936          48.000    23550732.273    96436454.0211      -2072.040          46.000  
G12  23682107.895   124450620.4421      -1059.928          49.000    23682102.664    96974635.8321       -825.763          44.000  
E05  26687409.386   140243292.8551      -3160.612          44.000    26687413.961   107459173.8161      -2421.942          45.000  
G25  23889031.557   125537927.3911        435.006          49.000    23889030.318    97821830.7951        338.853          45.000  
E10  27645952.820   145280937.5871        917.471          48.000    27645954.091   111319407.4751        702.941          49.000  
E25  26982149.572   141792441.3961        190.386          47.000    26982150.499   108646307.9301        145.901          51.000  
E12  28032126.097   147310167.8721       -285.166          44.000    28032124.356   112874240.4271       -218.590          44.000  
E14  23832019.070   125238249.1201      -5098.076          49.000    23832019.721    95961829.5851      -3906.259          53.000  
> 2024 04 15 01 30 30.0080000  0 25                     
S33  42222150.695   221878988.507        -758.586          43.000  
G32  25637893.528   134728047.391        -825.263          45.000    25637894.978   104982848.107        -643.143          45.000  
R14  25465720.155   135746657.197       -3177.833          49.000    25465723.069   105580807.659       -2471.751          47.000  
R17  22369667.618   119705119.531       -1884.244          50.000    22369663.776    93104212.961       -1465.568          52.000  
R16  23644590.383   126305310.464        1528.347          49.000    23644586.585    98237375.178        1188.707          47.000  
E11  27242376.784   143160001.686        1900.486          41.000    27242378.149   109694238.181        1455.930          44.000  
G06  26068455.026   136990622.691       -2331.592          38.000    26068454.721   106746188.146       -1816.958          39.000  
G29  24548218.639   129002112.894        1802.621          48.000    24548216.908   100521384.983        1404.649          44.000  
S31  41269310.805   216871774.138        -758.250          44.000  
E03  28230228.822   148350900.912       -1042.004          44.000    28230232.137   113671415.163        -798.438          49.000  
R15  22594810.188   120740048.680       -1038.838          50.000    22594808.520    93909098.721        -808.028          51.000  
R18  22613735.279   120713721.639        2097.537          53.000    22613733.056    93888736.047        1631.338          49.000  
R19  25765284.805   137826898.738        3767.729          33.000    25765303.620   107198208.764        2931.066          41.000  
R24  26100357.674                3      -4749.940          26.000    26100335.257                3      -3694.538          24.000  
E31  30170018.379   158544485.407       -2489.682          36.000    30170021.160   121482203.439       -1907.344          38.000  
G11  24923523.959   130974466.653        -243.712          44.000    24923520.955   102058214.478        -189.782          44.000  
E24  26971874.008   141738276.791       -1495.146          47.000    26971874.132   108604712.867       -1145.672          54.000  
G24  23565954.351   123840018.637       -2673.777          48.000    23565953.308    96498783.214       -2083.633          45.000  
G12  23688169.258   124482473.857       -1063.815          49.000    23688163.836    96999456.685        -828.821          44.000  
E05  26705468.599   140338190.765       -3166.098          45.000    26705472.390   107531887.585       -2425.909          46.000  
G25  23886555.639   125524916.770         432.170          48.000    23886554.092    97811692.655         336.879          45.000  
E10  27640745.146   145253573.606         906.410          47.000    27640746.723   111298440.325         694.593          49.000  
E25  26981064.239   141786741.050         189.303          46.000    26981065.640   108641940.160         145.105          51.000  
E12  28033792.885   147318926.101        -298.830          44.000    28033790.824   112880951.310        -229.069          44.000  
E14  23861145.719   125391310.095       -5106.274          49.000    23861146.475    96079110.109       -3912.629          54.000  
> 2024 04 15 01 31 00.0080000  0 26                     
S33  42226482.303   221901748.943        -759.070          42.000  
G32  25642658.064   134753083.150        -844.062          45.000    25642659.117   105002356.447        -657.763          45.000  
R14  25483625.806   135842101.060       -3185.360          49.000    25483628.172   105655041.660       -2477.567          46.000  
R17  22380306.380   119762047.900       -1911.107          51.000    22380302.503    93148490.607       -1486.386          52.000  
R16  23636014.168   126259496.170        1525.642          49.000    23636010.279    98201741.885        1186.780          48.000  
E11  27231544.603   143103076.685        1894.141          42.000    27231545.176   109650620.565        1451.556          44.000  
G06  26081815.885   137060834.100       -2349.158          40.000    26081815.301   106800898.362       -1830.616          40.000  
G29  24537963.051   128948218.213        1790.201          48.000    24537960.328   100479389.266        1394.966          43.000  
S31  41273638.964   216894518.384        -758.372          44.000  
E03  28236215.532   148382363.684       -1055.798          44.000    28236219.397   113695522.972        -808.938          49.000  
R15  22600670.324   120771362.804       -1049.002          50.000    22600668.173    93933454.134        -815.927          51.000  
R18  22602004.814   120651105.337        2076.576          52.000    22602002.967    93840034.580        1615.096          49.000  
R19  25744158.126   137713896.197        3764.554          33.000    25744179.564   107110317.899        2928.228          42.000  
R24  26127026.309                3      -4758.702          24.000    26127014.631                3      -3701.921          23.000  
E31  30184231.376   158619183.767       -2489.615          34.000    30184235.572   121539439.842       -1907.930          37.000  
G11  24924967.619   130982054.065        -262.404          43.000    24924965.680   102064126.820        -204.346          44.000  
E24  26980414.433   141783158.347       -1497.166          47.000    26980414.947   108639102.628       -1147.142          54.000  
G24  23581263.033   123920466.665       -2689.504          47.000    23581261.987    96561469.927       -2095.643          45.000  
G12  23694254.848   124514454.691       -1068.442          49.000    23694249.781    97024376.814        -832.598          44.000  
E05  26723560.540   140433263.682       -3172.223          45.000    26723564.419   107604735.470       -2430.664          46.000  
G25  23884096.342   125511997.654         428.853          48.000    23884095.542    97801625.867         334.241          45.000  
E10  27635602.234   145226550.753         894.773          47.000    27635604.204   111277734.586         685.642          49.000  
E25  26979986.679   141781079.514         187.902          46.000    26979988.398   108637602.132         143.954          51.000  
E12  28035539.407   147328107.815        -313.318          43.000    28035537.917   112887986.669        -240.007          45.000  
E14  23890321.747   125544626.602       -5115.054          50.000    23890321.768    96196586.411       -3919.275          54.000  
R07                                                                  25427743.198                3         13.569          11.000  
> 2024 04 15 01 31 30.0080000  0 25                     
S33  42230813.871   221924512.112        -758.916          42.000  
G32  25647528.745   134778677.190        -862.618          45.000    25647528.527   105022299.811        -672.231          43.000  
R14  25501572.847   135937770.290       -3193.082          49.000    25501576.028   105729450.920       -2483.455          46.000  
R17  22391095.549   119819780.093       -1937.995          51.000    22391091.190    93193393.449       -1507.408          52.000  
R16  23627451.902   126213761.507        1522.929          49.000    23627449.112    98166170.541        1184.390          49.000  
E11  27220745.895   143046326.138        1888.497          43.000    27220746.046   109607136.629        1446.984          44.000  
G06  26095277.203   137131571.818       -2367.175          38.000    26095275.332   106856018.679       -1844.183          38.000  
G29  24527777.964   128894695.480        1777.650          48.000    24527774.654   100437683.377        1385.235          43.000  
S31  41277967.912   216917267.042        -758.676          44.000  
E03  28242281.217   148414238.621       -1069.651          45.000    28242285.090   113719946.595        -819.679          49.000  
R15  22606588.186   120802982.618       -1059.333          50.000    22606585.703    93958047.311        -823.976          51.000  
R18  22590392.576   120589118.071        2055.479          52.000    22590391.039    93791822.366        1598.723          50.000  
R19  25723054.988   137601000.975        3761.409          35.000    25723075.319   107022510.554        2925.116          42.000  
R24  26153722.344                3      -4770.055          22.000    26153704.683                3      -3711.727          22.000  
E31  30198449.719   158693897.450       -2490.682          36.000    30198452.597   121596687.946       -1908.425          37.000  
G11  24926518.090   130990202.080        -281.359          43.000    24926514.948   102070475.970        -219.189          43.000  
E24  26988966.156   141828099.328       -1499.331          46.000    26988966.809   108673537.928       -1148.855          54.000  
G24  23596661.882   124001382.553       -2705.202          48.000    23596659.719    96624521.254       -2108.066          46.000  
G12  23700367.715   124546573.362       -1073.063          50.000    23700361.610    97049404.362        -836.325          44.000  
E05  26741686.011   140528519.679       -3178.446          44.000    26741691.312   107677723.603       -2435.313          47.000  
G25  23881657.387   125499180.392         425.472          48.000    23881656.142    97791638.414         331.263          45.000  
E10  27630527.111   145199880.692         882.725          47.000    27630529.207   111257299.152         676.429          49.000  
E25  26978918.470   141775466.786         186.057          46.000    26978920.549   108633301.494         142.521          51.000  
E12  28037369.186   147337723.664        -327.983          43.000    28037368.129   112895354.685        -251.413          45.000  
E14  23919547.014   125698203.813       -5123.895          50.000    23919546.602    96314262.469       -3926.135          54.000  
> 2024 04 15 01 32 00.0080000  0 25                     
S33  42235147.136   221947284.287        -759.253          43.000  
G32  25652506.916   134804831.530        -881.087          46.000    25652504.664   105042679.782        -686.518          43.000  
R14  25519563.911   136033667.926       -3200.196          49.000    25519564.975   105804037.832       -2489.206          43.000  
R17  22402034.956   119878317.031       -1964.557          51.000    22402029.349    93238922.190       -1527.908          52.000  
R16  23618904.985   126168110.642        1520.411          49.000    23618903.370    98130664.333        1182.578          49.000  
E11  27209980.283   142989754.886        1883.181          43.000    27209980.634   109563790.082        1442.782          44.000  
G06  26108838.465   137202837.151       -2384.094          37.000    26108836.569   106911550.125       -1857.849          39.000  
G29  24517663.716   128841548.630        1765.382          47.000    24517661.589   100396270.409        1375.670          44.000  
S31  41282298.255   216940022.613        -758.389          44.000  
E03  28248425.442   148446528.019       -1083.269          45.000    28248429.577   113744687.791        -830.049          49.000  
R15  22612563.518   120834912.317       -1069.405          50.000    22612560.979    93982881.504        -831.765          51.000  
R18  22578899.345   120527766.233        2034.569          52.000    22578898.328    93744104.389        1582.427          50.000  
R19  25701973.698   137488220.082        3757.604          34.000    25701991.665   106934792.119        2922.471          42.000  
R24  26180487.017                3      -4783.546          20.000    26180497.790                3      -3711.698          25.000  
E31  30212671.318   158768629.627       -2491.226          37.000    30212672.432   121653950.244       -1909.031          36.000  
G11  24928175.649   130998914.745        -299.842          43.000    24928172.872   102077265.103        -233.647          44.000  
E24  26997530.356   141873102.754       -1501.133          47.000    26997530.796   108708021.068       -1150.133          54.000  
G24  23612148.567   124082768.113       -2720.545          48.000    23612146.759    96687938.556       -2119.954          45.000  
G12  23706506.323   124578832.435       -1077.522          50.000    23706500.982    97074541.323        -839.512          45.000  
E05  26759846.811   140623959.489       -3184.237          43.000    26759853.183   107750852.603       -2439.860          47.000  
G25  23879238.435   125486467.989         422.202          48.000    23879236.874    97781732.669         328.931          44.000  
E10  27625519.225   145173567.843         871.238          46.000    27625522.388   111237137.435         667.498          50.000  
E25  26977860.301   141769905.532         184.594          46.000    26977862.381   108629040.305         141.458          51.000  
E12  28039282.996   147347777.017        -342.388          43.000    28039280.898   112903057.923        -262.262          45.000  
E14  23948820.657   125852039.613       -5131.881          50.000    23948820.548    96432136.675       -3932.336          54.000  
> 2024 04 15 01 32 30.0080000  0 25                     
S33  42239479.445   221970049.709        -759.117          44.000  
G32  25657588.033   134831532.487        -899.280          47.000    25657585.959   105063485.685        -700.788          44.000  
R14  25537595.940   136129780.995       -3207.469          51.000    25537595.551   105878792.325       -2494.637          43.000  
R17  22413120.244   119937643.284       -1990.676          50.000    22413115.982    93285064.863       -1548.334          52.000  
R16  23610373.567   126122531.967        1517.939          51.000    23610371.407    98095214.277        1180.657          49.000  
E11  27199247.305   142933352.264        1877.355          43.000    27199247.785   109520572.726        1438.381          45.000  
G06  26122497.472   137274615.806       -2401.373          38.000    26122495.746   106967481.574       -1870.892          40.000  
G29  24507619.501   128788766.057        1753.361          48.000    24507617.747   100355141.289        1366.245          44.000  
S31  41286627.667   216962772.128        -758.223          43.000  
E03  28254646.774   148479218.392       -1096.349          45.000    28254650.502   113769736.237        -840.101          49.000  
R15  22618594.526   120867140.269       -1079.283          51.000    22618592.277    94007947.668        -839.413          52.000  
R18  22567523.505   120467040.098        2013.760          52.000    22567521.388    93696873.055        1566.226          49.000  
R19  25680909.941   137375544.338        3753.824          37.000    25680927.436   106847155.604        2919.730          42.000  
R24  26207304.026                3      -4781.271          23.000    26207296.978                3      -3722.911          25.000  
E31  30226890.556   158843367.896       -2491.535          33.000    30226895.083   121711217.196       -1909.201          36.000  
G11  24929940.238   131008180.291        -318.161          44.000    24929935.626   102084484.992        -247.727          43.000  
E24  27006103.358   141918155.929       -1502.478          46.000    27006104.037   108742542.336       -1151.302          54.000  
G24  23627721.731   124164609.455       -2735.628          47.000    23627721.591    96751711.019       -2131.702          47.000  
G12  23712669.121   124611219.004       -1081.730          50.000    23712664.310    97099777.612        -842.758          45.000  
E05  26778041.272   140719568.292       -3189.814          43.000    26778047.433   107824111.060       -2444.042          47.000  
G25  23876837.184   125473847.766         419.026          48.000    23876835.181    97771898.749         326.592          45.000  
E10  27620578.728   145147600.932         859.765          47.000    27620581.388   111217240.778         658.780          51.000  
E25  26976809.177   141764382.779         183.476          46.000    26976811.556   108624808.608         140.538          51.000  
E12  28041276.424   147358255.483        -356.353          43.000    28041274.533   112911086.920        -273.158          45.000  
E14  23978139.659   126006116.319       -5139.904          49.000    23978140.466    96550195.479       -3938.292          54.000  
> 2024 04 15 01 33 00.0080000  0 25                     
S33  42243811.291   221992811.758        -758.590          43.000  
G32  25662772.703   134858781.666        -917.420          47.000    25662771.490   105084718.777        -714.926          44.000  
R14  25555667.551   136226112.361       -3214.746          50.000    25555666.911   105953716.566       -2500.350          43.000  
R17  22424354.149   119997759.542       -2017.011          50.000    22424350.152    93331821.952       -1568.794          51.000  
R16  23601855.671   126077030.009        1515.449          52.000    23601853.357    98059823.911        1178.772          49.000  
E11  27188547.214   142877122.797        1871.023          43.000    27188547.375   109477488.069        1433.693          45.000  
G06  26136256.208   137346908.856       -2418.311          37.000    26136253.089   107023813.762       -1884.271          39.000  
G29  24497645.333   128736351.543        1741.058          48.000    24497644.136   100314298.959        1356.443          44.000  
S31  41290955.892   216985518.813        -758.033          44.000  
E03  28260944.464   148512311.703       -1109.832          46.000    28260948.137   113795093.427        -850.364          49.000  
R15  22624682.875   120899670.782       -1089.484          51.000    22624679.731    94033249.176        -847.308          51.000  
R18  22556264.641   120406945.573        1992.571          51.000    22556264.344    93650132.980        1549.730          51.000  
R19  25659866.061   137262980.064        3749.800          36.000    25659884.545   106759605.842        2916.708          41.000  
R24  26234191.001                3      -4796.493          19.000    26234163.452                3      -3727.450          23.000  
E31  30241118.519   158918115.084       -2491.782          36.000    30241120.394   121768490.925       -1909.416          37.000  
G11  24931809.079   131018002.217        -336.777          45.000    24931806.124   102092138.499        -262.372          45.000  
E24  27014688.012   141963261.580       -1504.318          46.000    27014687.250   108777103.798       -1152.676          54.000  
G24  23643382.281   124246908.028       -2750.910          47.000    23643383.223    96815839.708       -2143.544          47.000  
G12  23718856.594   124643736.027       -1086.117          50.000    23718851.945    97125115.569        -846.301          45.000  
E05  26796267.405   140815346.454       -3195.306          43.000    26796273.214   107897499.296       -2448.442          47.000  
G25  23874454.109   125461322.462         415.975          49.000    23874451.664    97762138.821         324.280          44.000  
E10  27615703.721   145121983.971         848.062          47.000    27615706.205   111197612.283         649.720          50.000  
E25  26975766.025   141758900.923         181.929          46.000    26975768.296   108620608.250         139.406          51.000  
E12  28043350.805   147369162.146        -370.674          42.000    28043349.978   112919444.032        -284.100          45.000  
E14  24007504.226   126160431.577       -5147.800          49.000    24007505.531    96668437.071       -3944.423          54.000  
> 2024 04 15 01 33 30.0080000  0 25                     
S33  42248142.155   222015572.169        -759.085          43.000  
G32  25668061.571   134886579.261        -935.870          45.000    25668061.255   105106379.168        -729.349          44.000  
R14  25573778.536   136322662.857       -3222.268          50.000    25573779.597   106028811.260       -2506.092          44.000  
R17  22435736.212   120058664.653       -2043.384          50.000    22435730.991    93379192.624       -1589.377          51.000  
R16  23593352.101   126031607.131        1512.523          51.000    23593349.217    98024495.048        1176.425          48.000  
E11  27177879.815   142821069.457        1865.418          42.000    27177880.265   109434538.366        1429.351          44.000  
G06  26150110.471   137419715.592       -2435.919          35.000    26150108.268   107080546.371       -1898.151          39.000  
G29  24487742.032   128684307.247        1728.448          49.000    24487740.787   100273745.095        1346.841          45.000  
S31  41295283.895   217008262.620        -758.200          44.000  
E03  28267318.535   148545808.307       -1123.465          45.000    28267322.183   113820759.619        -860.892          49.000  
R15  22630826.734   120932505.747       -1099.787          51.000    22630824.424    94058787.468        -855.453          51.000  
R18  22545126.005   120347487.104        1971.055          51.000    22545125.727    93603887.618        1533.080          51.000  
R19  25638844.168   137150532.639        3745.607          36.000    25638862.962   106672147.009        2913.617          41.000  
R24  26261110.947                3      -4802.827          22.000    26261083.616                3      -3734.197          15.000  
E31  30255344.455   158992872.436       -2492.697          37.000    30255345.836   121825772.495       -1909.822          35.000  
G11  24933784.309   131028382.625        -355.603          46.000    24933781.979   102100227.164        -276.885          45.000  
E24  27023281.356   142008420.798       -1506.406          46.000    27023280.546   108811706.319       -1154.293          54.000  
G24  23659131.267   124329663.697       -2766.417          48.000    23659131.507    96880324.580       -2155.607          48.000  
G12  23725069.850   124676384.495       -1090.784          50.000    23725064.472    97150555.946        -849.862          45.000  
E05  26814526.063   140911292.932       -3201.412          43.000    26814531.367   107971016.485       -2452.878          47.000  
G25  23872088.530   125448893.198         412.499          49.000    23872086.867    97752453.706         321.416          45.000  
E10  27610896.520   145096719.502         835.907          47.000    27610898.079   111178253.843         640.566          50.000  
E25  26974730.614   141753460.769         180.590          46.000    26974733.113   108616439.858         138.200          51.000  
E12  28045508.926   147380498.501        -385.259          43.000    28045507.104   112928130.353        -295.262          45.000  
E14  24036914.774   126314981.494       -5155.712          49.000    24036915.321    96786858.458       -3950.513          54.000  
> 2024 04 15 01 34 00.0080000  0 25                     
S33  42252472.843   222038331.322        -758.974          42.000  
G32  25673456.137   134914925.087        -954.200          46.000    25673455.150   105128466.770        -743.741          44.000  
R14  25591933.366   136419433.704       -3229.734          50.000    25591933.959   106104077.355       -2512.195          45.000  
R17  22447264.841   120120356.907       -2069.817          51.000    22447259.915    93427175.523       -1609.917          51.000  
R16  23584864.333   125986265.909        1509.710          51.000    23584860.914    97989229.708        1174.150          48.000  
E11  27167247.187   142765195.230        1859.434          43.000    27167247.580   109391725.888        1424.807          44.000  
G06  26164062.386   137493035.510       -2452.661          37.000    26164060.850   107137678.777       -1911.310          39.000  
G29  24477908.632   128632635.405        1715.963          49.000    24477907.888   100233481.451        1337.101          45.000  
S31  41299611.645   217031005.438        -758.325          43.000  
E03  28273769.805   148579708.431       -1137.009          46.000    28273773.153   113846734.978        -871.212          49.000  
R15  22637028.913   120965647.950       -1110.159          51.000    22637026.543    94084564.725        -863.447          51.000  
R18  22534107.691   120288668.905        1949.625          52.000    22534106.522    93558140.227        1516.330          50.000  
R19  25617845.541   137038206.425        3741.613          38.000    25617864.588   106584782.525        2910.462          42.000  
R24  26288054.778                3      -4813.996          21.000    26288041.309                3      -3749.240          17.000  
E31  30269570.298   159067641.187       -2492.654          35.000    30269573.526   121883062.874       -1909.903          35.000  
G11  24935866.784   131039323.433        -374.327          44.000    24935862.522   102108752.490        -291.847          43.000  
E24  27031884.271   142053634.646       -1508.223          45.000    27031884.660   108846350.712       -1155.815          54.000  
G24  23674966.468   124412876.132       -2781.521          48.000    23674966.360    96945165.427       -2167.452          47.000  
G12  23731307.782   124709164.959       -1095.100          49.000    23731302.107    97176099.182        -853.422          45.000  
E05  26832814.893   141007406.517       -3206.941          42.000    26832821.656   108044661.714       -2457.119          48.000  
G25  23869742.103   125436561.139         409.188          48.000    23869740.226    97742844.323         318.876          45.000  
E10  27606156.701   145071809.884         824.114          47.000    27606158.157   111159167.308         631.383          50.000  
E25  26973703.778   141748063.070         178.791          46.000    26973705.871   108612303.974         137.087          51.000  
E12  28047747.882   147392265.948        -399.687          42.000    28047746.959   112937147.010        -306.273          46.000  
E14  24066368.813   126469762.139       -5163.562          49.000    24066369.214    96905456.636       -3956.486          54.000  
> 2024 04 15 01 34 30.0080000  0 25                     
S33  42256804.006   222061091.584        -758.575          42.000  
G32  25678954.339   134943821.443        -972.260          47.000    25678954.803   105150983.363        -757.513          43.000  
R14  25610128.452   136516428.479       -3236.699          49.000    25610130.438   106179517.627       -2517.586          46.000  
R17  22458942.202   120182838.069       -2095.694          51.000    22458936.264    93475771.984       -1630.070          51.000  
R16  23576392.970   125941010.984        1507.140          52.000    23576388.946    97954031.451        1172.288          48.000  
E11  27156649.828   142709505.391        1853.194          43.000    27156649.746   109349054.669        1420.065          44.000  
G06  26178113.612   137566870.145       -2469.464          40.000    26178110.395   107195212.221       -1924.481          40.000  
G29  24468147.859   128581339.299        1703.728          50.000    24468146.211   100193510.607        1327.574          45.000  
S31  41303939.753   217053749.576        -757.971          44.000  
E03  28280297.942   148614014.662       -1150.071          45.000    28280301.281   113873021.511        -881.397          48.000  
R15  22643289.767   120999101.907       -1120.252          52.000    22643286.984    94110584.454        -871.340          51.000  
R18  22523210.171   120230497.592        1928.375          52.000    22523209.111    93512895.988        1499.740          50.000  
R19  25596870.751   136926008.670        3737.835          37.000    25596889.861   106497517.994        2907.222          42.000  
R24  26315083.362                3      -4820.641          17.000    26315048.327                3      -3747.971          12.000  
E31  30283802.378   159142424.996       -2492.657          38.000    30283805.040   121940364.697       -1910.116          36.000  
G11  24938055.315   131050828.781        -392.902          44.000    24938051.007   102117717.716        -306.093          42.000  
E24  27040499.497   142098906.558       -1509.825          46.000    27040499.759   108881039.572       -1156.903          54.000  
G24  23690887.654   124496547.517       -2796.581          47.000    23690887.543    97010363.890       -2179.260          46.000  
G12  23737570.923   124742080.526       -1099.315          49.000    23737565.371    97201747.686        -856.641          45.000  
E05  26851136.614   141103688.414       -3212.180          42.000    26851143.716   108118435.877       -2461.313          47.000  
G25  23867414.382   125424329.748         406.049          48.000    23867412.214    97733313.402         316.538          44.000  
E10  27601485.366   145047259.842         812.408          48.000    27601486.426   111140356.302         622.471          50.000  
E25  26972685.313   141742710.924         177.792          46.000    26972687.434   108608203.027         136.193          51.000  
E12  28050069.318   147404468.080        -414.009          42.000    28050069.102   112946496.735        -317.117          46.000  
E14  24095866.199   126624771.929       -5170.604          49.000    24095866.359    97024230.390       -3961.996          54.000  
> 2024 04 15 01 35 00.0080000  0 26                     
S33  42261135.322   222083852.155        -759.047          42.000  
G32  25684557.857   134973266.220        -991.057          46.000    25684558.596   105173927.269        -772.050          44.000  
R14  25628365.921   136613645.648       -3244.717          49.000    25628368.563   106255130.912       -2523.576          47.000  
R17  22470764.246   120246103.903       -2122.204          51.000    22470759.648    93524978.777       -1650.649          51.000  
R16  23567937.111   125895842.845        1503.857          52.000    23567933.890    97918900.737        1169.606          49.000  
E11  27146086.866   142654000.734        1846.676          43.000    27146087.355   109306525.368        1414.686          45.000  
G06  26192260.741   137641216.704       -2487.189          39.000    26192258.489   107253144.607       -1937.940          40.000  
G29  24458458.035   128530419.624        1690.694          49.000    24458455.490   100153833.062        1317.488          44.000  
S31  41308267.987   217076494.153        -758.570          44.000  
E03  28286903.479   148648725.140       -1164.234          46.000    28286905.871   113899617.789        -891.963          47.000  
R15  22649608.739   121032867.805       -1131.146          52.000    22649605.933    94136846.810        -879.736          51.000  
R18  22512433.770   120172975.279        1906.337          52.000    22512432.813    93468156.498        1482.604          49.000  
R19  25575920.304   136813942.402        3733.061          38.000    25575940.094   106410355.831        2903.537          43.000  
R24  26342122.620                3      -4828.047          19.000    26342103.919                3      -3750.311          16.000  
E31  30298037.401   159217223.034       -2494.362          37.000    30298037.542   121997677.357       -1911.374          35.000  
G11  24940351.670   131062898.434        -412.069          44.000    24940347.847   102127122.722        -320.977          43.000  
E24  27049124.505   142144235.499       -1512.142          46.000    27049125.793   108915772.157       -1158.762          54.000  
G24  23706896.744   124580675.509       -2812.157          48.000    23706895.664    97075918.111       -2191.453          46.000  
G12  23743859.653   124775130.453       -1104.207          49.000    23743854.731    97227500.894        -860.427          44.000  
E05  26869489.731   141200135.249       -3217.979          42.000    26869497.094   108192336.437       -2465.653          47.000  
G25  23865105.966   125412198.003         402.444          48.000    23865103.232    97723860.126         313.555          45.000  
E10  27596882.449   145023069.685         799.983          48.000    27596882.886   111121821.048         612.919          50.000  
E25  26971674.648   141737403.051         175.805          46.000    26971677.156   108604135.981         134.668          51.000  
E12  28052474.074   147417104.172        -428.901          42.000    28052473.398   112956178.984        -328.635          46.000  
E14  24125405.572   126780004.895       -5178.500          49.000    24125406.422    97143175.154       -3967.928          54.000  
R07                                                                  25406685.975                3       -142.511          14.000  
> 2024 04 15 01 35 30.0080000  0 25                     
S33  42265468.529   222106624.180        -759.651          42.000  
G32  25690267.497   135003268.893       -1009.478          46.000    25690267.453   105197305.965        -786.684          43.000  
R14  25646648.793   136711095.950       -3252.418          50.000    25646651.769   106330925.450       -2529.620          49.000  
R17  22482734.989   120310163.452       -2148.579          51.000    22482730.648    93574802.904       -1671.094          51.000  
R16  23559498.982   125850773.854        1500.419          52.000    23559496.936    97883847.093        1167.064          49.000  
E11  27135562.541   142598693.889        1840.104          43.000    27135562.939   109264147.614        1409.877          45.000  
G06  26206507.021   137716084.188       -2504.224          39.000    26206504.925   107311482.923       -1951.477          41.000  
G29  24448841.858   128479887.639        1677.639          49.000    24448839.701   100114457.643        1307.262          44.000  
S31  41312598.026   217099249.479        -759.001          44.000  
E03  28293588.165   148683849.699       -1177.903          46.000    28293590.107   113926531.370        -902.540          48.000  
R15  22655988.308   121066957.848       -1141.969          51.000    22655984.948    94163361.287        -888.098          51.000  
R18  22501782.384   120116115.896        1884.057          52.000    22501780.536    93423932.622        1465.491          49.000  
R19  25554998.951   136702022.130        3728.027          37.000    25555017.983   106323307.255        2899.716          43.000  
R24  26369233.313                3      -4832.446          20.000    26369195.499                3      -3795.319          13.000  
E31  30312274.350   159292046.088       -2494.873          35.000    30312275.798   122055009.252       -1911.447          35.000  
G11  24942758.777   131075543.937        -431.284          45.000    24942754.710   102136976.351        -336.033          43.000  
E24  27057763.201   142189632.220       -1514.507          46.000    27057764.200   108950556.645       -1160.533          54.000  
G24  23722994.920   124665269.386       -2827.876          47.000    23722993.130    97141835.373       -2203.546          46.000  
G12  23750175.940   124808324.922       -1109.082          49.000    23750171.498    97253366.721        -864.066          45.000  
E05  26887875.859   141296755.531       -3223.723          42.000    26887884.064   108266369.907       -2470.120          48.000  
G25  23862818.223   125400176.683         398.674          48.000    23862815.784    97714492.895         310.660          45.000  
E10  27592350.474   144999251.403         787.540          49.000    27592350.507   111103570.732         603.518          50.000  
E25  26970674.774   141732149.800         173.907          46.000    26970677.592   108600110.799         133.328          51.000  
E12  28054963.623   147430185.200        -443.663          42.000    28054962.467   112966202.156        -340.011          46.000  
E14  24154989.148   126935466.787       -5185.959          49.000    24154989.854    97262295.329       -3973.672          54.000  
> 2024 04 15 01 36 00.0080000  0 25                     
S33  42269804.460   222129409.901        -759.817          42.000  
G32  25696083.123   135033830.404       -1028.127          46.000    25696082.436   105221120.119        -801.231          42.000  
R14  25664973.684   136808781.820       -3260.354          50.000    25664976.197   106406903.235       -2535.743          47.000  
R17  22494854.136   120375015.842       -2175.176          50.000    22494849.454    93625243.698       -1691.770          51.000  
R16  23551082.000   125805807.775        1496.981          53.000    23551079.324    97848873.491        1164.229          49.000  
E11  27125075.444   142543588.811        1833.451          42.000    27125076.254   109221924.470        1404.739          45.000  
G06  26220853.547   137791472.955       -2521.802          39.000    26220851.252   107370227.441       -1965.222          41.000  
G29  24439300.076   128429746.337        1664.567          48.000    24439297.903   100075386.671        1296.910          43.000  
S31  41316930.798   217122017.362        -759.313          44.000  
E03  28300350.946   148719389.628       -1191.752          46.000    28300353.642   113953763.243        -913.162          48.000  
R15  22662428.799   121101375.365       -1152.889          51.000    22662425.839    94190130.444        -896.689          50.000  
R18  22491254.917   120059924.745        1861.635          51.000    22491253.344    93380228.461        1448.071          48.000  
R19  25534104.277   136590253.500        3723.116          37.000    25534123.501   106236376.704        2895.469          44.000  
R24  26396388.961                3      -4841.930          14.000    26396343.159                3      -3764.908          16.000  
E31  30326518.751   159366896.562       -2495.764          36.000    30326519.921   122112362.139       -1912.182          37.000  
G11  24945275.225   131088768.105        -450.615          45.000    24945270.508   102147280.951        -350.982          42.000  
E24  27066416.386   142235098.882       -1516.902          46.000    27066416.220   108985394.718       -1162.345          54.000  
G24  23739181.080   124750329.942       -2843.348          48.000    23739180.653    97208116.271       -2215.604          47.000  
G12  23756521.110   124841666.588       -1114.056          49.000    23756516.561    97279347.264        -868.201          45.000  
E05  26906296.485   141393549.139       -3229.797          44.000    26906303.635   108340536.171       -2474.502          48.000  
G25  23860551.663   125388267.981         394.733          48.000    23860549.906    97705213.409         307.731          46.000  
E10  27587889.006   144975808.463         774.934          49.000    27587889.493   111085608.027         593.812          50.000  
E25  26969686.618   141726953.077         172.083          46.000    26969688.716   108596128.925         131.912          51.000  
E12  28057538.809   147443713.452        -458.562          43.000    28057536.679   112976567.986        -351.324          45.000  
E14  24184615.548   127091154.920       -5193.510          48.000    24184616.326    97381588.844       -3979.446          54.000  
> 2024 04 15 01 36 30.0080000  0 25                     
S33  42274142.695   222152205.847        -760.173          43.000  
G32  25702004.158   135064946.614       -1046.612          47.000    25702003.362   105245366.465        -815.450          42.000  
R14  25683343.562   136906699.861       -3267.881          51.000    25683345.225   106483061.627       -2541.739          46.000  
R17  22507120.688   120440655.851       -2201.227          50.000    22507115.867    93676297.074       -1712.090          51.000  
R16  23542682.886   125760942.902        1493.683          51.000    23542679.969    97813978.664        1161.710          49.000  
E11  27114627.302   142488684.454        1826.534          41.000    27114628.466   109179855.093        1399.630          45.000  
G06  26235296.274   137867378.146       -2538.757          37.000    26235295.101   107429374.344       -1978.210          42.000  
G29  24429831.063   128379993.718        1651.786          47.000    24429829.616   100036618.508        1286.958          43.000  
S31  41321265.428   217144795.355        -759.434          43.000  
E03  28307191.843   148755341.082       -1205.199          46.000    28307195.100   113981310.408        -923.397          49.000  
R15  22668930.740   121136118.510       -1163.639          52.000    22668927.644    94217152.902        -905.063          50.000  
R18  22480853.231   120004401.736        1839.526          51.000    22480851.654    93337043.986        1430.681          48.000  
R19  25513239.626   136478637.414        3717.867          39.000    25513257.774   106149564.925        2891.634          45.000  
E31  30340765.659   159441771.615       -2496.216          35.000    30340770.083   122169733.944       -1912.901          40.000  
G11  24947901.457   131102568.719        -469.654          46.000    24947895.621   102158034.709        -366.267          41.000  
E24  27075081.616   142280632.463       -1518.834          47.000    27075080.801   109020284.105       -1163.875          53.000  
G24  23755455.340   124835852.849       -2858.507          47.000    23755455.309    97274757.427       -2227.364          47.000  
G12  23762893.949   124875151.542       -1118.627          50.000    23762888.594    97305439.434        -871.810          46.000  
E05  26924747.257   141490510.832       -3234.873          42.000    26924754.683   108414831.235       -2478.564          47.000  
G25  23858306.586   125376469.027         391.295          48.000    23858304.947    97696019.471         304.989          46.000  
E10  27583498.692   144952739.163         762.605          49.000    27583498.951   111067931.599         584.320          49.000  
E25  26968708.333   141721809.609         170.534          46.000    26968709.758   108592187.852         130.630          51.000  
E12  28060198.106   147457686.347        -473.228          43.000    28060195.076   112987274.501        -362.619          45.000  
E14  24214283.444   127247061.370       -5200.548          48.000    24214284.335    97501049.660       -3984.823          55.000  
R24                                                                  26423519.686                3      -3777.852          18.000  
> 2024 04 15 01 37 00.0080000  0 25                     
S33  42278481.172   222175005.615        -760.230          42.000  
G32  25708030.358   135096612.653       -1064.584          48.000    25708030.209   105270041.274        -829.539          42.000  
R14  25701754.793   137004846.722       -3275.364          50.000    25701757.555   106559397.929       -2547.491          46.000  
R17  22519532.698   120507077.040       -2226.907          50.000    22519527.826    93727958.000       -1732.042          50.000  
R16  23534303.133   125716177.111        1490.585          52.000    23534300.100    97779160.861        1159.413          50.000  
E11  27104217.514   142433978.915        1820.260          42.000    27104218.087   109137938.108        1394.625          45.000  
G06  26249837.497   137943794.275       -2555.377          38.000    26249836.855   107488919.436       -1991.443          42.000  
G29  24420437.003   128330627.015        1639.104          47.000    24420434.650    99998151.077        1277.246          42.000  
S31  41325600.562   217167579.136        -759.413          43.000  
E03  28314109.875   148791699.598       -1218.586          44.000    28314114.106   114009169.465        -933.746          49.000  
R15  22675492.853   121171185.014       -1174.210          52.000    22675490.078    94244426.815        -913.211          51.000  
R18  22470578.027   119949546.292        1817.492          52.000    22470575.648    93294378.748        1413.553          48.000  
R19  25492402.802   136367174.158        3713.036          39.000    25492419.225   106062872.124        2887.803          44.000  
E31  30355018.734   159516667.900       -2496.885          35.000    30355020.134   122227121.946       -1912.867          38.000  
G11  24950635.910   131116942.872        -488.687          46.000    24950630.916   102169235.384        -380.799          41.000  
E24  27083757.836   142326229.462       -1520.892          47.000    27083757.555   109055222.078       -1165.422          54.000  
G24  23771817.563   124921833.084       -2873.591          47.000    23771816.538    97341754.975       -2239.160          46.000  
G12  23769292.163   124908776.629       -1123.158          49.000    23769287.524    97331640.797        -875.154          46.000  
E05  26943229.647   141587634.727       -3239.908          42.000    26943237.071   108489250.615       -2482.699          47.000  
G25  23856081.786   125364776.294         387.948          48.000    23856079.933    97686908.271         302.423          46.000  
E10  27579180.295   144930041.174         750.449          50.000    27579179.491   111050539.690         575.084          49.000  
E25  26967738.332   141716715.480         169.094          46.000    26967740.291   108588284.606         129.504          51.000  
E12  28062939.736   147472100.300        -487.742          41.000    28062938.211   112998318.990        -373.720          45.000  
E14  24243991.547   127403177.728       -5207.249          48.000    24243992.228    97620671.311       -3989.961          54.000  
R24                                                                  26450757.194                3      -3765.863          18.000  
> 2024 04 15 01 37 30.0080000  0 25                     
S33  42282821.900   222197816.352        -760.477          43.000  
G32  25714161.670   135128830.869       -1083.260          48.000    25714161.952   105295146.310        -844.131          43.000  
R14  25720210.593   137103225.596       -3283.376          49.000    25720214.012   106635914.740       -2553.719          48.000  
R17  22532090.391   120574280.401       -2253.087          50.000    22532086.400    93780227.338       -1752.454          51.000  
R16  23525942.066   125671515.819        1486.939          52.000    23525939.511    97744424.335        1156.421          49.000  
E11  27093846.844   142379477.869        1813.197          43.000    27093846.480   109096177.754        1389.320          45.000  
G06  26264477.304   138020723.280       -2572.791          40.000    26264474.653   107548864.123       -2004.877          40.000  
G29  24411117.225   128281650.922        1625.904          48.000    24411115.402    99959988.018        1266.977          43.000  
S31  41329937.924   217190371.595        -760.078          44.000  
E03  28321107.231   148828467.883       -1232.453          45.000    28321110.433   114037342.506        -944.346          48.000  
R15  22682116.125   121206579.589       -1185.438          51.000    22682113.267    94271955.927        -922.004          50.000  
R18  22460428.334   119895365.103        1794.657          52.000    22460425.284    93252237.919        1395.760          48.000  
R19  25471595.692   136255871.203        3707.296          40.000    25471611.972   105976304.190        2883.136          45.000  
R24  26478023.423                3      -4877.625          16.000    26478037.477                3      -3781.654          16.000  
E31  30369275.271   159591589.224       -2498.007          34.000    30369277.788   122284529.096       -1913.819          40.000  
G11  24953481.020   131131894.855        -508.073          45.000    24953477.932   102180886.324        -395.924          42.000  
E24  27092447.013   142371893.525       -1523.302          47.000    27092447.237   109090211.434       -1167.230          54.000  
G24  23788266.506   125008272.888       -2889.113          47.000    23788265.873    97409110.612       -2251.323          47.000  
G12  23775718.015   124942545.049       -1128.037          49.000    23775713.006    97357953.872        -879.052          46.000  
E05  26961743.282   141684922.293       -3245.617          42.000    26961750.836   108563795.374       -2486.926          46.000  
G25  23853877.217   125353193.467         384.189          47.000    23853875.787    97677882.730         299.438          46.000  
E10  27574931.345   144907719.373         737.687          49.000    27574931.793   111033436.039         565.234          49.000  
E25  26966780.021   141711674.124         167.119          47.000    26966780.608   108584421.781         128.012          51.000  
E12  28065767.117   147486959.262        -502.525          42.000    28065765.935   113009704.475        -385.112          46.000  
E14  24273739.492   127559502.814       -5214.342          49.000    24273739.945    97740452.892       -3995.424          55.000  
> 2024 04 15 01 38 00.0080000  0 25                     
S33  42287164.243   222220634.967        -760.987          43.000  
G32  25720396.963   135161599.773       -1101.751          48.000    25720397.139   105320680.455        -858.245          43.000  
R14  25738710.307   137201836.148       -3291.053          47.000    25738713.406   106712611.754       -2559.631          46.000  
R17  22544795.346   120642263.209       -2279.283          52.000    22544790.765    93833102.871       -1772.688          50.000  
R16  23517601.696   125626960.118        1483.297          52.000    23517598.550    97709769.935        1153.624          50.000  
E11  27083514.234   142325182.852        1806.348          43.000    27083514.275   109054575.287        1384.124          45.000  
G06  26279213.499   138098162.922       -2590.015          39.000    26279210.896   107609206.749       -2018.225          41.000  
G29  24401871.679   128233065.655        1612.813          48.000    24401870.031    99922129.481        1256.571          44.000  
S31  41334276.959   217213173.884        -760.336          44.000  
E03  28328181.973   148865644.844       -1246.185          45.000    28328184.086   114065828.709        -954.831          47.000  
R15  22688801.742   121242303.281       -1196.518          52.000    22688798.368    94299741.010        -930.605          50.000  
R18  22450404.974   119841860.892        1771.893          52.000    22450402.280    93210623.610        1378.155          49.000  
R19  25450818.556   136144732.329        3701.735          39.000    25450834.571   105889864.038        2878.994          45.000  
R24  26505374.772                3      -4869.972          18.000    26505371.334                3      -3794.906          16.000  
E31  30383536.405   159666535.455       -2498.992          34.000    30383539.529   122341955.432       -1914.577          40.000  
G11  24956437.483   131147425.093        -527.582          47.000    24956434.194   102192987.848        -410.957          44.000  
E24  27101149.279   142417624.509       -1525.758          47.000    27101149.419   109125252.059       -1168.979          54.000  
G24  23804802.217   125095170.566       -2904.326          47.000    23804801.873    97476823.038       -2263.180          46.000  
G12  23782171.001   124976456.613       -1132.943          49.000    23782165.611    97384378.472        -882.830          45.000  
E05  26980287.304   141782370.984       -3251.042          41.000    26980294.501   108638463.597       -2490.967          45.000  
G25  23851693.525   125341720.520         380.409          47.000    23851692.759    97668942.821         296.399          46.000  
E10  27570755.622   144885774.826         725.019          49.000    27570756.285   111016621.451         555.603          50.000  
E25  26965830.290   141706685.046         165.244          47.000    26965831.070   108580599.010         126.650          50.000  
E12  28068679.496   147502263.230        -517.650          42.000    28068677.929   113021430.953        -396.798          46.000  
E14  24303526.134   127716031.630       -5221.084          48.000    24303526.346    97860390.569       -4000.605          55.000  
> 2024 04 15 01 38 30.0080000  0 25                     
S33  42291507.024   222243455.994        -761.002          42.000  
G32  25726735.987   135194911.469       -1119.589          47.000    25726735.693   105346637.589        -872.565          42.000  
R14  25757253.021   137300671.707       -3298.514          49.000    25757253.728   106789483.750       -2565.581          45.000  
R17  22557644.884   120711016.070       -2304.752          51.000    22557639.162    93886577.340       -1792.538          51.000  
R16  23509280.199   125582505.133        1479.839          53.000    23509276.634    97675193.882        1151.030          50.000  
E11  27073220.582   142271089.221        1799.408          43.000    27073220.460   109013127.123        1378.846          45.000  
G06  26294045.613   138176104.816       -2606.909          41.000    26294043.613   107669940.678       -2031.165          42.000  
G29  24392699.609   128184865.434        1599.992          48.000    24392697.489    99884570.999        1246.670          43.000  
S31  41338616.354   217235977.328        -760.333          43.000  
E03  28335332.100   148903222.930       -1259.363          44.000    28335335.432   114094622.274        -964.981          48.000  
R15  22695547.063   121278350.746       -1207.125          51.000    22695544.117    94327777.933        -938.906          50.000  
R18  22440508.225   119789029.836        1749.603          53.000    22440506.081    93169532.880        1360.749          50.000  
R19  25430070.858   136033754.258        3696.384          40.000    25430087.289   105803549.123        2874.879          45.000  
R24  26532750.102                3      -4874.900          19.000    26532751.460                3      -3779.318          14.000  
E31  30397798.080                       -2499.825          31.000    30397805.659   122399396.009       -1914.890          41.000  
G11  24959501.924   131163527.634        -546.594          47.000    24959498.139   102205535.342        -425.939          43.000  
E24  27109863.696   142463415.847       -1527.654          47.000    27109863.471   109160338.937       -1170.441          54.000  
G24  23821424.056   125182518.114       -2919.233          46.000    23821423.377    97544886.025       -2274.701          46.000  
G12  23788650.162   125010504.783       -1137.382          49.000    23788644.978    97410909.536        -886.384          45.000  
E05  26998859.967   141879971.998       -3255.752          40.000    26998867.762   108713248.549       -2494.826          46.000  
G25  23849530.305   125330350.912         377.091          46.000    23849529.212    97660083.405         293.784          46.000  
E10  27566650.586   144864202.211         712.753          49.000    27566651.201   111000091.878         546.057          50.000  
E25  26964888.846   141701741.434         163.945          46.000    26964890.219   108576811.067         125.598          50.000  
E12  28071676.019   147518005.799        -532.315          42.000    28071673.663   113033493.447        -407.795          46.000  
E14  24333349.138   127872752.787       -5227.298          48.000    24333349.392    97980475.634       -4005.381          54.000  
> 2024 04 15 01 39 00.0090000  0 25                     
S33  42295849.909   222266278.464        -761.327          42.000  
G32  25733177.768   135228763.544       -1137.465          47.000    25733177.686   105373015.773        -886.559          42.000  
R14  25775835.757   137399733.044       -3305.875          48.000    25775836.940   106866531.344       -2571.346          45.000  
R17  22570635.494   120780536.216       -2330.279          51.000    22570630.418    93940648.593       -1812.407          50.000  
R16  23500976.562   125538148.623        1476.514          53.000    23500972.784    97640694.422        1148.456          49.000  
E11  27062964.879   142217194.740        1792.637          42.000    27062964.959   108971831.562        1373.558          46.000  
G06  26308973.135   138254547.406       -2622.966          40.000    26308969.540   107731064.821       -2044.068          38.000  
G29  24383600.523   128137047.455        1587.151          49.000    24383598.367    99847310.357        1236.667          44.000  
S31  41342955.867   217258781.769        -760.558          44.000  
E03  28342560.123   148941200.328       -1272.818          44.000    28342562.760   114123721.770        -975.259          48.000  
R15  22702353.464   121314722.172       -1218.023          51.000    22702350.449    94356066.829        -947.445          50.000  
R18  22430736.878   119736870.940        1726.969          53.000    22430734.845    93128964.920        1343.279          49.000  
R19  25409354.022   135922934.953        3690.809          41.000    25409369.076   105717357.891        2870.563          45.000  
R24  26560153.811                3      -4909.102          13.000                                                                  
E31  30412068.958   159816458.1031      -2500.065          32.000    30412074.790   122456851.258       -1915.703          42.000  
G11  24962674.349   131180201.415        -565.552          47.000    24962670.267   102218527.915        -440.807          42.000  
E24  27118588.883   142509266.885       -1529.701          48.000    27118588.590   109195471.560       -1172.141          54.000  
G24  23838131.005   125270314.816       -2934.386          46.000    23838131.100    97613298.999       -2286.505          47.000  
G12  23795155.167   125044688.278       -1141.962          49.000    23795150.020    97437546.027        -889.986          46.000  
E05  27017460.630   141977724.140       -3261.274          38.000    27017470.052   108788149.278       -2498.800          46.000  
G25  23847385.927   125319082.207         373.717          46.000    23847385.081    97651302.620         291.091          46.000  
E10  27562615.683   144842999.844         700.045          49.000    27562616.414   110983845.965         536.455          50.000  
E25  26963956.651   141696840.620         162.305          46.000    26963957.491   108573055.913         124.339          50.000  
E12  28074752.748   147534185.361        -546.985          40.000    28074752.712   113045890.810        -419.095          47.000  
E14  24363208.379   128029664.575       -5233.679          48.000    24363208.225    98100706.761       -4010.263          54.000  
> 2024 04 15 01 39 30.0090000  0 24                     
S33  42300193.926   222289107.924        -761.522          42.000  
G32  25739723.596   135263160.957       -1155.800          48.000    25739722.480   105399818.898        -900.695          41.000  
R14  25794460.905   137499022.470       -3313.564          48.000    25794463.802   106943756.392       -2577.238          46.000  
R17  22583770.250   120850824.998       -2355.779          51.000    22583765.521    93995317.679       -1832.312          51.000  
R16  23492693.178   125493903.740        1472.803          53.000    23492689.731    97606281.751        1145.520          49.000  
E11  27052749.730   142163513.399        1785.774          43.000    27052749.276   108930699.311        1368.337          46.000  
G06  26323995.999   138333492.147       -2639.764          42.000    26323991.214   107792580.233       -2057.167          38.000  
G29  24374575.864   128089624.105        1574.172          49.000    24374573.619    99810357.227        1226.698          43.000  
S31  41347296.814   217281592.866        -760.470          44.000  
E03  28349863.178   148979581.995       -1286.119          44.000    28349866.800   114153131.082        -985.554          49.000  
R15  22709223.116   121351425.040       -1229.052          52.000    22709219.148    94384613.460        -955.900          50.000  
R18  22421094.617   119685399.253        1704.217          53.000    22421092.440    93088931.493        1325.436          49.000  
R19  25388669.227   135812294.501        3685.354          41.000    25388683.872   105631305.915        2865.915          44.000  
E31  30426343.348   159891464.791       -2500.489          35.000    30426348.061   122514323.908       -1916.011          42.000  
G11  24965957.348   131197454.449        -584.782          46.000    24965954.200   102231971.895        -455.901          42.000  
E24  27127326.303   142555183.240       -1531.719          47.000    27127326.048   109230654.240       -1173.622          54.000  
G24  23854923.969   125358561.819       -2949.088          46.000    23854924.272    97682062.860       -2298.252          48.000  
G12  23801687.081   125079013.206       -1146.739          48.000    23801681.676    97464292.733        -893.574          46.000  
E05  27036091.617   142075627.102       -3265.941          39.000    27036100.237   108863165.577       -2502.591          46.000  
G25  23845263.089   125307923.818         370.001          47.000    23845261.371    97642607.794         288.278          46.000  
E10  27558653.731   144822178.913         687.614          49.000    27558654.149   110967892.320         526.882          50.000  
E25  26963033.360   141691991.233         160.764          46.000    26963034.850   108569340.187         123.200          50.000  
E12  28077917.903   147550809.648        -561.769          42.000    28077916.365   113058628.912        -430.390          47.000  
E14  24393102.818   128186760.368       -5239.547          48.000    24393102.427    98221078.878       -4014.721          53.000  
> 2024 04 15 01 40 00.0090000  0 24                     
S33  42304537.490   222311932.596        -761.099          42.000  
G32  25746370.598   135298091.463       -1173.324          47.000    25746370.296   105427037.401        -914.378          42.000  
R14  25813129.599   137598530.494       -3320.654          50.000    25813131.755   107021151.403       -2582.728          46.000  
R17  22597046.058   120921869.503       -2380.776          50.000    22597041.840    94050574.558       -1851.743          51.000  
R16  23484428.197   125449758.182        1469.745          52.000    23484425.502    97571946.323        1143.109          48.000  
E11  27042572.555   142110033.335        1779.368          43.000    27042572.001   108889721.256        1363.433          45.000  
G06  26339112.092   138412927.706       -2656.097          42.000    26339107.971   107854478.075       -2069.741          39.000  
G29  24365623.841   128042582.679        1561.644          49.000    24365621.785    99773701.689        1216.874          44.000  
S31  41351636.862   217304399.723        -760.265          44.000  
E03  28357241.931   149018356.390       -1298.992          44.000    28357245.528   114182841.249        -995.297          49.000  
R15  22716149.919   121388449.553       -1239.651          51.000    22716147.863    94413410.325        -964.088          50.000  
R18  22411578.550   119634603.755        1681.776          53.000    22411577.379    93049423.935        1308.096          50.000  
R19  25368015.637   135701820.758        3679.497          41.000    25368029.767   105545383.705        2861.784          44.000  
E31  30440621.253   159966485.001       -2501.068          35.000    30440623.905   122571806.928       -1916.459          44.000  
G11  24969348.771   131215275.861        -603.631          47.000    24969344.557   102245858.762        -470.470          42.000  
E24  27136074.585   142601154.522       -1533.382          48.000    27136073.906   109265878.984       -1174.956          53.000  
G24  23871800.449   125447248.669       -2963.742          46.000    23871800.219    97751169.441       -2309.273          47.000  
G12  23808244.031   125113468.636       -1150.844          50.000    23808238.565    97491141.151        -896.770          46.000  
E05  27054747.271   142173670.017       -3270.214          36.000    27054757.572   108938289.093       -2505.998          46.000  
G25  23843158.324   125296863.585         367.008          46.000    23843156.162    97633989.447         285.934          46.000  
E10  27554761.020   144801727.910         675.575          48.000    27554762.750   110952222.159         517.597          50.000  
E25  26962117.642   141687180.968         159.633          45.000    26962120.001   108565654.432         122.346          51.000  
E12  28081162.155   147567867.283        -575.866          41.000    28081162.042   113071699.107        -441.260          47.000  
E14  24423029.464   128344028.715       -5245.201          47.000    24423029.826    98341583.208       -4018.987          53.000  
> 2024 04 15 01 40 30.0090000  0 24                     
S33  42308880.406   222334753.372        -760.690          43.000  
G32  25753118.475   135333554.119       -1191.237          48.000    25753118.263   105454670.587        -928.419          40.000  
R14  25831838.179   137698257.432       -3328.197          50.000    25831840.229   107098716.670       -2588.645          46.000  
R17  22610462.756   120993667.580       -2406.019          50.000    22610459.026    94106417.537       -1871.305          50.000  
R16  23476182.880   125405714.364        1466.132          52.000    23476180.535    97537690.071        1140.375          49.000  
E11  27032433.381   142056756.859        1772.328          43.000    27032433.396   108848899.224        1358.016          45.000  
G06  26354320.444   138492852.536       -2672.469          42.000    26354318.431   107916757.263       -2082.152          41.000  
G29  24356744.980   127995924.230        1548.707          49.000    24356743.175    99737344.565        1206.785          43.000  
S31  41355975.969   217327203.040        -760.408          42.000  
E03  28364694.301   149057522.905       -1312.353          44.000    28364698.524   114212851.950       -1005.485          49.000  
R15  22723139.971   121425797.373       -1250.531          52.000    22723137.096    94442458.622        -972.681          50.000  
R18  22402190.389   119584487.626        1658.958          53.000    22402188.162    93010444.841        1290.212          49.000  
R19  25347394.461   135591517.380        3673.358          41.000    25347408.085   105459594.131        2857.285          44.000  
E31  30454901.650   160041519.480       -2501.496          38.000    30454901.587   122629300.820       -1916.673          41.000  
G11  24972847.875   131233666.663        -622.794          46.000    24972844.967   102260189.309        -485.398          43.000  
E24  27144833.479   142647181.248       -1535.394          47.000    27144832.316   109301146.230       -1176.417          53.000  
G24  23888760.560   125536374.272       -2978.365          46.000    23888760.683    97820617.925       -2320.843          47.000  
G12  23814825.736   125148055.245       -1155.276          50.000    23814820.089    97518091.772        -900.316          46.000  
E05  27073431.664   142271851.065       -3275.682          37.000    27073441.602   109013518.417       -2509.556          47.000  
G25  23841072.053   125285902.101         363.439          47.000    23841069.856    97625448.077         283.167          46.000  
E10  27550940.531   144781648.598         662.779          48.000    27550941.892   110936836.777         507.941          51.000  
E25  26961210.581   141682410.014         158.184          45.000    26961211.998   108561998.814         121.244          51.000  
E12  28084491.399   147585358.874        -590.332          42.000    28084490.781   113085101.760        -452.426          48.000  
E14  24452988.677   128501465.429       -5250.843          48.000    24452988.824    98462216.572       -4023.348          53.000  
> 2024 04 15 01 41 00.0090000  0 25                     
S33  42313221.796   222357569.700        -760.946          42.000  
G32  25759968.296   135369546.290       -1209.083          47.000    25759967.650   105482716.372        -942.074          41.000  
R14  25850588.215   137798201.980       -3335.520          50.000    25850590.214   107176451.213       -2594.266          47.000  
R17  22624020.217   121066215.270       -2431.304          49.000    22624016.181    94162843.544       -1890.992          50.000  
R16  23467957.503   125361772.547        1462.616          52.000    23467954.196    97503513.149        1137.585          48.000  
E11  27022334.329   142003684.558        1765.120          43.000    27022334.175   108808233.631        1352.516          45.000  
G06  26369622.498   138573263.526       -2688.752          43.000    26369620.165   107979415.234       -2095.255          40.000  
G29  24347939.096   127949648.280        1535.686          48.000    24347937.366    99701285.480        1196.616          44.000  
S31  41360313.998   217350000.222        -760.156          44.000  
E03  28372222.434   149097079.399       -1325.414          44.000    28372225.970   114243161.410       -1015.597          49.000  
R15  22730188.872   121463468.459       -1261.473          51.000    22730186.622    94471758.373        -981.170          50.000  
R18  22392929.106   119535052.506        1636.043          53.000    22392926.948    92971995.409        1272.483          48.000  
R19  25326805.286   135481387.258        3667.650          41.000    25326818.953   105373939.426        2852.494          46.000  
E31  30469180.788   160116567.143       -2502.195          34.000    30469182.790   122686804.893       -1917.447          42.000  
G11  24976456.490   131252626.116        -641.948          47.000    24976451.014   102274962.928        -500.226          42.000  
E24  27153602.248   142693262.274       -1537.315          47.000    27153601.346   109336455.086       -1177.977          53.000  
G24  23905803.398   125625935.864       -2992.845          45.000    23905803.780    97890406.131       -2332.344          47.000  
G12  23821431.463   125182771.521       -1159.852          50.000    23821426.534    97545143.437        -903.745          46.000  
E05  27092139.695   142370166.715       -3279.452          34.000    27092150.677   109088850.917       -2513.257          47.000  
G25  23839004.269   125275038.241         359.974          46.000    23839002.126    97616982.754         280.623          45.000  
E10  27547190.563   144761940.858         650.279          48.000    27547191.454   110921736.093         498.276          50.000  
E25  26960309.917   141677676.947         156.740          46.000    26960311.152   108558372.201         120.101          51.000  
E12  28087901.935   147603283.245        -605.220          41.000    28087901.825   113098836.063        -463.576          48.000  
E14  24482978.108   128659064.618       -5256.132          47.000    24482979.078    98582974.430       -4027.557          53.000  
G28                                                                  27053202.478                3       2066.664          26.000  
> 2024 04 15 01 41 30.0090000  0 25                     
S33  42317564.378   222380390.997        -761.049          41.000  
G32  25766919.941   135406076.887       -1226.580          46.000    25766918.767   105511181.761        -955.875          42.000  
R14  25869380.619   137898374.502       -3343.012          50.000    25869382.313   107254363.047       -2600.160          46.000  
R17  22637718.166   121139519.736       -2456.112          50.000    22637714.623    94219858.148       -1910.360          50.000  
R16  23459752.886   125317944.850        1458.978          52.000    23459749.528    97469424.970        1134.882          49.000  
E11  27012276.982   141950828.614        1758.258          44.000    27012275.317   108767733.801        1347.060          44.000  
G06  26385018.635   138654168.988       -2705.133          44.000    26385016.299   108042458.513       -2107.862          40.000  
G29  24339207.210   127903765.997        1522.705          47.000    24339205.972    99665533.186        1186.726          44.000  
S31  41364653.165   217372802.182        -760.166          44.000  
E03  28379826.392   149137035.194       -1338.581          45.000    28379829.020   114273776.843       -1025.689          48.000  
R15  22737301.970   121501474.379       -1272.616          51.000    22737298.891    94501318.521        -989.657          50.000  
R18  22383798.906   119486311.581        1613.048          53.000    22383796.014    92934085.864        1254.577          50.000  
R19  25306250.614   135371444.794        3661.796          40.000    25306264.739   105288430.734        2847.807          46.000  
E31  30483462.968   160191638.337       -2502.682          33.000    30483468.659   122744327.084       -1917.718          44.000  
G11  24980174.616   131272165.029        -661.019          48.000    24980169.636   102290188.106        -515.157          43.000  
E24  27162383.464   142739408.008       -1539.364          48.000    27162382.692   109371813.517       -1179.594          53.000  
G24  23922930.954   125715942.293       -3007.806          45.000    23922930.872    97960540.936       -2343.743          46.000  
G12  23828064.424   125217627.955       -1164.248          49.000    23828059.336    97572304.292        -907.325          46.000  
E05  27110879.579   142468625.202       -3284.677          36.000    27110886.304   109164292.780       -2516.776          46.000  
G25  23836957.621   125264282.588         356.632          46.000    23836955.353    97608601.764         277.983          45.000  
E10  27543512.117   144742616.222         637.685          48.000    27543513.954   110906928.993         488.599          50.000  
E25  26959417.482   141672991.858         155.438          46.000    26959419.284   108554782.376         119.018          51.000  
E12  28091398.104   147621650.899        -619.836          42.000    28091396.914   113112910.023        -474.861          48.000  
E14  24513000.701   128816832.085       -5261.854          47.000    24513001.199    98703861.202       -4031.784          53.000  
G28                                                                  27038058.233                        2066.200          26.000  
> 2024 04 15 01 42 00.0090000  0 25                     
S33  42321907.442   222403214.873        -760.868          41.000  
G28  27022921.844   142006458.6873       2647.765          31.000    27022931.998                3       2062.897          21.000  
G32  25773972.688   135443142.942       -1244.510          45.000    25773972.515   105540064.331        -969.643          42.000  
R14  25888213.677   137998773.049       -3350.510          48.000    25888216.805   107332450.658       -2605.817          46.000  
R17  22651558.356   121213576.661       -2480.972          51.000    22651553.914    94277458.021       -1929.667          51.000  
R16  23451569.649   125274231.372        1455.158          52.000    23451566.364    97435425.616        1131.873          49.000  
E11  27002260.034   141898189.351        1751.149          45.000    27002258.640   108727399.999        1341.751          45.000  
G06  26400507.401   138735565.431       -2721.533          44.000    26400505.765   108105884.369       -2120.642          40.000  
G29  24330550.868   127858276.850        1509.743          47.000    24330549.356    99630087.195        1176.281          44.000  
S31  41368993.094   217395608.039        -760.130          44.000  
E03  28387505.001   149177387.795       -1351.623          44.000    28387508.379   114304696.296       -1035.628          49.000  
R15  22744476.788   121539815.175       -1283.690          51.000    22744474.414    94531139.144        -998.354          51.000  
R18  22374798.042   119438266.161        1589.901          53.000    22374795.809    92896717.295        1236.642          50.000  
R19  25285732.149   135261691.878        3655.242          42.000    25285745.508   105203069.461        2843.082          45.000  
E31  30497756.316   160266732.076       -2503.702          36.000    30497758.974   122801866.437       -1918.315          45.000  
G11  24984002.861   131292282.361        -680.377          48.000    24983998.115   102305863.971        -530.062          43.000  
E24  27171176.186   142785617.080       -1541.358          47.000    27171175.977   109407220.479       -1181.074          53.000  
G24  23940143.802   125806390.440       -3022.190          47.000    23940141.734    98031019.958       -2354.964          45.000  
G12  23834723.752   125252622.703       -1168.897          48.000    23834718.366    97599572.928        -910.858          46.000  
E05  27129641.967   142567222.548       -3289.296          37.000    27129648.743   109239841.071       -2520.044          46.000  
G25  23834931.683   125253633.759         353.294          47.000    23834929.159    97600304.033         275.150          45.000  
E10  27539908.368   144723674.406         625.017          48.000    27539909.456   110892415.179         478.854          51.000  
E25  26958535.779   141668353.111         153.936          46.000    26958536.417   108551228.039         117.868          50.000  
E12  28094977.724   147640460.358        -634.370          43.000    28094976.271   113127322.488        -485.914          48.000  
E14  24543054.265   128974761.661       -5267.012          49.000    24543054.193    98824872.215       -4035.704          53.000  
> 2024 04 15 01 42 30.0090000  0 25                     
S33  42326252.395   222426046.318        -761.430          42.000  
G28  27007807.355                1       2644.744          27.000    27007814.263                        2060.145          28.000  
G32  25781128.056   135480747.308       -1262.848          45.000    25781130.117   105569366.374        -983.969          44.000  
R14  25907091.477   138099402.304       -3358.672          48.000    25907095.670   107410717.728       -2612.065          48.000  
R17  22665538.713   121288387.720       -2506.532          50.000    22665533.984    94335644.425       -1949.621          51.000  
R16  23443408.959   125230638.392        1450.842          52.000    23443405.984    97401520.019        1128.491          50.000  
E11  26992284.918   141845773.015        1743.028          44.000    26992283.950   108687237.007        1335.574          45.000  
G06  26416090.098   138817455.190       -2738.037          41.000    26416088.867   108169694.636       -2133.673          40.000  
G29  24321970.275   127813185.608        1496.097          47.000    24321969.117    99594951.297        1165.782          44.000  
S31  41373333.908   217418420.239        -760.916          44.000  
E03  28395259.766   149218140.521       -1365.454          44.000    28395263.395   114335922.370       -1046.106          49.000  
R15  22751715.655   121578496.277       -1295.349          52.000    22751712.442    94561224.459       -1007.465          51.000  
R18  22365929.039   119390923.251        1566.054          53.000    22365927.022    92859895.116        1218.070          50.000  
R19  25265250.253   135152136.579        3648.044          41.000    25265263.051   105117861.930        2837.362          45.000  
E31  30512050.976   160341852.894       -2505.317          34.000    30512054.252   122859426.535       -1919.258          45.000  
G11  24987942.081   131312982.932        -700.072          47.000    24987937.763   102321994.280        -545.274          43.000  
E24  27179982.439   142831893.913       -1544.035          48.000    27179982.470   109442679.376       -1183.061          54.000  
G24  23957439.868   125897283.112       -3037.464          47.000    23957438.813    98101845.386       -2366.812          46.000  
G12  23841410.261   125287760.559       -1174.047          48.000    23841404.766    97626953.117        -914.850          46.000  
E05  27148430.834   142665961.006       -3294.021          36.000    27148438.499   109315497.530       -2523.990          46.000  
G25  23832926.417   125243096.336         349.160          47.000    23832923.940    97592093.109         271.958          45.000  
E10  27536377.632   144705120.915         611.649          48.000    27536378.341   110878198.920         468.651          51.000  
E25  26957662.657   141663764.796         151.814          46.000    26957663.304   108547712.353         116.335          51.000  
E12  28098641.768   147659716.065        -649.535          42.000    28098640.167   113142076.902        -497.751          47.000  
E14  24573137.389   129132853.232       -5272.659          48.000    24573138.113    98946007.342       -4040.184          53.000  
> 2024 04 15 01 43 00.0090000  0 25                     
S33  42330599.362   222448888.208        -761.673          42.000  
G28  26992719.111   141847707.5361       2641.260          32.000    26992719.858                1       2058.068          27.000  
G32  25788387.036   135518891.278       -1280.526          46.000    25788388.617   105599088.874        -997.725          44.000  
R14  25926013.060   138200264.336       -3366.156          47.000    25926017.214   107489165.824       -2618.151          46.000  
R17  22679658.527   121363952.581       -2531.494          49.000    22679655.548    94394417.136       -1968.938          51.000  
R16  23435271.052   125187170.466        1446.649          51.000    23435268.747    97367711.671        1125.208          50.000  
E11  26982353.603   141793584.219        1735.375          45.000    26982352.414   108647248.348        1329.739          45.000  
G06  26431766.520   138899838.988       -2754.572          43.000    26431764.849   108233889.864       -2146.661          38.000  
G29  24313466.034   127768495.709        1482.836          47.000    24313464.729    99560128.115        1155.230          44.000  
S31  41377676.972   217441242.852        -761.165          43.000  
E03  28403092.251   149259295.177       -1378.733          46.000    28403095.103   114367456.363       -1056.377          49.000  
R15  22759017.691   121617521.825       -1306.713          51.000    22759016.074    94591577.650       -1016.326          51.000  
R18  22357192.417   119344288.398        1542.387          52.000    22357191.114    92823623.649        1199.661          50.000  
R19  25244806.566   135042785.845        3641.451          40.000    25244818.996   105032813.490        2831.981          44.000  
E31  30526351.346   160417003.613       -2506.000          34.000    30526354.462   122917009.540       -1919.775          43.000  
G11  24991992.455   131334269.854        -719.570          47.000    24991988.168   102338581.574        -560.825          43.000  
E24  27188803.142   142878241.424       -1546.368          48.000    27188802.132   109478192.393       -1184.923          53.000  
G24  23974821.304   125988621.558       -3052.319          47.000    23974820.082    98173018.128       -2378.283          46.000  
G12  23848124.232   125323043.997       -1178.709          49.000    23848119.280    97654446.725        -918.641          46.000  
E05  27167247.817   142764841.060       -3298.219          35.000    27167255.300   109391262.440       -2527.328          47.000  
G25  23830942.705   125232673.312         345.357          46.000    23830940.480    97583971.297         269.086          45.000  
E10  27532922.275   144686959.702         598.698          48.000    27532922.587   110864283.227         458.737          51.000  
E25  26956799.350   141659229.560         150.078          46.000    26956800.551   108544237.321         115.024          51.000  
E12  28102391.563   147679420.874        -664.686          43.000    28102389.998   113157175.424        -509.179          48.000  
E14  24603252.409   129291105.006       -5277.968          48.000    24603252.100    99067265.202       -4044.027          53.000  
> 2024 04 15 01 43 30.0090000  0 26                     
S33  42334946.147   222471730.512        -761.448          43.000  
G28  26977647.633                        2638.649          26.000    26977646.631                3       2057.485          26.000  
G32  25795746.381   135557565.218       -1297.886          46.000    25795746.946   105629224.365       -1011.451          43.000  
R14  25944977.688   138301351.235       -3373.240          47.000    25944980.545   107567788.869       -2623.630          46.000  
R17  22693917.668   121440259.904       -2555.945          48.000    22693915.030    94453767.287       -1987.904          51.000  
R16  23427155.981   125143820.842        1443.109          52.000    23427153.404    97333995.332        1122.363          49.000  
E11  26972464.337   141741616.595        1728.852          45.000    26972462.890   108607429.167        1324.504          44.000  
G06  26447536.132   138982706.679       -2770.154          44.000    26447533.919   108298462.156       -2158.539          39.000  
G29  24305037.147   127724199.695        1470.145          47.000    24305034.994    99525611.847        1145.337          44.000  
S31  41382020.547   217464066.791        -760.632          44.000  
E03  28410997.289   149300842.568       -1391.387          45.000    28411001.166   114399291.333       -1066.200          48.000  
R15  22766384.709   121656884.643       -1317.658          51.000    22766381.952    94622193.197       -1024.823          51.000  
R18  22348587.660   119298356.069        1519.392          53.000    22348585.357    92787898.565        1181.635          49.000  
R19  25224400.825   134933635.563        3634.906          41.000    25224412.427   104947920.902        2827.263          45.000  
E31  30540653.296   160492176.422       -2505.806          33.000    30540658.387   122974609.573       -1920.476          41.000  
G11  24996152.414   131356135.478        -738.468          47.000    24996148.503   102355619.772        -575.331          43.000  
E24  27197634.243   142924651.578       -1547.958          49.000    27197633.664   109513753.456       -1186.106          53.000  
G24  23992285.107   126080396.010       -3066.396          46.000    23992284.149    98244530.672       -2389.438          46.000  
G12  23854864.192   125358464.653       -1182.940          48.000    23854859.738    97682047.229        -921.749          46.000  
E05  27186087.246   142863852.422       -3301.763          35.000    27186097.385   109467127.923       -2530.429          48.000  
G25  23828980.067   125222356.763         342.295          47.000    23828976.871    97575932.464         266.668          44.000  
E10  27529539.249   144669183.819         586.114          49.000    27529539.676   110850662.791         449.160          50.000  
E25  26955944.145   141654739.090         148.979          45.000    26955946.313   108540796.609         114.175          51.000  
E12  28106225.527   147699566.640        -678.866          43.000    28106223.497   113172611.829        -520.135          48.000  
E14  24633393.993   129449504.361       -5282.250          47.000    24633394.429    99188636.157       -4047.438          53.000  
R07                                                                  25705533.480                3       -483.231          12.000  
> 2024 04 15 01 44 00.0090000  0 25                     
S33  42339291.540   222494565.791        -761.058          43.000  
G28  26962594.522   141689395.836        2636.149          31.000    26962589.594                        2054.032          27.000  
G32  25803204.937   135596757.158       -1314.974          47.000    25803204.194   105659763.474       -1024.360          42.000  
R14  25963982.083   138402651.879       -3380.146          49.000    25963983.926   107646578.138       -2628.931          45.000  
R17  22708314.168   121517296.148       -2579.917          49.000    22708311.031    94513684.384       -2006.606          52.000  
R16  23419061.481   125100580.792        1439.545          51.000    23419058.209    97300364.189        1119.751          49.000  
E11  26962615.517   141689861.651        1721.840          45.000    26962613.891   108567772.938        1319.272          44.000  
G06  26463395.392   139066045.795       -2785.864          45.000    26463393.242   108363401.797       -2170.801          38.000  
G29  24296680.637   127680288.171        1457.338          47.000    24296678.688    99491395.187        1135.506          44.000  
S31  41386361.748   217486881.434        -760.321          44.000  
E03  28418977.167   149342771.212       -1403.742          46.000    28418979.592   114431418.423       -1075.715          48.000  
R15  22773812.798   121696575.334       -1328.449          52.000    22773809.883    94653063.728       -1033.288          51.000  
R18  22340112.621   119253118.226        1496.343          52.000    22340110.626    92752713.631        1163.971          49.000  
R19  25204030.474   134824678.247        3628.510          40.000    25204041.429   104863178.423        2822.187          45.000  
E31  30554961.918   160567361.201       -2506.608          34.000    30554965.355   123032218.607       -1920.545          40.000  
G11  25000421.073   131378569.684        -757.211          46.000    25000417.876   102373101.029        -589.809          43.000  
E24  27206474.539   142971114.083       -1549.506          48.000    27206474.891   109549354.607       -1187.286          53.000  
G24  24009829.945   126172594.453       -3080.337          46.000    24009829.521    98316373.546       -2400.100          47.000  
G12  23861628.959   125394012.315       -1187.005          48.000    23861624.096    97709746.734        -924.961          46.000  
E05  27204953.134   142962982.343       -3306.438          39.000    27204960.810   109543084.210       -2533.250          47.000  
G25  23827035.178   125212136.376         339.333          47.000    23827032.727    97567968.530         264.517          45.000  
E10  27526227.776   144651783.918         573.820          48.000    27526228.185   110837330.468         439.643          50.000  
E25  26955095.927   141650282.778         147.922          46.000    26955097.935   108537382.067         113.463          51.000  
E12  28110140.977   147720142.936        -692.946          43.000    28110138.850   113188378.122        -530.969          48.000  
E14  24663561.436   129608036.414       -5286.581          46.000    24663562.036    99310108.787       -4050.644          53.000  
> 2024 04 15 01 44 30.0090000  0 25                     
S33  42343635.704   222517394.973        -760.948          43.000  
G28  26947557.175   141610373.265        2632.121          31.000    26947548.034                1       2051.551          28.000  
G32  25810762.466   135636470.743       -1332.244          47.000    25810761.585   105690709.084       -1038.356          41.000  
R14  25983026.541   138504171.653       -3387.572          48.000    25983028.088   107725537.861       -2634.920          42.000  
R17  22722848.562   121595063.549       -2604.194          50.000    22722844.428    94574170.157       -2025.527          52.000  
R16  23410988.973   125057457.356        1435.663          52.000    23410985.441    97266823.803        1116.687          49.000  
E11  26952808.213   141638326.415        1714.293          44.000    26952807.372   108528285.048        1313.571          45.000  
G06  26479344.676   139149859.468       -2801.593          44.000    26479342.088   108428711.230       -2183.307          38.000  
G29  24288399.298   127636766.642        1444.369          47.000    24288396.758    99457482.425        1125.445          43.000  
S31  41390702.267   217509692.271        -759.978          44.000  
E03  28427029.179   149385085.299       -1416.628          45.000    28427031.519   114463840.858       -1085.504          48.000  
R15  22781302.741   121736600.474       -1339.613          51.000    22781299.827    94684194.405       -1041.876          51.000  
R18  22331769.602   119208582.699        1472.965          52.000    22331768.068    92718074.945        1145.551          50.000  
R19  25183697.846   134715923.164        3621.716          40.000    25183708.845   104778593.176        2817.181          45.000  
E31  30569272.616   160642563.160       -2506.648          36.000    30569275.906   123089840.860       -1920.930          40.000  
G11  25004800.338   131401578.050        -776.427          46.000    25004797.228   102391029.686        -604.799          44.000  
E24  27215327.451   143017634.271       -1551.427          48.000    27215327.275   109584999.955       -1188.735          53.000  
G24  24027455.756   126265220.452       -3094.471          47.000    24027455.778    98388549.591       -2411.185          47.000  
G12  23868418.538   125429692.472       -1191.365          47.000    23868413.726    97737549.478        -928.298          46.000  
E05  27223840.205   143062233.699       -3310.516          41.000    27223848.213   109619133.634       -2536.289          47.000  
G25  23825109.042   125202017.674         335.909          46.000    23825107.401    97560083.873         261.691          45.000  
E10  27522987.842   144634766.346         561.100          47.000    27522989.650   110824291.106         429.932          50.000  
E25  26954256.075   141645865.649         146.815          46.000    26954257.283   108533997.552         112.543          50.000  
E12  28114139.183   147741155.145        -707.464          43.000    28114137.637   113204478.407        -542.097          48.000  
E14  24693754.427   129766701.885       -5290.646          46.000    24693755.368    99431683.658       -4053.876          53.000  
