     3.00           OBSERVATION DATA    M: Mixed            RINEX VERSION / TYPE
CONVBIN 2.4.3                           20240415 031442 UTC PGM / RUN BY / DATE 
format: u-blox UBX                                          COMMENT             
log: /home/regis/git/gnsspwv/obsdata/VERT00CHL/2024-04-15/VECOMMENT             
{self.marker}                                               MARKER NAME         
                                                            MARKER NUMBER       
GEODETIC                                                    MARKER TYPE         
{self.observer}     {self.institution}                      OBSERVER / AGENCY   
UNKNOWN             UBLOX-ZED-F9P                           REC # / TYPE / VERS 
UNKNOWN             TWIVSP6037L                             ANT # / TYPE        
  1713381.0000 -5047934.0000 -3490983.0000                  APPROX POSITION XYZ 
        0.0000        0.0000        0.0000                  ANTENNA: DELTA H/E/N
G    8 C1C L1C D1C S1C C2L L2L D2L S2L                      SYS / # / OBS TYPES 
R    8 C1C L1C D1C S1C C2C L2C D2C S2C                      SYS / # / OBS TYPES 
E    8 C1C L1C D1C S1C C7Q L7Q D7Q S7Q                      SYS / # / OBS TYPES 
S    4 C1C L1C D1C S1C                                      SYS / # / OBS TYPES 
  2024    04    15    03    00   00.0110000     GPS         TIME OF FIRST OBS   
  2024    04    15    03    14   30.0110000     GPS         TIME OF LAST OBS    
                                                            END OF HEADER       
> 2024 04 15 03 00 00.0110000  0 27                     
S33  42988479.773   225906108.1621       -735.668          42.000  
E02  29504480.412   155047091.7551       1194.581          44.000    29504480.365   118802345.5981        915.526          46.000  
G28  25151035.984   132169572.1801       1212.245          47.000    25151031.544   102989263.0071        944.580          46.000  
E36  28885907.788   151796778.9691       2125.050          44.000    28885911.661   116312019.1061       1628.315          48.000  
G32  27856026.806   146384311.7291      -3083.016          44.000    27856032.372   114065625.1891      -2402.621          38.000  
R17  26080234.234   139561116.8141      -4818.850          50.000    26080228.501   108547768.8321      -3747.968          46.000  
R09  25164563.390   134377358.4321       2677.215          47.000    25164558.958   104515985.5001       2082.289          48.000  
R16  22694533.941   121230293.8051        -71.172          52.000    22694529.478    94290143.5391        -55.316          50.000  
E11  26143421.975   137385014.0371        -10.611          45.000    26143418.914   105269264.4821         -8.030          50.000  
G18  26765802.036   140655493.9961       2986.154          46.000    26765804.267   109601769.7911       2326.975          42.000  
G29  23917448.975   125687440.6031       -550.248          49.000    23917443.917    97938535.7151       -428.578          46.000  
S31  42034960.474   220895314.6091       -734.908          44.000  
E03  30336547.884   159419615.5741      -2804.466          42.000    30336554.826   122152620.6941      -2148.984          46.000  
R15  24739201.302   132199019.0891      -3344.107          49.000    24739201.450   102821629.2891      -2601.036          49.000  
R18  22717212.640   121266124.2341      -2338.121          51.000    22717210.166    94318390.5021      -1818.544          50.000  
R19  22962448.898   122833965.8801       1202.743          43.000    22962444.367    95537129.3911        935.344          48.000  
G05  28058453.049   147448211.1281       1375.957          40.000    28058451.374   114894711.8971       1071.998          40.000  
G11  26866917.922   141187081.2111      -3377.551          42.000    26866912.406   110016100.8971      -2632.021          44.000  
E24  28722527.946   150938026.2701      -2008.277          45.000    28722527.337   115653872.0361      -1538.706          47.000  
G24  27404108.434   144009481.4641      -4448.801          41.000    27404117.015   112215204.3181      -3466.772          40.000  
G12  25223401.685   132550175.9441      -2019.423          49.000    25223395.806   103285978.6821      -1573.530          44.000  
G25  23829867.151   125227030.4061       -464.279          48.000    23829865.240    97579576.8801       -361.838          46.000  
E10  27951970.209   146889097.8741      -1580.765          47.000    27951968.989   112551641.6781      -1211.261          48.000  
E25  26935489.871   141547257.9791       -158.185          47.000    26935489.471   108458444.2421       -121.127          51.000  
E12  29625895.189   155685498.8461      -2688.718          39.000    29625892.057   119291706.4411      -2060.317          43.000  
E14  29167456.743   153276166.7911      -4766.046          44.000    29167455.743   117445431.6041      -3651.992          49.000  
G31                                                                  27730790.115                        2026.811          28.000  
> 2024 04 15 03 00 30.0110000  0 28                     
S33  42992678.704   225928173.534        -735.325          42.000  
E02  29497657.471   155011236.468        1195.599          43.000    29497657.201   118774872.114         916.295          46.000  
G28  25144160.928   132133441.516        1196.438          48.000    25144155.979   102961109.265         932.333          46.000  
E36  28873793.774   151733118.412        2118.888          44.000    28873797.484   116263240.407        1623.656          48.000  
G32  27873641.324   146476871.787       -3087.445          44.000    27873646.661   114137749.424       -2406.049          37.000  
R17  26107261.934   139705748.529       -4823.185          49.000    26107256.589   108660260.181       -3751.549          45.000  
R09  25149530.051   134297082.487        2674.434          47.000    25149525.664   104453548.707        2080.198          48.000  
R16  22694979.983   121232675.120         -87.728          52.000    22694975.762    94291995.675         -68.193          51.000  
G20  27325086.693   143594288.9971        241.266          32.000                                                                  
E11  26143524.026   137385550.862         -24.938          44.000    26143521.232   105269675.848         -19.125          50.000  
G18  26748766.437   140565972.497        2981.806          46.000    26748768.219   109532013.524        2323.517          42.000  
G29  23920622.275   125704118.893        -561.891          49.000    23920617.501    97951531.826        -437.658          46.000  
S31  42039155.742   220917361.071        -734.744          44.000  
E03  30352571.330   159503821.680       -2809.283          41.000    30352578.995   122217142.000       -2152.479          46.000  
R15  24758013.646   132299545.846       -3357.729          49.000    24758012.946   102899816.697       -2611.520          46.000  
R18  22730412.465   121336592.798       -2360.020          50.000    22730410.512    94373199.408       -1835.530          50.000  
R19  22955768.849   122798233.651        1179.450          43.000    22955765.332    95509337.690         917.391          48.000  
G05  28050607.999   147406987.914        1372.065          40.000    28050606.306   114862590.079        1069.327          39.000  
G11  26886236.875   141288603.355       -3390.553          41.000    26886231.327   110095209.050       -2641.815          43.000  
E24  28734005.088   150998340.367       -2012.686          45.000    28734004.257   115700086.730       -1542.166          46.000  
G24  27429514.549   144142983.589       -4451.357          42.000    27429523.340   112319230.831       -3468.680          40.000  
G12  25234950.133   132610863.070       -2026.486          49.000    25234944.805   103333267.339       -1578.986          45.000  
G25  23832539.724   125241075.368        -472.273          48.000    23832537.397    97590520.999        -367.939          46.000  
E10  27961033.696   146936726.412       -1594.462          47.000    27961032.622   112588136.274       -1221.681          48.000  
E25  26936402.783   141552052.453        -161.596          48.000    26936401.810   108462117.945        -123.747          51.000  
E12  29641274.201   155766319.195       -2698.960          39.000    29641271.200   119353633.754       -2068.066          42.000  
E14  29194641.637   153419020.561       -4757.555          44.000    29194639.674   117554890.989       -3645.241          49.000  
G31                                                                  27715955.538                        2022.391          28.000  
> 2024 04 15 03 01 00.0110000  0 28                     
S33  42996876.763   225950233.317        -735.312          42.000  
E02  29490829.062   154975352.782        1196.528          43.000    29490828.788   118747376.897         916.741          45.000  
G28  25137375.027   132097782.181        1180.674          47.000    25137370.596   102933322.774         919.941          47.000  
E36  28861713.624   151669636.343        2113.057          45.000    28861717.110   116214598.487        1618.928          48.000  
G32  27891280.601   146569563.893       -3092.139          45.000    27891285.529   114209976.561       -2409.522          36.000  
R17  26134314.340   139850514.042       -4827.866          48.000    26134309.480   108772855.590       -3754.906          45.000  
R09  25134512.703   134216890.974        2671.574          47.000    25134508.741   104391177.599        2077.785          48.000  
R16  22695519.165   121235552.981        -104.337          52.000    22695515.192    94294234.001         -81.136          51.000  
G20  27323757.881   143587275.432         226.980          33.000                                                                  
E11  26143707.678   137386511.858         -39.478          45.000    26143704.175   105270412.208         -30.123          50.000  
G18  26731757.908   140476591.516        2976.929          46.000    26731758.446   109462366.698        2319.690          42.000  
G29  23923862.566   125721148.070        -573.763          48.000    23923857.702    97964801.367        -447.109          46.000  
S31  42043349.962   220939402.569        -734.748          43.000  
E03  30368621.739   159588164.209       -2813.802          41.000    30368628.593   122281767.861       -2156.047          45.000  
R15  24776902.658   132400478.214       -3371.273          50.000    24776899.444   102978319.628       -2622.147          45.000  
R18  22743736.955   121407714.404       -2381.727          51.000    22743734.119    94428516.226       -1852.375          50.000  
R19  22949219.023   122763195.219        1156.321          43.000    22949214.346    95482085.626         899.054          47.000  
G05  28042786.273   147365881.430        1368.260          42.000    28042783.889   114830559.183        1066.121          39.000  
G11  26905628.247   141390505.650       -3403.133          41.000    26905622.743   110174613.449       -2651.759          44.000  
E24  28745507.836   151058784.171       -2017.036          45.000    28745506.049   115746400.812       -1545.522          46.000  
G24  27454935.836   144276567.738       -4454.435          43.000    27454944.874   112423321.260       -3470.823          41.000  
G12  25246538.346   132671758.912       -2033.432          50.000    25246533.004   103380718.629       -1584.681          45.000  
G25  23835257.621   125255359.584        -480.404          47.000    23835255.135    97601651.583        -374.274          45.000  
E10  27970175.127   146984765.267       -1608.239          47.000    27970174.377   112624945.273       -1232.260          49.000  
E25  26937334.405   141556950.290        -165.162          47.000    26937333.956   108465870.846        -126.536          51.000  
E12  29656713.397   155847443.993       -2709.314          40.000    29656709.387   119415794.299       -2075.874          44.000  
E14  29221774.677   153561611.335       -4748.714          43.000    29221774.041   117664148.871       -3638.730          49.000  
G31                                                                  27701154.220                        2018.180          27.000  
> 2024 04 15 03 01 30.0110000  0 28                     
S33  43001072.822   225972285.146        -734.822          42.000  
E02  29483994.438   154939437.353        1197.664          43.000    29483994.174   118719857.337         917.566          45.000  
G28  25130677.746   132062592.539        1165.059          47.000    25130675.047   102905902.284         907.878          48.000  
E36  28849666.819   151606330.842        2107.031          45.000    28849670.099   116166091.824        1614.588          48.000  
G32  27908943.649   146662381.308       -3096.072          45.000    27908949.021   114282301.274       -2413.132          36.000  
R17  26161390.734   139995405.823       -4831.846          48.000    26161385.696   108885549.217       -3758.154          45.000  
R09  25119510.917   134136782.441        2668.760          48.000    25119506.706   104328870.990        2075.738          48.000  
R16  22696150.000   121238926.053        -120.805          52.000    22696146.326    94296857.507         -93.957          51.000  
G20  27322504.170   143580676.492         212.501          34.000                                                                  
E11  26143970.759   137387893.728         -53.188          45.000    26143967.104   105271471.060         -40.649          50.000  
G18  26714775.062   140387350.092        2972.235          45.000    26714775.246   109392828.606        2316.219          42.000  
G29  23927168.939   125738523.864        -585.083          48.000    23927164.015    97978340.975        -455.785          45.000  
S31  42047542.642   220961435.298        -734.410          43.000  
E03  30384696.723   159672637.413       -2817.962          41.000    30384703.802   122346493.824       -2159.260          46.000  
R15  24795865.767   132501811.198       -3384.537          50.000    24795862.243   103057134.169       -2632.318          45.000  
R18  22757181.415   121479481.961       -2403.072          51.000    22757179.259    94484335.426       -1869.049          51.000  
R19  22942798.052   122728847.810        1133.318          43.000    22942792.735    95455371.026         881.415          47.000  
G05  28034986.890   147324890.605        1364.122          41.000    28034983.665   114798618.411        1063.277          40.000  
G11  26925089.909   141492781.898       -3415.539          42.000    26925084.987   110254309.232       -2661.432          44.000  
E24  28757033.318   151119354.446       -2021.291          44.000    28757032.920   115792811.801       -1548.720          47.000  
G24  27480371.194   144410227.580       -4456.771          43.000    27480380.724   112527470.676       -3472.522          41.000  
G12  25258165.988   132732859.544       -2040.206          50.000    25258159.489   103428329.507       -1589.787          45.000  
G25  23838020.827   125269880.559        -488.030          48.000    23838018.410    97612966.639        -380.267          46.000  
E10  27979393.315   147033209.740       -1621.711          47.000    27979393.162   112662065.081       -1242.556          49.000  
E25  26938285.015   141561948.578        -168.317          47.000    26938285.034   108469700.706        -128.967          51.000  
E12  29672207.430   155928867.907       -2719.236          40.000    29672203.561   119478184.075       -2083.627          43.000  
E14  29248857.350   153703934.145       -4739.739          43.000    29248857.196   117773201.407       -3631.687          49.000  
G31                                                                  27686389.000                        2013.033          29.000  
> 2024 04 15 03 02 00.0110000  0 28                     
S33  43005267.375   225994329.838        -735.043          42.000  
E02  29477153.657   154903492.794        1198.574          41.000    29477154.128   118692315.467         918.442          46.000  
G28  25124071.959   132027877.065        1149.130          47.000    25124069.015   102878851.246         895.387          48.000  
E36  28837654.141   151543205.931        2100.913          45.000    28837658.038   116117723.563        1609.845          49.000  
G32  27926630.477   146755323.245       -3100.342          46.000    27926635.717   114354723.034       -2415.587          36.000  
R17  26188491.149   140140422.791       -4836.007          48.000    26188485.912   108998340.160       -3761.179          45.000  
R09  25104525.697   134056762.054        2665.690          49.000    25104520.783   104266632.940        2073.338          47.000  
R16  22696874.380   121242799.397        -137.681          51.000    22696871.418    94299870.129        -107.113          51.000  
G20  27321327.871   143574496.586         198.684          35.000                                                                  
E11  26144314.129   137389699.113         -67.293          45.000    26144310.661   105272854.430         -51.759          50.000  
G18  26697819.351   140298253.393        2967.147          45.000    26697819.363   109323403.304        2312.058          41.000  
G29  23930541.099   125756247.037        -596.737          48.000    23930536.467    97992151.276        -464.999          45.000  
S31  42051734.087   220983460.976        -734.271          44.000  
E03  30400794.746   159757241.529       -2822.532          40.000    30400803.811   122411320.072       -2162.564          46.000  
R15  24814904.156   132603546.466       -3398.036          50.000    24814901.829   103136261.557       -2642.847          47.000  
R18  22770746.567   121551894.836       -2424.598          50.000    22770744.384    94540656.579       -1885.793          50.000  
R19  22936507.822   122695195.764        1109.943          43.000    22936501.961    95429197.246         863.313          47.000  
G05  28027209.581   147284020.956        1360.133          41.000    28027206.766   114766772.093        1059.666          40.000  
G11  26944623.583   141595431.896       -3428.035          40.000    26944619.201   110334296.227       -2671.452          44.000  
E24  28768584.491   151180054.023       -2025.685          45.000    28768583.545   115839321.840       -1552.034          47.000  
G24  27505820.139   144543962.808       -4459.270          42.000    27505830.717   112631678.799       -3474.538          41.000  
G12  25269831.838   132794168.486       -2047.130          50.000    25269826.783   103476102.730       -1595.422          45.000  
G25  23840829.754   125284641.867        -496.272          48.000    23840827.428    97624468.947        -386.615          46.000  
E10  27988690.133   147082061.227       -1635.338          47.000    27988689.248   112699496.745       -1253.038          49.000  
E25  26939255.553   141567050.414        -171.857          47.000    26939256.135   108473609.916        -131.754          51.000  
E12  29687758.983   156010591.535       -2729.460          41.000    29687756.046   119540803.462       -2091.309          45.000  
E14  29275888.712   153845990.056       -4730.728          42.000    29275889.487   117882049.460       -3625.044          49.000  
G31                                                                  27671658.692   113310798.148        2007.889          29.000  
> 2024 04 15 03 02 30.0110000  0 28                     
S33  43009462.312   226016372.482        -735.089          42.000  
E02  29470309.654   154867524.036        1199.062          41.000    29470309.939   118664755.033         918.739          46.000  
G28  25117557.777   131993642.314        1132.760          47.000    25117554.406   102852174.800         882.668          48.000  
E36  28825676.752   151480267.925        2094.454          44.000    28825681.681   116069498.510        1604.928          49.000  
G32  27944341.095   146848391.154       -3104.597          45.000    27944346.866   114427242.938       -2418.959          34.000  
R17  26215615.297   140285565.761       -4840.405          48.000    26215608.631   109111229.117       -3764.841          45.000  
R09  25089558.647   133976837.417        2662.232          49.000    25089552.815   104204469.378        2070.600          47.000  
R16  22697694.069   121247179.596        -154.778          51.000    22697691.571    94303276.949        -120.371          51.000  
G20  27320230.773   143568742.253         184.173          36.000                                                                  
E11  26144738.496   137391932.877         -82.207          44.000    26144735.644   105274566.030         -62.908          50.000  
G18  26680893.287   140209308.794        2961.925          47.000    26680891.498   109254096.403        2308.075          39.000  
G29  23933980.161   125774321.025        -608.650          48.000    23933975.505    98006234.951        -474.269          45.000  
S31  42055925.230   221005485.646        -734.631          44.000  
E03  30416922.278   159841978.990       -2827.201          42.000    30416929.413   122476248.499       -2166.296          47.000  
R15  24834019.016   132705687.983       -3411.803          51.000    24834016.933   103215704.895       -2653.539          48.000  
R18  22784433.000   121624954.350       -2446.378          50.000    22784431.087    94597480.656       -1902.751          50.000  
R19  22930346.816   122662244.624        1086.409          41.000    22930343.193    95403568.634         844.999          48.000  
G05  28019456.497   147243280.378        1355.454          41.000    28019453.304   114735026.376        1056.393          39.000  
G11  26964229.422   141698457.556       -3440.748          41.000    26964224.375   110414576.000       -2681.062          44.000  
E24  28780160.598   151240887.850       -2030.330          45.000    28780159.627   115885934.785       -1555.747          47.000  
G24  27531284.572   144677775.414       -4462.154          41.000    27531295.625   112735947.186       -3476.586          41.000  
G12  25281539.911   132855690.535       -2054.686          50.000    25281533.995   103524041.966       -1601.040          45.000  
G25  23843685.709   125299649.228        -504.799          48.000    23843683.544    97636162.988        -393.115          46.000  
E10  27998063.837   147131323.271       -1649.266          46.000    27998063.405   112737242.998       -1263.738          49.000  
E25  26940247.242   141572261.143        -175.875          47.000    26940247.719   108477602.554        -134.756          51.000  
E12  29703366.922   156092617.835       -2739.666          41.000    29703364.245   119603654.777       -2099.107          44.000  
G31  27656989.283                3       2570.625          24.000    27656957.785                        2002.842          26.000  
E14  29302870.546   153987782.383       -4722.165          42.000    29302871.476   117990695.528       -3618.446          49.000  
> 2024 04 15 03 03 00.0110000  0 28                     
S33  43013657.951   226038420.516        -735.020          42.000  
E02  29463462.585   154831539.398        1199.630          41.000    29463462.726   118637182.431         919.351          47.000  
G28  25111137.073   131959898.421        1116.515          47.000    25111132.662   102825880.849         870.079          48.000  
E36  28813737.959   151417526.617        2088.105          45.000    28813742.382   116021424.179        1599.871          50.000  
G32  27962077.291   146941590.049       -3108.561          43.000    27962082.171   114499864.956       -2422.412          34.000  
R17  26242763.303   140430839.067       -4844.512          48.000    26242756.602   109224219.465       -3767.950          46.000  
R09  25074611.078   133897019.387        2658.801          49.000    25074605.127   104142388.725        2067.912          47.000  
R16  22698612.559   121252077.179        -171.935          52.000    22698608.099    94307086.193        -133.675          50.000  
G20  27319219.478   143563423.451         169.944          34.000                                                                  
E11  26145246.427   137394603.430         -96.316          44.000    26145244.095   105276612.323         -73.743          51.000  
G18  26663998.351   140120527.144        2956.703          46.000    26663998.216   109184916.533        2303.922          41.000  
G29  23937488.446   125792752.820        -620.411          49.000    23937483.011    98020597.400        -483.245          45.000  
S31  42060117.112   221027515.200        -734.139          44.000  
E03  30433074.553   159926855.774       -2831.627          43.000    30433081.247   122541283.654       -2169.583          48.000  
R15  24853210.106   132808242.976       -3425.393          50.000    24853209.442   103295469.802       -2664.197          47.000  
R18  22798241.057   121698665.328       -2467.938          50.000    22798239.718    94654811.436       -1919.506          50.000  
R19  22924319.222   122630003.856        1062.675          41.000    22924315.973    95378492.513         826.687          48.000  
G05  28011729.971   147202679.154        1350.816          42.000    28011727.566   114703389.210        1052.835          40.000  
G11  26983906.670   141801864.475       -3453.351          38.000    26983901.493   110495152.804       -2690.887          43.000  
E24  28791765.066   151301864.491       -2034.964          45.000    28791763.282   115932657.117       -1559.205          47.000  
G24  27556764.451   144811670.727       -4464.655          41.000    27556776.185   112840280.017       -3478.562          41.000  
G12  25293288.865   132917434.090       -2061.844          50.000    25293283.710   103572153.857       -1606.861          46.000  
G25  23846590.614   125314911.864        -513.123          48.000    23846588.312    97648055.956        -399.780          47.000  
E10  28007518.374   147181002.913       -1662.992          47.000    28007517.442   112775309.222       -1274.270          49.000  
E25  26941261.096   141577589.531        -179.699          47.000    26941261.605   108481685.345        -137.554          51.000  
E12  29719035.398   156174953.108       -2749.812          42.000    29719032.409   119666742.826       -2106.903          44.000  
G31  27642305.761                3       2564.605          23.000    27642287.620                3       1998.848          24.000  
E14  29329805.119   154129317.975       -4713.564          42.000    29329804.993   118099144.831       -3611.767          49.000  
> 2024 04 15 03 03 30.0110000  0 28                     
S33  43017856.786   226060486.187        -735.822          42.000  
E02  29456613.771   154795549.510        1199.670          41.000    29456614.226   118609605.825         919.254          47.000  
G28  25104811.556   131926657.692        1099.515          47.000    25104806.279   102799978.999         856.719          46.000  
E36  28801838.858   151354994.060        2080.720          46.000    28801842.664   115973509.769        1594.422          49.000  
G32  27979838.809   147034927.138       -3113.725          42.000    27979842.826   114572594.617       -2426.609          33.000  
R17  26269937.151   140576249.914       -4849.342          47.000    26269930.191   109337316.822       -3771.721          46.000  
R09  25059686.142   133817321.348        2654.425          48.000    25059680.195   104080401.402        2064.601          46.000  
R16  22699628.678   121257504.773        -189.896          52.000    22699623.917    94311307.651        -147.657          50.000  
G20  27318292.749   143558552.255         154.932          37.000                                                                  
E11  26145839.914   137397721.308        -111.276          44.000    26145837.740   105279001.384         -85.404          51.000  
G18  26647136.861   140031921.566        2950.376          47.000    26647137.235   109115873.816        2299.004          43.000  
G29  23941065.713   125811551.245        -632.808          49.000    23941060.829    98035245.527        -492.993          45.000  
S31  42064312.466   221049561.386        -735.398          44.000  
E03  30449254.357   160011880.019       -2836.552          42.000    30449261.169   122606431.830       -2173.573          48.000  
R15  24872482.463   132911220.920       -3439.829          51.000    24872480.290   103375563.720       -2675.475          47.000  
R18  22812173.711   121773035.156       -2490.062          51.000    22812171.484    94712654.665       -1936.711          50.000  
R19  22918426.470   122598485.246        1038.461          41.000    22918424.078    95353978.112         807.709          48.000  
G05  28004032.465   147162230.023        1345.539          42.000    28004029.619   114671870.567        1048.557          37.000  
G11  27003658.247   141905660.299       -3466.382          40.000    27003653.385   110576032.674       -2701.367          43.000  
E24  28803397.913   151362994.581       -2040.343          45.000    28803395.780   115979497.072       -1563.337          47.000  
G24  27582262.061   144945656.479       -4467.947          41.000    27582273.974   112944683.311       -3481.201          40.000  
G12  25305082.445   132979409.520       -2069.828          49.000    25305077.678   103620446.363       -1612.943          46.000  
G25  23849545.002   125330441.244        -522.323          48.000    23849543.593    97660156.794        -406.892          47.000  
E10  28017054.056   147231109.427       -1677.433          47.000    28017052.351   112813702.527       -1285.176          49.000  
E25  26942300.105   141583046.663        -184.217          48.000    26942300.070   108485866.779        -141.065          51.000  
E12  29734762.949   156257606.037       -2760.591          41.000    29734760.610   119730074.311       -2115.116          45.000  
E14  29356693.466   154270605.827       -4705.637          43.000    29356691.350   118207404.362       -3605.666          49.000  
G31                                                                  27627670.350                        1993.056          27.000  
> 2024 04 15 03 04 00.0110000  0 28                     
S33  43022056.822   226082559.052        -735.882          42.000  
E02  29449761.088   154759546.641        1199.820          39.000    29449762.736   118582019.251         919.614          47.000  
G28  25098580.612   131893914.073        1082.972          46.000    25098574.966   102774464.489         843.748          46.000  
E36  28789977.976   151292663.855        2074.107          46.000    28789981.164   115925750.407        1589.166          49.000  
G32  27997624.372   147128391.188       -3117.665          41.000    27997629.485   114645423.188       -2429.683          34.000  
R17  26297132.112   140721786.306       -4853.424          44.000    26297127.684   109450511.766       -3774.811          48.000  
R09  25044781.962   133737737.479        2650.619          47.000    25044777.014   104018502.879        2061.677          46.000  
R16  22700742.424   121263456.445        -207.325          52.000    22700738.152    94315936.738        -161.254          50.000  
G20  27317453.013   143554122.823         140.141          40.000                                                                  
E11  26146516.383   137401278.751        -126.327          43.000    26146514.500   105281727.219         -96.694          51.000  
G18  26630308.009   139943486.749        2944.767          47.000    26630309.021   109046964.106        2294.783          44.000  
G29  23944710.837   125830707.149        -644.544          49.000    23944706.529    98050172.206        -502.173          46.000  
S31  42068509.470   221071615.846        -735.691          44.000  
E03  30465459.276   160097041.638       -2841.310          41.000    30465467.107   122671685.211       -2177.026          48.000  
R15  24891829.876   133014612.437       -3453.420          50.000    24891826.798   103455979.362       -2685.948          46.000  
R18  22826227.586   121848052.352       -2511.466          52.000    22826224.050    94771001.378       -1953.340          50.000  
R19  22912668.435   122567681.798        1014.605          42.000    22912664.447    95330019.887         789.239          47.000  
G05  27996363.245   147121928.670        1340.913          43.000    27996360.252   114640467.081        1044.511          37.000  
G11  27023482.123   142009834.348       -3478.985          40.000    27023477.019   110657207.269       -2710.974          43.000  
E24  28815056.922   151424270.615       -2045.164          44.000    28815056.011   116026448.831       -1567.036          47.000  
G24  27607775.447   145079721.955       -4470.244          40.000    27607786.330   113049148.718       -3483.269          40.000  
G12  25316918.002   133041610.241       -2077.273          48.000    25316913.500   103668914.452       -1618.872          45.000  
G25  23852549.302   125346230.562        -530.866          47.000    23852548.377    97672460.158        -413.704          48.000  
E10  28026668.447   147281633.685       -1691.202          48.000    28026666.614   112852415.935       -1295.892          49.000  
E25  26943361.946   141588625.229        -188.184          48.000    26943361.686   108490141.271        -144.259          51.000  
E12  29750550.786   156340566.824       -2770.785          43.000    29750547.312   119793641.632       -2122.813          45.000  
E14  29383529.787   154411636.621       -4696.803          44.000    29383528.436   118315466.913       -3598.788          50.000  
G31                                                                  27613098.603                        1987.371          29.000  
> 2024 04 15 03 04 30.0110000  0 28                     
S33  43026257.401   226104632.674        -735.826          42.000  
E02  29442906.866   154723523.646        1201.198          40.000    29442907.475   118554417.248         920.326          47.000  
G28  25092443.023   131861662.092        1066.822          47.000    25092437.683   102749333.077         831.289          46.000  
E36  28778154.196   151230530.274        2067.921          47.000    28778157.000   115878141.679        1584.552          48.000  
G32  28015432.226   147221971.682       -3121.375          40.000    28015439.487   114718342.442       -2432.722          34.000  
R17  26324349.594   140867436.627       -4856.819          44.000    26324346.353   109563795.337       -3777.503          48.000  
R09  25029898.740   133658263.360        2647.297          47.000    25029893.935   103956689.725        2059.052          46.000  
R16  22701953.234   121269927.143        -224.241          51.000    22701949.362    94320969.491        -174.373          51.000  
G20  27316692.447   143550129.435         125.911          38.000                                                                  
E11  26147275.595   137405268.460        -139.959          43.000    26147273.630   105284784.291        -107.286          51.000  
G18  26613510.420   139855218.060        2939.643          47.000    26613511.870   108978183.852        2290.632          45.000  
G29  23948422.504   125850211.898        -655.878          49.000    23948417.897    98065370.738        -511.091          45.000  
S31  42072706.358   221093670.511        -735.206          44.000  
E03  30481690.020   160182330.997       -2845.016          42.000    30481697.226   122737036.482       -2179.904          47.000  
R15  24911254.835   133118409.382       -3466.509          51.000    24911251.174   103536710.316       -2696.371          47.000  
R18  22840399.305   121923705.916       -2532.284          51.000    22840396.920    94829843.064       -1969.572          50.000  
R19  22907043.148   122537587.185         991.410          42.000    22907039.295    95306613.015         771.078          48.000  
G05  27988721.513   147081770.250        1336.450          44.000    27988718.346   114609174.951        1041.560          36.000  
G11  27043375.867   142114376.567       -3490.515          37.000    27043370.448   110738668.702       -2720.093          43.000  
E24  28826744.875   151485685.498       -2049.674          44.000    28826743.008   116073506.957       -1570.437          48.000  
G24  27633301.362   145213857.057       -4472.649          40.000    27633312.482   113153668.369       -3484.840          39.000  
G12  25328796.123   133104029.004       -2084.227          48.000    25328791.878   103717552.433       -1624.029          46.000  
G25  23855602.300   125362273.492        -538.849          48.000    23855601.049    97684961.139        -419.867          47.000  
E10  28036360.705   147332567.190       -1704.533          48.000    28036358.940   112891442.923       -1306.188          50.000  
E25  26944444.862   141594318.548        -191.684          48.000    26944444.881   108494503.684        -146.833          51.000  
E12  29766393.849   156423826.184       -2780.371          42.000    29766390.652   119857437.790       -2130.203          44.000  
E14  29410315.894   154552401.711       -4687.568          43.000    29410315.048   118423325.904       -3591.904          49.000  
G31                                                                  27598556.992                        1981.659          30.000  
> 2024 04 15 03 05 00.0110000  0 28                     
S33  43030456.059   226126696.689        -735.487          43.000  
E02  29436047.814   154687471.045        1202.047          41.000    29436046.719   118526792.565         920.992          47.000  
G28  25086397.977   131829893.924        1050.650          47.000    25086392.587   102724578.665         818.701          46.000  
E36  28766365.046   151168585.192        2061.614          46.000    28766369.259   115830677.403        1579.604          49.000  
G32  28033260.475   147315655.787       -3124.879          37.000    28033267.940   114791342.411       -2434.038          33.000  
R17  26351587.383   141013187.722       -4860.154          44.000    26351583.239   109677157.283       -3779.981          46.000  
R09  25015035.023   133578891.250        2643.852          48.000    25015029.763   103894955.925        2056.310          47.000  
R16  22703260.635   121276908.710        -241.472          52.000    22703256.594    94326399.604        -187.835          51.000  
G20  27316012.950   143546564.139         111.519          39.000                                                                  
E11  26148115.048   137409680.966        -154.127          43.000    26148113.399   105288165.321        -118.197          51.000  
G18  26596742.837   139767108.457        2934.119          47.000    26596744.752   108909527.538        2286.341          45.000  
G29  23952198.627   125870054.574        -667.311          49.000    23952193.941    98080832.563        -519.792          45.000  
S31  42076901.454   221115716.413        -734.493          44.000  
E03  30497942.238   160267736.167       -2848.896          42.000    30497949.390   122802476.501       -2182.782          47.000  
R15  24930753.773   133222600.742       -3479.858          52.000    24930749.921   103617747.949       -2706.395          48.000  
R18  22854688.801   121999982.562       -2553.058          52.000    22854685.977    94889169.361       -1985.694          50.000  
R19  22901547.875   122508192.288         967.824          42.000    22901543.930    95283750.348         752.888          47.000  
G05  27981105.438   147041747.962        1331.478          45.000    27981100.997   114577988.869        1037.758          34.000  
G11  27063337.148   142219274.490       -3502.698          39.000    27063331.643   110820407.328       -2729.309          42.000  
E24  28838455.873   151547229.825       -2053.649          44.000    28838454.495   116120664.301       -1573.621          48.000  
G24  27658837.589   145348049.399       -4474.442          39.000    27658849.830   113258232.616       -3486.836          39.000  
G12  25340712.782   133166656.779       -2091.144          47.000    25340709.601   103766353.286       -1629.466          46.000  
G25  23858701.638   125378561.449        -547.402          47.000    23858700.426    97697653.051        -426.465          47.000  
E10  28046128.405   147383899.053       -1717.832          48.000    28046127.046   112930775.148       -1316.283          50.000  
E25  26945547.809   141600117.598        -195.204          48.000    26945548.255   108498947.115        -149.544          51.000  
E12  29782292.196   156507372.658       -2790.000          43.000    29782289.089   119921453.904       -2137.602          44.000  
G31  27584042.422                3       2538.329          25.000    27584053.192                1       1976.865          28.000  
E14  29437050.583   154692890.146       -4678.493          44.000    29437048.936   118530972.876       -3584.741          49.000  
> 2024 04 15 03 05 30.0110000  0 28                     
S33  43034654.319   226148757.491        -735.617          43.000  
E02  29429183.319   154651394.470        1202.750          42.000    29429181.375   118499149.524         921.660          47.000  
G28  25080445.667   131798616.810        1034.315          47.000    25080440.693   102700206.897         805.967          47.000  
E36  28754614.978   151106835.596        2055.060          46.000    28754618.713   115783362.922        1574.599          49.000  
G32  28051107.774   147409445.652       -3128.385          35.000    28051116.275   114864424.803       -2436.732          33.000  
R17  26378844.750   141159041.176       -4863.347          45.000    26378838.722   109790598.839       -3782.687          47.000  
R09  25000191.833   133499629.924        2640.141          48.000    25000186.927   103833308.242        2053.393          47.000  
R16  22704664.745   121284408.790        -258.673          52.000    22704660.903    94332233.008        -201.106          51.000  
G20  27315416.612   143543434.257          96.942          36.000                                                                  
E11  26149036.437   137414521.660        -168.716          44.000    26149034.410   105291874.446        -129.306          51.000  
G18  26580007.872   139679166.013        2928.685          47.000    26580009.353   108841001.439        2281.971          44.000  
G29  23956039.346   125890239.085        -678.472          49.000    23956034.540    98096560.804        -528.827          45.000  
S31  42081095.646   221137757.943        -734.728          44.000  
E03  30514217.335   160353260.337       -2852.759          42.000    30514224.265   122868007.703       -2185.960          47.000  
R15  24950325.093   133327190.996       -3492.978          50.000    24950322.441   103699095.882       -2716.801          48.000  
R18  22869095.240   122076884.313       -2573.725          52.000    22869092.284    94948981.869       -2001.719          50.000  
R19  22896185.777   122479503.743         944.484          42.000    22896181.070    95261437.101         734.641          48.000  
G05  27973516.533   147001869.824        1326.606          43.000    27973513.251   114546915.166        1034.103          37.000  
G11  27083365.685   142324530.789       -3514.398          39.000    27083361.685   110902425.205       -2738.409          42.000  
E24  28850193.152   151608909.372       -2058.246          44.000    28850192.029   116167925.250       -1577.109          49.000  
G24  27684385.873   145482301.538       -4476.208          41.000    27684398.592   113362843.455       -3488.098          38.000  
G12  25352672.195   133229498.960       -2098.324          48.000    25352668.021   103815321.193       -1635.128          46.000  
G25  23861848.820   125395100.839        -555.584          47.000    23861847.885    97710540.887        -432.971          47.000  
E10  28055973.086   147435633.478       -1731.178          48.000    28055971.669   112970415.826       -1326.538          50.000  
E25  26946672.951   141606028.428        -198.987          48.000    26946673.064   108503476.190        -152.471          51.000  
E12  29798246.030   156591209.816       -2799.571          43.000    29798243.109   119985692.772       -2145.093          45.000  
G31  27569587.484                        2531.376          30.000    27569585.656   112892851.7711       1971.778          29.000  
E14  29463732.290   154833105.931       -4669.438          43.000    29463731.158   118638410.958       -3577.818          50.000  
> 2024 04 15 03 06 00.0110000  0 28                     
S33  43038850.215   226170806.646        -735.368          43.000  
E02  29422311.248   154615287.997        1203.590          41.000    29422310.381   118471483.555         922.408          47.000  
G28  25074586.580   131767826.448        1017.867          48.000    25074581.819   102676214.412         793.028          47.000  
E36  28742901.067   151045276.947        2048.281          46.000    28742904.647   115736194.724        1569.555          50.000  
G32  28068974.171   147503331.802       -3131.518          33.000    28068983.352                       -2439.995          31.000  
R17  26406118.108   141304986.963       -4866.675          46.000    26406111.859   109904112.213       -3785.311          48.000  
R09  24985369.007   133420475.743        2636.342          48.000    24985363.924   103771743.933        2050.399          47.000  
R16  22706164.277   121292423.433        -276.177          51.000    22706160.977    94338466.622        -214.894          51.000  
G20  27314903.197   143540735.195          82.546          38.000                                                                  
E11  26150037.988   137419784.508        -182.759          44.000    26150035.786   105295907.042        -140.078          51.000  
G18  26563303.909   139591387.309        2922.794          47.000    26563305.181   108772602.904        2277.415          44.000  
G29  23959943.435   125910757.937        -689.887          48.000    23959939.111    98112549.538        -537.457          45.000  
S31  42085288.126   221159789.093        -734.917          44.000  
E03  30530513.172   160438895.100       -2856.650          43.000    30530520.630   122933623.632       -2188.820          47.000  
R15  24969969.480   133432172.675       -3506.193          49.000    24969967.937   103780748.279       -2727.152          47.000  
R18  22883616.667   122154401.547       -2594.497          51.000    22883613.730    95009273.056       -2018.030          50.000  
R19  22890953.573   122451516.345         920.862          42.000    22890947.936    95239669.182         716.316          47.000  
G05  27965954.442   146962132.070        1321.813          43.000    27965951.792   114515950.841        1029.948          38.000  
G11  27103462.164   142430136.576       -3526.391          40.000    27103457.763   110984715.444       -2747.882          42.000  
E24  28861953.873   151670718.264       -2062.725          43.000    28861954.164   116215285.296       -1580.657          49.000  
G24  27709944.054   145616604.681       -4478.208          39.000    27709956.630   113467494.029       -3489.193          37.000  
G12  25364671.079   133292549.753       -2105.492          48.000    25364666.161   103864451.650       -1640.841          46.000  
G25  23865043.753   125411886.635        -563.915          48.000    23865042.285    97723620.725        -439.441          47.000  
E10  28065892.893   147487763.122       -1744.560          48.000    28065891.567   113010359.332       -1336.841          50.000  
E25  26947818.145   141612045.537        -202.698          48.000    26947818.091   108508086.702        -155.337          51.000  
E12  29814252.612   156675329.672       -2809.112          42.000    29814250.483   120050148.241       -2152.457          45.000  
G31  27555162.386   144803330.7841       2524.069          32.000    27555160.602                        1966.550          30.000  
E14  29490359.861   154973041.656       -4660.096          42.000    29490360.142   118745634.432       -3570.846          50.000  
> 2024 04 15 03 06 30.0110000  0 28                     
S33  43043046.089   226192857.870        -735.183          43.000  
E02  29415434.361   154579162.890        1204.529          39.000    29415436.026   118443803.341         922.845          47.000  
G28  25068822.630   131737535.668        1001.328          47.000    25068817.919   102652611.192         780.284          47.000  
E36  28731224.742   150983921.813        2041.773          46.000    28731229.051   115689182.502        1564.459          50.000  
G32  28086860.497                       -3134.417          32.000    28086869.878                1      -2443.102          29.000  
R17  26433410.538   141451032.929       -4869.826          46.000    26433404.273   110017703.489       -3787.624          47.000  
R09  24970568.945   133341442.311        2632.534          48.000    24970563.972   103710273.486        2047.447          47.000  
R16  22707763.383   121300965.618        -293.527          52.000    22707759.731    94345110.524        -228.266          50.000  
G20  27314475.714   143538479.880          67.824          40.000                                                                  
E11  26151122.209   137425480.677        -196.979          44.000    26151119.666   105300271.657        -151.011          51.000  
G18  26546633.484   139503786.012        2917.146          47.000    26546634.800   108704342.591        2273.133          44.000  
G29  23963913.552   125931621.100        -701.080          48.000    23963909.502    98128806.588        -546.327          45.000  
S31  42089480.742   221181821.123        -734.407          43.000  
E03  30546831.639   160524649.307       -2860.499          43.000    30546839.117   122999331.087       -2191.822          46.000  
R15  24989692.637   133537556.057       -3519.418          51.000    24989689.422   103862713.068       -2737.320          48.000  
R18  22898254.506   122232541.827       -2615.077          50.000    22898252.441    95070048.836       -2033.857          51.000  
R19  22885854.825   122424242.173         897.180          41.000    22885849.119    95218456.006         697.755          47.000  
G05  27958423.371   146922548.743        1317.012          44.000    27958419.305   114485106.805        1025.917          40.000  
G11  27123627.077   142536100.181       -3538.110          41.000    27123621.772   111067284.460       -2756.909          41.000  
E24  28873743.078   151732667.836       -2067.288          44.000    28873742.634   116262753.130       -1584.110          49.000  
G24  27735513.305   145750967.120       -4479.916          36.000    27735526.712   113572190.835       -3490.261          34.000  
G12  25376710.852   133355820.566       -2112.730          48.000    25376705.864   103913753.568       -1646.179          46.000  
G25  23868287.125   125428930.905        -572.498          48.000    23868285.065    97736901.980        -445.984          47.000  
E10  28075889.991   147540297.794       -1757.923          48.000    28075888.913   113050613.171       -1346.950          50.000  
E25  26948985.560   141618180.632        -206.417          48.000    26948985.484   108512787.629        -158.255          51.000  
E12  29830315.893   156759741.414       -2818.691          43.000    29830313.363   120114827.384       -2159.701          45.000  
G31  27540781.431   144727725.221        2517.364          32.000    27540774.712                        1960.892          29.000  
E14  29516938.869   155112707.096       -4650.874          43.000    29516937.517   118852650.805       -3563.653          50.000  
> 2024 04 15 03 07 00.0110000  0 28                     
S33  43047240.936   226214902.420        -734.822          43.000  
E02  29408556.499   154543014.016        1205.460          39.000    29408556.987   118416104.874         923.683          47.000  
G28  25063152.567   131707740.825         984.969          47.000    25063147.590   102629394.445         767.464          46.000  
E36  28719586.753   150922766.353        2035.430          45.000    28719591.029   115642323.275        1559.469          50.000  
R17  26460719.790   141597169.429       -4872.622          45.000    26460713.286   110131365.193       -3789.616          47.000  
R09  24955791.289   133262527.059        2628.574          48.000    24955786.286   103648894.972        2044.436          48.000  
R16  22709460.103   121310031.927        -310.896          51.000    22709457.272    94352162.089        -241.859          50.000  
G20  27314129.209   143536664.585          52.874          36.000                                                                  
E11  26152287.950   137431604.781        -211.333          44.000    26152285.049   105304964.147        -161.903          51.000  
G18  26529996.427   139416359.415        2911.370          47.000    26529997.359   108636218.400        2268.516          44.000  
G29  23967947.939   125952821.279        -712.226          48.000    23967943.742    98145326.226        -554.994          45.000  
S31  42093672.338   221203847.759        -734.255          44.000  
E03  30563171.520   160610515.240       -2863.840          43.000    30563179.261   123065124.157       -2194.426          46.000  
R15  25009487.607   133643334.158       -3532.368          51.000    25009485.322   103944984.890       -2747.508          48.000  
R18  22913008.210   122311296.092       -2635.251          51.000    22913005.306    95131302.157       -2049.740          50.000  
R19  22880888.322   122397676.880         874.053          42.000    22880882.896    95197794.125         679.510          47.000  
G05  27950920.103   146883117.528        1311.932          44.000    27950915.470   114454381.258        1022.203          40.000  
G11  27143857.977   142642413.362       -3549.567          43.000    27143852.248   111150125.887       -2765.594          40.000  
E24  28885557.271   151794752.979       -2071.719          44.000    28885557.185   116310324.876       -1587.475          50.000  
G24  27761092.817   145885380.737       -4480.815          33.000    27761106.133   113676927.569       -3491.726          32.000  
G12  25388791.701   133419306.400       -2119.655          48.000    25388786.999   103963223.039       -1651.691          46.000  
G25  23871578.869   125446229.323        -580.707          48.000    23871576.508    97750381.282        -452.557          46.000  
E10  28085962.472   147593230.825       -1771.023          48.000    28085961.617   113091172.252       -1356.981          50.000  
E25  26950174.708   141624428.981        -209.951          48.000    26950174.430   108517575.333        -160.966          51.000  
E12  29846433.754   156844437.729       -2827.724          43.000    29846430.345   120179724.571       -2166.872          45.000  
G31  27526434.678   144652329.376        2510.125          31.000    27526423.941                        1955.968          30.000  
E14  29543462.799   155252095.551       -4641.647          43.000    29543462.191   118959454.956       -3556.607          50.000  
G32                                                                  28104773.059                       -2444.971          27.000  
> 2024 04 15 03 07 30.0110000  0 28                     
S33  43051434.135   226236937.513        -734.294          43.000  
E02  29401672.268   154506836.662        1206.141          39.000    29401672.830   118388384.625         924.278          47.000  
G28  25057576.996   131678438.872         968.426          48.000    25057571.544   102606561.751         754.708          46.000  
E36  28707986.375   150861807.282        2028.731          45.000    28707990.581   115595614.506        1554.421          50.000  
R17  26488044.402   141743388.234       -4875.329          45.000    26488037.899   110245090.952       -3792.068          46.000  
R09  24941034.218   133183727.784        2624.525          48.000    24941030.028   103587606.664        2041.604          48.000  
R16  22711255.872   121319619.385        -328.301          52.000    22711252.054    94359618.988        -255.361          50.000  
G20  27313865.993   143535286.212          38.306          37.000                                                                  
E11  26153533.336   137438151.930        -225.234          44.000    26153530.939   105309980.819        -172.555          51.000  
G18  26513392.501   139329105.300        2905.524          47.000    26513392.822   108568228.573        2263.995          44.000  
G29  23972045.227   125974352.356        -723.272          48.000    23972040.664    98162103.700        -563.586          45.000  
S31  42097861.701   221225864.299        -733.942          44.000  
E03  30579531.613   160696485.844       -2867.360          43.000    30579539.120   123130997.414       -2197.055          46.000  
R15  25029355.014   133749500.899       -3545.376          51.000    25029353.333   104027558.981       -2757.553          47.000  
R18  22927875.619   122390655.962       -2655.420          52.000    22927871.717    95193026.496       -2065.262          50.000  
R19  22876053.477   122371815.430         850.527          41.000    22876049.279    95177679.704         661.372          48.000  
G05  27943445.047   146843836.154        1306.798          42.000    27943440.172   114423772.473        1018.243          39.000  
G11  27164153.616   142749068.483       -3561.133          43.000    27164148.049   111233233.777       -2774.799          41.000  
E24  28897398.069   151856969.132       -2076.092          45.000    28897396.867   116357996.970       -1590.844          50.000  
G24  27786679.468   146019837.986       -4482.646          30.000    27786693.710                       -3493.651          30.000  
G12  25400912.424   133483003.054       -2126.770          48.000    25400907.636   104012856.782       -1657.251          46.000  
G25  23874918.390   125463778.052        -589.135          48.000    23874915.763    97764055.623        -459.211          46.000  
E10  28096109.602   147646556.084       -1784.048          48.000    28096109.035   113132031.894       -1367.045          50.000  
E25  26951383.824   141630786.344        -213.670          47.000    26951384.232   108522446.577        -163.743          51.000  
E12  29862603.547   156929411.997       -2837.129          42.000    29862600.850   120244834.709       -2173.775          46.000  
G31  27512121.060                        2501.992          26.000    27512116.666                        1949.788          31.000  
E14  29569934.098   155391200.874       -4631.954          43.000    29569933.240   119066042.145       -3549.258          50.000  
G32                                                                  28122692.756                       -2447.052          26.000  
> 2024 04 15 03 08 00.0110000  0 28                     
S33  43055624.724   226258960.264        -733.883          42.000  
E02  29394782.294   154470629.017        1207.704          39.000    29394783.013   118360641.175         925.207          47.000  
G28  25052094.846   131649629.476         951.937          48.000    25052089.585   102584112.873         741.938          46.000  
E36  28696423.605   150801044.084        2022.246          45.000    28696427.598   115549055.804        1549.527          49.000  
R17  26515382.174   141889683.110       -4877.794          43.000    26515377.426   110358875.849       -3793.690          45.000  
R09  24926299.169   133105045.015        2620.585          47.000    24926294.847   103526408.978        2038.350          49.000  
R16  22713148.069   121329728.144        -345.786          51.000    22713144.764    94367481.361        -268.844          50.000  
G20  27313685.629   143534344.288          23.663          35.000                                                                  
E11  26154859.566   137445120.163        -239.219          44.000    26154857.184   105315320.131        -183.301          52.000  
G18  26496821.471   139242024.283        2899.702          48.000    26496821.447   108500373.646        2259.361          45.000  
G29  23976205.000   125996210.913        -734.189          48.000    23976199.400    98179136.351        -571.888          44.000  
S31  42102048.900   221247868.452        -733.438          44.000  
E03  30595911.255   160782556.812       -2870.675          43.000    30595917.862   123196947.550       -2199.449          45.000  
R15  25049295.218   133856053.183       -3558.190          52.000    25049292.630   104110432.913       -2767.395          47.000  
R18  22942854.100   122470615.706       -2675.353          51.000    22942851.302    95255217.401       -2080.729          50.000  
R19  22871350.658   122346657.117         826.979          42.000    22871346.709    95158112.174         643.221          48.000  
G05  27935997.993   146804704.393        1301.871          40.000    27935993.276   114393280.298        1014.456          40.000  
G11  27184513.784   142856060.725       -3571.960          44.000    27184507.925   111316604.357       -2783.289          41.000  
E24  28909260.427   151919314.502       -2080.368          43.000    28909260.609   116405768.091       -1594.056          50.000  
G24  27812275.656   146154334.025       -4483.547          28.000    27812289.977                       -3494.001          28.000  
G12  25413073.147   133546908.598       -2133.835          48.000    25413068.467   104062653.292       -1662.568          47.000  
G25  23878305.640   125481576.133        -597.370          48.000    23878302.353    97777924.257        -465.603          46.000  
E10  28106331.023   147700270.290       -1796.963          48.000    28106330.552   113173189.545       -1376.967          50.000  
E25  26952614.312   141637251.356        -217.235          47.000    26952614.673   108527400.300        -166.485          51.000  
E12  29878826.279   157014660.129       -2846.225          43.000    29878822.720   120310154.723       -2180.868          45.000  
G31  27497844.116                        2495.568          24.000    27497848.168                        1944.950          30.000  
E14  29596349.429   155530019.761       -4622.559          42.000    29596349.607   119172409.845       -3541.940          50.000  
G32                                                                  28140630.989                       -2449.152          27.000  
> 2024 04 15 03 08 30.0110000  0 28                     
S33  43059811.968   226280964.951        -733.284          42.000  
E02  29387884.766   154434385.656        1208.149          40.000    29387886.198   118332870.330         925.723          47.000  
G28  25046705.025   131621308.624         935.350          47.000    25046700.341   102562044.655         728.914          46.000  
E36  28684896.692   150740472.519        2015.502          45.000    28684901.197   115502643.953        1544.147          49.000  
R17  26542733.395   142036044.822       -4880.062          43.000    26542728.664   110472712.772       -3795.631          43.000  
R09  24911585.529   133026475.820        2616.563          47.000    24911581.065   103465299.661        2035.070          48.000  
R16  22715136.976   121340353.866        -363.399          51.000    22715134.242    94375745.812        -282.591          50.000  
G20  27313586.632   143533834.362           9.207          34.000                                                                  
E11  26156265.030   137452503.715        -253.705          44.000    26156262.247   105320977.672        -194.456          52.000  
G18  26480282.914   139155113.236        2893.719          48.000    26480282.000   108432651.140        2254.859          45.000  
G29  23980425.470   126018389.844        -745.155          48.000    23980419.823    98196418.681        -580.745          44.000  
S31  42106232.876   221269854.836        -733.057          44.000  
E03  30612307.274   160868720.068       -2874.040          43.000    30612314.431   123262968.444       -2202.182          44.000  
R15  25069304.800   133962984.035       -3571.200          50.000    25069303.132   104193601.308       -2777.603          48.000  
R18  22957943.271   122551165.842       -2695.267          50.000    22957941.242    95317867.545       -2096.392          51.000  
R19  22866778.198   122322196.547         803.356          42.000    22866773.646    95139087.309         624.716          48.000  
G05  27928577.398   146765719.726        1296.370          40.000    27928575.351   114362902.786        1010.293          41.000  
G11  27204936.453   142963381.516       -3583.179          44.000    27204930.756   111400230.951       -2792.017          40.000  
E24  28921148.452   151981783.652       -2084.853          43.000    28921147.551   116453634.034       -1597.500          49.000  
G24  27837875.598                       -4485.283          26.000    27837890.533                       -3495.280          26.000  
G12  25425272.697   133611017.746       -2140.755          48.000    25425267.980   104112608.465       -1668.109          46.000  
G25  23881738.753   125499618.799        -605.976          48.000    23881735.962    97791983.475        -472.236          47.000  
E10  28116625.394   147754366.355       -1810.132          48.000    28116624.556   113214639.790       -1387.041          50.000  
E25  26953864.038   141643818.907        -221.135          47.000    26953864.594   108532432.595        -169.358          51.000  
E12  29895099.281   157100174.513       -2855.659          42.000    29895095.616   120375678.730       -2187.864          46.000  
G31  27483614.598                        2488.761          30.000    27483619.097                        1938.877          31.000  
E14  29622710.919   155668545.189       -4613.311          42.000    29622710.058   119278552.703       -3534.703          50.000  
G32                                                                  28158579.556                3      -2450.785          25.000  
> 2024 04 15 03 09 00.0110000  0 28                     
S33  43063998.133   226302964.649        -732.817          42.000  
E02  29380984.053   154398120.415        1209.273          40.000    29380985.082   118305082.724         926.653          48.000  
G28  25041411.580   131593491.693         918.792          47.000    25041406.849   102540369.116         716.042          47.000  
E36  28673410.234   150680107.802        2008.797          45.000    28673414.425   115456390.559        1539.230          50.000  
R17  26570098.891   142182483.354       -4882.456          41.000    26570093.335   110586609.423       -3797.396          41.000  
R09  24896896.176   132948036.966        2612.611          47.000    24896891.808   103404291.709        2031.884          48.000  
R16  22717225.750   121351512.867        -380.747          52.000    22717222.970    94384425.022        -296.114          50.000  
G20  27313577.355   143533771.930          -5.500          36.000                                                                  
E11  26157750.605   137460316.046        -267.466          43.000    26157748.652   105326963.766        -204.842          52.000  
G18  26463778.877   139068388.459        2887.874          47.000    26463778.090   108365073.800        2250.256          45.000  
G29  23984709.213   126040901.546        -755.841          48.000    23984703.931    98213960.288        -588.910          44.000  
S31  42110415.655   221291835.843        -732.598          44.000  
E03  30628723.539   160954987.071       -2877.165          42.000    30628730.995   123329068.782       -2204.478          44.000  
R15  25089389.230   134070305.843       -3583.781          51.000    25089386.383   104277073.767       -2787.588          47.000  
R18  22973145.353   122632316.727       -2714.889          50.000    22973143.541    95380984.877       -2111.613          50.000  
R19  22862339.308   122298448.296         779.852          43.000    22862334.338    95120616.509         606.555          48.000  
G05  27921189.406   146726898.781        1291.057          41.000    27921187.939   114332652.819        1006.324          39.000  
G11  27225423.270   143071041.742       -3594.397          46.000    27225417.332   111484122.020       -2800.702          39.000  
E24  28933062.260   152044390.434       -2088.967          43.000    28933061.634   116501605.455       -1600.726          50.000  
G12  25437513.962   133675344.637       -2147.833          48.000    25437509.341   104162733.288       -1673.497          46.000  
G25  23885221.563   125517920.808        -614.406          48.000    23885218.710    97806244.782        -478.755          47.000  
E10  28126995.101   147808856.654       -1822.747          48.000    28126993.853   113256392.101       -1396.674          50.000  
E25  26955136.642   141650503.322        -224.726          48.000    26955136.532   108537554.426        -172.146          52.000  
E12  29911424.240   157185966.965       -2864.011          41.000    29911420.820   120441415.838       -2194.637          45.000  
G31  27469433.495   144352828.750        2481.840          32.000    27469435.104                1       1933.555          30.000  
E14  29649017.204   155806789.587       -4603.189          41.000    29649017.139   119384480.218       -3527.127          50.000  
G32                                                                  28176552.165                       -2453.083          26.000  
G24                                                                  27863496.758                3      -3495.328          25.000  
> 2024 04 15 03 09 30.0110000  0 28                     
S33  43068182.823   226324955.960        -733.052          42.000  
E02  29374079.278   154361830.696        1209.709          40.000    29374079.455   118277276.356         927.068          48.000  
G28  25036213.599   131566177.467         901.948          46.000    25036209.340   102519085.326         702.758          47.000  
E36  28661962.091   150619948.601        2001.559          44.000    28661965.973   115410294.641        1533.822          50.000  
R17  26597478.136   142328992.612       -4884.890          38.000    26597471.798   110700561.033       -3799.258          38.000  
R09  24882231.535   132869728.023        2607.881          48.000    24882227.399   103343384.791        2028.426          48.000  
R16  22719415.048   121363204.047        -398.824          52.000    22719411.351    94393518.153        -310.254          50.000  
G20  27313649.577   143534155.683         -20.566          35.000                                                                  
E11  26159318.048   137468554.433        -281.865          43.000    26159316.241   105333276.318        -215.959          52.000  
G18  26447311.084   138981849.797        2881.208          47.000    26447309.911   108297641.460        2245.108          44.000  
G29  23989055.901   126063741.578        -767.023          48.000    23989050.705    98231757.740        -597.729          45.000  
S31  42114597.219   221313809.581        -732.446          44.000  
E03  30645158.435   161041352.651       -2880.544          42.000    30645166.315   123395244.670       -2207.045          44.000  
R15  25109546.332   134178014.504       -3596.906          51.000    25109542.370   104360847.127       -2797.503          46.000  
R18  22988459.216   122714061.684       -2734.972          51.000    22988457.114    95444564.282       -2127.125          50.000  
R19  22858032.324   122275410.415         755.941          42.000    22858027.501    95102698.204         587.983          48.000  
G05  27913834.164   146688241.716        1285.579          42.000    27913830.931   114302530.545        1001.605          38.000  
G11  27245974.335   143179035.754       -3605.524          46.000    27245966.939   111568273.211       -2809.308          37.000  
E24  28945001.276   152107132.313       -2093.659          42.000    28945001.061   116549680.373       -1604.385          50.000  
G12  25449796.039   133739886.392       -2155.140          48.000    25449791.112   104213025.556       -1679.296          46.000  
G25  23888753.220   125536480.296        -623.085          48.000    23888750.668    97820706.729        -485.549          47.000  
E10  28137438.568   147863737.017       -1835.958          48.000    28137437.209   113298443.295       -1406.749          49.000  
E25  26956430.689   141657302.368        -228.714          48.000    26956430.463   108542764.104        -175.229          52.000  
E12  29927801.779   157272032.689       -2873.661          40.000    29927799.262   120507362.337       -2201.986          46.000  
G31  27455290.064   144278493.686        2473.833          34.000    27455287.369   112424810.7481       1927.529          31.000  
E14  29675270.987   155944748.823       -4594.176          43.000    29675270.182   119490189.256       -3520.158          50.000  
G32                                                                  28194533.527                3      -2454.919          26.000  
G24                                                                  27889114.150                3      -3496.859          23.000  
> 2024 04 15 03 10 00.0110000  0 28                     
S33  43072367.956   226346948.612        -732.995          42.000  
E02  29367170.175   154325525.369        1210.317          40.000    29367170.620   118249458.034         927.370          48.000  
G28  25031112.641   131539376.282         884.456          46.000    25031109.203   102498201.280         689.242          47.000  
E36  28650555.263   150560004.978        1994.259          44.000    28650559.081   115364363.929        1528.106          50.000  
R17  26624870.801   142475577.646       -4887.630          38.000    26624864.912   110814571.604       -3801.166          36.000  
R09  24867593.264   132791560.629        2603.014          48.000    24867589.390   103282587.959        2024.636          49.000  
R16  22721705.672   121375437.739        -416.985          52.000    22721701.265    94403033.248        -324.307          50.000  
G20  27313810.324   143534995.649         -36.266          37.000                                                                  
E11  26160969.398   137477227.412        -296.588          44.000    26160966.486   105339921.855        -227.333          52.000  
G18  26430880.626   138895508.443        2874.639          47.000    26430878.880   108230362.845        2239.884          44.000  
G29  23993465.311   126086917.137        -778.290          48.000    23993461.598    98249816.653        -606.323          45.000  
S31  42118778.854   221335783.649        -732.408          44.000  
E03  30661612.788   161127823.205       -2884.038          41.000    30661621.537   123461500.988       -2209.932          45.000  
R15  25129776.293   134286117.223       -3610.146          51.000    25129773.296   104444927.034       -2807.983          48.000  
R18  23003885.457   122796405.800       -2754.911          51.000    23003882.481    95508609.729       -2142.856          50.000  
R19  22853859.490   122253092.138         731.898          42.000    22853855.808    95085339.614         569.184          48.000  
G05  27906511.804   146649759.855        1279.629          43.000    27906507.474   114272544.780         997.272          36.000  
G11  27266589.070   143287369.274       -3616.821          46.000    27266582.755   111652688.979       -2818.292          38.000  
E24  28956968.986   152170018.156       -2098.958          43.000    28956967.443   116597865.611       -1608.046          49.000  
G12  25462120.632   133804651.981       -2162.698          49.000    25462115.167   104263492.240       -1685.260          46.000  
G25  23892335.730   125555306.956        -632.099          48.000    23892333.521    97835376.858        -492.714          48.000  
E10  28147957.160   147919014.708       -1849.374          48.000    28147956.013   113340798.951       -1417.033          49.000  
E25  26957747.810   141664225.360        -232.984          48.000    26957747.791   108548068.736        -178.490          52.000  
E12  29944232.617   157358378.473       -2883.188          39.000    29944230.161   120573523.367       -2209.152          46.000  
G31  27441190.388   144204389.765        2466.108          34.000    27441183.056   112367067.435        1920.773          32.000  
E14  29701469.539   156082430.348       -4584.927          42.000    29701469.981   119595685.465       -3513.058          50.000  
G32                                                                  28212528.589                3      -2458.225          23.000  
G24                                                                  27914736.060                3      -3501.284          21.000  
> 2024 04 15 03 10 30.0110000  0 28                     
S33  43076551.676   226368934.488        -732.729          42.000  
E02  29360257.694   154289197.440        1211.494          40.000    29360257.324   118221622.391         928.203          47.000  
G28  25026109.314   131513082.568         867.862          47.000    25026105.778   102477712.685         676.295          47.000  
E36  28639189.216   150500271.274        1987.711          44.000    28639192.027   115318594.051        1523.025          50.000  
R17  26652276.434   142622227.304       -4889.047          38.000    26652269.496   110928632.472       -3803.058          35.000  
R09  24852980.625   132713530.374        2598.739          48.000    24852976.838   103221897.765        2021.180          48.000  
R16  22724095.778   121388208.704        -434.599          52.000    22724092.149    94412966.196        -338.043          50.000  
G20  27314056.841   143536286.921         -50.700          36.000                                                                  
E11  26162700.319   137486327.541        -310.486          43.000    26162698.151   105346894.694        -237.841          51.000  
G18  26414486.728   138809359.857        2868.366          47.000    26414485.050   108163234.400        2234.797          44.000  
G29  23997937.813   126110419.686        -788.837          47.000    23997933.442    98268130.329        -614.783          45.000  
S31  42122958.802   221357750.550        -732.035          44.000  
E03  30678085.670   161214389.222       -2887.100          42.000    30678094.525   123527830.432       -2212.076          44.000  
R15  25150076.813   134394606.100       -3622.715          51.000    25150075.323   104529307.146       -2817.747          47.000  
R18  23019421.584   122879338.074       -2774.121          51.000    23019418.406    95573112.612       -2157.697          50.000  
R19  22849821.111   122231486.870         708.220          43.000    22849816.670    95068535.530         550.887          48.000  
G05  27899221.612   146611448.457        1274.194          44.000    27899215.740   114242691.825         992.835          35.000  
G11  27287266.595   143396032.315       -3627.523          47.000    27287259.930   111737361.506       -2826.907          36.000  
E24  28968962.141   152233040.937       -2102.901          44.000    28968960.209   116646155.837       -1611.507          49.000  
G12  25474486.431   133869634.840       -2169.655          49.000    25474481.476   104314128.224       -1690.773          46.000  
G25  23895967.911   125574394.557        -640.619          48.000    23895965.766    97850250.310        -499.226          48.000  
E10  28158549.936   147974681.184       -1861.960          48.000    28158549.083   113383452.501       -1426.743          49.000  
E25  26959087.453   141671265.725        -236.655          48.000    26959087.504   108553463.305        -181.362          52.000  
E12  29960714.576   157444994.957       -2891.794          39.000    29960713.263   120639891.917       -2215.721          47.000  
G31  27427127.306   144130512.298        2459.320          34.000    27427123.211   112309500.567        1915.120          32.000  
E14  29727616.040   156219825.677       -4575.169          42.000    29727615.663   119700962.400       -3505.653          51.000  
G32                                                                  28230545.559                3      -2459.481          23.000  
G24                                                                  27940365.874                3      -3497.471          19.000  
> 2024 04 15 03 11 00.0110000  0 28                     
S33  43080735.197   226390918.664        -732.935          42.000  
E02  29353342.188   154252853.738        1211.662          41.000    29353341.015   118193774.669         928.347          47.000  
G28  25021204.634   131487304.489         850.418          46.000    25021200.769   102457625.862         662.767          47.000  
E36  28627863.715   150440755.497        1980.176          44.000    28627866.384   115272991.162        1517.181          50.000  
R17  26679695.049   142768944.603       -4892.266          35.000    26679686.570   111042745.885       -3804.967          34.000  
R09  24838394.994   132635646.684        2593.708          47.000    24838391.685   103161321.591        2017.158          48.000  
R16  22726588.462   121401525.430        -453.091          51.000    22726585.184    94423323.656        -352.404          50.000  
G20  27314388.399   143538036.786         -66.008          31.000                                                                  
E11  26164514.630   137495861.426        -324.951          43.000    26164512.376   105354199.902        -249.099          51.000  
G18  26398130.842   138723413.175        2861.435          45.000    26398129.830   108096263.281        2229.707          44.000  
G29  24002473.616   126134254.314        -800.043          47.000    24002468.287    98286702.738        -623.267          44.000  
S31  42127138.756   221379716.978        -732.183          44.000  
E03  30694578.265   161301054.973       -2890.430          42.000    30694586.637   123594236.306       -2214.789          43.000  
R15  25170452.730   134503485.850       -3635.825          51.000    25170450.010   104613991.327       -2827.924          47.000  
R18  23035068.127   122962861.532       -2794.005          51.000    23035064.900    95638075.309       -2173.093          50.000  
R19  22845916.658   122210601.388         684.172          43.000    22845911.869    95052291.323         532.127          48.000  
G05  27891965.250   146573315.925        1268.031          43.000    27891960.772   114212978.257         988.402          36.000  
G11  27308007.911   143505028.576       -3638.716          47.000    27308002.032   111822293.593       -2835.146          35.000  
E24  28980981.901   152296207.528       -2107.851          43.000    28980981.058   116694556.217       -1615.222          50.000  
G12  25486895.171   133934841.522       -2177.219          49.000    25486889.973   104364938.608       -1696.604          46.000  
G25  23899651.837   125593750.700        -649.707          49.000    23899649.401    97865332.991        -506.244          48.000  
E10  28169218.022   148030741.619       -1875.274          48.000    28169216.978   113426407.908       -1436.952          49.000  
E25  26960450.854   141678430.672        -240.904          48.000    26960451.097   108558953.333        -184.663          52.000  
E12  29977250.089   157531886.972       -2900.833          39.000    29977248.355   120706471.526       -2222.901          47.000  
G31  27413113.074   144056870.574        2450.736          35.000    27413113.120   112252117.353        1909.706          33.000  
E14  29753708.287   156356940.097       -4565.706          43.000    29753707.570   119806024.104       -3498.459          51.000  
G32                                                                  28248564.387                3      -2465.430          23.000  
G24                                                                  27965998.131                3      -3498.075          18.000  
> 2024 04 15 03 11 30.0110000  0 28                     
S33  43084918.281   226412901.063        -732.597          42.000  
E02  29346421.679   154216492.834        1212.083          40.000    29346421.565   118165913.763         929.015          47.000  
G28  25016397.705   131462042.010         833.399          48.000    25016393.134   102437940.795         649.488          47.000  
E36  28616580.139   150381457.511        1973.012          45.000    28616582.491   115227555.153        1511.851          50.000  
R17  26707124.994   142915724.456       -4893.125          34.000    26707115.186   111156908.051       -3806.176          34.000  
R09  24823837.520   132557910.493        2588.827          48.000    24823833.676   103100860.098        2013.469          47.000  
R16  22729182.545   121415388.187        -471.189          50.000    22729180.791    94434105.791        -366.460          51.000  
G20  27314807.122   143540245.317         -81.466          31.000                                                                  
E11  26166410.915   137505827.249        -339.506          43.000    26166408.656   105361836.070        -260.146          51.000  
G18  26381813.312   138637669.356        2854.760          44.000    26381813.075   108029450.254        2224.462          45.000  
G29  24007071.219   126158417.715        -810.803          47.000    24007066.574    98305531.405        -632.062          44.000  
S31  42131318.677   221401681.212        -731.762          44.000  
E03  30711089.118   161387816.545       -2893.491          44.000    30711097.824   123660715.604       -2217.199          44.000  
R15  25190901.904   134612753.734       -3648.638          52.000    25190898.392   104698977.418       -2837.823          48.000  
R18  23050824.271   123046970.505       -2813.250          50.000    23050822.459    95703493.425       -2188.113          51.000  
R19  22842146.316   122190435.172         660.449          43.000    22842141.501    95036606.509         513.615          48.000  
G05  27884742.871   146535363.925        1261.977          43.000    27884739.503   114183405.349         983.264          38.000  
G11  27328811.971   143614353.592       -3649.536          47.000    27328805.798   111907481.935       -2843.548          36.000  
E24  28993028.363   152359516.498       -2112.605          43.000    28993028.388   116743065.671       -1618.820          50.000  
G12  25499346.349   134000270.859       -2184.524          50.000    25499340.956   104415922.490       -1702.228          46.000  
G25  23903386.043   125613374.711        -658.514          48.000    23903383.793    97880624.445        -513.116          48.000  
E10  28179960.123   148087193.001       -1888.125          47.000    28179959.420   113469662.862       -1446.797          49.000  
E25  26961837.356   141685719.171        -244.917          48.000    26961837.906   108564538.025        -187.642          52.000  
E12  29993836.392   157619050.891       -2910.161          38.000    29993834.593   120773259.476       -2229.821          47.000  
G31  27399146.614   143983464.889        2442.796          36.000    27399146.291                        1903.751          31.000  
E14  29779745.677   156493770.841       -4556.119          43.000    29779745.498   119910868.437       -3491.140          51.000  
G32                                                                  28266606.580                3      -2457.575          22.000  
G24                                                                  27991632.988                3      -3498.569          16.000  
> 2024 04 15 03 12 00.0110000  0 28                     
S33  43089101.173   226434882.254        -732.508          42.000  
E02  29339499.481   154180115.572        1213.201          40.000    29339499.177   118138040.339         929.519          47.000  
G28  25011688.889   131437297.245         816.528          47.000    25011683.939   102418659.170         636.128          47.000  
E36  28605337.998   150322379.365        1965.841          46.000    28605340.439   115182287.580        1506.290          50.000  
R17  26734564.525                       -4895.834          29.000    26734556.457   111271116.433       -3807.510          32.000  
R09  24809308.584   132480325.387        2583.860          48.000    24809304.150   103040516.127        2009.658          47.000  
R16  22731880.299   121429798.927        -489.288          50.000    22731878.074    94445314.150        -380.631          50.000  
G20  27315318.648   143542914.656         -96.228          35.000                                                                  
E11  26168389.506   137516225.397        -353.432          43.000    26168387.447   105369803.506        -270.848          51.000  
G18  26365535.891   138552131.677        2847.969          44.000    26365536.175   107962797.826        2219.252          45.000  
G29  24011731.616   126182909.274        -821.655          47.000    24011727.145    98324615.746        -640.070          44.000  
S31  42135497.805   221423643.065        -731.826          44.000  
E03  30727617.657   161474672.236       -2896.568          43.000    30727626.409   123727266.965       -2219.167          44.000  
R15  25211421.951   134722408.701       -3661.334          51.000    25211419.176   104784264.578       -2847.545          48.000  
R18  23066690.483   123131662.080       -2832.450          51.000    23066688.160    95769364.657       -2203.033          51.000  
R19  22838510.974   122170988.392         636.410          42.000    22838506.230    95021481.284         495.002          47.000  
G05  27877555.976   146497595.935        1255.902          43.000    27877552.638   114153975.896         978.655          39.000  
G11  27349677.857   143724005.031       -3660.248          47.000    27349672.539   111992924.634       -2852.173          36.000  
E24  29005104.170   152422968.704       -2117.164          43.000    29005103.029   116791684.872       -1622.250          51.000  
G12  25511839.207   134065923.852       -2192.023          50.000    25511834.740   104467080.667       -1707.982          47.000  
G25  23907171.260   125633268.248        -667.366          48.000    23907169.072    97896125.900        -520.002          47.000  
E10  28190776.914   148144034.519       -1900.905          47.000    28190776.247   113513216.757       -1456.525          50.000  
E25  26963248.119   141693132.506        -248.949          48.000    26963248.727   108570218.373        -190.666          52.000  
E12  30010476.114   157706485.327       -2918.839          39.000    30010473.762   120840254.724       -2236.479          48.000  
G31  27385224.092   143910298.415        2435.012          38.000    27385221.397                        1898.161          29.000  
E14  29805730.658   156630317.253       -4546.516          43.000    29805729.406   120015494.906       -3483.712          50.000  
G32                                                                  28284657.992                3      -2464.752          20.000  
G24                                                                  28017292.652                3      -3524.479          14.000  
> 2024 04 15 03 12 30.0110000  0 27                     
S33  43093282.217   226456854.299        -732.306          42.000  
E02  29332572.950   154143716.259        1213.586          40.000    29332572.483   118110150.004         929.909          47.000  
G28  25007077.968   131413065.837         799.205          47.000    25007073.122   102399777.551         622.615          47.000  
E36  28594134.846   150263516.525        1958.432          45.000    28594139.155   115137184.991        1500.690          51.000  
R17  26762013.927                       -4897.353          31.000    26762006.340   111385363.560       -3808.493          34.000  
R09  24794807.896   132402887.911        2578.767          49.000    24794802.639   102980286.972        2005.740          47.000  
R16  22734681.001   121444753.801        -507.521          52.000    22734677.113    94456945.739        -394.804          49.000  
G20  27315910.726   143546039.987        -111.722          34.000                                                                  
E11  26170449.950   137527049.790        -367.708          43.000    26170447.407   105378097.546        -281.836          51.000  
G18  26349295.957   138466796.688        2841.160          43.000    26349297.317   107896303.355        2213.830          46.000  
G29  24016453.792   126207721.336        -832.458          48.000    24016448.542    98343949.835        -648.383          44.000  
S31  42139675.481   221445597.264        -731.473          43.000  
E03  30744161.593   161561613.752       -2899.449          42.000    30744170.961   123793884.115       -2221.725          44.000  
R15  25232012.751   134832443.400       -3674.203          50.000    25232011.045   104869847.092       -2857.699          49.000  
R18  23082662.828   123216926.422       -2851.687          50.000    23082660.351    95835681.361       -2217.970          50.000  
R19  22835008.556   122152255.369         612.650          42.000    22835003.091    95006911.185         476.350          46.000  
G05  27870403.784   146460008.791        1250.012          43.000    27870399.668   114124687.326         973.744          39.000  
G11  27370604.137   143833974.062       -3670.880          48.000    27370598.437   112078614.847       -2860.579          37.000  
E24  29017203.203   152486558.323       -2122.052          42.000    29017203.758   116840409.362       -1625.847          51.000  
G12  25524373.940   134131794.708       -2199.503          49.000    25524369.741   104518408.599       -1713.755          47.000  
G25  23911007.305   125653426.298        -676.313          48.000    23911004.794    97911833.496        -527.169          47.000  
E10  28201665.605   148201258.753       -1913.780          47.000    28201665.648   113557063.911       -1466.487          50.000  
E25  26964681.487   141700665.311        -253.020          48.000    26964682.190   108575990.274        -193.946          52.000  
E12  30027165.022   157794182.303       -2927.624          39.000    30027161.543   120907451.122       -2243.175          47.000  
G31  27371345.884   143837367.776        2427.074          37.000    27371345.008                        1890.788          28.000  
E14  29831658.992   156766572.137       -4536.748          43.000    29831657.999   120119897.998       -3476.375          51.000  
G32                                                                  28302727.101                3      -2466.082          20.000  
> 2024 04 15 03 13 00.0110000  0 27                     
S33  43097462.202   226478820.700        -732.147          42.000  
E02  29325641.216   154107297.610        1214.582          38.000    29325642.516   118082244.872         930.412          47.000  
G28  25002565.392   131389351.824         781.950          47.000    25002560.697   102381299.097         609.197          47.000  
E36  28582975.438   150204872.978        1951.202          45.000    28582979.544   115092250.437        1495.009          51.000  
R17  26789474.169                       -4898.763          29.000    26789466.372                       -3809.836          31.000  
R09  24780335.664   132325603.692        2573.520          50.000    24780330.175   102920177.027        2001.584          48.000  
R16  22737584.014   121460256.942        -526.009          52.000    22737578.818    94469003.721        -409.093          49.000  
G20  27316594.955   143549625.364        -127.751          36.000                                                                  
E11  26172591.532   137538302.765        -382.297          43.000    26172588.679   105386719.964        -292.893          51.000  
G18  26333097.530   138381669.577        2834.052          45.000    26333098.578   107829970.825        2208.396          46.000  
G29  24021236.732   126232854.926        -843.176          47.000    24021231.564    98363534.476        -657.227          44.000  
S31  42143851.977   221467545.235        -731.448          44.000  
E03  30760723.006   161648641.324       -2902.387          43.000    30760732.363   123860567.196       -2223.871          43.000  
R15  25252675.926   134942858.954       -3686.936          49.000    25252674.006   104955725.774       -2867.487          49.000  
R18  23098741.603   123302762.183       -2870.723          50.000    23098740.115    95902442.507       -2232.708          50.000  
R19  22831640.997   122134239.716         588.452          42.000    22831635.587    94992899.034         457.701          47.000  
G05  27863285.416   146422607.431        1243.572          41.000    27863282.071   114095543.490         969.104          40.000  
G11  27391590.798   143944260.351       -3681.357          47.000    27391585.481   112164552.216       -2868.801          40.000  
E24  29029330.437   152550288.067       -2126.405          42.000    29029331.739   116889241.231       -1629.477          52.000  
G12  25536950.397   134197886.072       -2206.844          49.000    25536946.097   104569908.354       -1719.490          46.000  
G25  23914895.029   125673852.417        -685.410          49.000    23914891.903    97927749.931        -533.967          47.000  
E10  28212628.861   148258866.844       -1926.605          48.000    28212628.243   113601205.175       -1476.236          50.000  
E25  26966138.190   141708320.784        -257.260          48.000    26966139.019   108581856.153        -197.017          52.000  
E12  30043901.598   157882142.474       -2936.331          37.000    30043899.616   120974849.174       -2249.950          47.000  
G31  27357513.047   143764677.903        2418.704          38.000    27357522.348                3       1884.647          24.000  
E14  29857533.361   156902536.877       -4527.252          44.000    29857530.970   120224078.757       -3469.030          50.000  
G32                                                                  28320799.241                3      -2466.527          19.000  
> 2024 04 15 03 13 30.0110000  0 27                     
S33  43101640.391   226500777.479        -731.482          42.000  
E02  29318705.418   154070856.050        1215.562          38.000    29318707.806   118054322.155         931.283          47.000  
G28  24998150.536   131366152.855         764.974          47.000    24998145.581   102363221.962         596.110          46.000  
E36  28571856.331   150146446.307        1944.212          45.000    28571860.962   115047482.020        1489.734          51.000  
R17  26816923.869                3      -4907.190          21.000    26816924.460                3      -3806.246          14.000  
R09  24765891.728   132248471.454        2568.728          49.000    24765886.385   102860185.310        1997.933          48.000  
R16  22740588.404   121476306.284        -543.796          52.000    22740583.802    94481486.545        -422.894          49.000  
G20  27317364.360   143553668.275        -142.433          37.000                                                                  
E11  26174813.033   137549980.254        -396.100          43.000    26174810.852   105395667.660        -303.378          51.000  
G18  26316937.777   138296748.991        2827.443          44.000    26316938.656   107763799.210        2203.196          46.000  
G29  24026079.821   126258304.800        -853.394          48.000    24026075.465    98383365.548        -664.807          45.000  
S31  42148026.753   221489483.315        -731.003          44.000  
E03  30777299.158   161735748.749       -2904.599          42.000    30777309.163   123927311.506       -2225.839          44.000  
R15  25273409.483   135053650.119       -3698.947          52.000    25273406.847   105041896.603       -2876.961          48.000  
R18  23114927.992   123389161.688       -2888.971          51.000    23114925.978    95969642.139       -2247.110          51.000  
R19  22828406.267   122116937.504         565.123          42.000    22828401.336    94979441.803         439.498          46.000  
G05  27856202.892   146385390.916        1237.615          42.000    27856199.975   114066543.693         964.507          39.000  
G11  27412636.244   144054857.108       -3691.324          47.000    27412632.003   112250731.510       -2876.090          40.000  
E24  29041484.079   152614154.293       -2130.813          43.000    29041484.687   116938177.699       -1632.772          51.000  
G12  25549568.697   134264194.117       -2213.510          50.000    25549563.834   104621576.966       -1725.038          45.000  
G25  23918832.232   125694543.636        -693.916          49.000    23918829.382    97943872.970        -540.687          46.000  
E10  28223663.055   148316853.438       -1938.871          48.000    28223662.768   113645636.459       -1485.682          50.000  
E25  26967617.789   141716095.645        -260.896          48.000    26967618.569   108587813.517        -199.926          52.000  
E12  30060690.381   157970359.866       -2944.621          38.000    30060686.856   121042444.353       -2256.155          47.000  
G31  27343726.447   143692227.256        2411.685          37.000    27343763.523                3       1883.195          21.000  
E14  29883349.028   157038206.368       -4517.074          43.000    29883348.269   120328033.288       -3461.101          51.000  
G32                                                                  28338878.603                3      -2451.780          10.000  
> 2024 04 15 03 14 00.0110000  0 26                     
S33  43105816.007   226522720.387        -731.307          42.000  
E02  29311766.848   154034389.335        1215.590          38.000    29311768.488   118026380.161         931.549          47.000  
G28  24993833.723   131343467.840         747.564          47.000    24993828.784   102345545.334         582.411          47.000  
E36  28560780.133   150088235.380        1936.726          45.000    28560784.030   115002878.918        1483.969          51.000  
R17  26844416.300   143649799.4241      -4900.526          34.000                                                                  
R09  24751475.306   132171491.728        2563.278          48.000    24751470.579   102800312.208        1993.611          48.000  
R16  22743695.232   121492900.907        -562.296          52.000    22743690.813    94494393.471        -437.390          49.000  
G20  27318221.679   143558167.873        -157.564          37.000                                                                  
E11  26177114.838   137562079.440        -410.347          42.000    26177113.078   105404938.491        -314.395          51.000  
G18  26300817.412   138212035.024        2820.155          45.000    26300817.737   107697788.613        2197.493          46.000  
G29  24030982.500   126284066.898        -864.038          48.000    24030977.937    98403439.925        -673.236          45.000  
S31  42152199.003   221511408.533        -730.679          43.000  
E03  30793890.676   161822931.250       -2907.477          42.000    30793899.819   123994113.268       -2227.783          45.000  
R15  25294211.748   135164812.657       -3711.784          52.000    25294209.255   105128356.312       -2886.867          48.000  
R18  23131218.521   123476118.431       -2907.903          52.000    23131215.964    96037275.151       -2261.753          50.000  
R19  22825305.464   122100346.439         541.003          43.000    22825299.517    94966537.669         420.857          46.000  
G05  27849156.718   146348358.292        1231.215          42.000    27849153.068   114037687.188         959.440          40.000  
G11  27433740.298   144165758.986       -3701.945          47.000    27433735.560   112337148.627       -2884.755          40.000  
E24  29053663.619   152678154.677       -2135.594          43.000    29053663.554   116987216.954       -1636.435          51.000  
G12  25562227.540   134330717.275       -2221.159          50.000    25562222.489   104673413.174       -1730.813          45.000  
G25  23922819.692   125715498.489        -703.043          49.000    23922817.003    97960201.437        -547.762          47.000  
E10  28234769.263   148375214.584       -1951.623          48.000    28234768.595   113690354.722       -1495.434          50.000  
E25  26969119.406   141723988.022        -265.057          48.000    26969120.472   108593860.924        -203.166          52.000  
E12  30077524.785   158058830.090       -2953.302          36.000    30077522.418   121110233.199       -2262.966          47.000  
G31  27329984.363   143620015.894        2402.982          36.000    27329990.276                3       1870.139          22.000  
E14  29909110.173   157173576.928       -4507.565          43.000    29909108.142   120431758.776       -3453.772          50.000  
> 2024 04 15 03 14 30.0110000  0 26                     
S33  43109990.206   226544655.588        -731.005          42.000  
E02  29304823.494   153997902.931        1216.915          38.000    29304825.397   117998423.101         932.278          47.000  
G28  24989616.043   131321303.622         730.073          46.000    24989611.418   102328274.474         568.991          47.000  
E36  28549744.959   150030246.863        1929.339          45.000    28549749.123   114958446.257        1478.339          51.000  
R17  26871892.941                       -4901.903          26.000    26871904.389                       -3812.420          26.000  
R09  24737089.387   132094672.402        2557.869          49.000    24737084.667   102740563.851        1989.541          48.000  
R16  22746904.398   121510047.616        -580.742          52.000    22746900.300    94507729.765        -451.648          49.000  
G20  27319167.518   143563130.469        -173.196          37.000                                                                  
E11  26179498.473   137574605.404        -424.534          42.000    26179496.643   105414536.318        -325.357          51.000  
G18  26284737.691   138127535.467        2813.171          46.000    26284737.130   107631945.073        2192.117          46.000  
G29  24035944.657   126310144.798        -874.408          47.000    24035939.644    98423760.380        -681.354          44.000  
S31  42156369.361   221533325.639        -730.031          43.000  
E03  30810496.600   161910191.754       -2909.792          42.000    30810504.771   124060974.775       -2229.793          45.000  
R15  25315084.564   135276350.773       -3724.051          51.000    25315082.114   105215108.143       -2896.394          47.000  
R18  23147612.614   123563634.055       -2926.414          51.000    23147610.290    96105342.844       -2276.052          50.000  
R19  22822338.176   122084471.863         517.430          42.000    22822331.933    94954190.831         402.277          47.000  
G05  27842146.487   146311518.547        1224.778          44.000    27842143.327   114008980.988         954.540          41.000  
G11  27454903.309   144276968.291       -3712.018          46.000    27454898.750   112423805.221       -2892.349          43.000  
E24  29065868.577   152742294.666       -2140.512          43.000    29065868.649   117036363.163       -1640.015          51.000  
G12  25574928.548   134397460.647       -2228.395          50.000    25574922.492   104725420.987       -1736.368          44.000  
G25  23926858.076   125736723.186        -711.880          49.000    23926855.959    97976740.169        -554.825          47.000  
E10  28245947.449   148433954.023       -1964.142          49.000    28245945.988   113735362.860       -1504.970          50.000  
E25  26970644.908   141732003.824        -269.131          48.000    26970645.871   108600002.896        -206.240          52.000  
E12  30094408.789   158147556.371       -2961.515          36.000    30094405.503   121178218.289       -2269.320          46.000  
G31  27316288.989   143548051.217        2394.755          37.000    27316307.755                        1866.209          29.000  
E14  29934815.461   157308652.657       -4497.480          43.000    29934812.510   120535258.323       -3446.048          51.000  
