     3.00           OBSERVATION DATA    M: Mixed            RINEX VERSION / TYPE
CONVBIN 2.4.3                           20240415 005941 UTC PGM / RUN BY / DATE 
format: u-blox UBX                                          COMMENT             
log: /home/regis/git/gnsspwv/obsdata/VERT00CHL/2024-04-15/VECOMMENT             
{self.marker}                                               MARKER NAME         
                                                            MARKER NUMBER       
GEODETIC                                                    MARKER TYPE         
{self.observer}     {self.institution}                      OBSERVER / AGENCY   
UNKNOWN             UBLOX-ZED-F9P                           REC # / TYPE / VERS 
UNKNOWN             TWIVSP6037L                             ANT # / TYPE        
  1713381.0000 -5047934.0000 -3490983.0000                  APPROX POSITION XYZ 
        0.0000        0.0000        0.0000                  ANTENNA: DELTA H/E/N
G    8 C1C L1C D1C S1C C2L L2L D2L S2L                      SYS / # / OBS TYPES 
R    8 C1C L1C D1C S1C C2C L2C D2C S2C                      SYS / # / OBS TYPES 
E    8 C1C L1C D1C S1C C7Q L7Q D7Q S7Q                      SYS / # / OBS TYPES 
S    4 C1C L1C D1C S1C                                      SYS / # / OBS TYPES 
  2024    04    15    00    45   00.0070000     GPS         TIME OF FIRST OBS   
  2024    04    15    00    59   30.0070000     GPS         TIME OF LAST OBS    
                                                            END OF HEADER       
> 2024 04 15 00 45 00.0070000  0 30                     
S33  41826241.430   219798470.7591       -768.444          43.000  
E33  29475328.939   154893910.3831      -1569.748          40.000    29475329.774   118684992.4381      -1202.891          48.000  
G15  25856028.002   135874004.4061      -3966.132          45.000    25856046.568   105875794.3011      -3090.527          40.000  
G32  25648564.119   134784125.5301        845.719          40.000    25648563.544   105026547.2871        659.230          40.000  
R14  23998684.267   127926544.9951      -2578.371          46.000    23998681.689    99498505.0771      -2005.364          44.000  
R17  22048140.037   117984550.2401        614.473          51.000    22048135.514    91765989.8741        477.938          50.000  
R06  24931181.666                1       -259.763          31.000                                                                  
R05  24178117.328   129245861.4241      -3864.320          47.000    24178119.712   100524556.5031      -3005.553          50.000  
R16  24451613.762   130616269.3541       1584.550          44.000    24451612.418   101590338.4611       1232.577          46.000  
G19  26326291.759   138345644.6121      -4231.566          37.000                                                                  
E11  28309359.254   148766728.3861       2107.092          38.000    28309378.848   113990221.3271       1614.413          41.000  
G06  25288533.916   132892343.2101       -659.089          39.000    25288531.789   103552527.6811       -513.577          40.000  
G29  25736348.924   135245573.3501       2689.746          34.000    25736363.848   105386365.3381       2096.039          39.000  
S31  40873628.051   214792439.4971       -767.312          44.000  
E03  28013380.370   147211358.5901        198.674          43.000    28013382.577   112798261.2761        152.113          46.000  
R15  22260649.192   118954385.9001       -334.794          52.000    22260645.649    92520249.8171       -260.472          48.000  
R18  24073529.172   128506062.1571       3413.969          51.000    24073536.021    99949411.2371       2655.286          50.000  
R24  23980902.648   128236991.7811      -3375.091          51.000    23980898.680    99739904.0281      -2625.151          49.000  
E31  28874759.542   151737861.6321      -2512.868          39.000    28874763.016   116266749.3571      -1925.504          46.000  
E09  29142519.722   153144620.3631      -3812.625          43.000    29142544.262   117344503.5401      -2921.365          46.000  
G11  25191752.629   132383984.8081       1174.501          47.000    25191750.170   103156532.8201        915.164          45.000  
E24  26234602.482   137863888.9611      -1344.055          48.000    26234601.916   105636025.8331      -1029.962          50.000  
G24  22554079.817   118522590.6601      -1219.436          49.000    22554077.874    92355335.1521       -950.240          47.000  
G12  23241844.794   122137018.4231       -644.280          47.000    23241841.338    95171827.5951       -502.080          47.000  
E05  25247010.976   132673996.6171      -2369.283          45.000    25247015.534   101659332.9451      -1815.373          51.000  
G25  24184288.120   127089495.3251        714.449          48.000    24184286.081    99030840.9091        556.701          42.000  
E10  28339886.773   148927534.3981       1691.797          46.000    28339890.788   114113540.9181       1296.267          50.000  
E25  27117864.145   142505615.7401        348.359          47.000    27117866.683   109192762.2981        267.032          50.000  
E12  28192731.133   148154129.2401        851.898          43.000    28192730.213   113520906.7621        652.719          47.000  
E14  21540599.099   113196749.1661      -3568.282          48.000    21540600.470    86735223.5901      -2734.123          53.000  
> 2024 04 15 00 45 30.0070000  0 30                     
S33  41830627.183   219821517.235        -768.473          43.000  
E33  29484330.567   154941211.833       -1584.084          40.000    29484330.932   118721236.435       -1213.701          49.000  
G15  25878670.935   135992997.911       -3967.193          44.000    25878690.458   105968516.882       -3091.364          40.000  
G32  25643785.299   134759010.647         828.167          41.000    25643784.168   105006977.273         645.059          39.000  
R14  24013208.668   128003980.751       -2584.400          47.000    24013208.607    99558732.829       -2010.343          43.000  
R17  22044769.884   117966509.941         587.746          52.000    22044763.794    91751958.573         457.159          49.000  
R06  24932700.617                3       -285.461          24.000                                                                  
R05  24199839.868   129361981.426       -3877.254          48.000    24199841.206   100614871.642       -3015.708          50.000  
R16  24442713.419   130568725.285        1584.637          44.000    24442711.908   101553359.782        1232.467          45.000  
G19  26350458.495   138472642.648       -4235.525          40.000                                                                  
E11  28297326.642   148703506.658        2107.292          39.000    28297346.535   113941780.496        1614.616          41.000  
G06  25292347.694   132912383.123        -677.548          40.000    25292346.466   103568143.248        -528.005          41.000  
G29  25721012.184   135164985.640        2682.186          35.000    25721026.775   105323571.399        2090.050          38.000  
S31  40878010.870   214815472.075        -768.358          43.000  
E03  28012285.187   147205602.239         184.907          43.000    28012287.436   112793850.566         141.629          46.000  
R15  22262545.114   118964516.889        -341.025          52.000    22262540.820    92528129.489        -265.331          48.000  
R18  24054363.343   128403763.577        3405.474          50.000    24054370.862    99869846.724        2648.682          49.000  
R24  23999895.736   128338555.699       -3396.263          51.000    23999890.748    99818898.205       -2641.526          48.000  
E31  28889104.998   151813243.245       -2512.871          39.000    28889107.680   116324509.265       -1925.317          46.000  
E09  29164285.817   153259003.082       -3813.225          43.000    29164310.847   117432146.957       -2921.775          46.000  
G11  25185082.102   132348928.384        1162.106          47.000    25185079.432   103129216.237         905.634          46.000  
E24  26242282.386   137904245.552       -1346.546          48.000    26242281.529   105666948.408       -1031.792          50.000  
G24  22561086.003   118559408.721       -1235.469          48.000    22561084.396    92384024.558        -962.770          47.000  
G12  23245538.077   122156425.709        -649.891          48.000    23245534.315    95186950.187        -506.550          46.000  
E05  25260568.674   132745245.190       -2381.133          45.000    25260573.802   101713925.942       -1824.392          51.000  
G25  24180218.442   127068112.223         710.574          47.000    24180217.155    99014178.809         553.745          42.000  
E10  28330243.654   148876866.705        1685.792          45.000    28330248.881   114074717.855        1291.642          50.000  
E25  27115881.649   142495198.528         345.624          47.000    27115884.372   109184780.337         264.849          50.000  
E12  28187898.189   148128734.673         840.653          43.000    28187897.954   113501448.661         644.138          48.000  
E14  21561043.951   113304184.949       -3594.523          48.000    21561044.872    86817544.533       -2754.135          53.000  
> 2024 04 15 00 46 00.0070000  0 30                     
S33  41835015.909   219844579.361        -769.068          43.000  
E33  29493412.484   154988939.844       -1598.604          39.000    29493413.032   118757807.232       -1224.595          48.000  
G15  25901319.345   136112019.952       -3967.975          42.000    25901338.269   106061261.734       -3092.181          38.000  
G32  25639108.015   134734432.193         810.129          42.000    25639106.227   104987825.266         631.230          38.000  
R14  24027772.642   128081606.193       -2590.904          46.000    24027769.969    99619108.190       -2015.229          43.000  
R17  22041549.451   117949275.459         560.737          53.000    22041543.205    91738554.013         436.293          49.000  
R06  24934377.749                1       -308.689          30.000                                                                  
R05  24221636.275   129478492.577       -3890.479          48.000    24221637.631   100705491.031       -3025.880          49.000  
R16  24433814.445   130521185.748        1584.366          45.000    24433812.981   101516384.676        1232.406          44.000  
G19  26374647.382   138599759.661       -4239.463          42.000                                                                  
E11  28285293.146   148640277.900        2107.316          38.000    28285313.189   113893334.289        1614.598          42.000  
G06  25296267.263   132932990.802        -696.828          36.000    25296266.692   103584201.191        -542.840          41.000  
G29  25705720.802   135084626.668        2674.459          38.000    25705732.483   105260955.586        2084.112          39.000  
S31  40882396.715   214838520.069        -768.907          44.000  
E03  28011267.485   147200258.415         171.041          42.000    28011270.122   112789755.943         131.026          46.000  
R15  22264477.497   118974841.569        -347.599          53.000    22264473.410    92536159.806        -270.340          48.000  
R18  24035247.434   128301724.931        3396.706          50.000    24035254.543    99790484.377        2641.835          49.000  
R24  24019007.980   128440760.250       -3417.687          51.000    24019003.555    99898390.631       -2658.156          48.000  
E31  28903448.977   151888624.178       -2512.820          37.000    28903452.767   116382268.690       -1925.431          46.000  
E09  29186056.723   153373410.736       -3814.006          42.000    29186082.347   117519809.596       -2922.478          46.000  
G11  25178483.015   132314251.076        1149.246          47.000    25178480.719   103102195.075         895.706          46.000  
E24  26249976.718   137944675.123       -1348.989          49.000    26249974.841   105697926.925       -1033.626          50.000  
G24  22568184.674   118596717.142       -1251.918          47.000    22568184.766    92413096.032        -975.539          48.000  
G12  23249264.565   122176006.314        -655.861          48.000    23249260.022    95202207.835        -510.979          46.000  
E05  25274194.982   132816849.418       -2392.890          45.000    25274199.684   101768791.449       -1833.494          51.000  
G25  24176171.751   127046846.912         706.645          46.000    24176171.463    98997608.483         550.617          44.000  
E10  28320637.400   148826385.035        1679.358          45.000    28320642.614   114036037.326        1286.780          50.000  
E25  27113916.033   142484867.564         342.813          47.000    27113918.945   109176864.456         262.621          50.000  
E12  28183129.401   148103675.483         829.419          42.000    28183129.547   113482247.516         635.570          48.000  
E14  21581638.440   113412404.010       -3620.575          49.000    21581638.647    86900465.644       -2774.182          54.000  
> 2024 04 15 00 46 30.0070000  0 30                     
S33  41839406.222   219867651.571        -769.140          43.000  
E33  29502575.145   155037089.452       -1611.983          39.000    29502575.699   118794701.116       -1234.914          49.000  
G15  25923972.668   136231063.049       -3968.091          42.000    25923991.130   106154022.947       -3091.974          37.000  
G32  25634531.821   134710387.245         792.906          41.000    25634530.059   104969088.952         617.784          38.000  
R14  24042370.234   128159417.217       -2596.514          45.000    24042366.755    99679627.842       -2019.448          43.000  
R17  22038478.285   117932844.221         534.523          52.000    22038473.076    91725774.204         415.794          49.000  
R06  24936176.046   133064175.2051       -332.899          32.000                                                                  
R05  24243502.669   129595385.631       -3902.340          46.000    24243505.117   100796407.463       -3035.176          49.000  
R16  24424915.755   130473646.704        1584.862          45.000    24424912.645   101479409.935        1232.829          43.000  
G19  26398858.031   138726989.042       -4242.579          44.000                                                                  
E11  28273258.945   148577039.710        2108.334          38.000    28273277.935   113844880.877        1615.392          43.000  
G06  25300294.668   132954162.583        -714.733          35.000    25300297.149   103600698.746        -556.851          42.000  
G29  25690471.871   135004494.042        2667.665          40.000    25690482.240   105198516.165        2078.490          40.000  
S31  40886784.791   214861578.487        -768.398          44.000  
E03  28010328.065   147195323.421         158.225          43.000    28010330.972   112785974.585         121.128          46.000  
R15  22266444.497   118985356.277        -353.376          51.000    22266440.941    92544337.901        -274.830          48.000  
R18  24016180.092   128199946.140        3388.511          49.000    24016186.974    99711324.116        2635.593          49.000  
R24  24038238.289   128543597.352       -3438.126          50.000    24038235.453    99978375.062       -2674.025          50.000  
E31  28917793.685   151964000.218       -2512.445          38.000    28917796.092   116440024.335       -1924.911          46.000  
E09  29207830.084   153487837.126       -3814.423          39.000    29207856.834   117607486.633       -2922.523          45.000  
G11  25171955.957   132279951.351        1137.242          46.000    25171953.775   103075468.133         886.243          46.000  
E24  26257683.326   137985172.991       -1350.713          49.000    26257681.231   105728957.785       -1034.880          50.000  
G24  22575377.456   118634512.195       -1267.633          48.000    22575376.904    92442546.687        -987.664          48.000  
G12  23253022.129   122195755.116        -660.954          47.000    23253017.776    95217596.519        -514.814          45.000  
E05  25287888.002   132888803.475       -2403.971          46.000    25287892.237   101823925.028       -1842.007          51.000  
G25  24172146.218   127025694.669         703.579          46.000    24172145.885    98981126.288         548.427          43.000  
E10  28311065.467   148776087.093        1673.754          44.000    28311070.878   113997497.598        1282.462          50.000  
E25  27111965.778   142474618.006         340.657          48.000    27111968.385   109169010.940         260.998          50.000  
E12  28178423.532   148078948.990         818.902          43.000    28178424.116   113463301.327         627.654          48.000  
E14  21602378.821   113521396.059       -3645.542          50.000    21602379.155    86983979.058       -2793.328          54.000  
> 2024 04 15 00 47 00.0070000  0 30                     
S33  41843796.009   219890720.119        -768.807          43.000  
E33  29511816.342   155085645.550       -1625.033          39.000    29511815.591   118831906.445       -1245.087          48.000  
G15  25946626.255   136350109.673       -3968.023          41.000    25946643.906   106246787.012       -3092.126          36.000  
G32  25630055.685   134686862.565         775.842          43.000    25630053.165   104950758.022         604.324          39.000  
R14  24057001.581   128237400.112       -2602.151          47.000    24056995.512    99740281.195       -2023.844          41.000  
R17  22035555.252   117917203.747         508.266          53.000    22035550.460    91713609.418         395.323          50.000  
R06  24938110.375                        -355.247          31.000                                                                  
R05  24265438.384   129712641.138       -3914.354          47.000    24265440.317   100887605.744       -3044.491          49.000  
R16  24416013.371   130426093.929        1585.441          46.000    24416010.336   101442424.501        1233.148          43.000  
G19  26423087.676   138854313.314       -4245.514          45.000                                                                  
E11  28261219.981   148513779.572        2109.251          37.000    28261238.463   113796410.653        1616.354          43.000  
G06  25304429.273   132975884.750        -733.258          38.000    25304430.911   103617625.168        -571.078          42.000  
G29  25675262.838   134924575.484        2660.490          41.000    25675272.574   105136243.498        2073.373          41.000  
S31  40891171.732   214884632.958        -768.171          44.000  
E03  28009465.019   147190783.402         144.919          43.000    28009467.384   112782495.866         111.160          46.000  
R15  22268445.184   118996047.723        -359.203          51.000    22268442.069    92552653.506        -279.435          49.000  
R18  23997159.056   128098416.728        3380.277          50.000    23997166.080    99632357.771        2629.093          49.000  
R24  24057584.634   128647048.797       -3458.423          50.000    24057580.908   100058837.315       -2689.843          49.000  
E31  28932135.109   152039356.911       -2511.490          39.000    28932135.718   116497765.162       -1924.385          45.000  
E09  29229606.024   153602265.769       -3814.316          38.000    29229631.702   117695165.476       -2922.409          44.000  
G11  25165498.286   132246017.374        1125.089          47.000    25165497.199   103049026.220         876.733          47.000  
E24  26265399.822   138025724.349       -1352.362          49.000    26265397.904   105760029.618       -1036.220          50.000  
G24  22582660.120   118672779.990       -1283.340          48.000    22582658.853    92472365.743       -1000.039          47.000  
G12  23256809.231   122215656.598        -665.751          48.000    23256804.564    95233104.204        -518.727          45.000  
E05  25301644.010   132961091.306       -2414.854          46.000    25301648.344   101879314.347       -1850.348          51.000  
G25  24168140.069   127004640.674         700.311          47.000    24168139.560    98964720.644         545.651          43.000  
E10  28301526.331   148725960.476        1668.294          44.000    28301531.591   113959089.146        1278.217          49.000  
E25  27110028.078   142464434.842         338.474          48.000    27110030.589   109161208.284         259.447          50.000  
E12  28173779.376   148054542.335         808.460          42.000    28173779.140   113444600.210         619.466          47.000  
E14  21623263.227   113631140.707       -3670.459          50.000    21623262.695    87068069.147       -2812.368          54.000  
> 2024 04 15 00 47 30.0070000  0 30                     
S33  41848183.246   219913776.231        -768.157          42.000  
E33  29521130.602   155134599.388       -1638.416          39.000    29521131.401   118869416.574       -1255.540          48.000  
G15  25969277.464   136469149.192       -3967.731          40.000    25969296.330   106339545.583       -3091.650          36.000  
G32  25625677.294   134663851.274         758.533          41.000    25625675.965   104932827.136         591.101          40.000  
R14  24071659.783   128315547.141       -2607.618          45.000    24071655.444    99801062.145       -2028.165          42.000  
R17  22032779.527   117902347.574         481.933          53.000    22032774.225    91702054.656         374.887          50.000  
R06  24940179.153   133085562.288        -380.204          33.000                                                                  
R05  24287439.753   129830246.475       -3925.999          47.000    24287440.565   100979076.125       -3053.546          48.000  
R16  24407107.029   130378519.101        1586.209          47.000    24407104.355   101405421.958        1233.655          43.000  
G19  26447333.060   138981721.936       -4248.534          45.000                                                                  
E11  28249174.515   148450491.305        2110.127          38.000    28249193.029   113747918.910        1616.728          42.000  
G06  25308668.632   132998149.815        -751.301          41.000    25308666.813   103634974.579        -585.531          41.000  
G29  25660093.166   134844864.250        2653.497          44.000    25660103.082   105074132.348        2067.559          42.000  
S31  40895556.417   214907675.148        -767.972          44.000  
E03  28008674.768   147186630.825         131.882          43.000    28008677.246   112779314.020         101.088          46.000  
R15  22270477.705   119006908.156        -364.831          51.000    22270474.659    92561100.493        -283.801          50.000  
R18  23978185.019   127997132.914        3371.971          51.000    23978190.969    99553582.425        2622.536          48.000  
R24  24077043.565   128751102.870       -3478.532          50.000    24077040.665   100139768.262       -2705.438          50.000  
E31  28946470.078   152114686.170       -2510.549          38.000    28946470.956   116555484.971       -1923.660          46.000  
E09  29251380.895   153716686.510       -3814.071          38.000    29251405.086   117782838.346       -2922.269          43.000  
G11  25159109.405   132212443.757        1113.030          47.000    25159106.778   103022865.092         867.246          45.000  
E24  26273125.090   138066320.654       -1354.059          49.000    26273123.094   105791135.878       -1037.441          50.000  
G24  22590031.041   118711512.958       -1298.802          49.000    22590029.657    92502547.285       -1012.128          48.000  
G12  23260623.608   122235702.019        -670.565          48.000    23260619.232    95248724.052        -522.660          45.000  
E05  25315462.075   133033703.232       -2425.957          46.000    25315465.948   101934951.984       -1858.726          52.000  
G25  24164150.415   126983676.380         697.008          47.000    24164149.499    98948384.893         543.342          43.000  
E10  28292019.728   148675999.200        1662.489          45.000    28292023.607   113920807.330        1273.809          49.000  
E25  27108101.308   142454309.383         336.489          47.000    27108103.663   109153449.872         257.780          50.000  
E12  28169192.805   148030448.946         797.665          41.000    28169194.024   113426139.149         611.227          47.000  
E14  21644287.231   113741623.929       -3695.057          50.000    21644286.777    87152725.162       -2831.248          54.000  
> 2024 04 15 00 48 00.0070000  0 30                     
S33  41852568.729   219936821.765        -768.040          42.000  
E33  29530522.767   155183951.987       -1651.658          39.000    29530522.917   118907232.208       -1265.609          49.000  
G15  25991928.259   136588180.205       -3967.401          41.000    25991947.423   106432297.589       -3091.693          37.000  
G32  25621395.801   134641356.215         740.931          42.000    25621395.427   104915298.532         577.668          40.000  
R14  24086350.312   128393860.102       -2613.420          44.000    24086349.504    99861972.114       -2032.528          44.000  
R17  22030150.264   117888279.432         455.757          53.000    22030145.536    91691112.831         354.490          51.000  
R06  24942384.215                        -404.807          31.000                                                                  
R05  24309504.652   129948198.268       -3937.547          46.000    24309507.418   101070815.947       -3062.479          49.000  
R16  24398197.078   130330923.940        1586.876          47.000    24398195.303   101368403.573        1233.954          45.000  
G19  26471594.369   139109214.080       -4251.235          45.000                                                                  
E11  28237125.577   148387178.499        2110.377          39.000    28237143.435   113699408.306        1617.177          42.000  
G06  25313010.209   133020959.978        -769.386          39.000    25313007.286   103652748.763        -599.420          41.000  
G29  25644964.095   134765364.147        2646.213          43.000    25644973.886   105012185.646        2062.078          42.000  
S31  40899939.298   214930707.431        -767.451          44.000  
E03  28007958.554   147182867.854         118.879          43.000    28007960.993   112776430.713          91.115          46.000  
R15  22272542.438   119017940.457        -370.669          51.000    22272539.172    92569681.162        -288.263          49.000  
R18  23959257.007   127896100.646        3363.450          50.000    23959263.525    99475002.671        2616.026          49.000  
R24  24096615.192   128855757.645       -3498.557          50.000    24096611.206   100221166.458       -2721.055          50.000  
E31  28960797.436   152189989.674       -2509.848          36.000    28960800.354   116613185.073       -1922.961          45.000  
E09  29273151.723   153831099.002       -3813.868          38.000    29273177.379   117870504.964       -2922.062          44.000  
G11  25152789.348   132179234.813        1100.758          47.000    25152786.493   102996988.116         857.749          45.000  
E24  26280858.802   138106963.228       -1355.611          48.000    26280857.174   105822277.589       -1038.735          50.000  
G24  22597490.419   118750713.323       -1314.485          49.000    22597489.050    92533093.009       -1024.219          47.000  
G12  23264465.590   122255892.434        -675.526          48.000    23264461.669    95264456.871        -526.339          46.000  
E05  25329341.105   133106639.308       -2436.448          45.000    25329345.495   101990837.986       -1866.951          52.000  
G25  24160178.885   126962803.083         694.132          46.000    24160177.795    98932120.044         540.962          43.000  
E10  28282544.332   148626206.870        1656.881          45.000    28282547.938   113882654.953        1269.552          49.000  
E25  27106184.210   142444242.733         334.476          46.000    27106187.994   109145736.499         256.383          50.000  
E12  28164668.935   148006672.162         787.244          41.000    28164669.048   113407920.645         603.155          47.000  
E14  21665450.702   113852841.379       -3719.435          50.000    21665450.748    87237943.760       -2849.977          54.000  
> 2024 04 15 00 48 30.0070000  0 30                     
S33  41856953.771   219959864.720        -767.938          42.000  
E33  29539992.798   155233711.111       -1665.327          39.000    29539991.744   118945359.325       -1276.019          49.000  
G15  26014578.378   136707208.286       -3967.462          43.000    26014597.617   106525047.329       -3091.553          37.000  
G32  25617215.399   134619387.075         723.504          43.000    25617214.612   104898179.752         563.572          40.000  
R14  24101074.371   128472348.592       -2619.168          45.000    24101073.154    99923018.701       -2037.140          42.000  
R17  22027671.019   117875009.659         429.093          53.000    22027665.389    91680791.940         333.789          50.000  
R06  24944719.739                3       -419.854          24.000                                                                  
R05  24331635.370   130066500.155       -3949.085          46.000    24331639.575   101162828.104       -3071.354          50.000  
R16  24389284.996   130283317.807        1587.189          47.000    24389283.564   101331376.648        1234.392          43.000  
G19  26495872.479   139236795.711       -4254.180          45.000                                                                  
E11  28225073.374   148323851.497        2111.104          39.000    28225090.863   113650886.823        1617.469          43.000  
G06  25317456.208   133044324.286        -788.125          38.000    25317453.729   103670954.749        -614.114          42.000  
G29  25629876.421   134686085.544        2638.990          43.000    25629885.692   104950411.550        2056.094          42.000  
S31  40904321.998   214953736.689        -767.521          44.000  
E03  28007318.362   147179503.583         105.730          43.000    28007320.437   112773852.893          80.953          46.000  
R15  22274641.319   119029154.373        -376.751          53.000    22274638.090    92578403.083        -293.029          50.000  
R18  23940379.421   127795332.823        3354.611          50.000    23940385.604    99396628.573        2609.098          49.000  
R24  24116299.336   128961018.246       -3518.576          50.000    24116296.405   100303035.792       -2736.737          51.000  
E31  28975122.689   152265276.016       -2509.101          36.000    28975127.167   116670872.000       -1922.717          45.000  
E09  29294923.472   153945509.786       -3813.569          37.000    29294948.813   117958170.303       -2921.919          43.000  
G11  25146541.231   132146401.683        1088.209          46.000    25146539.229   102971403.988         847.891          46.000  
E24  26288603.167   138147660.133       -1357.371          48.000    26288601.582   105853460.924       -1040.044          50.000  
G24  22605040.726   118790390.052       -1330.513          48.000    22605038.947    92564009.931       -1036.738          47.000  
G12  23268336.894   122276236.157        -680.590          48.000    23268332.850    95280309.147        -530.424          46.000  
E05  25343283.835   133179906.474       -2447.734          46.000    25343287.575   102046977.676       -1875.439          52.000  
G25  24156225.351   126942028.801         690.916          46.000    24156224.776    98915932.368         538.297          43.000  
E10  28273102.798   148576594.015        1650.766          45.000    28273107.204   113844640.107        1264.976          49.000  
E25  27104281.132   142434242.795         332.387          46.000    27104284.919   109138074.259         254.704          50.000  
E12  28160205.654   147983221.951         776.424          41.000    28160206.951   113389952.404         594.756          47.000  
E14  21686753.657   113964795.573       -3744.048          49.000    21686754.873    87323726.879       -2868.742          54.000  
> 2024 04 15 00 49 00.0070000  0 30                     
S33  41861338.136   219982902.545        -768.004          43.000  
E33  29549537.713   155283873.844       -1678.953          39.000    29549537.018   118983795.735       -1286.460          48.000  
G15  26037227.260   136826228.404       -3967.328          43.000    26037244.685   106617790.913       -3091.712          35.000  
G32  25613134.626   134597942.912         706.025          44.000    25613133.990   104881470.018         549.943          40.000  
R14  24115830.117   128551011.086       -2625.117          45.000    24115832.302    99984200.554       -2041.751          45.000  
R17  22025340.062   117862538.052         402.239          53.000    22025334.450    91671091.834         312.834          50.000  
R06  24947194.336                1       -452.068          30.000                                                                  
R05  24353829.604   130185145.386       -3960.596          45.000    24353834.886   101255107.238       -3080.525          50.000  
R16  24380370.857   130235698.644        1587.317          47.000    24380369.300   101294339.592        1234.695          43.000  
G19  26520166.390   139364461.975       -4257.043          44.000                                                                  
E11  28213018.485   148260510.049        2111.817          40.000    28213035.195   113602354.254        1617.779          42.000  
G06  25322006.037   133068241.168        -806.615          38.000    25322004.383   103689591.270        -628.665          41.000  
G29  25614830.650   134607028.187        2631.292          43.000    25614838.924   104888809.764        2050.551          40.000  
S31  40908703.397   214976761.844        -767.568          43.000  
E03  28006753.075   147176536.353          92.214          43.000    28006755.915   112771579.313          70.706          46.000  
R15  22276773.522   119040548.360        -383.033          51.000    22276770.898    92587265.097        -297.882          50.000  
R18  23921550.911   127694831.523        3345.359          50.000    23921556.652    99318461.714        2601.919          48.000  
R24  24136094.648   129066878.770       -3538.822          49.000    24136091.554   100385371.714       -2752.323          49.000  
E31  28989448.127   152340543.083       -2508.604          37.000    28989449.482   116728544.111       -1922.320          45.000  
E09  29316695.538   154059914.709       -3813.200          37.000    29316719.799   118045831.240       -2922.096          43.000  
G11  25140364.829   132113944.854        1075.540          46.000    25140362.303   102946113.060         837.982          46.000  
E24  26296357.131   138188408.881       -1359.342          48.000    26296355.739   105884683.991       -1041.613          50.000  
G24  22612680.769   118830541.494       -1346.349          48.000    22612679.619    92595296.763       -1049.299          47.000  
G12  23272236.694   122296730.031        -685.911          48.000    23272232.146    95296278.425        -534.505          45.000  
E05  25357288.090   133253500.904       -2458.705          46.000    25357291.965   102103368.146       -1884.000          51.000  
G25  24152291.276   126921351.034         687.406          47.000    24152290.014    98899819.863         535.507          43.000  
E10  28263697.024   148527160.528        1644.565          46.000    28263700.274   113806762.710        1260.083          50.000  
E25  27102390.943   142424306.873         330.079          46.000    27102393.979   109130461.096         252.809          50.000  
E12  28155805.951   147960097.700         765.106          41.000    28155805.675   113372233.914         586.307          46.000  
E14  21708196.457   114077478.334       -3768.293          49.000    21708197.821    87410068.252       -2887.370          54.000  
> 2024 04 15 00 49 30.0070000  0 30                     
S33  41865721.872   220005940.361        -768.017          43.000  
E33  29559160.854   155334443.883       -1692.250          39.000    29559160.210   119022544.219       -1296.719          48.000  
G15  26059873.612   136945242.219       -3967.029          42.000    26059891.392   106710529.643       -3091.241          37.000  
G32  25609155.040   134577029.264         688.354          44.000    25609154.950   104865173.681         536.488          41.000  
R14  24130622.188   128629852.106       -2631.005          47.000    24130622.296   100045521.344       -2046.365          44.000  
R17  22023158.958   117850870.992         375.565          52.000    22023154.630    91662017.502         292.150          51.000  
R06  24949807.353   133136959.9201       -476.240          32.000                                                                  
R05  24376090.134   130304133.850       -3971.984          46.000    24376095.331   101347653.312       -3089.139          49.000  
R16  24371453.266   130188071.114        1587.592          46.000    24371452.733   101257296.048        1234.836          43.000  
G19  26544476.762   139492215.104       -4259.769          44.000                                                                  
E11  28200962.276   148197160.477        2112.056          40.000    28200978.983   113553815.426        1618.146          43.000  
G06  25326663.495   133092715.434        -824.895          40.000    25326661.762   103708662.192        -643.030          40.000  
G29  25599829.379   134528198.480        2623.945          43.000    25599837.253   104827385.346        2044.556          41.000  
S31  40913084.403   214999786.984        -767.400          44.000  
E03  28006265.460   147173971.127          78.901          43.000    28006267.705   112769613.752          60.384          46.000  
R15  22278940.635   119052128.206        -389.112          53.000    22278937.591    92596271.639        -302.625          49.000  
R18  23902775.092   127594605.596        3336.337          50.000    23902781.082    99240509.006        2594.857          49.000  
R24  24156004.961   129173340.180       -3558.715          50.000    24156001.252   100468175.054       -2767.791          50.000  
E31  29003768.550   152415795.211       -2508.140          37.000    29003769.286   116786204.824       -1921.849          44.000  
E09  29338466.755   154174316.218       -3812.902          34.000    29338489.824   118133489.555       -2921.893          43.000  
G11  25134261.532   132081871.331        1062.743          47.000    25134259.650   102921120.835         828.137          46.000  
E24  26304122.153   138229213.487       -1360.941          48.000    26304121.070   105915949.846       -1042.842          51.000  
G24  22620412.708   118871172.534       -1362.317          48.000    22620411.336    92626957.294       -1061.517          47.000  
G12  23276165.583   122317378.014        -690.758          48.000    23276161.473    95312367.752        -538.203          46.000  
E05  25371355.547   133327425.380       -2469.627          46.000    25371359.226   102160011.517       -1892.269          51.000  
G25  24148375.386   126900773.749         684.052          47.000    24148373.967    98883785.685         533.285          43.000  
E10  28254325.662   148477912.800        1638.486          46.000    28254328.647   113769027.651        1255.440          50.000  
E25  27100513.835   142414438.861         327.914          47.000    27100516.007   109122899.926         251.234          50.000  
E12  28151468.636   147937305.421         754.332          39.000    28151468.145   113354769.745         577.991          45.000  
E14  21729778.104   114190888.061       -3792.406          49.000    21729779.024    87496966.655       -2905.875          54.000  
> 2024 04 15 00 50 00.0070000  0 30                     
S33  41870104.915   220028974.837        -767.677          42.000  
E33  29568861.607   155385416.324       -1705.676          39.000    29568859.955   119061601.047       -1307.068          48.000  
G15  26082517.836   137064242.561       -3966.402          42.000    26082536.235   106803257.846       -3090.685          38.000  
G32  25605275.895   134556643.109         670.751          45.000    25605275.655   104849288.345         522.699          41.000  
R14  24145446.620   128708868.672       -2636.845          48.000    24145445.836   100106978.557       -2050.958          42.000  
R17  22021128.502   117840005.620         348.745          52.000    22021124.919    91653566.713         271.279          51.000  
R06  24952549.606   133151597.995        -500.400          35.000                                                                  
R05  24398413.581   130423456.285       -3982.929          46.000    24398417.309   101440459.192       -3097.902          49.000  
R16  24362535.307   130140431.443        1588.144          44.000    24362534.929   101220243.135        1235.013          42.000  
G19  26568802.320   139620047.934       -4262.314          44.000                                                                  
E11  28188904.090   148133800.619        2112.266          40.000    28188920.385   113505268.704        1618.198          43.000  
G06  25331424.738   133117743.459        -843.681          40.000    25331424.214   103728164.585        -657.333          40.000  
G29  25584868.933   134449594.119        2616.363          42.000    25584878.106   104766136.503        2038.659          41.000  
S31  40917465.257   215022806.681        -767.164          44.000  
E03  28005853.388   147171804.151          65.478          44.000    28005855.371   112767953.343          50.282          47.000  
R15  22281141.630   119063890.387        -395.212          52.000    22281138.209    92605420.025        -307.431          48.000  
R18  23884050.443   127494655.132        3326.961          50.000    23884055.851    99162770.543        2587.720          48.000  
R24  24176025.035   129280394.411       -3578.366          50.000    24176020.687   100551439.459       -2783.194          49.000  
E31  29018086.320   152491028.391       -2507.241          38.000    29018086.158   116843850.983       -1921.301          44.000  
E09  29360233.135   154288708.149       -3813.004          32.000    29360257.771   118221140.540       -2921.581          43.000  
G11  25128230.804   132050179.582        1049.904          47.000    25128229.446   102896426.082         818.185          47.000  
E24  26311897.256   138270069.400       -1362.711          49.000    26311895.804   105947255.030       -1044.221          51.000  
G24  22628235.427   118912279.446       -1378.273          49.000    22628233.989    92658988.650       -1073.958          47.000  
G12  23280123.743   122338174.839        -695.701          48.000    23280118.987    95328573.105        -542.201          46.000  
E05  25385484.768   133401674.109       -2480.525          46.000    25385488.350   102216903.344       -1900.598          51.000  
G25  24144476.824   126880292.455         680.960          46.000    24144475.931    98867826.282         530.872          42.000  
E10  28244988.437   148428848.705        1632.303          46.000    28244991.769   113731433.297        1250.790          50.000  
E25  27098647.659   142404633.988         325.737          46.000    27098650.248   109115387.151         249.553          50.000  
E12  28147193.112   147914842.241         742.977          39.000    28147193.785   113337557.782         569.524          45.000  
E14  21751496.149   114305014.548       -3816.077          49.000    21751496.485    87584414.245       -2924.040          54.000  
> 2024 04 15 00 50 30.0070000  0 30                     
S33  41874487.636   220052006.122        -767.306          42.000  
E33  29578637.773   155436792.412       -1718.735          38.000    29578636.462   119100967.117       -1316.849          48.000  
G15  26105159.990   137183228.700       -3965.400          43.000    26105177.918   106895975.005       -3090.397          38.000  
G32  25601497.381   134536787.416         653.484          45.000    25601496.705   104833816.374         509.210          40.000  
R14  24160303.639   128788062.658       -2642.290          48.000    24160301.206   100168573.835       -2055.341          39.000  
R17  22019248.773   117829945.873         322.358          52.000    22019244.911    91645742.503         250.790          50.000  
R06  24955428.304   133166954.688        -523.108          36.000                                                                  
R05  24420797.181   130543109.892       -3993.321          46.000    24420801.977   101533522.562       -3105.993          49.000  
R16  24353615.136   130092781.630        1589.094          43.000    24353614.078   101183182.182        1235.842          42.000  
G19  26593142.666   139747960.145       -4264.540          43.000                                                                  
E11  28176844.558   148070434.274        2112.489          41.000    28176860.449   113456716.953        1618.603          43.000  
G06  25336293.814   133143327.648        -861.456          41.000    25336292.828   103748100.363        -671.433          39.000  
G29  25569952.835   134371218.988        2609.167          43.000    25569963.028   104705066.234        2032.889          41.000  
S31  40921845.503   215045824.221        -766.892          44.000  
E03  28005517.288   147170037.901          52.735          43.000    28005519.681   112766599.980          40.305          47.000  
R15  22283377.790   119075838.383        -400.894          52.000    22283373.882    92614712.954        -311.806          48.000  
R18  23865378.938   127394986.410        3318.061          50.000    23865383.446    99085251.172        2580.664          48.000  
R24  24196154.584   129388039.950       -3597.478          50.000    24196151.118   100635163.746       -2798.135          49.000  
E31  29032397.531   152566244.578       -2506.555          37.000    29032399.774   116901484.154       -1920.421          44.000  
E09  29381998.018   154403090.474       -3811.997          32.000    29382024.040   118308784.171       -2920.949          42.000  
G11  25122272.592   132018874.157        1037.446          46.000    25122272.389   102872032.354         808.367          47.000  
E24  26319681.735   138310978.193       -1364.133          49.000    26319680.668   105978600.730       -1045.168          51.000  
G24  22636148.444   118953864.606       -1393.647          49.000    22636148.204    92691392.664       -1086.024          48.000  
G12  23284109.464   122359122.240        -700.305          48.000    23284104.643    95344895.792        -545.584          45.000  
E05  25399676.011   133476247.380       -2490.737          47.000    25399679.582   102274043.829       -1908.417          51.000  
G25  24140598.478   126859908.658         678.397          46.000    24140597.079    98851942.863         528.706          42.000  
E10  28235686.903   148379972.207        1626.637          46.000    28235690.898   113693982.683        1246.313          50.000  
E25  27096793.812   142394893.664         324.074          46.000    27096796.664   109107923.839         248.296          50.000  
E12  28142982.736   147892711.778         732.845          41.000    28142982.846   113320600.781         561.315          46.000  
E14  21773349.905   114419853.728       -3839.312          50.000    21773349.722    87672407.910       -2941.825          54.000  
> 2024 04 15 00 51 00.0070000  0 30                     
S33  41878864.611   220075008.607        -766.660          43.000  
E33  29588485.973   155488546.911       -1731.501          38.000    29588484.912   119140623.185       -1326.653          47.000  
G15  26127793.994   137302173.178       -3964.033          43.000    26127811.803   106988659.739       -3089.014          38.000  
G32  25597815.373   134517439.031         636.429          44.000    25597814.533   104818739.666         496.169          40.000  
R14  24175187.129   128867410.179       -2647.529          45.000    24175186.393   100230288.427       -2058.870          36.000  
R17  22017514.428   117820668.547         296.218          51.000    22017510.721    91638526.825         230.379          50.000  
R06  24958434.553   133183004.758        -546.585          34.000                                                                  
R05  24443239.102   130663065.260       -4003.632          48.000    24443242.961   101626820.618       -3113.875          49.000  
R16  24344687.648   130045097.644        1589.909          42.000    24344688.008   101146094.709        1236.537          43.000  
G19  26617493.295   139875925.114       -4266.300          42.000                                                                  
E11  28164779.339   148007039.060        2113.775          41.000    28164795.561   113408143.070        1619.284          43.000  
G06  25341264.541   133169444.134        -879.472          43.000    25341263.026   103768450.895        -685.329          40.000  
G29  25555077.997   134293050.693        2602.086          43.000    25555086.253   104644157.088        2027.532          41.000  
S31  40926220.270   215068814.369        -765.769          44.000  
E03  28005252.315   147168648.497          39.978          43.000    28005254.906   112765535.369          30.767          47.000  
R15  22285643.647   119087947.930        -406.394          52.000    22285640.260    92624131.484        -316.166          49.000  
R18  23846756.416   127295578.893        3309.133          51.000    23846760.989    99007934.940        2573.762          49.000  
R24  24216389.759   129496247.992       -3616.298          47.000    24216386.020   100719325.573       -2812.853          50.000  
E31  29046702.418   152641419.491       -2505.085          37.000    29046704.717   116959085.716       -1919.609          43.000  
E09  29403761.027   154517436.808       -3810.614          34.000    29403782.919   118396400.333       -2920.060          41.000  
G11  25116385.058   131987933.289        1025.170          46.000    25116385.204   102847922.718         798.842          48.000  
E24  26327471.351   138351915.191       -1365.012          49.000    26327470.695   106009968.054       -1045.979          51.000  
G24  22644148.079   118995904.127       -1409.005          48.000    22644147.393    92724150.700       -1097.994          47.000  
G12  23288119.737   122380195.364        -704.677          49.000    23288114.847    95361316.427        -548.994          45.000  
E05  25413923.718   133551119.186       -2500.629          47.000    25413927.406   102331413.069       -1916.127          52.000  
G25  24136733.615   126839597.655         675.743          46.000    24136731.837    98836116.183         526.433          42.000  
E10  28226415.962   148331261.006        1620.814          45.000    28226421.571   113656658.718        1242.025          50.000  
E25  27094947.877   142385193.034         322.718          46.000    27094950.565   109100490.951         247.153          50.000  
E12  28138831.189   147870891.286         722.316          41.000    28138830.502   113303881.279         553.268          46.000  
E14  21795331.903   114535375.221       -3862.025          49.000    21795332.676    87760924.406       -2959.194          55.000  
> 2024 04 15 00 51 30.0070000  0 30                     
S33  41883238.203   220097990.326        -766.327          42.000  
E33  29598408.179   155540684.098       -1744.777          37.000    29598406.086   119180572.442       -1336.834          47.000  
G15  26150420.345   137421078.344       -3963.250          42.000    26150437.018   107081313.888       -3088.608          36.000  
G32  25594231.435   134498603.904         618.944          45.000    25594229.865   104804062.923         482.460          40.000  
R14  24190103.450   128946916.823       -2653.226          48.000    24190100.050   100292126.808       -2063.630          37.000  
R17  22015927.515   117812180.217         269.525          51.000    22015924.866    91631924.808         209.619          51.000  
R06  24961570.279   133199752.797        -570.546          32.000                                                                  
R05  24465736.558   130783322.552       -4013.974          47.000    24465738.989   101720353.509       -3121.986          44.000  
R16  24335756.546   129997384.599        1590.492          42.000    24335755.276   101108984.646        1236.900          43.000  
G19  26641855.026   140003945.086       -4268.726          42.000                                                                  
E11  28152710.972   147943621.784        2113.927          41.000    28152725.801   113359552.212        1619.661          43.000  
G06  25346337.267   133196098.227        -897.913          43.000    25346335.837   103789220.359        -699.750          40.000  
G29  25540243.075   134215096.195        2594.215          45.000    25540250.190   104583414.522        2021.451          41.000  
S31  40930589.875   215091782.191        -765.659          43.000  
E03  28005060.606   147167641.359          26.831          43.000    28005062.883   112764763.691          20.503          46.000  
R15  22287941.772   119100225.411        -412.540          51.000    22287938.089    92633680.629        -320.921          49.000  
R18  23828184.187   127196442.117        3299.575          51.000    23828188.749    98930829.245        2566.231          49.000  
R24  24236732.070   129605020.375       -3635.625          47.000    24236726.959   100803926.317       -2827.641          49.000  
E31  29060999.981   152716558.168       -2504.541          37.000    29061003.057   117016659.495       -1918.918          41.000  
E09  29425509.569   154631750.139       -3810.389          35.000    29425536.599   118483991.284       -2919.595          41.000  
G11  25110568.767   131957364.524        1012.431          47.000    25110566.883   102824103.006         788.897          48.000  
E24  26335267.622   138392884.979       -1366.466          49.000    26335267.030   106041360.498       -1047.074          52.000  
G24  22652235.800   119038403.293       -1424.721          49.000    22652234.875    92757266.942       -1110.108          47.000  
G12  23292154.474   122401398.039        -709.254          48.000    23292149.873    95377838.022        -552.762          45.000  
E05  25428228.405   133626292.822       -2511.210          47.000    25428232.379   102389013.568       -1924.168          52.000  
G25  24132882.157   126819363.951         672.668          45.000    24132881.160    98820349.724         524.152          42.000  
E10  28217181.226   148282722.056        1614.730          46.000    28217184.519   113619466.725        1237.218          50.000  
E25  27093110.937   142375536.451         320.765          46.000    27093112.830   109093091.793         245.701          50.000  
E12  28134738.047   147849386.995         711.527          41.000    28134738.278   113287404.040         544.921          46.000  
E14  21817444.286   114651577.872       -3885.006          49.000    21817445.346    87849962.862       -2976.879          55.000  
> 2024 04 15 00 52 00.0070000  0 30                     
S33  41887610.551   220120968.261        -765.802          42.000  
E33  29608403.393   155593222.494       -1757.648          35.000    29608403.933   119220829.164       -1346.854          47.000  
G15  26173042.137   137539960.716       -3962.460          42.000    26173059.665   107173950.321       -3087.517          38.000  
G32  25590747.999   134480302.577         601.336          45.000    25590747.396   104789802.139         468.302          41.000  
R14  24205051.128   129026602.753       -2659.090          46.000    24205047.910   100354104.730       -2068.563          36.000  
R17  22014493.823   117804502.213         242.430          52.000    22014489.099    91625953.083         188.562          50.000  
R06  24964843.804   133217217.918        -593.947          34.000                                                                  
R05  24488292.681   130903896.853       -4024.315          46.000    24488295.408   101814132.931       -3129.845          45.000  
R16  24326824.273   129949662.802        1591.015          44.000    24326821.310   101071867.735        1237.303          44.000  
G19  26666230.081   140132036.934       -4270.775          42.000                                                                  
E11  28140641.719   147880203.969        2114.131          41.000    28140656.603   113310960.901        1619.911          44.000  
G06  25351515.961   133223309.766        -916.265          43.000    25351514.395   103810424.164        -714.039          39.000  
G29  25525453.508   134137376.573        2586.901          46.000    25525459.332   104522854.916        2015.605          41.000  
S31  40934960.865   215114747.134        -765.322          44.000  
E03  28004946.286   147167036.435          13.602          44.000    28004947.832   112764300.167          10.404          47.000  
R15  22290274.935   119112691.685        -418.551          53.000    22290271.012    92643376.614        -325.582          50.000  
R18  23809665.741   127097599.940        3289.847          50.000    23809670.898    98853952.681        2558.760          48.000  
R24  24257180.645   129714372.894       -3654.673          48.000    24257176.593   100888978.289       -2842.473          50.000  
E31  29075294.283   152791680.111       -2503.833          36.000    29075298.822   117074220.455       -1918.341          42.000  
E09  29447262.172   154746047.983       -3809.552          37.000    29447286.228   118571570.344       -2918.991          40.000  
G11  25104825.937   131927189.927         999.375          45.000    25104824.384   102800590.431         778.662          47.000  
E24  26343073.344   138433906.714       -1368.105          48.000    26343073.006   106072792.743       -1048.261          51.000  
G24  22660413.766   119081382.012       -1440.486          48.000    22660413.787    92790756.829       -1122.531          47.000  
G12  23296217.625   122422749.285        -713.983          48.000    23296212.923    95394475.387        -556.502          46.000  
E05  25442594.461   133701786.101       -2521.550          47.000    25442598.482   102446859.001       -1932.051          52.000  
G25  24129051.074   126799226.667         669.799          47.000    24129050.192    98804658.393         521.960          44.000  
E10  28207979.752   148234376.776        1608.441          44.000    28207984.090   113582423.124        1232.465          49.000  
E25  27091285.764   142365942.827         318.989          46.000    27091287.340   109085740.875         244.416          50.000  
E12  28130710.503   147828220.001         700.169          41.000    28130710.313   113271185.263         536.436          46.000  
E14  21839689.826   114768475.191       -3907.948          50.000    21839689.846    87939533.566       -2994.394          54.000  
> 2024 04 15 00 52 30.0070000  0 30                     
S33  41891981.029   220143934.165        -765.434          42.000  
E33  29618475.784   155646152.373       -1770.974          36.000    29618476.314   119261385.859       -1356.828          47.000  
G15  26195657.663   137658808.613       -3961.026          41.000    26195674.906   107266559.948       -3086.200          38.000  
G32  25587364.673   134462527.010         583.399          44.000    25587364.217   104775951.038         454.845          40.000  
R14  24220033.391   129106459.503       -2664.798          47.000    24220025.724   100416215.453       -2073.222          34.000  
R17  22013208.174   117797626.951         215.704          51.000    22013203.856    91620605.672         167.780          51.000  
R06  24968249.503   133235390.116        -617.743          34.000                                                                  
R05  24510905.268   131024774.364       -4034.307          46.000    24510910.045   101908148.212       -3137.670          45.000  
R16  24317886.528   129901923.014        1591.586          44.000    24317884.996   101034736.905        1237.748          44.000  
G19  26690616.984   140260189.138       -4272.815          43.000                                                                  
E11  28128570.302   147816778.396        2114.096          40.000    28128586.074   113262363.658        1619.953          44.000  
G06  25356796.978   133251070.020        -934.587          42.000    25356797.232   103832055.542        -728.222          41.000  
G29  25510707.132   134059884.334        2579.136          47.000    25510711.914   104462472.446        2009.882          40.000  
S31  40939328.567   215137699.210        -764.956          44.000  
E03  28004906.603   147166825.072           0.481          45.000    28004908.127   112764138.200           0.508          47.000  
R15  22292641.207   119125338.025        -424.581          53.000    22292637.930    92653212.647        -330.239          50.000  
R18  23791203.560   126999047.637        3280.167          51.000    23791208.385    98777301.532        2551.304          49.000  
R24  24277734.343   129824292.592       -3673.416          47.000    24277732.053   100974471.377       -2857.084          50.000  
E31  29089585.701   152866776.343       -2502.467          37.000    29089588.092   117131761.687       -1917.584          40.000  
E09  29469007.131   154860319.207       -3808.556          37.000    29469031.513   118659129.027       -2918.063          41.000  
G11  25099157.548   131897402.931         986.390          46.000    25099155.449   102777379.874         768.542          46.000  
E24  26350887.505   138474970.986       -1369.450          48.000    26350887.374   106104257.581       -1049.400          52.000  
G24  22668682.198   119124831.579       -1456.178          48.000    22668682.213    92824613.626       -1134.755          47.000  
G12  23300306.868   122444239.934        -718.650          48.000    23300302.249    95411221.372        -560.085          46.000  
E05  25457018.828   133777588.262       -2531.850          47.000    25457022.976   102504941.118       -1939.945          51.000  
G25  24125235.518   126779176.417         666.872          47.000    24125234.893    98789034.866         519.820          44.000  
E10  28198816.512   148186218.166        1602.136          46.000    28198819.800   113545522.548        1227.654          49.000  
E25  27089470.034   142356402.563         317.184          46.000    27089471.825   109078430.871         243.055          50.000  
E12  28126744.827   147807382.671         688.998          41.000    28126744.888   113255219.079         528.018          46.000  
E14  21862063.880   114886052.051       -3930.524          50.000    21862063.942    88029624.957       -3011.574          54.000  
> 2024 04 15 00 53 00.0070000  0 30                     
S33  41896348.098   220166884.703        -764.012          42.000  
E33  29628623.580   155699470.033       -1783.226          37.000    29628622.118   119302239.675       -1366.337          47.000  
G15  26218264.336   137777615.863       -3959.020          40.000    26218282.303   107359137.921       -3084.882          37.000  
G32  25584082.034   134445275.332         566.857          45.000    25584081.491   104762508.165         441.723          41.000  
R14  24235044.000   129186484.582       -2669.811          45.000    24235040.537   100478457.116       -2076.434          38.000  
R17  22012073.299   117791553.045         189.624          52.000    22012069.699    91615881.576         147.486          51.000  
R06  24971787.928   133254266.012        -640.410          35.000                                                                  
R05  24533574.974   131145947.066       -4043.428          46.000    24533577.939   102002393.056       -3145.182          42.000  
R16  24308946.203   129854163.085        1592.777          44.000    24308944.007   100997590.272        1239.056          44.000  
G19  26715014.725   140388396.527       -4273.843          43.000                                                                  
E11  28116497.178   147753344.184        2115.131          40.000    28116513.442   113213759.792        1620.593          44.000  
G06  25362183.805   133279376.494        -952.307          42.000    25362184.439   103854112.575        -742.083          41.000  
G29  25496002.892   133982618.859        2571.980          47.000    25496007.774   104402266.649        2004.221          41.000  
S31  40943692.905   215160636.367        -763.943          44.000  
E03  28004939.858   147167004.810         -11.934          45.000    28004942.392   112764275.927          -9.141          47.000  
R15  22295040.738   119138163.196        -429.953          53.000    22295037.416    92663187.786        -334.364          50.000  
R18  23772796.348   126900786.457        3270.946          52.000    23772800.514    98700876.829        2544.050          50.000  
R24  24298393.722   129934772.827       -3691.253          44.000    24298392.337   101060400.464       -2871.150          50.000  
E31  29103869.721   152941844.111       -2501.468          36.000    29103872.646   117189281.069       -1916.526          40.000  
E09  29490745.110   154974559.130       -3806.780          36.000    29490770.418   118746663.691       -2917.077          41.000  
G11  25093562.664   131868003.230         974.083          45.000    25093560.497   102754471.128         758.917          46.000  
E24  26358709.952   138516074.594       -1370.334          48.000    26358709.563   106135752.534       -1049.863          52.000  
G24  22677039.235   119168749.474       -1471.316          48.000    22677039.238    92858835.324       -1146.302          47.000  
G12  23304422.394   122465866.108        -722.566          49.000    23304417.525    95428072.945        -562.982          45.000  
E05  25471501.855   133853694.762       -2541.452          47.000    25471505.765   102563256.425       -1947.229          51.000  
G25  24121436.128   126759209.932         664.714          47.000    24121435.503    98773476.635         517.822          44.000  
E10  28189687.695   148138245.354        1596.524          46.000    28189691.186   113508764.337        1223.225          50.000  
E25  27087663.575   142346912.296         315.895          45.000    27087665.623   109071159.173         242.190          49.000  
E12  28122841.726   147786873.574         678.848          41.000    28122842.247   113239504.408         520.074          47.000  
E14  21884565.509   115004299.470       -3952.178          49.000    21884565.810    88120230.153       -3028.278          55.000  
> 2024 04 15 00 53 30.0070000  0 30                     
S33  41900703.648   220189771.896        -761.708          42.000  
E33  29638832.585   155753127.303       -1793.869          35.000    29638832.768   119343353.732       -1374.847          47.000  
G15  26240854.335   137896332.420       -3955.334          38.000    26240872.947   107451645.282       -3082.688          35.000  
G32  25580891.492   134428501.228         551.165          46.000    25580890.145   104749437.431         429.394          42.000  
R14  24250077.286   129266630.559       -2673.445          42.000    24250079.512   100540792.801       -2079.257          40.000  
R17  22011079.697   117786233.671         164.720          52.000    22011075.434    91611744.306         128.136          51.000  
R06  24975448.563   133273796.641        -661.315          34.000                                                                  
R05  24556287.999   131267362.362       -4051.306          45.000    24556291.223   102096826.542       -3150.854          41.000  
R16  24299992.185   129806335.154        1595.589          43.000    24299989.835   100960390.857        1240.884          44.000  
G19  26739412.805   140516609.389       -4273.920          43.000                                                                  
E11  28104414.424   147689855.958        2117.101          40.000    28104430.086   113165114.475        1622.097          44.000  
G06  25367664.388   133308182.208        -968.462          43.000    25367665.710   103876558.582        -754.505          39.000  
G29  25481332.931   133905534.699        2566.404          46.000    25481338.463   104342202.119        1999.856          41.000  
S31  40948046.016   215183510.899        -761.647          43.000  
E03  28005039.626   147167528.812         -23.261          45.000    28005042.217   112764677.427         -17.844          48.000  
R15  22297466.099   119151120.019        -434.021          53.000    22297461.580    92673265.330        -337.641          49.000  
R18  23754433.815   126802772.668        3262.952          51.000    23754438.182    98624644.487        2537.819          49.000  
R24  24319150.419   130045761.475       -3708.119          46.000    24319147.117   101146724.979       -2884.200          48.000  
E31  29118142.103   153016836.135       -2498.448          37.000    29118143.306   117246742.445       -1914.476          40.000  
E09  29512469.960   155088718.414       -3803.866          36.000    29512494.215   118834136.592       -2914.449          41.000  
G11  25088033.481   131838946.064         962.821          45.000    25088031.379   102731829.293         750.168          46.000  
E24  26366530.480   138557169.905       -1369.692          48.000    26366529.761   106167241.154       -1049.506          52.000  
G24  22685477.376   119213088.729       -1484.955          48.000    22685476.144    92893385.381       -1157.203          46.000  
G12  23308554.733   122487579.608        -725.194          49.000    23308549.735    95444992.584        -565.138          46.000  
E05  25486033.721   133930056.634       -2549.565          47.000    25486036.999   102621767.403       -1953.671          50.000  
G25  24117643.336   126739279.583         663.793          46.000    24117642.828    98757946.547         517.129          44.000  
E10  28180585.723   148090413.057        1592.087          46.000    28180588.902   113472113.791        1219.831          50.000  
E25  27085857.635   142337424.190         316.220          45.000    27085860.044   109063889.125         242.253          49.000  
E12  28118992.970   147766646.892         669.435          41.000    28118993.323   113224006.117         512.938          47.000  
E14  21907184.503   115123164.156       -3972.399          49.000    21907184.974    88211308.309       -3043.792          55.000  
> 2024 04 15 00 54 00.0070000  0 30                     
S33  41905049.816   220212612.097        -760.940          43.000  
E33  29649109.818   155807137.839       -1806.976          34.000    29649110.650   119384738.437       -1384.383          47.000  
G15  26263429.689   138014970.396       -3953.368          35.000    26263447.744                       -3080.434          33.000  
G32  25577793.057   134412220.071         534.031          46.000    25577791.787   104736750.782         416.172          42.000  
R14  24265141.097   129346912.758       -2678.752          45.000    24265140.557   100603234.511       -2083.579          39.000  
R17  22010228.993   117781684.896         138.361          52.000    22010225.340    91608206.403         107.586          51.000  
R06  24979235.419   133293996.056        -685.034          36.000                                                                  
R05  24579046.149   131389029.691       -4060.052          43.000    24579051.147   102191455.993       -3157.914          41.000  
R16  24291029.524   129758454.233        1596.516          42.000    24291026.456   100923150.231        1241.727          44.000  
G19  26763814.377   140644839.523       -4275.163          43.000                                                                  
E11  28092326.499   147626330.185        2117.577          41.000    28092339.960   113116440.339        1622.679          43.000  
G06  25373244.467   133337501.900        -986.456          41.000    25373244.683   103899405.117        -768.610          40.000  
G29  25466700.879   133828648.064        2559.097          47.000    25466706.885   104282291.472        1994.318          41.000  
S31  40952389.741   215206337.098        -760.744          42.000  
E03  28005207.555   147168411.915         -35.949          45.000    28005210.136   112765354.072         -27.414          48.000  
R15  22299918.233   119164224.208        -439.712          52.000    22299913.254    92683457.510        -341.975          50.000  
R18  23736121.709   126705025.329        3253.416          51.000    23736126.625    98548619.347        2530.421          50.000  
R24  24340003.868   130157269.955       -3725.961          48.000    24340000.492   101233453.790       -2897.977          50.000  
E31  29132400.141   153091766.946       -2497.476          37.000    29132402.594   117304156.907       -1913.455          40.000  
E09  29534179.721   155202809.600       -3802.443          36.000    29534204.917   118921557.329       -2913.492          41.000  
G11  25082572.765   131810248.411         950.129          47.000    25082569.766   102709467.560         740.408          46.000  
E24  26374351.651   138598271.044       -1370.608          48.000    26374350.970   106198734.232       -1050.140          52.000  
G24  22693997.590   119257864.089       -1500.209          47.000    22693995.800    92928275.248       -1168.983          46.000  
G12  23312706.015   122509394.372        -729.358          49.000    23312700.981    95461991.107        -568.258          47.000  
E05  25500614.880   134006686.554       -2559.220          46.000    25500618.831   102680483.786       -1960.929          50.000  
G25  24113860.022   126719399.451         661.418          46.000    24113860.052    98742455.573         515.469          44.000  
E10  28171512.366   148042737.648        1586.158          45.000    28171516.242   113435583.467        1215.286          50.000  
E25  27084055.223   142327952.150         315.037          44.000    27084057.843   109056631.366         241.414          49.000  
E12  28115202.154   147746718.507         658.726          42.000    28115201.039   113208736.382         504.883          47.000  
E14  21929922.461   115242654.447       -3993.759          49.000    21929923.467    88302865.835       -3060.180          55.000  
> 2024 04 15 00 54 30.0070000  0 30                     
S33  41909392.408   220235430.658        -760.085          43.000  
E33  29659460.156   155861528.455       -1819.027          36.000    29659460.772   119426414.378       -1393.797          47.000  
G15  26285992.846   138133554.514       -3952.213          30.000    26286016.504                       -3079.024          31.000  
G32  25574793.218   134396460.520         516.619          44.000    25574793.765   104724470.609         402.630          43.000  
R14  24280234.092   129427359.416       -2684.067          46.000    24280232.298   100665804.108       -2087.633          39.000  
R17  22009528.955   117777936.506         111.792          52.000    22009524.832    91605291.013          86.926          51.000  
R06  24983151.632   133314891.721        -708.034          36.000                                                                  
R05  24601860.020   131510972.715       -4069.126          42.000    24601863.380   102286299.879       -3164.816          38.000  
R16  24282061.923   129710549.409        1597.363          43.000    24282059.443   100885890.962        1242.521          45.000  
G19  26788223.502   140773112.205       -4276.450          43.000                                                                  
E11  28080235.151   147562796.467        2118.094          40.000    28080248.205   113067760.119        1622.654          43.000  
G06  25378927.133   133367363.538       -1004.282          42.000    25378926.991   103922673.937        -782.375          39.000  
G29  25452113.208   133751988.777        2551.687          47.000    25452118.102   104222557.920        1988.576          40.000  
S31  40956729.533   215229142.566        -759.559          44.000  
E03  28005448.584   147169682.192         -48.531          44.000    28005451.377   112766327.407         -37.247          47.000  
R15  22302402.835   119177504.828        -445.457          52.000    22302398.207    92693786.836        -346.509          50.000  
R18  23717866.006   126607577.014        3243.420          51.000    23717871.289    98472826.830        2522.622          50.000  
R24  24360959.157   130269322.431       -3743.928          48.000    24360954.052   101320605.714       -2911.923          48.000  
E31  29146654.567   153166664.358       -2495.657          39.000    29146655.020   117361545.771       -1912.230          39.000  
E09  29555881.085   155316858.459       -3800.799          35.000    29555907.235   119008945.642       -2912.244          40.000  
G11  25077187.016   131781940.501         937.253          47.000    25077183.668   102687409.550         730.482          46.000  
E24  26382178.988   138639405.435       -1371.496          48.000    26382178.385   106230252.804       -1050.926          52.000  
G24  22702605.974   119303103.596       -1515.533          47.000    22702604.355    92963526.790       -1181.105          45.000  
G12  23316881.465   122531337.741        -733.415          49.000    23316876.678    95479089.851        -571.523          47.000  
E05  25515253.173   134083610.617       -2568.735          46.000    25515256.812   102739425.535       -1968.323          49.000  
G25  24110091.533   126699596.937         658.985          47.000    24110091.426    98727025.106         513.467          44.000  
E10  28162474.193   147995248.928        1580.074          44.000    28162478.579   113399196.179        1210.628          49.000  
E25  27082260.428   142318523.369         313.930          44.000    27082263.361   109049406.772         240.461          49.000  
E12  28111471.603   147727117.639         647.981          42.000    28111470.791   113193717.621         496.607          47.000  
E14  21952784.128   115362792.035       -4015.155          49.000    21952784.815    88394919.344       -3076.558          55.000  
> 2024 04 15 00 55 00.0070000  0 30                     
S33  41913729.907   220258224.922        -759.387          43.000  
E33  29669882.721   155916294.856       -1831.982          36.000    29669882.563   119468378.255       -1403.562          46.000  
G15  26308547.620   138252078.607       -3949.488          28.000    26308568.791                       -3077.770          28.000  
G32  25571893.255   134381220.079         499.475          44.000    25571893.184   104712594.951         388.888          43.000  
R14  24295356.475   129507968.452       -2689.705          45.000    24295352.731   100728500.028       -2092.223          40.000  
R17  22008977.874   117774985.852          85.043          52.000    22008974.290    91602996.117          66.104          52.000  
R06  24987196.671   133336478.878        -731.218          35.000                                                                  
R05  24624724.341   131633183.355       -4078.151          44.000    24624728.114   102381351.909       -3172.079          42.000  
R16  24273087.960   129662616.977        1598.256          43.000    24273085.212   100848610.216        1243.055          45.000  
G19  26812640.223   140901421.970       -4277.414          43.000                                                                  
E11  28068142.664   147499253.308        2118.123          40.000    28068155.136   113019072.640        1622.963          43.000  
G06  25384712.906   133397763.885       -1022.340          41.000    25384711.683   103946362.559        -796.786          38.000  
G29  25437567.331   133675554.894        2543.787          47.000    25437571.647   104162999.966        1982.684          40.000  
S31  40961064.339   215251923.525        -759.148          44.000  
E03  28005764.124   147171336.609         -61.524          45.000    28005766.114   112767595.103         -47.164          47.000  
R15  22304920.792   119190959.903        -451.373          52.000    22304916.698    92704251.955        -351.080          50.000  
R18  23699666.831   126510428.411        3233.193          50.000    23699671.172    98397267.389        2514.746          49.000  
R24  24382013.356   130381911.333       -3761.920          50.000    24382008.222   101408174.866       -2925.842          46.000  
E31  29160899.914   153241524.985       -2494.546          39.000    29160901.084   117418906.541       -1911.463          39.000  
E09  29577575.251   155430859.600       -3799.547          34.000    29577600.525   119096297.441       -2911.271          39.000  
G11  25071873.387   131754021.350         924.256          46.000    25071870.398   102665654.481         720.011          46.000  
E24  26390012.022   138680569.306       -1372.628          48.000    26390011.818   106261793.960       -1051.786          52.000  
G24  22711302.945   119348804.101       -1530.883          47.000    22711301.001    92999137.551       -1192.809          45.000  
G12  23321080.514   122553406.023        -737.617          49.000    23321076.091    95496285.931        -574.738          46.000  
E05  25529946.531   134160823.576       -2578.517          46.000    25529950.625   102798588.622       -1975.662          50.000  
G25  24106337.986   126679868.194         656.472          48.000    24106336.235    98711652.116         511.390          43.000  
E10  28153473.479   147947945.420        1573.693          45.000    28153476.930   113362950.775        1205.786          49.000  
E25  27080473.380   142309133.891         312.263          44.000    27080476.773   109042212.277         239.260          50.000  
E12  28107803.687   147707842.285         637.043          42.000    28107802.636   113178948.274         488.179          46.000  
E14  21975766.833   115483567.398       -4036.267          49.000    21975767.388    88487461.538       -3092.772          54.000  
> 2024 04 15 00 55 30.0070000  0 30                     
S33  41918065.822   220281011.640        -759.657          43.000  
E33  29680378.641   155971453.290       -1845.190          38.000    29680378.813   119510642.530       -1413.902          47.000  
G32  25569095.789   134366516.776         480.990          44.000    25569095.274   104701137.806         374.871          43.000  
R14  24310511.161   129588757.118       -2696.073          42.000    24310509.645   100791335.619       -2096.832          41.000  
R17  22008580.185   117772852.248          57.374          52.000    22008574.847    91601336.654          44.604          51.000  
R06  24991374.189   133358774.436        -755.383          34.000                                                                  
R05  24647639.009   131755673.978       -4087.916          45.000    24647644.438   102476621.600       -3179.413          42.000  
R16  24264113.921   129614675.134        1598.160          46.000    24264109.859   100811322.122        1242.915          44.000  
G19  26837066.723   141029783.147       -4279.644          42.000                                                                  
E11  28056052.108   147435719.893        2117.608          41.000    28056063.891   112970392.599        1622.527          43.000  
G06  25390603.926   133428720.273       -1041.412          42.000    25390601.351   103970484.428        -811.322          38.000  
G29  25423067.793   133599365.590        2535.385          47.000    25423073.020   104103632.599        1975.608          40.000  
S31  40965398.000   215274697.144        -759.326          43.000  
E03  28006155.895   147173392.680         -75.393          45.000    28006157.731   112769170.526         -57.649          48.000  
R15  22307474.657   119204607.586        -458.279          53.000    22307470.971    92714866.784        -356.360          50.000  
R18  23681528.087   126413601.112        3222.021          50.000    23681531.403    98321957.805        2505.992          49.000  
R24  24403171.016   130495050.570       -3780.504          51.000    24403166.117   101496172.027       -2940.387          47.000  
E31  29175141.175   153316366.233       -2494.527          37.000    29175143.308   117476252.362       -1911.458          41.000  
E09  29599262.445   155544828.098       -3798.365          34.000    29599287.122   119183624.298       -2910.451          38.000  
G11  25066637.798   131726510.590         910.031          46.000    25066634.724   102644217.643         709.129          46.000  
E24  26397854.243   138721779.504       -1374.582          48.000    26397853.992   106293370.609       -1053.223          53.000  
G24  22720090.535   119394982.999       -1547.524          47.000    22720088.683    93035121.090       -1205.855          45.000  
G12  23325306.271   122575615.409        -742.855          49.000    23325301.919    95513591.969        -578.679          46.000  
E05  25544697.821   134238340.855       -2589.215          46.000    25544701.540   102857984.901       -1983.895          50.000  
G25  24102600.649   126660230.046         652.912          47.000    24102599.042    98696349.729         508.803          44.000  
E10  28144510.184   147900846.264        1566.534          44.000    28144514.370   113326861.979        1200.275          50.000  
E25  27078698.013   142299800.365         309.972          44.000    27078700.710   109035060.639         237.641          49.000  
E12  28104200.572   147688910.934         624.985          41.000    28104200.560   113164442.502         478.951          47.000  
E14  21998873.644   115604991.616       -4058.486          50.000    21998873.671    88580500.905       -3109.690          54.000  
G15                                                                  26331113.057                       -3075.809          26.000  
> 2024 04 15 00 56 00.0070000  0 30                     
S33  41922401.962   220303797.757        -759.328          43.000  
E33  29690951.691   156027009.668       -1858.425          39.000    29690950.779   119553211.711       -1423.886          46.000  
G32  25566400.738   134352358.228         462.932          44.000    25566400.963   104690105.172         360.778          43.000  
R14  24325700.172   129669732.684       -2701.904          42.000    24325699.509   100854316.621       -2101.507          42.000  
R17  22008335.472   117771543.212          30.127          52.000    22008329.984    91600318.549          23.419          50.000  
R06  24995685.378   133381784.186        -778.388          34.000                                                                  
R05  24670605.749   131878446.872       -4096.810          44.000    24670613.341   102572110.875       -3186.638          43.000  
R16  24255138.093   129566731.225        1598.452          47.000    24255134.832   100774032.522        1243.212          45.000  
G19  26861503.542   141158199.957       -4281.064          40.000                                                                  
E11  28043964.557   147372204.879        2117.057          42.000    28043976.032   112921726.603        1622.379          43.000  
G06  25396601.623   133460239.676       -1059.780          41.000    25396599.778   103995045.011        -825.556          39.000  
G29  25408616.894   133523429.283        2527.261          47.000    25408621.999   104044462.334        1968.984          41.000  
S31  40969731.822   215297470.241        -758.842          44.000  
E03  28006625.469   147175857.513         -88.715          46.000    28006627.231   112771059.171         -67.994          49.000  
R15  22310065.965   119218456.132        -464.684          51.000    22310062.542    92725637.858        -361.480          50.000  
R18  23663450.361   126317106.528        3211.188          49.000    23663453.689    98246907.000        2497.605          49.000  
R24  24424432.036   130608743.112       -3798.592          51.000    24424427.238   101584599.619       -2954.442          46.000  
E31  29189380.285   153391194.770       -2494.139          38.000    29189382.389   117533588.465       -1910.904          40.000  
E09  29620945.426   155658768.947       -3797.306          33.000    29620968.744   119270929.966       -2909.579          38.000  
G11  25061480.983   131699417.439         896.458          46.000    25061480.606   102623106.229         698.437          47.000  
E24  26405705.931   138763042.519       -1376.031          47.000    26405706.174   106324987.734       -1054.375          53.000  
G24  22728970.049   119441647.250       -1563.343          47.000    22728968.787    93071482.848       -1218.275          45.000  
G12  23329561.505   122597972.017        -747.371          49.000    23329555.677    95531012.719        -582.398          45.000  
E05  25559508.299   134316167.460       -2599.053          47.000    25559511.612   102917618.215       -1991.571          50.000  
G25  24098881.455   126640688.931         650.063          47.000    24098879.702    98681122.943         506.722          43.000  
E10  28135587.959   147853960.199        1559.442          44.000    28135591.791   113290936.468        1194.902          49.000  
E25  27076933.412   142290529.000         308.221          44.000    27076936.183   109027956.665         236.124          49.000  
E12  28100664.630   147670331.675         613.566          41.000    28100664.831   113150206.522         470.207          47.000  
E14  22022102.485   115727065.403       -4079.750          49.000    22022103.243    88674037.989       -3125.966          54.000  
G15                                                                  26353647.447                3      -3076.305          23.000  
> 2024 04 15 00 56 30.0070000  0 30                     
S33  41926737.473   220326579.714        -759.133          44.000  
E33  29701598.254   156082960.225       -1871.101          40.000    29701598.098   119596082.943       -1433.881          47.000  
G32  25563810.389   134338742.493         444.877          44.000    25563809.981   104679495.503         346.630          42.000  
R14  24340925.938   129750893.149       -2708.210          44.000    24340927.254   100917441.261       -2106.523          44.000  
R17  22008244.253   117771057.483           2.733          52.000    22008239.095    91599940.782           2.098          51.000  
R06  25000131.910   133405504.480        -802.411          33.000                                                                  
R05  24693625.077   132001494.269       -4105.794          46.000    24693632.221   102667813.618       -3193.495          40.000  
R16  24246161.937   129518782.521        1598.579          47.000    24246159.804   100736739.156        1243.347          46.000  
G19  26885950.065   141286667.423       -4282.847          39.000                                                                  
E11  28031880.379   147308707.499        2116.380          41.000    28031891.609   112873074.102        1621.355          43.000  
G06  25402705.241   133492319.445       -1078.250          41.000    25402704.034   104020042.260        -840.421          41.000  
G29  25394213.749   133447745.148        2518.681          46.000    25394218.941   103985488.520        1962.709          41.000  
S31  40974064.540   215320239.324        -758.715          42.000  
E03  28007170.101   147178728.596        -102.218          45.000    28007173.476   112773259.118         -78.469          48.000  
R15  22312694.884   119232503.650        -471.393          52.000    22312691.413    92736563.733        -366.656          49.000  
R18  23645434.769   126220945.963        3199.985          49.000    23645439.252    98172115.991        2488.853          49.000  
R24  24445795.562   130722982.215       -3816.835          52.000    24445791.583   101673452.243       -2968.824          44.000  
E31  29203613.912   153466007.933       -2493.646          35.000    29203618.906   117590912.819       -1910.341          41.000  
E09  29642620.005   155772677.208       -3796.777          33.000    29642645.099   119358210.768       -2908.892          40.000  
G11  25056405.085   131672741.642         882.552          44.000    25056403.582   102602319.973         687.503          48.000  
E24  26413567.806   138804355.243       -1377.694          48.000    26413567.617   106356642.932       -1055.624          53.000  
G24  22737942.233   119488794.341       -1579.451          48.000    22737939.985    93108220.809       -1230.737          45.000  
G12  23333843.699   122620472.637        -752.229          50.000    23333837.888    95548545.688        -586.040          46.000  
E05  25574376.291   134394298.886       -2609.259          47.000    25574379.867   102977485.089       -1999.330          50.000  
G25  24095180.885   126621241.700         646.944          47.000    24095178.961    98665969.309         504.026          43.000  
E10  28126705.442   147807286.347        1552.438          44.000    28126710.062   113255173.583        1189.487          49.000  
E25  27075180.091   142281316.447         306.325          44.000    27075182.975   109020897.769         234.645          49.000  
E12  28097196.171   147652103.268         601.944          41.000    28097195.362   113136239.378         461.204          46.000  
E14  22045453.556   115849779.851       -4100.904          48.000    22045455.023    88768065.984       -3142.243          53.000  
G15                                                                  26376184.578                3      -3071.053          18.000  
> 2024 04 15 00 57 00.0070000  0 30                     
S33  41931069.187   220349345.012        -758.512          42.000  
E33  29712317.759   156139289.813       -1883.763          41.000    29712316.945   119639244.598       -1443.610          45.000  
G32  25561321.012   134325656.171         427.396          45.000    25561319.019   104669298.364         333.091          43.000  
R14  24356186.506   129832224.203       -2713.779          47.000    24356183.917   100980698.847       -2110.594          43.000  
R17  22008304.589   117771381.301         -24.186          52.000    22008298.898    91600192.686         -18.795          51.000  
R06  25004708.485   133429919.847        -825.673          35.000                                                                  
R05  24716692.942   132124796.680       -4114.000          44.000    24716697.941   102763714.639       -3199.807          42.000  
R16  24237182.303   129470815.354        1599.286          47.000    24237181.086   100699431.428        1244.003          47.000  
G19  26910403.089   141415168.864       -4283.619          37.000                                                                  
E11  28019796.734   147245215.478        2116.441          41.000    28019808.722   112824425.655        1621.509          43.000  
G06  25408913.637   133524945.515       -1096.564          42.000    25408912.655   104045465.156        -854.418          41.000  
G29  25379856.549   133372300.893        2510.980          46.000    25379861.557   103926701.618        1956.710          41.000  
S31  40978394.202   215342991.107        -758.100          44.000  
E03  28007791.568   147181992.129        -115.303          46.000    28007794.783   112775759.744         -88.491          49.000  
R15  22315357.898   119246736.674        -477.419          52.000    22315354.933    92747633.865        -371.327          51.000  
R18  23627482.037   126125109.366        3189.218          50.000    23627485.658    98097576.922        2480.526          49.000  
R24  24467257.866   130837749.453       -3834.197          52.000    24467253.802   101762715.715       -2982.195          47.000  
E31  29217845.959   153540791.627       -2492.083          36.000    29217849.505   117648214.584       -1909.731          41.000  
E09  29664288.667                       -3793.462          30.000    29664311.521   119445454.288       -2907.198          40.000  
G11  25051405.682   131646471.302         868.895          43.000    25051404.637   102581849.708         677.027          47.000  
E24  26421436.320   138845703.197       -1378.778          48.000    26421435.829   106388325.129       -1056.405          53.000  
G24  22747004.077   119536410.224       -1594.788          49.000    22747001.561    93145324.082       -1242.608          45.000  
G12  23338149.667   122643102.498        -756.343          50.000    23338144.002    95566179.366        -589.399          46.000  
E05  25589298.168   134472719.132       -2618.591          46.000    25589302.774   103037573.261       -2006.493          51.000  
G25  24091495.044   126601873.845         644.393          47.000    24091493.865    98650877.535         502.236          44.000  
E10  28117862.662   147760812.560        1545.999          44.000    28117866.209   113219563.977        1184.393          49.000  
E25  27073435.752   142272148.084         305.073          44.000    27073437.327   109013872.694         233.793          48.000  
E12  28093791.008   147634212.733         590.785          40.000    28093790.857   113122531.112         452.743          46.000  
E14  22068924.083   115973114.754       -4121.386          49.000    22068924.687    88862569.378       -3157.976          53.000  
G15                                                                  26398682.864                3      -3066.276          16.000  
> 2024 04 15 00 57 30.0070000  0 29                     
S33  41935398.017   220372093.034        -758.030          42.000  
E33  29723109.302   156195999.805       -1896.718          42.000    29723108.461   119682697.736       -1453.575          45.000  
G32  25558931.773   134313102.300         409.293          44.000    25558930.548   104659516.129         318.981          44.000  
R14  24371476.127   129913729.344       -2719.953          46.000    24371474.903   101044091.691       -2115.574          45.000  
R17  22008517.518   117772518.373         -51.646          52.000    22008511.650    91601077.103         -40.141          51.000  
R06  25009413.913   133455031.460        -848.757          33.000                                                                  
R05  24739807.242   132248351.899       -4122.804          45.000    24739811.620   102859812.185       -3206.604          39.000  
R16  24228199.471   129422832.513        1599.404          47.000    24228197.741   100662111.509        1244.034          46.000  
G19  26934862.110   141543704.126       -4284.654          36.000                                                                  
E11  28007715.572   147181733.012        2115.787          40.000    28007727.353   112775784.514        1621.255          44.000  
G06  25415227.276   133558120.185       -1115.239          41.000    25415226.036   104071315.638        -868.989          42.000  
G29  25365546.065   133297100.225        2502.471          46.000    25365550.353   103868104.504        1949.824          41.000  
S31  40982720.296   215365726.825        -757.484          44.000  
E03  28008487.787   147185650.599        -128.847          45.000    28008490.441   112778562.966         -98.552          48.000  
R15  22318057.258   119261158.824        -484.028          52.000    22318054.308    92758851.075        -376.497          50.000  
R18  23609589.514   126029603.162        3177.838          50.000    23609593.436    98023294.805        2471.688          49.000  
R24  24488817.678   130953043.245       -3852.002          52.000    24488814.104   101852388.728       -2995.976          44.000  
E31  29232071.542   153615548.265       -2491.299          36.000    29232075.046   117705495.592       -1909.333          40.000  
E09  29685943.073                       -3793.298          29.000    29685969.387   119532660.817       -2906.433          40.000  
G11  25046484.637   131620611.112         855.076          44.000    25046483.060   102561699.027         666.176          47.000  
E24  26429311.966   138887088.321       -1380.326          48.000    26429310.856   106420035.800       -1057.578          53.000  
G24  22756154.557   119584497.359       -1610.859          49.000    22756152.798    93182794.565       -1255.145          46.000  
G12  23342480.885   122665863.241        -761.019          49.000    23342475.778    95583915.023        -592.948          46.000  
E05  25604276.370   134551428.722       -2628.656          46.000    25604280.911   103097883.136       -2014.110          51.000  
G25  24087825.359   126582587.266         641.467          48.000    24087824.461    98635849.083         499.710          45.000  
E10  28109058.065   147714543.006        1538.705          45.000    28109061.431   113184110.846        1178.962          49.000  
E25  27071700.443   142263025.541         303.285          45.000    27071701.391   109006882.748         232.274          48.000  
E12  28090450.655   147616663.832         579.499          39.000    28090451.566   113109084.656         443.777          46.000  
E14  22092510.914   116097066.228       -4142.030          48.000    22092511.682    88957545.197       -3173.682          53.000  
> 2024 04 15 00 58 00.0070000  0 29                     
S33  41939727.186   220394842.000        -758.669          43.000  
E33  29733975.500   156253105.047       -1910.351          41.000    29733975.318   119726453.698       -1463.621          45.000  
G32  25556646.337   134301097.478         390.825          43.000    25556646.581   104650161.701         304.410          43.000  
R14  24386801.131   129995424.675       -2726.656          49.000    24386802.096   101107632.423       -2120.717          43.000  
R17  22008884.107   117774485.426         -79.664          52.000    22008879.216    91602607.055         -61.911          51.000  
R06  25014251.384                        -872.198          29.000                                                                  
R05  24762971.572   132372171.173       -4132.057          42.000    24762974.142   102956115.136       -3213.714          39.000  
R16  24219217.055   129374850.572        1599.176          47.000    24219215.115   100624792.251        1243.854          47.000  
G19  26959328.935   141672286.761       -4286.920          35.000                                                                  
E11  27995638.982   147118277.865        2114.495          41.000    27995650.757   112727164.278        1620.125          44.000  
G06  25421647.235   133591859.367       -1134.462          41.000    25421646.808   104097605.947        -883.876          43.000  
G29  25351284.691   133222160.851        2493.275          44.000    25351288.960   103809710.984        1942.982          40.000  
S31  40987046.738   215388461.904        -758.171          44.000  
E03  28009261.309   147189720.098        -142.772          45.000    28009264.693   112781681.151        -109.361          48.000  
R15  22320795.025   119275787.186        -491.213          52.000    22320791.551    92770228.704        -382.126          50.000  
R18  23591764.362   125934447.723        3165.619          51.000    23591767.247    97949285.539        2462.260          49.000  
R24  24510479.572   131068875.732       -3870.296          52.000    24510474.706   101942480.702       -3010.007          43.000  
E31  29246297.854   153690293.698       -2491.626          37.000    29246299.088   117762768.052       -1909.092          42.000  
E09  29707592.187                       -3792.395          30.000    29707620.321   119619840.971       -2905.829          41.000  
G11  25041645.336   131595179.262         840.232          45.000    25041643.376   102541882.088         654.919          47.000  
E24  26437196.174   138928526.121       -1382.301          46.000    26437196.305   106451786.831       -1059.164          52.000  
G24  22765397.846   119633071.694       -1627.461          49.000    22765395.565    93220644.692       -1268.023          45.000  
G12  23346839.300   122688770.186        -766.074          49.000    23346835.357    95601764.627        -597.083          46.000  
E05  25619312.542   134630441.652       -2639.163          46.000    25619316.865   103158425.414       -2022.079          51.000  
G25  24084174.224   126563397.482         637.691          49.000    24084172.812    98620896.033         497.036          45.000  
E10  28100295.477   147668495.452        1530.926          44.000    28100298.460   113148827.817        1173.063          49.000  
E25  27069975.511   142253964.129         300.730          45.000    27069977.254   108999939.662         230.457          48.000  
E12  28087179.151   147599473.542         566.704          39.000    28087180.217   113095912.962         434.281          46.000  
E14  22116217.842   116221644.000       -4163.213          49.000    22116217.962    89053000.927       -3190.044          53.000  
> 2024 04 15 00 58 30.0070000  0 29                     
S33  41944057.099   220417596.970        -758.584          42.000  
E33  29744918.954   156310611.593       -1923.676          42.000    29744918.294   119770517.153       -1473.968          45.000  
G32  25554469.150   134289649.467         372.504          43.000    25554468.349   104641241.143         290.030          43.000  
R14  24402161.913   130077317.927       -2733.154          46.000    24402163.560   101171327.143       -2125.780          39.000  
R17  22009408.503   117777290.780        -107.540          52.000    22009403.402    91604789.017         -83.674          51.000  
R06  25019225.940   133507394.461        -896.037          32.000                                                                  
R05  24786183.093   132496256.925       -4140.680          40.000    24786187.580   103052625.268       -3220.869          39.000  
R16  24210235.087   129326877.021        1599.064          46.000    24210233.508   100587479.509        1243.651          46.000  
G19  26983806.848   141800921.483       -4288.910          34.000                                                                  
E11  27983570.468   147054859.094        2113.325          41.000    27983581.160   112678571.886        1619.032          44.000  
G06  25428175.562   133626170.110       -1152.948          38.000    25428175.188   104124341.639        -898.612          42.000  
G29  25337074.531   133147491.672        2484.421          45.000    25337078.572   103751527.962        1935.732          40.000  
S31  40991374.587   215411204.461        -758.448          44.000  
E03  28010115.661   147194207.947        -156.677          45.000    28010118.784   112785119.897        -119.989          48.000  
R15  22323572.254   119290630.094        -498.392          51.000    22323569.722    92781773.204        -387.723          51.000  
R18  23574005.870   125839654.545        3153.700          50.000    23574008.140    97875558.021        2452.858          49.000  
R24  24532241.412   131185250.078       -3888.172          52.000    24532237.042   102032994.123       -3024.084          44.000  
E31  29260517.440   153765035.067       -2490.876          34.000    29260521.913   117820037.384       -1908.901          43.000  
E09  29729239.826                       -3790.423          30.000    29729265.640   119706998.634       -2905.011          41.000  
G11  25036890.026   131570185.236         825.762          47.000    25036887.415   102522406.303         643.441          47.000  
E24  26445092.631   138970023.416       -1384.265          46.000    26445092.865   106483583.442       -1060.670          52.000  
G24  22774734.672   119682140.408       -1643.855          49.000    22774733.611    93258880.053       -1280.990          45.000  
G12  23351227.963   122711829.883        -771.196          49.000    23351223.275    95619733.216        -601.077          46.000  
E05  25634405.896   134709763.154       -2649.202          45.000    25634411.060   103219204.155       -2029.879          51.000  
G25  24080541.437   126544311.117         634.502          48.000    24080540.971    98606023.598         494.151          45.000  
E10  28091576.892   147622678.892        1523.277          45.000    28091580.016   113113721.792        1167.204          50.000  
E25  27068263.345   142244970.407         298.637          45.000    27068266.037   108993048.420         228.845          49.000  
E12  28083979.204   147582650.405         554.716          41.000    28083978.733   113083022.557         424.940          46.000  
E14  22140043.757   116346849.081       -4183.789          49.000    22140043.745    89148937.313       -3205.824          53.000  
> 2024 04 15 00 59 00.0070000  0 29                     
S33  41948388.593   220440355.929        -758.562          43.000  
E33  29755937.298   156368516.192       -1936.576          42.000    29755936.907   119814885.661       -1484.085          43.000  
G32  25552395.235   134278756.697         353.751          41.000    25552394.667   104632753.271         275.744          42.000  
R14  24417564.233   130159407.157       -2739.607          49.000    24417564.426   101235174.235       -2130.928          42.000  
R17  22010088.680   117780932.949        -135.352          51.000    22010083.944    91607621.839        -105.227          51.000  
R06  25024332.951   133534648.281        -920.177          31.000                                                                  
R05  24809446.947   132620601.800       -4149.198          41.000    24809450.076   103149336.882       -3226.866          40.000  
R16  24201255.136   129278910.423        1598.715          47.000    24201253.868   100550172.218        1243.482          46.000  
G19  27008294.119   141929603.317       -4290.192          32.000                                                                  
E11  27971508.118   146991476.348        2112.080          40.000    27971518.714   112630007.056        1618.246          44.000  
G06  25434813.078   133661050.257       -1171.991          40.000    25434812.691   104151520.987        -913.207          42.000  
G29  25322916.404   133073092.166        2475.435          44.000    25322920.027   103693555.053        1928.872          40.000  
S31  40995703.196   215433950.738        -758.175          44.000  
E03  28011049.167   147199112.140        -170.414          45.000    28011052.008   112788877.653        -130.573          48.000  
R15  22326390.280   119305686.327        -505.453          52.000    22326387.410    92793483.623        -393.104          50.000  
R18  23556315.777   125745225.599        3141.541          50.000    23556318.571    97802113.764        2443.333          49.000  
R24  24554104.036   131302160.238       -3905.752          52.000    24554099.884   102123924.284       -3037.915          43.000  
E31  29274740.039   153839770.313       -2490.941          35.000    29274743.203   117877301.972       -1908.789          42.000  
E09  29750868.666                       -3789.834          28.000    29750904.566   119794130.582       -2904.168          40.000  
G11  25032216.138   131545629.063         811.289          46.000    25032214.605   102503271.724         632.113          47.000  
E24  26453000.404   139011577.611       -1386.011          47.000    26453000.286   106515423.684       -1062.096          52.000  
G24  22784166.361   119731701.378       -1660.200          49.000    22784164.785    93297498.966       -1293.869          45.000  
G12  23355644.447   122735039.516        -776.062          49.000    23355639.429    95637818.668        -604.779          45.000  
E05  25649558.388   134789389.219       -2659.429          45.000    25649563.579   103280216.226       -2037.594          51.000  
G25  24076928.512   126525325.672         631.144          48.000    24076928.202    98591229.792         491.822          45.000  
E10  28082901.099   147577093.024        1515.700          44.000    28082905.293   113078792.529        1161.333          50.000  
E25  27066564.541   142236041.577         296.642          45.000    27066567.017   108986206.912         227.207          49.000  
E12  28080848.357   147566193.412         542.695          41.000    28080847.226   113070412.748         415.805          46.000  
E14  22163987.070   116472673.130       -4204.294          49.000    22163987.506    89245347.976       -3221.573          53.000  
> 2024 04 15 00 59 30.0070000  0 29                     
S33  41952720.054   220463120.337        -759.084          42.000  
E33  29767031.897   156426819.307       -1950.352          42.000    29767031.345   119859559.498       -1494.306          43.000  
G32  25550427.687   134268421.339         334.853          42.000    25550427.365   104624699.747         261.107          42.000  
R14  24433001.035   130241694.691       -2746.288          49.000    24433000.922   101299175.569       -2135.888          42.000  
R17  22010925.769   117785414.435        -163.392          51.000    22010921.358    91611107.466        -127.102          50.000  
R06  25029573.059                        -944.355          31.000                                                                  
R05  24832755.787   132745202.685       -4157.660          43.000    24832760.494   103246247.604       -3233.816          40.000  
R16  24192278.337   129230952.263        1598.363          48.000    24192276.512   100512871.544        1243.087          46.000  
G19  27032791.225   142058331.456       -4291.122          32.000                                                                  
E11  27959454.505   146928133.030        2110.897          41.000    27959463.609   112581472.403        1617.374          44.000  
G06  25441559.049   133696501.134       -1191.241          40.000    25441558.695   104179145.091        -928.310          42.000  
G29  25308810.308   132998965.440        2466.249          44.000    25308814.013   103635794.637        1921.970          40.000  
S31  41000032.317   215456702.485        -758.580          44.000  
E03  28012061.750   147204434.394        -184.697          45.000    28012064.863   112792955.730        -141.335          48.000  
R15  22329248.551   119320958.720        -512.818          52.000    22329245.297    92805362.126        -398.753          51.000  
R18  23538695.074   125651166.569        3128.957          50.000    23538697.818    97728957.187        2433.575          50.000  
R24  24576066.956   131419603.461       -3923.715          53.000    24576062.169   102215269.058       -3051.816          45.000  
E31  29288960.673   153914500.881       -2491.441          35.000    29288964.217   117934563.011       -1908.935          42.000  
E09  29772503.952                       -3788.689          29.000    29772536.505   119881236.440       -2903.416          40.000  
G11  25027627.725   131521514.625         796.375          47.000    25027624.642   102484481.333         620.512          46.000  
E24  26460919.448   139053189.909       -1388.187          47.000    26460918.635   106547308.426       -1063.612          52.000  
G24  22793691.500   119781756.155       -1676.855          49.000    22793690.442    93336502.649       -1306.708          46.000  
G12  23360090.016   122758399.686        -781.197          49.000    23360084.495    95656021.416        -608.604          45.000  
E05  25664769.405   134869319.435       -2669.444          45.000    25664773.663   103341461.365       -2045.419          51.000  
G25  24073335.518   126506442.284         627.787          49.000    24073334.725    98576515.508         489.179          45.000  
E10  28074271.819   147531741.273        1507.665          46.000    28074275.178   113044042.611        1155.316          50.000  
E25  27064878.507   142227178.589         294.240          45.000    27064880.586   108979415.850         225.387          49.000  
E12  28077787.652   147550105.355         529.941          42.000    28077785.397   113058085.620         406.055          46.000  
E14  22188047.088   116599111.520       -4224.898          49.000    22188047.912    89342229.359       -3237.283          53.000  
