     3.00           OBSERVATION DATA    M: Mixed            RINEX VERSION / TYPE
CONVBIN 2.4.3                           20240415 091442 UTC PGM / RUN BY / DATE 
format: u-blox UBX                                          COMMENT             
log: /home/regis/git/gnsspwv/obsdata/VERT00CHL/2024-04-15/VECOMMENT             
{self.marker}                                               MARKER NAME         
                                                            MARKER NUMBER       
GEODETIC                                                    MARKER TYPE         
{self.observer}     {self.institution}                      OBSERVER / AGENCY   
UNKNOWN             UBLOX-ZED-F9P                           REC # / TYPE / VERS 
UNKNOWN             TWIVSP6037L                             ANT # / TYPE        
  1713381.0000 -5047934.0000 -3490983.0000                  APPROX POSITION XYZ 
        0.0000        0.0000        0.0000                  ANTENNA: DELTA H/E/N
G    8 C1C L1C D1C S1C C2L L2L D2L S2L                      SYS / # / OBS TYPES 
R    8 C1C L1C D1C S1C C2C L2C D2C S2C                      SYS / # / OBS TYPES 
E    8 C1C L1C D1C S1C C7Q L7Q D7Q S7Q                      SYS / # / OBS TYPES 
S    4 C1C L1C D1C S1C                                      SYS / # / OBS TYPES 
  2024    04    15    09    00   00.4990000     GPS         TIME OF FIRST OBS   
  2024    04    15    09    14   30.4990000     GPS         TIME OF LAST OBS    
                                                            END OF HEADER       
> 2024 04 15 09 00 00.4990000  0 27                     
S33  39488335.248   207512789.6421       -648.918          41.000  
E02  26722564.481   140428025.6871      -3662.796          42.000    26722565.173   107600724.1191      -2806.721          41.000  
E05  23853600.775   125351535.9151        800.523          46.000    23853600.602    96048595.1431        613.385          51.000  
E36  26474319.689                1      -2266.068          30.000    26474320.786   106601594.0721      -1736.208          45.000  
R20  22358227.928                       -2624.646          31.000    22358226.097    92990859.4241      -2041.019          37.000  
R06  19516517.664   104143926.8591        211.520          44.000                                                                  
R05  22402479.102   119754122.3531      -4051.264          50.000    22402474.845    93142051.0981      -3150.930          47.000  
R22  21634785.806   115487910.1281       1616.939          47.000    21634782.634    89824001.5121       1257.666          45.000  
G16  21723340.750   114156926.2261      -3272.819          46.000                                                                  
G08  21199437.108   111403947.2721       1857.961          48.000    21199435.546    86808208.7571       1447.615          46.000  
S31  38534179.603   202498627.3831       -649.261          44.000  
E30  24603664.975   129293242.7331      -2328.641          47.000    24603665.750    99068742.0541      -1784.335          50.000  
R11  22674385.959   121165044.7861      -4096.661          41.000    22674381.519    94239575.2861      -3186.405          40.000  
R21  20029837.630   107184022.4361       -317.538          51.000    20029832.120    83365189.2891       -247.031          50.000  
R12  22221436.763   118702934.3181      -1297.137          50.000    22221435.321    92324481.7521      -1008.752          46.000  
E15  25045892.016   131617114.4501        506.259          44.000    25045894.556   100849524.2111        387.876          50.000  
G23  22859600.496   120128149.7971      -3908.542          45.000    22859595.224    93606381.6361      -3045.608          46.000  
E34  23770438.347   124914722.2501      -1054.694          48.000    23770439.071    95714030.7131       -808.058          51.000  
G27  19973477.498   104961308.3101        -92.362          49.000    19973475.831    81788127.1321        -71.932          48.000  
E09  27117892.213   142505485.3191      -1552.436          44.000    27117890.969   109192520.3941      -1189.639          39.000  
G10  20250995.009   106419828.1811      -2378.823          51.000    20250990.925    82924509.7041      -1853.770          47.000  
E03  26569561.574   139624006.8991       2158.783          42.000    26569561.350   106984646.5481       1654.007          46.000  
G21  23209684.120   121967720.0031       1973.509          46.000                                                                  
E27  25930404.041   136265062.4551        200.297          41.000    25930406.296   104411002.1601        153.437          46.000  
E18  25170675.378   132272819.7841      -1362.929          39.000                                                                  
G32  22320536.712   117295236.2861       1754.346          46.000    22320532.802    91398892.7271       1367.042          41.000  
G26                                                                  24037624.299                3      -3166.627          17.000  
> 2024 04 15 09 00 30.4990000  0 27                     
S33  39492036.938   207532241.393        -648.730          42.000  
E02  26743472.865   140537901.147       -3662.475          41.000    26743472.699   107684914.455       -2806.358          40.000  
E05  23849058.087   125327671.239         789.867          45.000    23849059.413    96030309.261         605.149          52.000  
E36  26487245.422                       -2266.011          27.000    26487253.187   106653669.316       -1735.798          44.000  
R20  22372961.119                       -2629.024          29.000    22372961.360    93052145.285       -2045.439          36.000  
R06  19515401.781   104137971.429         184.876          44.000                                                                  
R05  22425256.569   119875882.407       -4066.834          50.000    22425253.073    93236753.365       -3163.104          48.000  
R22  21625697.360   115439397.223        1616.585          47.000    21625695.217    89786269.316        1257.216          46.000  
G16  21742055.684   114255276.976       -3284.709          45.000                                                                  
G08  21188854.606   111348337.437        1848.828          48.000    21188853.117    86764876.431        1440.680          46.000  
S31  38537883.763   202518093.778        -648.966          43.000  
E30  24616988.358   129363255.607       -2339.476          48.000    24616988.830    99122388.297       -1792.512          50.000  
R11  22697399.179   121288020.540       -4102.215          45.000    22697395.466    94335223.004       -3190.646          42.000  
R21  20031633.694   107193634.751        -323.751          51.000    20031628.791    83372665.529        -251.791          48.000  
R12  22228784.707   118742183.500       -1320.123          50.000    22228783.134    92355008.853       -1026.761          48.000  
E15  25043005.125   131601940.322         504.758          44.000    25043006.979   100837897.289         386.873          50.000  
G23  22881924.952   120245466.382       -3913.044          44.000    22881920.377    93697797.131       -3049.147          47.000  
E34  23776461.079   124946371.677       -1055.984          48.000    23776461.526    95738281.594        -809.126          51.000  
G27  19974046.813   104964300.862        -107.700          48.000    19974044.724    81790459.009         -83.907          47.000  
E09  27126790.303   142552245.559       -1565.344          44.000    27126789.372   109228349.722       -1199.397          39.000  
G10  20264617.308   106491416.519       -2394.270          49.000    20264613.672    82980292.839       -1865.675          47.000  
E03  26557237.352   139559241.797        2158.667          43.000    26557237.212   106935021.438        1653.888          47.000  
G21  23198416.294   121908508.649        1973.284          45.000                                                                  
E27  25929297.090   136259248.433         187.010          40.000    25929300.068   104406547.282         143.236          47.000  
E18  25178461.545   132313730.292       -1365.209          40.000                                                                  
G32  22310553.413   117242773.974        1742.610          47.000    22310549.023    91358013.028        1357.919          42.000  
G26                                                                  24060878.617                3      -3177.353          19.000  
> 2024 04 15 09 01 00.4990000  0 26                     
S33  39495739.131   207551698.710        -648.838          42.000  
E02  26764379.817   140647774.978       -3662.821          40.000    26764380.475   107769103.577       -2806.531          39.000  
E05  23844579.251   125304136.986         778.714          45.000    23844580.871    96012276.565         596.638          52.000  
E36  26500181.364                1      -2265.934          29.000    26500185.503   106705741.777       -1735.955          44.000  
R20  22387729.693   119717322.244       -2635.378          35.000    22387729.019    93113561.595       -2049.611          39.000  
R06  19514438.566   104132829.970         157.313          44.000                                                                  
R05  22448123.130   119998116.728       -4082.621          50.000    22448119.501    93331824.467       -3175.552          47.000  
R22  21616613.524   115390900.157        1615.992          47.000    21616610.294    89748549.459        1256.863          47.000  
G16  21760839.414   114353989.575       -3296.788          44.000                                                                  
G08  21178326.955   111293012.124        1839.084          47.000    21178324.874    86721765.819        1432.883          45.000  
S31  38541589.166   202537564.499        -649.487          44.000  
E30  24630373.651   129433598.935       -2350.551          48.000    24630374.783    99176287.736       -1801.015          50.000  
R11  22720446.897   121411174.239       -4108.402          46.000    22720442.476    94431009.207       -3195.396          44.000  
R21  20033464.720   107203440.111        -330.404          51.000    20033460.814    83380291.964        -256.973          49.000  
R12  22236263.977   118782131.224       -1343.621          51.000    22236261.236    92386079.284       -1044.954          48.000  
E15  25040126.487   131586816.476         502.983          44.000    25040129.153   100826308.923         385.514          51.000  
G23  22904275.663   120362925.490       -3917.771          44.000    22904271.340    93789323.704       -3052.974          45.000  
E34  23782492.991   124978071.320       -1057.704          48.000    23782493.625    95762570.954        -810.489          51.000  
G27  19974705.905   104967760.965        -123.453          48.000    19974702.960    81793155.220         -96.214          47.000  
E09  27135763.163   142599401.256       -1578.837          44.000    27135763.405   109264482.025       -1209.740          39.000  
G10  20278328.953   106563474.802       -2410.024          49.000    20278326.091    83036442.194       -1878.036          47.000  
E03  26544915.036   139494489.540        2158.004          44.000    26544915.182   106885406.129        1653.503          47.000  
G21  23187151.393   121849312.832        1972.625          45.000                                                                  
E27  25928269.456   136253843.544         173.076          41.000    25928271.703   104402405.846         132.619          47.000  
E18  25186260.675   132354715.441       -1367.655          40.000                                                                  
G32  22300639.244   117190674.209        1730.225          47.000    22300634.867    91317415.851        1348.249          41.000  
> 2024 04 15 09 01 30.4990000  0 26                     
S33  39499442.991   207571162.453        -648.886          41.000  
E02  26785287.974   140757647.319       -3662.294          38.000    26785288.866   107853291.482       -2806.435          40.000  
E05  23840163.277   125280936.690         767.608          44.000    23840165.866    95994499.743         588.108          52.000  
E36  26513115.314                       -2265.971          30.000    26513116.911   106757813.165       -1735.821          42.000  
R20  22402529.822   119796457.364       -2641.292          33.000    22402527.755    93175111.194       -2054.550          38.000  
R06  19513627.224   104128505.519         130.402          42.000                                                                  
R05  22471077.286   120120823.208       -4098.188          49.000    22471074.215    93427262.847       -3187.561          47.000  
R22  21607531.302   115342421.614        1615.398          47.000    21607528.217    89710843.945        1256.478          46.000  
G16  21779692.476   114453062.731       -3308.622          44.000                                                                  
G08  21167853.624   111237975.848        1829.431          48.000    21167851.634    86678880.451        1425.444          45.000  
S31  38545295.607   202557041.902        -649.570          44.000  
E30  24643822.988   129504273.139       -2361.385          48.000    24643823.688    99230440.711       -1809.377          50.000  
R11  22743526.046   121534503.624       -4114.050          46.000    22743522.591    94526932.003       -3199.831          45.000  
R21  20035335.044   107213442.441        -336.853          52.000    20035329.889    83388071.572        -262.036          50.000  
R12  22243872.429   118822777.619       -1366.778          50.000    22243870.452    92417693.106       -1062.893          48.000  
E15  25037258.210   131571744.498         501.234          43.000    25037261.110   100814760.292         384.167          51.000  
G23  22926653.929   120480526.723       -3922.495          42.000    22926651.150    93880961.033       -3056.522          47.000  
E34  23788535.735   125009823.090       -1059.359          48.000    23788536.001    95786900.248        -811.732          51.000  
G27  19975454.329   104971692.194        -139.175          49.000    19975451.604    81796218.511        -108.186          48.000  
E09  27144812.237   142646953.770       -1591.762          45.000    27144811.970   109300918.391       -1219.625          39.000  
G10  20292130.575   106636002.544       -2425.559          49.000    20292127.873    83092957.335       -1890.035          48.000  
E03  26532595.809   139429754.064        2157.542          44.000    26532596.476   106835803.725        1653.027          47.000  
G21  23175890.216   121790134.809        1972.276          45.000                                                                  
E27  25927318.577   136248850.313         159.520          40.000    25927320.672   104398579.867         122.196          47.000  
E18  25194075.475   132395776.325       -1369.849          41.000                                                                  
G32  22290795.499   117138942.023        1718.212          49.000    22290790.278    91277105.095        1338.683          41.000  
> 2024 04 15 09 02 00.4990000  0 26                     
S33  39503146.876   207590624.882        -648.635          42.000  
E02  26806195.046   140867509.055       -3661.329          38.000    26806194.929   107937471.266       -2805.593          40.000  
E05  23835811.811   125258064.647         756.993          44.000    23835813.413    95976974.434         580.106          52.000  
E36  26526050.759   139395279.9621      -2264.723          34.000    26526046.606   106809878.212       -1735.266          41.000  
R20  22417357.799   119875757.060       -2646.239          33.000    22417356.725    93236788.736       -2057.869          38.000  
R06  19512968.575   104124992.000         103.703          43.000                                                                  
R05  22494118.316   120243990.879       -4113.002          51.000    22494116.067    93523059.947       -3199.000          49.000  
R22  21598450.904   115293954.792        1615.354          46.000    21598448.704    89673147.508        1256.826          47.000  
G16  21798612.657   114552486.511       -3319.770          46.000                                                                  
G08  21157434.350   111183223.973        1820.402          47.000    21157432.289    86636216.696        1418.514          45.000  
S31  38549002.049   202576518.142        -648.979          44.000  
E30  24657333.188   129575269.468       -2371.741          48.000    24657333.584    99284840.511       -1817.246          50.000  
R11  22766635.543   121657996.655       -4118.730          45.000    22766632.668    94622982.106       -3203.564          44.000  
R21  20037239.996   107223635.532        -342.718          51.000    20037234.606    83395999.535        -266.477          49.000  
R12  22251610.036   118864113.382       -1389.089          50.000    22251608.598    92449843.107       -1080.439          48.000  
E15  25034398.581   131556716.763         500.314          44.000    25034401.547   100803245.574         383.390          51.000  
G23  22949059.004   120598260.306       -3926.411          44.000    22949054.092    93972701.565       -3059.672          46.000  
E34  23794586.612   125041619.661       -1060.461          48.000    23794586.797    95811263.852        -812.553          52.000  
G27  19976290.797   104976089.005        -154.152          48.000    19976288.021    81799644.638        -120.030          47.000  
E09  27153936.014   142694895.353       -1604.292          45.000    27153935.123   109337652.901       -1229.376          36.000  
G10  20306020.337   106708990.065       -2440.314          51.000    20306017.118    83149830.740       -1901.428          47.000  
E03  26520279.819   139365030.171        2157.274          45.000    26520280.515   106786210.125        1653.088          48.000  
G21  23164630.589   121730967.991        1972.143          45.000                                                                  
E27  25926445.881   136244262.120         146.332          40.000    25926447.433   104395064.256         112.104          46.000  
E18  25201901.665   132436904.922       -1371.834          41.000                                                                  
G32  22281020.454   117087573.436        1706.363          48.000    22281015.865    91237077.670        1329.452          42.000  
> 2024 04 15 09 02 30.4990000  0 26                     
S33  39506849.502   207610083.207        -648.508          42.000  
E02  26827098.441   140977354.377       -3661.059          39.000    26827097.592   108021638.447       -2805.377          40.000  
E05  23831522.237   125235518.434         746.094          45.000    23831523.260    95959698.790         571.577          52.000  
E36  26538973.543   139463217.302       -2263.996          34.000    26538975.503   106861934.127       -1735.063          41.000  
R20  22432215.349                       -2651.270          34.000    22432215.910    93298591.273       -2062.271          38.000  
R06  19512461.705   104122286.284          76.884          43.000                                                                  
R05  22517244.961   120367611.045       -4128.231          52.000    22517241.385    93619208.964       -3210.841          48.000  
R22  21589373.560   115245496.310        1615.129          46.000    21589371.257    89635457.599        1256.146          46.000  
G16  21817597.803   114652253.859       -3331.449          45.000                                                                  
G08  21147069.208   111128755.046        1810.715          47.000    21147067.212    86593773.408        1411.010          45.000  
S31  38552707.451   202595990.314        -649.052          44.000  
E30  24670902.975   129646582.381       -2382.503          48.000    24670904.138    99339482.880       -1825.443          51.000  
R11  22789772.008   121781644.980       -4124.125          41.000    22789771.579    94719152.962       -3207.666          44.000  
R21  20039180.225   107234016.848        -349.274          52.000    20039174.748    83404073.944        -271.699          48.000  
R12  22259476.787   118906132.443       -1412.131          50.000    22259474.521    92482524.571       -1098.363          48.000  
E15  25031546.626   131541728.897         498.707          44.000    25031549.443   100791761.381         382.234          51.000  
G23  22971488.052   120716120.089       -3930.811          45.000    22971482.330    94064540.315       -3062.966          47.000  
E34  23800645.237   125073456.895       -1062.046          48.000    23800645.289    95835658.636        -813.747          52.000  
G27  19977215.305   104980948.984        -169.762          48.000    19977212.728    81803431.673        -132.261          47.000  
E09  27163131.147   142743221.409       -1617.398          45.000    27163132.971   109374682.008       -1239.124          39.000  
G10  20319995.764   106782430.877       -2455.763          51.000    20319992.269    83207057.374       -1913.557          47.000  
E03  26507965.111   139300315.800        2157.076          44.000    26507965.403   106736623.852        1652.719          48.000  
G21  23153372.618   121671808.788        1971.679          44.000                                                                  
E27  25925648.946   136240075.577         132.926          40.000    25925650.773   104391856.400         101.700          46.000  
E18  25209739.278   132478096.346       -1374.159          41.000                                                                  
G32  22271313.934   117036567.561        1693.921          48.000    22271309.161    91197332.873        1319.949          41.000  
> 2024 04 15 09 03 00.4990000  0 26                     
S33  39510552.097   207629540.566        -648.794          42.000  
E02  26847998.053   141087185.763       -3661.136          39.000    26847998.490   108105795.015       -2805.503          40.000  
E05  23827294.407   125213303.917         734.535          44.000    23827296.089    95942677.329         562.846          52.000  
E36  26551901.860   139531147.431       -2264.369          36.000    26551902.526   106913984.501       -1735.202          42.000  
R20  22447106.077   120034844.135       -2656.907          32.000    22447106.882    93360523.177       -2067.192          38.000  
R06  19512107.421   104120394.281          49.170          43.000                                                                  
R05  22540455.740   120491684.645       -4143.614          51.000    22540452.001    93715710.643       -3222.776          48.000  
R22  21580298.022   115197051.165        1614.171          46.000    21580295.026    89597778.039        1255.554          45.000  
G16  21836649.171   114752366.205       -3343.074          46.000                                                                  
G08  21136759.073   111074576.011        1800.732          47.000    21136757.064    86551556.003        1403.186          45.000  
S31  38556412.458   202615461.557        -649.279          44.000  
E30  24684534.289   129718214.676       -2393.236          48.000    24684535.246    99394369.970       -1833.865          51.000  
R11  22812941.557   121905448.313       -4129.667          44.000    22812939.741    94815444.442       -3211.965          44.000  
R21  20041156.452   107244592.128        -356.001          51.000    20041150.527    83412299.176        -276.900          48.000  
R12  22267470.152   118948837.370       -1435.131          49.000    22267469.211    92515739.475       -1116.361          48.000  
E15  25028702.899   131526784.852         497.090          44.000    25028705.524   100780310.789         380.958          51.000  
G23  22993940.367   120834107.885       -3935.198          43.000    22993934.338    94156478.858       -3066.613          46.000  
E34  23806711.963   125105339.091       -1063.749          49.000    23806712.286    95860087.868        -815.137          52.000  
G27  19978229.855   104986278.168        -185.838          49.000    19978227.069    81807584.289        -144.742          47.000  
E09  27172401.527   142791935.723       -1630.580          44.000    27172403.209   109412008.581       -1249.311          41.000  
G10  20334057.687   106856326.872       -2471.016          50.000    20334054.171    83264638.689       -1925.545          47.000  
E03  26495653.153   139235617.381        2156.006          43.000    26495653.691   106687049.794        1652.020          47.000  
G21  23142117.629   121612661.631        1971.112          45.000                                                                  
E27  25924930.021   136236295.652         118.840          40.000    25924931.444   104388960.082          91.060          46.000  
E18  25217590.775   132519354.149       -1376.664          42.000                                                                  
G32  22261677.584   116985931.872        1681.378          47.000    22261674.283    91157876.539        1310.067          42.000  
> 2024 04 15 09 03 30.4990000  0 26                     
S33  39514255.676   207649003.819        -648.893          41.000  
E02  26868896.476   141197006.888       -3660.497          40.000    26868895.953   108189943.705       -2804.981          38.000  
E05  23823131.159   125191428.084         723.545          44.000    23823132.891    95925915.373         554.406          52.000  
E36  26564829.880   139599076.113       -2264.182          38.000    26564828.995   106966033.790       -1735.166          41.000  
R20  22462029.110   120114643.392       -2664.105          34.000    22462030.355    93422589.159       -2071.273          39.000  
R06  19511905.896   104119322.135          21.588          42.000                                                                  
R05  22563750.942   120616212.839       -4158.576          51.000    22563747.426    93812565.899       -3234.441          47.000  
R22  21571227.054   115148625.681        1613.813          46.000    21571224.259    89560113.823        1255.138          47.000  
G16  21855765.814   114852825.329       -3354.503          46.000                                                                  
G08  21126505.021   111020694.907        1791.041          46.000    21126503.883    86509570.785        1395.558          45.000  
S31  38560118.983   202634938.430        -649.513          44.000  
E30  24698227.147   129790170.324       -2403.876          47.000    24698227.799    99449504.804       -1841.934          51.000  
R11  22836140.007   122029407.890       -4134.845          44.000    22836136.678    94911857.414       -3215.479          44.000  
R21  20043170.479   107255368.268        -362.749          53.000    20043164.517    83420680.614        -282.165          49.000  
R12  22275594.530   118992231.553       -1458.154          50.000    22275592.791    92549490.471       -1134.000          48.000  
E15  25025869.324   131511889.789         495.609          45.000    25025870.745   100768897.700         379.864          50.000  
G23  23016417.545   120952226.827       -3939.493          41.000    23016411.410    94248519.582       -3069.734          46.000  
E34  23812788.824   125137271.672       -1065.261          49.000    23812788.797    95884555.694        -816.224          52.000  
G27  19979335.105   104992083.664        -201.667          50.000    19979331.655    81812108.035        -157.059          47.000  
E09  27181746.039   142841043.133       -1643.619          44.000    27181747.462   109449636.363       -1259.504          42.000  
G10  20348205.960   106930681.031       -2486.221          50.000    20348203.263    83322577.020       -1937.338          47.000  
E03  26483346.196   139170942.352        2155.347          44.000    26483346.249   106637493.662        1651.578          47.000  
G21  23130865.431   121553532.428        1970.493          43.000                                                                  
E27  25924289.277   136232928.319         105.333          41.000    25924290.886   104386379.913          80.689          47.000  
E18  25225454.545   132560682.948       -1378.800          42.000                                                                  
G32  22252114.268   116935675.026        1668.660          47.000    22252110.715    91118715.376        1300.220          42.000  
> 2024 04 15 09 04 00.4990000  0 26                     
S33  39517959.937   207668469.979        -648.747          42.000  
E02  26889791.747   141306814.087       -3660.315          40.000    26889791.689   108274081.758       -2804.890          36.000  
E05  23819032.854   125169890.587         712.154          44.000    23819034.203    95909412.660         545.604          52.000  
E36  26577754.185   139667001.788       -2264.185          38.000    26577755.316   107018080.775       -1735.031          42.000  
R20  22476985.943   120194614.367       -2668.839          35.000    22476984.758    93484788.874       -2076.126          37.000  
R06  19511859.336   104119069.073          -5.299          43.000                                                                  
R05  22587129.783   120741189.705       -4173.364          50.000    22587127.079    93909770.117       -3246.004          47.000  
R22  21562159.455   115100218.520        1612.872          46.000    21562156.268    89522463.838        1254.688          47.000  
G16  21874947.817   114953627.187       -3365.764          46.000                                                                  
G08  21116308.901   110967112.458        1780.978          46.000    21116307.587    86467818.229        1387.705          45.000  
S31  38563825.895   202654418.673        -649.451          44.000  
E30  24711980.747   129862445.764       -2414.610          48.000    24711981.059    99504884.709       -1850.138          50.000  
R11  22859366.897   122153517.183       -4139.545          44.000    22859361.551    95008386.935       -3219.713          44.000  
R21  20045221.629   107266344.698        -369.350          53.000    20045215.611    83429217.855        -287.239          49.000  
R12  22283846.233   119036311.134       -1480.974          50.000    22283843.859    92583774.524       -1151.869          47.000  
E15  25023044.325   131497041.379         493.951          46.000    25023045.168   100757520.381         378.548          50.000  
G23  23038918.787   121070472.574       -3943.370          40.000    23038913.468    94340659.155       -3073.093          46.000  
E34  23818873.853   125169252.642       -1066.944          48.000    23818874.563    95909060.626        -817.599          52.000  
G27  19980530.651   104998365.068        -217.335          50.000    19980527.218    81817002.675        -169.417          47.000  
E09  27191165.250   142890541.128       -1656.498          45.000    27191166.001   109487563.398       -1269.339          43.000  
G10  20362440.653   107005488.961       -2501.271          49.000    20362438.846    83380868.960       -1949.080          48.000  
E03  26471043.208   139106290.876        2154.524          45.000    26471043.643   106587955.590        1650.839          48.000  
G21  23119617.669   121494419.090        1969.945          46.000                                                                  
E27  25923727.837   136229972.302          91.553          42.000    25923728.680   104384114.913          70.160          47.000  
E18  25233333.002   132602080.044       -1381.276          42.000                                                                  
G32  22242623.789   116885798.208        1656.100          49.000    22242620.323    91079850.371        1290.419          43.000  
> 2024 04 15 09 04 30.4990000  0 26                     
S33  39521665.532   207687942.621        -649.117          43.000  
E02  26910684.831   141416608.826       -3659.635          40.000    26910684.519   108358210.248       -2803.795          35.000  
E05  23815000.574   125148696.306         700.722          46.000    23815001.043    95893172.898         537.059          52.000  
E36  26590680.153   139734928.207       -2263.988          37.000    26590681.643   107070128.293       -1734.820          42.000  
R20  22491974.555   120274760.880       -2674.304          35.000    22491972.180    93547125.078       -2079.991          37.000  
R06  19511965.432   104119639.407         -32.925          42.000                                                                  
R05  22610593.482   120866614.611       -4188.079          48.000    22610590.494    94007322.845       -3257.448          47.000  
R22  21553094.615   115051833.876        1612.510          46.000    21553091.444    89484831.367        1254.195          46.000  
G16  21894194.961   115054772.028       -3377.237          46.000                                                                  
G08  21106170.510   110913834.619        1770.295          47.000    21106169.074    86426303.049        1379.856          44.000  
S31  38567533.801   202673904.794        -649.727          44.000  
E30  24725794.533   129935042.869       -2425.091          47.000    24725796.016    99560511.076       -1858.206          50.000  
R11  22882619.653   122277775.344       -4144.282          43.000    22882615.635    95105032.179       -3223.464          44.000  
R21  20047310.995   107277526.307        -376.124          51.000    20047304.148    83437914.657        -292.567          49.000  
R12  22292225.625   119081077.628       -1503.595          49.000    22292224.448    92618592.877       -1169.582          48.000  
E15  25020227.839   131482242.655         492.482          45.000    25020228.769   100746181.157         377.343          49.000  
G23  23061443.551   121188846.292       -3947.782          41.000    23061438.714    94432898.365       -3076.285          45.000  
E34  23824968.127   125201285.315       -1068.570          47.000    23824970.260    95933605.175        -818.707          52.000  
G27  19981818.060   105005127.408        -233.221          51.000    19981813.765    81822272.026        -181.863          47.000  
E09  27200659.595   142940432.467       -1669.655          45.000    27200660.079   109525791.845       -1279.159          44.000  
G10  20376763.447   107080751.521       -2516.125          49.000    20376760.677    83439515.121       -1960.701          48.000  
E03  26458745.149   139041668.326        2153.583          44.000    26458747.049   106538439.672        1650.245          48.000  
G21  23108372.760   121435326.218        1969.402          46.000                                                                  
E27  25923243.571   136227431.481          77.684          41.000    25923244.910   104382168.059          59.544          47.000  
E18  25241224.229   132643547.970       -1383.416          43.000                                                                  
G32  22233205.447   116836307.945        1643.445          48.000    22233202.957    91041286.563        1280.532          44.000  
> 2024 04 15 09 05 00.4990000  0 26                     
S33  39525371.075   207707416.640        -649.134          42.000  
E02  26931574.910   141526382.998       -3658.957          41.000    26931574.097   108442323.059       -2803.618          37.000  
E05  23811030.602   125127840.346         689.480          44.000    23811032.051    95877192.400         528.128          51.000  
E36  26603603.842   139802849.338       -2264.120          37.000    26603607.206   107122171.764       -1734.792          42.000  
R20  22506993.756   120355077.325       -2680.330          36.000    22506991.357    93609593.530       -2084.777          36.000  
R06  19512225.311   104121027.669         -60.181          42.000                                                                  
R05  22634138.599   120992477.922       -4202.926          49.000    22634135.529    94105216.502       -3268.839          46.000  
R22  21544033.575   115003466.039        1611.880          46.000    21544029.324    89447212.002        1253.707          45.000  
G16  21913505.540   115156250.574       -3388.305          45.000                                                                  
G08  21096089.634   110860857.560        1760.718          47.000    21096087.889    86385022.263        1371.920          44.000  
S31  38571242.132   202693391.729        -649.581          44.000  
E30  24739670.057   130007953.724       -2435.624          47.000    24739670.141    99616377.830       -1866.268          50.000  
R11  22905897.712   122402171.332       -4148.910          41.000    22905893.862    95201784.621       -3226.789          44.000  
R21  20049437.973   107288907.942        -382.884          53.000    20049431.970    83446767.076        -297.788          50.000  
R12  22300733.365   119126522.160       -1526.276          49.000    22300731.735    92653938.625       -1187.067          47.000  
E15  25017419.085   131467486.915         491.126          45.000    25017421.048   100734874.857         376.260          50.000  
G23  23083991.729   121307339.136       -3951.929          40.000    23083987.148    94525230.445       -3079.268          45.000  
E34  23831072.917   125233363.330       -1070.014          47.000    23831074.827    95958184.434        -819.920          52.000  
G27  19983195.010   105012365.873        -249.394          51.000    19983191.788    81827912.418        -194.370          48.000  
E09  27210227.552   142990710.165       -1682.440          45.000    27210227.121   109564316.339       -1289.303          44.000  
G10  20391170.188   107156459.891       -2531.262          49.000    20391167.855    83498508.675       -1972.296          48.000  
E03  26446451.609   138977070.355        2152.606          43.000    26446454.147   106488942.599        1649.443          48.000  
G21  23097130.250   121376246.965        1968.987          46.000                                                                  
E27  25922838.232   136225300.070          63.854          42.000    25922838.944   104380534.916          49.021          46.000  
E18  25249127.995   132685079.616       -1385.605          43.000                                                                  
G32  22223860.265   116787200.966        1630.389          48.000    22223859.433    91003021.455        1270.257          45.000  
> 2024 04 15 09 05 30.4990000  0 26                     
S33  39529078.251   207726896.230        -649.625          42.000  
E02  26952459.109   141636141.267       -3658.714          39.000    26952462.367   108526423.653       -2803.443          36.000  
E05  23807127.902   125107330.727         677.530          44.000    23807129.209    95861477.269         519.178          51.000  
E36  26616528.018   139870772.132       -2264.527          37.000    26616531.396   107174216.496       -1734.625          39.000  
R20  22522046.027   120435571.035       -2686.472          36.000    22522044.084    93672199.769       -2089.111          36.000  
R06  19512639.917   104123241.122         -87.837          42.000                                                                  
R05  22657766.833   121118781.071       -4217.596          48.000    22657763.089    94203452.263       -3280.507          45.000  
R22  21534977.792   114955122.197        1610.789          46.000    21534973.809    89409611.321        1252.832          47.000  
G16  21932880.287   115258065.679       -3399.777          45.000                                                                  
G08  21086067.556   110808190.448        1749.949          47.000    21086065.557    86343982.974        1363.691          44.000  
S31  38574951.412   202712886.444        -650.194          43.000  
E30  24753605.332   130081183.220       -2446.648          47.000    24753605.291    99672488.743       -1874.560          50.000  
R11  22929203.887   122526707.347       -4153.834          41.000    22929199.546    95298645.945       -3230.691          44.000  
R21  20051604.273   107300497.947        -390.135          53.000    20051597.895    83455781.523        -303.446          50.000  
R12  22309369.608   119172649.523       -1549.198          51.000    22309367.646    92689815.417       -1204.895          48.000  
E15  25014620.247   131452780.291         489.245          45.000    25014622.369   100723606.194         374.724          50.000  
G23  23106564.166   121425955.323       -3956.450          41.000    23106559.212    94617658.626       -3082.741          46.000  
E34  23837187.285   125265493.116       -1072.092          48.000    23837188.953    95982803.370        -821.420          52.000  
G27  19984664.650   105020088.534        -265.782          50.000    19984660.903    81833930.083        -207.128          47.000  
E09  27219870.005   143041380.095       -1695.907          45.000    27219869.319   109603141.337       -1299.450          45.000  
G10  20405662.814   107232617.971       -2546.252          50.000    20405660.203    83557852.656       -1984.119          48.000  
E03  26434165.363   138912505.521        2151.095          43.000    26434167.631   106439470.915        1648.413          48.000  
G21  23085891.867   121317188.698        1967.991          45.000                                                                  
E27  25922512.798   136223585.071          49.956          42.000    25922512.403   104379220.824          38.240          46.000  
E18  25257044.270   132726680.583       -1388.036          43.000                                                                  
G32  22214590.186   116738486.871        1616.933          47.000    22214588.039    90965062.462        1260.053          43.000  
> 2024 04 15 09 06 00.4990000  0 26                     
S33  39532785.270   207746377.186        -649.422          42.000  
E02  26973342.250   141745876.652       -3657.312          40.000    26973343.809   108610506.650       -2802.276          38.000  
E05  23803291.173   125087163.711         666.680          45.000    23803291.615    95846024.658         510.832          51.000  
E36  26629455.244   139938691.693       -2263.779          38.000    26629456.139   107226258.734       -1734.393          38.000  
R20  22537131.466   120516237.873       -2691.664          38.000    22537130.064    93734940.685       -2093.821          36.000  
R06  19513208.621   104126275.397        -114.662          42.000                                                                  
R05  22681474.558   121245515.046       -4231.250          47.000    22681471.212    94302023.096       -3291.201          46.000  
R22  21525924.049   114906797.951        1610.688          47.000    21525921.584    89372025.748        1252.835          47.000  
G16  21952317.414   115360209.287       -3409.934          46.000                                                                  
G08  21076103.871   110755830.649        1740.321          47.000    21076101.988    86303183.154        1356.373          44.000  
S31  38578661.317   202732381.856        -649.513          44.000  
E30  24767599.079   130154724.583       -2456.493          46.000    24767600.078    99728838.633       -1882.155          50.000  
R11  22952532.934   122651373.585       -4157.372          39.000    22952527.899    95395608.731       -3233.431          41.000  
R21  20053808.161   107312292.180        -396.250          52.000    20053802.236    83464954.840        -308.200          49.000  
R12  22318130.864   119219451.995       -1571.141          51.000    22318129.226    92726217.298       -1221.967          48.000  
E15  25011830.187   131438117.220         488.233          45.000    25011832.202   100712370.904         374.144          50.000  
G23  23129158.689   121544687.303       -3959.304          39.000    23129153.244    94710177.067       -3085.223          46.000  
E34  23843310.007   125297669.435       -1073.218          47.000    23843311.683    96007457.973        -822.367          52.000  
G27  19986225.438   105028291.741        -281.404          50.000    19986221.608    81840322.185        -219.196          47.000  
E09  27229585.289   143092436.377       -1708.129          44.000    27229585.038   109642262.394       -1308.887          46.000  
G10  20420239.431   107309218.175       -2560.474          49.000    20420236.808    83617541.137       -1995.233          49.000  
E03  26421883.957   138847970.628        2150.778          42.000    26421886.803   106390022.178        1647.919          47.000  
G21  23074656.090   121258146.593        1968.013          45.000                                                                  
E27  25922262.991   136222281.786          36.685          42.000    25922264.721   104378222.217          28.115          46.000  
E18  25264971.664   132768344.953       -1389.555          43.000                                                                  
G32  22205395.438   116690163.600        1604.469          48.000    22205391.761    90927408.009        1250.083          43.000  
> 2024 04 15 09 06 30.4990000  0 26                     
S33  39536492.224   207765858.067        -649.366          42.000  
E02  26994218.501   141855584.179       -3656.505          39.000    26994219.841   108694568.351       -2801.957          39.000  
E05  23799518.781   125067337.626         655.045          46.000    23799518.881    95830833.304         501.984          51.000  
E36  26642379.063   140006605.208       -2263.914          39.000    26642379.954   107278296.421       -1734.460          37.000  
R20  22552248.143   120597075.539       -2697.587          39.000    22552247.898    93797814.429       -2098.167          36.000  
R06  19513930.139   104130128.080        -142.342          41.000                                                                  
R05  22705262.275   121372672.852       -4245.682          46.000    22705258.899    94400923.612       -3302.158          46.000  
R22  21516873.987   114858490.722        1609.740          47.000    21516871.353    89334453.521        1252.112          46.000  
G16  21971817.024   115462675.855       -3421.008          47.000                                                                  
G08  21066198.763   110703777.652        1729.843          48.000    21066196.741    86262622.413        1347.872          44.000  
S31  38582371.405   202751876.644        -650.102          44.000  
E30  24781652.360   130228573.070       -2466.754          47.000    24781653.560    99785423.865       -1890.141          50.000  
R11  22975883.901   122776162.855       -4161.637          37.000    22975879.084    95492666.977       -3236.856          37.000  
R21  20056050.052   107324288.870        -403.371          52.000    20056044.108    83474285.599        -313.791          50.000  
R12  22327017.908   119266924.308       -1593.669          51.000    22327015.444    92763140.195       -1239.525          48.000  
E15  25009047.147   131423494.248         486.719          44.000    25009049.188   100701166.337         372.854          50.000  
G23  23151769.573   121663529.697       -3963.181          36.000    23151768.172    94802781.483       -3088.270          46.000  
E34  23849441.202   125329889.118       -1074.838          47.000    23849442.660    96032145.809        -823.552          52.000  
G27  19987877.305   105036973.861        -297.531          50.000    19987873.794    81847087.498        -231.926          47.000  
E09  27239373.658   143143875.220       -1721.255          44.000    27239373.620   109681676.591       -1318.767          47.000  
G10  20434898.853   107386254.734       -2575.189          49.000    20434896.105    83677569.620       -2006.598          49.000  
E03  26409609.309   138783464.608        2149.571          42.000    26409611.391   106340595.531        1646.971          47.000  
G21  23063423.021   121199117.413        1967.269          44.000                                                                  
E27  25922093.153   136221387.635          22.767          42.000    25922094.659   104377537.080          17.548          46.000  
E18  25272911.625   132810068.799       -1392.043          43.000                                                                  
G32  22196274.770   116642231.088        1591.134          49.000    22196270.911    90890058.030        1239.902          43.000  
> 2024 04 15 09 07 00.4990000  0 27                     
S33  39540198.193   207785332.246        -648.390          42.000  
E02  27015088.930   141965256.610       -3654.773          38.000    27015090.160   108778603.149       -2800.670          40.000  
E05  23795809.583   125047848.538         643.970          46.000    23795809.965    95815900.142         493.601          51.000  
E36  26655300.210   140074507.632       -2263.047          40.000    26655302.271   107330325.566       -1733.950          38.000  
R20  22567396.962   120678078.838       -2702.679          40.000    22567394.820    93860817.037       -2101.823          35.000  
R07  19952398.268                3       3092.112          14.000                                                                  
R06  19514804.751   104134794.250        -168.783          41.000                                                                  
R05  22729127.426   121500244.729       -4259.049          46.000    22729123.119    94500146.139       -3312.495          46.000  
R22  21507827.087   114810195.822        1609.857          47.000    21507824.454    89296890.914        1252.110          48.000  
G16  21991374.992   115565456.267       -3430.865          46.000                                                                  
G08  21056350.479   110652028.570        1720.194          47.000    21056349.776    86222298.496        1340.360          45.000  
S31  38586080.010   202771364.662        -649.259          44.000  
E30  24795762.059   130302721.628       -2476.506          47.000    24795763.303    99842239.014       -1897.514          50.000  
R11  22999257.402   122901064.700       -4164.915          33.000    22999253.958    95589812.873       -3239.512          41.000  
R21  20058329.083   107336484.176        -409.635          52.000    20058322.409    83483770.864        -318.663          49.000  
R12  22336028.979   119315058.631       -1615.327          52.000    22336026.761    92800577.963       -1256.329          49.000  
E15  25006271.551   131408905.606         485.787          44.000    25006272.665   100689988.065         372.392          50.000  
G23  23174405.954   121782474.677       -3966.282          40.000    23174402.788    94895465.879       -3090.520          46.000  
E34  23855580.292   125362146.700       -1075.617          48.000    23855580.812    96056862.693        -824.229          52.000  
G27  19989619.348   105046131.009        -312.987          50.000    19989616.500    81854222.950        -243.783          47.000  
E09  27249233.943   143195690.528       -1733.332          44.000    27249233.800   109721379.221       -1328.098          47.000  
G10  20449639.579   107463719.726       -2589.056          48.000    20449637.103    83737931.971       -2017.383          49.000  
E03  26397339.641   138718984.037        2149.059          43.000    26397341.142   106291188.376        1646.545          48.000  
G21  23052191.862   121140096.291        1967.509          45.000                                                                  
E27  25922000.535   136220897.610           9.875          43.000    25922001.493   104377161.613           7.443          46.000  
E18  25280860.877   132851845.832       -1392.976          43.000                                                                  
G32  22187225.996   116594686.948        1578.470          47.000    22187222.422    90853010.695        1229.975          41.000  
> 2024 04 15 09 07 30.4990000  0 26                     
S33  39543901.910   207804794.488        -648.733          42.000  
E02  27035949.800   142074887.948       -3653.807          36.000    27035950.762   108862606.420       -2799.629          40.000  
E05  23792165.141   125028693.602         632.711          46.000    23792164.592    95801223.025         484.836          50.000  
E36  26668217.735   140142395.143       -2262.720          40.000    26668220.601   107382343.300       -1733.524          38.000  
R20  22582574.781   120759244.361       -2708.515          40.000    22582572.983    93923945.759       -2106.772          38.000  
R06  19515830.686   104140270.392        -196.304          41.000                                                                  
R05  22753067.939   121628222.676       -4272.852          45.000    22753064.184    94599684.535       -3323.360          47.000  
R22  21498780.019   114761909.720        1609.287          46.000    21498778.970    89259335.123        1251.517          47.000  
G16  22010991.853   115668543.395       -3441.493          46.000                                                                  
G08  21046560.092   110600581.802        1709.602          48.000    21046559.680    86182210.154        1332.039          45.000  
S31  38589786.162   202790841.059        -649.224          44.000  
E30  24809928.048   130377164.422       -2486.400          47.000    24809928.731    99899279.622       -1905.128          49.000  
R11  23022649.237   123026070.371       -4168.659          38.000    23022647.882    95687039.647       -3242.560          39.000  
R21  20060644.018   107348875.018        -416.502          51.000    20060638.748    83493408.232        -324.003          50.000  
R12  22345162.224   119363848.244       -1637.424          50.000    22345160.172    92838525.417       -1273.536          49.000  
E15  25003501.020   131394346.645         484.707          45.000    25003502.317   100678832.563         371.374          50.000  
G23  23197059.835   121901515.671       -3969.671          41.000    23197056.478    94988225.104       -3093.287          47.000  
E34  23861725.598   125394437.917       -1076.917          48.000    23861725.631    96081605.347        -825.245          52.000  
G27  19991451.238   105055760.424        -329.137          49.000    19991449.176    81861726.407        -256.469          47.000  
E09  27259164.550   143247877.310       -1745.831          44.000    27259164.355   109761366.540       -1337.784          47.000  
G10  20464461.093   107541606.360       -2603.503          48.000    20464458.286    83798622.859       -2028.644          49.000  
E03  26385073.850   138654526.686        2148.109          43.000    26385075.528   106241799.031        1645.973          48.000  
G21  23040961.263   121081079.511        1967.022          44.000                                                                  
E27  25921984.588   136220807.966          -3.751          44.000    25921985.039   104377092.923          -2.986          47.000  
E18  25288820.771   132893671.099       -1395.074          42.000                                                                  
G32  22178251.627   116547530.019        1565.075          47.000    22178248.561    90816265.039        1219.726          43.000  
> 2024 04 15 09 08 00.4990000  0 26                     
S33  39547604.785   207824253.790        -648.254          42.000  
E02  27056803.796   142184483.076       -3652.213          33.000    27056805.618   108946581.988       -2798.749          39.000  
E05  23788584.606   125009880.969         621.524          46.000    23788584.741    95786808.199         476.144          50.000  
E36  26681135.266   140210274.828       -2262.524          40.000    26681135.700   107434354.975       -1733.260          35.000  
R20  22597784.943   120840579.508       -2713.844          41.000    22597784.713    93987206.465       -2110.939          38.000  
R06  19517010.657   104146563.932        -223.190          42.000                                                                  
R05  22777086.533   121756609.059       -4286.191          46.000    22777082.306    94699540.601       -3333.746          47.000  
R22  21489738.246   114713639.910        1608.805          47.000    21489736.198    89221791.991        1251.201          47.000  
G16  22030667.120   115771940.880       -3451.965          45.000                                                                  
G08  21036829.286   110549446.650        1699.336          48.000    21036828.795    86142364.601        1324.050          45.000  
S31  38593491.493   202810314.189        -648.856          44.000  
E30  24824151.420   130451906.499       -2496.276          47.000    24824152.194    99956549.548       -1912.788          50.000  
R11  23046067.213   123151182.450       -4172.157          34.000    23046062.130    95784349.045       -3244.892          39.000  
R21  20062997.584   107361469.719        -423.125          51.000    20062992.554    83503204.149        -329.150          49.000  
R12  22354418.638   119413297.804       -1659.173          50.000    22354417.291    92876986.134       -1290.556          48.000  
E15  25000736.453   131379823.782         483.523          44.000    25000739.045   100667704.711         370.452          50.000  
G23  23219731.557   122020657.123       -3973.083          42.000    23219727.924    95081062.630       -3095.936          46.000  
E34  23867878.415   125426769.471       -1078.410          48.000    23867877.960    96106378.915        -826.314          52.000  
G27  19993374.973   105065870.310        -344.890          48.000    19993372.708    81869604.252        -268.686          47.000  
E09  27269167.310   143300441.611       -1758.508          43.000    27269167.275   109801643.084       -1347.313          48.000  
G10  20479363.616   107619918.783       -2617.499          49.000    20479360.851    83859645.549       -2039.642          49.000  
E03  26372814.668   138590101.323        2146.826          44.000    26372815.693   106192434.199        1644.990          48.000  
G21  23029732.248   121022074.263        1966.667          43.000                                                                  
E27  25922044.504   136221125.845         -17.403          43.000    25922045.677   104377336.484         -13.358          48.000  
E18  25296789.005   132935550.449       -1396.887          42.000                                                                  
G32  22169354.134   116500770.040        1552.279          47.000    22169350.639    90779828.748        1209.350          43.000  
> 2024 04 15 09 08 30.4990000  0 26                     
S33  39551305.918   207843704.510        -648.470          42.000  
E02  27077654.028   142294036.655       -3651.049          34.000    27077653.249   109030525.664       -2797.564          40.000  
E05  23785069.194   124991408.527         609.814          47.000    23785069.734    95772654.027         467.326          51.000  
E36  26694050.007   140278143.447       -2262.188          41.000    26694049.504   107486358.234       -1733.735          33.000  
R20  22613026.858   120922081.753       -2719.578          41.000    22613024.124    94050597.092       -2114.992          37.000  
R06  19518343.309   104153671.793        -250.599          43.000                                                                  
R05  22801178.590   121885396.071       -4299.772          44.000    22801174.428    94799708.260       -3344.324          48.000  
R22  21480697.332   114665383.730        1608.099          47.000    21480695.501    89184259.423        1250.864          47.000  
G16  22050401.149   115875642.147       -3462.060          46.000                                                                  
G08  21027157.704   110498622.114        1688.748          48.000    21027156.874    86102761.111        1315.934          45.000  
S31  38597195.918   202829779.382        -649.022          44.000  
E30  24838430.046   130526942.700       -2506.194          47.000    24838430.774   100014044.840       -1920.369          50.000  
R11  23069496.556   123276392.993       -4176.212          33.000    23069494.996    95881734.948       -3247.863          40.000  
R21  20065387.990   107374266.137        -430.163          50.000    20065383.889    83513156.985        -334.427          49.000  
R12  22363797.334   119463401.244       -1681.195          49.000    22363796.885    92915955.448       -1307.618          47.000  
E15  24997979.395   131365333.125         482.294          44.000    24997981.761   100656601.518         369.658          50.000  
G23  23242420.822   122139893.226       -3976.474          40.000    23242418.025    95173973.869       -3098.415          46.000  
E34  23874037.472   125459137.778       -1079.633          48.000    23874037.676    96131180.623        -827.307          52.000  
G27  19995390.192   105076458.512        -361.057          49.000    19995387.886    81877854.818        -281.401          47.000  
E09  27279240.680   143353379.114       -1770.659          42.000    27279240.660   109842205.592       -1356.951          48.000  
G10  20494346.236   107698650.882       -2631.677          49.000    20494343.345    83920995.232       -2050.751          49.000  
E03  26360561.986   138525706.395        2145.896          46.000    26360561.541   106143092.680        1644.181          48.000  
G21  23018505.620   120963077.189        1966.281          44.000                                                                  
E27  25922181.476   136221848.160         -31.110          42.000    25922183.426   104377889.928         -23.635          48.000  
E18  25304767.953   132977479.566       -1398.651          42.000                                                                  
G32  22160532.044   116454406.563        1538.573          47.000    22160528.755    90743701.389        1198.898          43.000  
> 2024 04 15 09 09 00.4990000  0 26                     
S33  39555006.531   207863150.394        -647.819          42.000  
E02  27098492.041   142403549.508       -3649.625          34.000    27098492.626   109114438.214       -2796.623          40.000  
E05  23781619.738   124973280.370         598.696          47.000    23781620.022    95758763.666         458.627          50.000  
E36  26706963.111   140346004.107       -2261.659          40.000    26706963.965   107538355.319       -1733.517          34.000  
R20  22628299.177   121003754.094       -2725.236          40.000    22628297.542    94114120.030       -2119.496          39.000  
R06  19519828.423   104161597.092        -277.714          43.000                                                                  
R05  22825344.736   122014582.662       -4312.883          43.000    22825342.069    94900186.674       -3354.269          48.000  
R22  21471661.328   114617144.648        1607.775          48.000    21471658.407    89146740.190        1250.532          47.000  
G16  22070192.676   115979646.981       -3471.537          46.000                                                                  
G08  21017546.742   110448113.506        1678.443          48.000    21017545.138    86063403.768        1308.129          44.000  
S31  38600899.069   202849239.621        -648.393          44.000  
E30  24852765.574   130602274.056       -2515.838          47.000    24852765.680   100071766.292       -1927.770          49.000  
R11  23092946.333   123401700.241       -4178.499          38.000    23092944.321    95979196.133       -3249.866          38.000  
R21  20067817.607   107387268.510        -436.797          51.000    20067813.386    83523269.966        -339.702          49.000  
R12  22373300.765   119514158.876       -1702.665          50.000    22373298.574    92955433.626       -1324.309          48.000  
E15  24995228.379   131350876.994         481.549          45.000    24995230.867   100645524.808         368.870          51.000  
G23  23265129.895   122259224.375       -3979.087          40.000    23265125.113    95266959.156       -3100.646          46.000  
E34  23880203.455   125491545.557       -1080.823          47.000    23880204.602    96156012.572        -828.160          52.000  
G27  19997496.923   105087529.248        -377.014          49.000    19997494.352    81886481.395        -293.758          47.000  
E09  27289385.658   143406691.814       -1783.263          43.000    27289385.850   109883055.588       -1366.354          48.000  
G10  20509408.139   107777802.724       -2645.276          49.000    20509405.139    83982672.018       -2061.230          49.000  
E03  26348313.917   138461346.668        2144.667          45.000    26348313.988   106093778.114        1643.390          48.000  
G21  23007281.345   120904091.299        1966.028          45.000                                                                  
E27  25922396.334   136222978.012         -44.240          42.000    25922398.405   104378755.666         -33.990          48.000  
E18  25312756.269   133019460.364       -1400.278          42.000                                                                  
G32  22151786.422   116408445.193        1525.256          49.000    22151782.397    90707887.358        1188.615          43.000  
> 2024 04 15 09 09 30.4990000  0 26                     
S33  39558707.801   207882600.705        -648.592          42.000  
E02  27119327.292   142513029.750       -3649.199          37.000    27119326.141   109198325.739       -2796.301          40.000  
E05  23778238.492   124955507.763         586.068          47.000    23778238.131    95745145.724         449.006          51.000  
E36  26719876.095   140413867.039       -2262.587          40.000    26719876.572                       -1733.865          30.000  
R20  22643606.197   121085607.809       -2731.992          40.000    22643604.497    94177784.023       -2124.343          38.000  
R06  19521468.224   104170350.480        -305.814          42.000                                                                  
R05  22849587.716   122144174.611       -4327.005          43.000    22849584.566    95000980.405       -3365.393          49.000  
R22  21462629.269   114568933.526        1606.151          47.000    21462627.113    89109242.689        1249.218          47.000  
G16  22090043.311   116083961.690       -3482.644          46.000                                                                  
G08  21007998.259   110397933.269        1666.763          49.000    21007996.275    86024302.307        1298.833          45.000  
S31  38604602.590   202868705.219        -649.355          43.000  
E30  24867158.829   130677908.781       -2526.686          48.000    24867158.739   100129720.173       -1936.007          50.000  
R11  23116415.202   123527109.923       -4182.392          38.000    23116413.181                       -3253.351          32.000  
R21  20070289.127   107400488.378        -444.707          52.000    20070283.598    83533552.097        -345.922          49.000  
R12  22382927.243   119565578.507       -1725.402          51.000    22382925.302    92995426.678       -1341.983          49.000  
E15  24992486.138   131336464.946         479.315          45.000    24992488.309   100634481.853         367.253          51.000  
G23  23287858.041   122378658.153       -3983.162          40.000    23287852.527    95360024.414       -3103.712          45.000  
E34  23886380.444   125524002.607       -1083.047          47.000    23886381.038    96180882.293        -829.911          52.000  
G27  19999698.107   105099093.752        -394.128          50.000    19999694.301    81895492.736        -307.121          46.000  
E09  27299603.935   143460388.822       -1796.806          41.000    27299603.779   109924200.039       -1376.665          48.000  
G10  20524551.289   107857381.684       -2660.114          49.000    20524548.321    84044681.603       -2072.894          49.000  
E03  26336074.778   138397033.946        2142.490          44.000    26336075.469   106044499.597        1641.661          47.000  
G21  22996060.287   120845126.758        1964.762          45.000                                                                  
E27  25922691.798   136224525.685         -59.023          44.000    25922692.557   104379941.531         -45.147          48.000  
E18  25320757.009   133061501.926       -1402.728          42.000                                                                  
G32  22143118.508   116362898.836        1510.886          48.000    22143114.697    90672396.753        1177.135          43.000  
> 2024 04 15 09 10 00.4990000  0 26                     
S33  39562411.691   207902065.961        -649.012          42.000  
E02  27140156.085   142622484.552       -3647.995          37.000    27140155.142   109282193.734       -2794.886          40.000  
E05  23774924.838   124938101.008         574.205          46.000    23774926.079    95731808.134         440.141          51.000  
E36  26732792.349   140481741.532       -2262.322          39.000    26732794.054   107642361.957       -1733.743          33.000  
R20  22658949.263   121167652.041       -2738.395          38.000    22658947.570    94241596.252       -2129.597          40.000  
R06  19523266.604   104179941.419        -333.452          43.000                                                                  
R05  22873907.270   122274177.469       -4340.092          45.000    22873904.306    95102093.740       -3375.645          49.000  
R22  21453606.037   114520760.233        1605.276          49.000    21453602.116    89071774.632        1248.462          47.000  
G16  22109953.259   116188591.998       -3492.776          46.000                                                                  
G08  20998513.960   110348092.930        1655.819          49.000    20998512.251    85985465.722        1290.144          45.000  
S31  38608309.317   202888183.659        -649.343          44.000  
E30  24881610.463   130753854.148       -2536.506          47.000    24881610.608   100187912.083       -1943.575          50.000  
R11  23139902.275   123652626.583       -4185.141          34.000    23139908.734    96174360.998       -3254.917          34.000  
R21  20072802.021   107413936.190        -451.969          52.000    20072796.507    83544011.536        -351.479          49.000  
R12  22392678.111   119617666.561       -1747.230          50.000    22392676.304    93035939.577       -1358.961          48.000  
E15  24989753.856   131322105.674         477.884          45.000    24989755.962   100623479.350         366.177          51.000  
G23  23310606.269   122498201.230       -3986.520          41.000    23310601.358    95453174.839       -3106.344          46.000  
E34  23892567.152   125556517.921       -1084.613          47.000    23892568.374    96205796.646        -831.123          52.000  
G27  20001994.929   105111162.452        -410.557          50.000    20001991.778    81904896.943        -319.869          47.000  
E09  27309897.090   143514478.288       -1809.382          42.000    27309897.015   109965645.247       -1386.384          48.000  
G10  20539776.462   107937394.092       -2674.127          49.000    20539774.623    84107028.967       -2083.850          49.000  
E03  26323847.955   138332779.305        2140.899          45.000    26323848.630   105995265.581        1640.385          48.000  
G21  22984846.045   120786193.034        1964.090          45.000                                                                  
E27  25923067.633   136226500.497         -72.777          44.000    25923068.251   104381454.683         -55.770          47.000  
E18  25328769.951   133103612.491       -1404.701          42.000                                                                  
G32  22134532.863   116317779.504        1496.931          47.000    22134528.503    90637238.860        1166.666          43.000  
> 2024 04 15 09 10 30.4990000  0 26                     
S33  39566116.756   207921537.564        -648.770          42.000  
E02  27160977.414   142731904.097       -3646.222          37.000    27160976.674   109366034.729       -2793.784          40.000  
E05  23771681.150   124921053.487         562.413          46.000    23771681.728    95718745.808         431.051          51.000  
E36  26745709.241   140549619.964       -2262.201          39.000    26745714.233   107694372.739       -1733.102          35.000  
R20  22674326.010   121249879.619       -2743.828          38.000    22674324.470    94305551.022       -2134.020          40.000  
R06  19525219.547   104190362.100        -361.000          43.000                                                                  
R05  22898301.847   122404578.331       -4352.929          46.000    22898298.344    95203516.665       -3385.614          48.000  
R22  21444586.689   114472617.419        1604.498          48.000    21444583.324    89034330.261        1247.899          47.000  
G16  22129921.841   116293527.453       -3502.628          46.000                                                                  
G08  20989093.627   110298587.060        1644.880          49.000    20989091.505    85946889.740        1281.575          45.000  
S31  38612017.441   202907669.408        -649.426          44.000  
E30  24896119.694   130830100.398       -2546.207          47.000    24896119.746   100246334.563       -1951.136          50.000  
R11  23163407.068   123778237.929       -4188.308          31.000    23163414.167                       -3258.195          27.000  
R21  20075355.651   107427605.234        -459.078          51.000    20075350.591    83554643.014        -357.020          48.000  
R12  22402552.207   119670412.584       -1768.845          51.000    22402549.248    93076964.237       -1375.837          47.000  
E15  24987030.520   131307790.687         476.684          45.000    24987031.558   100612510.779         365.247          50.000  
G23  23333373.922   122617843.231       -3989.436          42.000    23333368.553    95546402.402       -3108.698          45.000  
E34  23898763.640   125589083.440       -1086.100          46.000    23898765.534    96230749.470        -832.221          52.000  
G27  20004385.912   105123728.628        -426.867          50.000    20004383.098    81914688.787        -332.761          47.000  
E09  27320261.491   143568951.424       -1821.764          41.000    27320262.820   110007384.417       -1396.027          48.000  
G10  20555082.699   108017829.286       -2687.921          48.000    20555080.990    84169705.753       -2094.403          49.000  
E03  26311630.153   138268576.716        2139.463          44.000    26311631.250   105946071.437        1639.354          48.000  
G21  22973635.752   120727282.524        1963.418          45.000                                                                  
E27  25923522.852   136228894.790         -86.471          44.000    25923523.370   104383289.279         -66.235          47.000  
E18  25336794.845   133145783.206       -1406.463          42.000                                                                  
G32  22126026.591   116273082.036        1483.116          47.000    22126023.076    90602409.739        1155.517          42.000  
> 2024 04 15 09 11 00.4990000  0 26                     
S33  39569822.370   207941010.000        -649.306          42.000  
E02  27181791.309   142841283.230       -3645.179          38.000    27181790.619   109449844.786       -2793.100          39.000  
E05  23768505.354   124904363.231         550.339          46.000    23768505.970    95705957.231         421.667          52.000  
E36  26758627.063   140617499.451       -2262.731          40.000    26758631.562   107746384.328       -1734.064          34.000  
R20  22689736.494   121332287.957       -2750.040          37.000    22689734.790    94369646.453       -2138.767          40.000  
R06  19527326.894   104201609.625        -388.544          43.000                                                                  
R05  22922769.567   122535369.931       -4366.257          46.000    22922765.305    95305243.452       -3395.899          46.000  
R22  21435572.629   114424502.656        1603.298          49.000    21435570.568    88996907.685        1247.053          48.000  
G16  22149946.706   116398761.413       -3512.769          46.000                                                                  
G08  20979736.308   110249414.914        1633.371          49.000    20979734.060    85908573.807        1272.703          45.000  
S31  38615725.897   202927156.661        -649.495          44.000  
E30  24910684.437   130906642.605       -2556.258          46.000    24910685.105   100304983.798       -1958.574          50.000  
R11  23186932.367                       -4191.246          30.000    23186943.505                3      -3265.085          18.000  
R21  20077951.002   107441493.678        -466.647          51.000    20077945.684    83565445.202        -362.916          49.000  
R12  22412547.357   119723810.489       -1790.793          49.000    22412545.375    93118495.965       -1392.800          46.000  
E15  24984313.883   131293516.406         475.039          45.000    24984314.997   100601573.420         364.084          50.000  
G23  23356158.196   122737578.744       -3992.650          41.000    23356153.290    95639702.780       -3111.157          45.000  
E34  23904970.472   125621695.882       -1087.731          47.000    23904971.533    96255738.247        -833.538          52.000  
G27  20006871.489   105136790.413        -443.561          49.000    20006868.070    81924866.812        -345.755          47.000  
E09  27330700.337   143623804.186       -1834.904          41.000    27330700.959   110049414.471       -1405.847          48.000  
G10  20570468.895   108098681.428       -2701.984          48.000    20570466.363    84232707.415       -2105.402          49.000  
E03  26299421.593   138204424.909        2137.365          43.000    26299423.505   105896916.231        1637.831          49.000  
G21  22962429.635   120668392.494        1962.546          44.000                                                                  
E27  25924057.124   136231705.674        -100.576          44.000    25924058.531   104385443.076         -77.000          47.000  
E18  25344830.676   133188010.008       -1408.310          43.000                                                                  
G32  22117600.692   116228806.175        1468.893          48.000    22117597.056    90567909.113        1144.314          42.000  
> 2024 04 15 09 11 30.4990000  0 26                     
S33  39573529.594   207960492.168        -649.625          42.000  
E02  27202597.488   142950626.036       -3644.163          37.000    27202598.558   109533627.007       -2792.350          41.000  
E05  23765398.769   124888037.442         538.065          46.000    23765399.110    95693447.890         412.322          52.000  
E36  26771546.326   140685386.171       -2263.257          40.000    26771546.918   107798401.404       -1734.055          34.000  
R20  22705182.795   121414884.110       -2756.915          37.000    22705181.175    94433888.019       -2144.018          39.000  
R06  19529590.626   104213689.821        -416.698          43.000                                                                  
R05  22947309.695   122666554.355       -4379.441          44.000    22947306.008    95407275.763       -3406.229          44.000  
R22  21426566.352   114376422.776        1602.022          49.000    21426563.542    88959512.253        1246.049          48.000  
G16  22170029.117   116504296.492       -3522.811          45.000                                                                  
G08  20970443.837   110200584.930        1621.830          48.000    20970441.649    85870524.471        1263.784          44.000  
S31  38619435.828   202946652.776        -650.089          43.000  
E30  24925307.171   130983484.914       -2566.495          46.000    24925307.811   100363862.994       -1966.565          50.000  
R11  23210470.271                       -4194.208          30.000    23210468.422                1      -3262.417          29.000  
R21  20080589.110   107455609.084        -474.344          50.000    20080583.945    83576423.893        -368.842          48.000  
R12  22422666.345   119777863.719       -1812.762          49.000    22422664.504    93160537.350       -1410.065          46.000  
E15  24981605.885   131279288.335         473.404          45.000    24981607.267   100590671.445         362.747          50.000  
G23  23378961.737   122857411.321       -3996.323          42.000    23378956.739    95733078.805       -3113.684          44.000  
E34  23911186.537   125654361.079       -1089.746          48.000    23911187.306    96280767.451        -834.967          52.000  
G27  20009452.971   105150354.963        -460.623          50.000    20009449.232    81935436.594        -359.020          46.000  
E09  27341211.989   143679041.565       -1847.678          41.000    27341212.306   110091739.240       -1415.808          48.000  
G10  20585935.359   108179953.728       -2716.205          49.000    20585932.344    84296036.485       -2116.479          49.000  
E03  26287226.291   138140331.727        2135.395          44.000    26287226.846   105847805.952        1636.210          49.000  
G21  22951228.612   120609529.002        1961.427          44.000                                                                  
E27  25924672.284   136234939.291        -114.946          43.000    25924673.838   104387920.782         -88.058          47.000  
E18  25352877.037   133230297.983       -1410.792          43.000                                                                  
G32  22109257.834   116184960.742        1454.216          48.000    22109253.488    90533743.878        1132.984          43.000  
> 2024 04 15 09 12 00.4990000  0 26                     
S33  39577237.170   207979974.199        -649.014          42.000  
E02  27223396.602   143059923.323       -3642.513          37.000    27223396.689   109617374.287       -2790.633          39.000  
E05  23762359.171   124872070.034         526.384          45.000    23762360.804    95681213.154         403.292          52.000  
E36  26784465.209   140753273.083       -2262.594          41.000    26784465.358   107850418.663       -1733.588          34.000  
R20  22720660.617   121497661.001       -2762.256          34.000    22720660.620    94498270.051       -2148.191          40.000  
R06  19532009.216   104226595.765        -443.711          43.000                                                                  
R05  22971922.916   122798119.885       -4391.646          44.000    22971918.063    95509604.491       -3415.433          42.000  
R22  21417565.149   114328371.035        1601.399          49.000    21417561.560    88922138.697        1245.515          48.000  
G16  22190167.754   116610121.875       -3532.241          44.000                                                                  
G08  20961216.452   110152092.261        1610.928          48.000    20961213.644    85832738.003        1255.230          45.000  
S31  38623146.260   202966150.378        -649.744          44.000  
E30  24939985.082   131060618.148       -2575.762          46.000    24939985.779   100422965.113       -1973.605          50.000  
R11  23234040.243                1      -4196.711          28.000    23234052.982                1      -3263.700          27.000  
R21  20083267.854   107469945.269        -481.361          50.000    20083263.615    83587574.288        -374.554          50.000  
R12  22432905.958   119832562.222       -1833.832          50.000    22432905.143    93203080.631       -1426.412          47.000  
E15  24978904.587   131265098.725         472.542          44.000    24978906.983   100579798.953         362.031          49.000  
G23  23401781.668   122977331.198       -3998.621          42.000    23401777.134    95826522.880       -3115.753          44.000  
E34  23917411.968   125687071.633       -1091.002          48.000    23917411.914    96305831.409        -835.947          52.000  
G27  20012128.510   105164416.195        -476.836          50.000    20012123.878    81946393.395        -371.511          45.000  
E09  27351795.236   143734655.309       -1859.896          41.000    27351794.959   110134352.403       -1425.192          47.000  
G10  20601478.192   108261636.090       -2729.462          49.000    20601475.601    84359685.112       -2126.868          49.000  
E03  26275038.989   138076291.823        2133.684          43.000    26275040.122   105798736.478        1635.089          48.000  
G21  22940030.500   120550684.763        1961.282          43.000                                                                  
E27  25925366.754   136238588.557        -128.434          43.000    25925367.993   104390716.976         -98.399          47.000  
E18  25360934.833   133272638.919       -1411.979          43.000                                                                  
G32  22100995.280   116141541.161        1440.395          49.000    22100991.221    90499910.465        1122.207          43.000  
> 2024 04 15 09 12 30.4990000  0 27                     
S33  39580943.084   207999451.319        -649.397          42.000  
E02  27244184.285   143169166.648       -3640.561          36.000    27244185.168   109701080.335       -2789.461          40.000  
E05  23759387.644   124856455.753         514.544          44.000    23759389.310    95669249.001         394.232          51.000  
E36  26797381.400   140821154.052       -2262.840          39.000    26797381.335   107902431.336       -1733.162          35.000  
R20  22736171.909   121580612.361       -2768.134          36.000    22736172.681    94562787.776       -2152.717          40.000  
R06  19534580.779   104240320.873        -471.238          43.000                                                                  
R05  22996604.543   122930055.714       -4404.278          43.000    22996598.564    95612221.225       -3425.392          38.000  
R22  21408567.311   114280341.707        1600.425          48.000    21408564.252    88884782.558        1244.909          48.000  
G16  22210359.511   116716228.445       -3541.804          45.000                                                                  
G08  20952051.451   110103932.932        1599.740          49.000    20952049.080    85795211.299        1246.539          45.000  
S31  38626855.404   202985641.933        -649.715          44.000  
E30  24954715.816   131138034.049       -2585.369          45.000    24954717.350   100482283.833       -1980.948          50.000  
R11  23257590.661                       -4198.657          28.000    23257599.083                3      -3265.839          26.000  
R21  20085988.876   107484497.140        -488.845          52.000    20085982.657    83598892.430        -380.158          50.000  
R12  22443265.108   119887896.510       -1855.232          50.000    22443263.659    93246118.425       -1442.847          47.000  
E15  24976210.263   131250940.734         471.331          44.000    24976212.636   100568950.693         361.172          50.000  
G23  23424616.175   123097329.673       -4001.294          43.000    23424611.283    95920028.213       -3118.127          43.000  
E34  23923643.481   125719821.019       -1092.400          48.000    23923643.652    96330925.123        -836.983          52.000  
G27  20014897.814   105178968.893        -493.354          50.000    20014893.032    81957733.189        -384.476          45.000  
E09  27362448.770   143790638.067       -1872.304          41.000    27362448.170   110177248.289       -1434.624          47.000  
G10  20617098.473   108343719.421       -2742.957          48.000    20617095.838    84423646.172       -2137.427          49.000  
E03  26262862.083   138012300.617        2132.017          44.000    26262862.698   105749704.314        1633.654          48.000  
G21  22928835.049   120491853.825        1960.631          42.000                                                                  
E27  25926139.444   136242647.270        -142.214          43.000    25926140.489   104393826.888        -108.951          47.000  
E18  25369001.259   133315025.578       -1413.964          44.000                                                                  
G32  22092813.692   116098543.915        1426.000          49.000    22092809.749    90466406.140        1111.233          43.000  
R07                                                                  20951184.515                3       2125.578          15.000  
> 2024 04 15 09 13 00.4990000  0 27                     
S33  39584651.110   208018937.119        -649.578          42.000  
E02  27264964.196   143278367.717       -3639.300          34.000    27264966.143   109784753.946       -2788.436          40.000  
E05  23756486.189   124841209.270         502.177          44.000    23756487.920    95657566.672         384.721          51.000  
E36  26810300.149   140889042.805       -2262.847          39.000    26810299.949   107954450.033       -1733.889          36.000  
R20  22751722.368   121663752.355       -2774.480          39.000    22751720.013    94627452.295       -2157.834          39.000  
R06  19537308.739   104254878.703        -498.898          43.000                                                                  
R05  23021357.100   123062371.158       -4416.787          43.000    23021351.282    95715133.238       -3434.934          35.000  
R22  21399576.412   114232349.254        1599.119          49.000    21399573.503    88847455.068        1243.784          48.000  
G16  22230606.502   116822626.044       -3551.498          44.000                                                                  
G08  20942952.848   110056122.860        1588.119          48.000    20942951.255    85757956.745        1237.355          45.000  
S31  38630566.168   203005142.290        -650.079          44.000  
E30  24969503.925   131215744.255       -2595.172          46.000    24969505.521   100541828.060       -1988.492          50.000  
R11  23281145.815                3      -4191.091          20.000    23281214.186                3      -3267.494          22.000  
R21  20088750.541   107499279.828        -496.546          51.000    20088745.546    83610390.078        -386.206          51.000  
R12  22453745.689   119943877.663       -1876.749          49.000    22453743.693    93289659.301       -1459.644          48.000  
E15  24973524.095   131236827.378         469.819          44.000    24973527.317   100558136.626         359.938          50.000  
G23  23447467.467   123217417.943       -4004.449          42.000    23447463.279    96013603.462       -3120.404          42.000  
E34  23929884.963   125752622.631       -1094.123          47.000    23929885.559    96356058.852        -838.375          52.000  
G27  20017763.494   105194027.718        -510.409          50.000    20017759.230    81969467.353        -397.757          46.000  
E09  27373173.969   143847002.367       -1885.212          41.000    27373173.832   110220436.544       -1444.435          47.000  
G10  20632796.943   108426214.451       -2756.647          48.000    20632793.550    84487928.016       -2148.010          49.000  
E03  26250697.652   137948373.556        2129.741          44.000    26250698.296   105700721.283        1632.004          49.000  
G21  22917644.899   120433050.542        1959.772          41.000                                                                  
E27  25926992.641   136247129.052        -156.438          44.000    25926993.270   104397260.985        -119.790          47.000  
E18  25377077.746   133357470.531       -1415.849          44.000                                                                  
G32  22084714.708   116055985.192        1411.433          50.000    22084710.513    90433243.530        1099.932          43.000  
R07                                                                  20033990.428                3       2114.966          13.000  
> 2024 04 15 09 13 30.4990000  0 26                     
S33  39588359.649   208038424.664        -649.548          42.000  
E02  27285735.503   143387518.664       -3637.469          31.000    27285736.725   109868389.148       -2786.716          39.000  
E05  23753655.268   124826325.912         490.327          45.000    23753655.467    95646162.576         375.647          51.000  
E36  26823220.337   140956933.741       -2262.811          40.000    26823218.802   108006470.357       -1733.871          36.000  
R20  22767304.751   121747075.852       -2780.202          41.000    22767301.870    94692259.498       -2162.387          38.000  
R06  19540192.706   104270263.468        -526.478          43.000                                                                  
R05  23046178.969   123195056.333       -4428.891          40.000    23046175.174    95818332.791       -3445.056          35.000  
R22  21390591.604   114184388.495        1598.334          49.000    21390588.459    88810152.276        1243.119          48.000  
G16  22250906.007   116929305.738       -3560.404          45.000                                                                  
G08  20933921.204   110008658.698        1576.585          48.000    20933919.203    85720971.730        1228.286          45.000  
S31  38634277.236   203024644.838        -649.886          44.000  
E30  24984346.414   131293741.082       -2604.461          46.000    24984347.651   100601591.881       -1995.613          50.000  
R11  23304758.385                       -4203.241          28.000    23304795.398                3      -3257.247          14.000  
R21  20091554.760   107514288.476        -503.918          52.000    20091549.695    83622063.503        -391.925          49.000  
R12  22464343.491   120000496.796       -1897.792          48.000    22464342.937    93333696.349       -1476.073          47.000  
E15  24970846.192   131222752.348         468.688          44.000    24970848.540   100547351.903         359.079          50.000  
G23  23470336.067   123337587.696       -4006.671          44.000    23470330.411    96107242.229       -3122.095          40.000  
E34  23936134.894   125785470.513       -1095.503          46.000    23936136.307    96381228.026        -839.415          52.000  
G27  20020724.284   105209587.954        -526.787          50.000    20020720.325    81981592.226        -410.504          47.000  
E09  27383971.360   143903741.354       -1897.450          40.000    27383970.770   110263911.864       -1453.817          47.000  
G10  20648571.738   108509112.541       -2769.733          48.000    20648568.328    84552523.929       -2158.246          49.000  
E03  26238543.946   137884506.644        2128.035          44.000    26238544.678   105651784.365        1630.469          49.000  
G21  22906459.050   120374268.867        1959.430          43.000                                                                  
E27  25927925.476   136252028.215        -170.044          45.000    25927925.590   104401014.895        -130.347          47.000  
E18  25385164.175   133399967.008       -1417.167          43.000                                                                  
G32  22076699.509   116013861.950        1396.980          49.000    22076694.735    90400420.271        1088.435          43.000  
> 2024 04 15 09 14 00.4990000  0 27                     
S33  39592067.257   208057909.596        -649.522          41.000  
E02  27306491.504                       -3635.130          30.000    27306496.574   109951981.544       -2786.062          39.000  
E05  23750891.832   124811802.920         477.775          45.000    23750891.716    95635034.576         366.138          50.000  
E36  26836138.825   141024823.202       -2263.230          39.000    26836138.390   108058489.604       -1734.067          38.000  
R20  22782919.898   121830579.184       -2786.741          40.000    22782917.655    94757206.534       -2167.628          39.000  
R06  19543229.740   104286471.140        -554.214          43.000                                                                  
R05  23071068.363   123328102.667       -4441.603          38.000    23071063.193    95921813.187       -3454.052          33.000  
R22  21381612.461   114136456.307        1596.910          49.000    21381609.698    88772871.714        1242.121          49.000  
G16  22271258.979   117036259.773       -3569.816          46.000                                                                  
G08  20924954.899   109961539.074        1564.743          48.000    20924953.074    85684255.182        1219.206          46.000  
S31  38637987.872   203044144.149        -650.022          44.000  
E30  24999242.400   131372018.668       -2614.136          46.000    24999243.076   100661570.831       -2002.934          49.000  
R11  23328389.708                1      -4204.661          27.000    23328446.317                3      -3271.888          24.000  
R21  20094401.950   107529520.709        -511.708          52.000    20094396.114    83633910.814        -397.981          50.000  
R12  22475061.560   120057747.170       -1919.058          49.000    22475060.239    93378224.394       -1492.587          47.000  
E15  24968175.173   131208711.282         467.267          44.000    24968176.433   100536593.206         358.104          50.000  
G23  23493217.724   123457832.735       -4009.570          44.000    23493212.235    96200939.716       -3124.231          40.000  
E34  23942394.409   125818360.626       -1097.312          47.000    23942395.253    96406429.563        -840.771          52.000  
G27  20023780.258   105225646.825        -543.820          50.000    20023776.927    81994105.641        -423.820          47.000  
E09  27394839.398   143960850.085       -1909.954          40.000    27394838.187   110307670.497       -1463.449          47.000  
G10  20664421.265   108592406.949       -2783.270          47.000    20664418.983    84617428.698       -2168.726          49.000  
E03  26226401.508   137820697.858        2125.872          44.000    26226401.986   105602891.968        1628.808          48.000  
G21  22895276.801   120315505.383        1958.230          43.000                                                                  
E27  25928935.781   136257340.978        -184.157          45.000    25928936.669   104405085.728        -141.077          48.000  
E18  25393259.738   133442510.231       -1419.187          43.000                                                                  
G32  22068765.954   115972172.939        1382.117          50.000    22068761.060    90367935.411        1076.880          42.000  
R07                                                                  19998450.312                3       2104.290          17.000  
> 2024 04 15 09 14 30.4990000  0 26                     
S33  39595775.670   208077397.744        -649.695          41.000  
E02  27327245.306                1      -3633.898          29.000    27327248.202   110035533.562       -2784.161          41.000  
E05  23748197.464   124797646.561         465.939          45.000    23748197.422    95624187.557         356.958          50.000  
E36  26849056.131   141092716.641       -2262.768          38.000    26849058.104   108110511.886       -1733.878          39.000  
R20  22798570.200   121914268.700       -2792.757          42.000    22798566.787    94822298.357       -2172.015          37.000  
R06  19546421.722   104303506.479        -581.489          43.000                                                                  
R05  23096023.712   123461511.256       -4453.161          35.000    23096018.430                       -3463.781          32.000  
R22  21372640.127   114088558.722        1596.079          51.000    21372636.925    88735618.072        1241.432          49.000  
G16  22291664.227   117143490.687       -3578.831          46.000                                                                  
G08  20916055.669   109914771.248        1553.175          48.000    20916053.436    85647812.758        1210.402          45.000  
S31  38641698.881   203063647.632        -650.135          44.000  
E30  25014191.449   131450580.362       -2623.311          45.000    25014192.389   100721767.515       -2010.031          49.000  
R11  23351996.438                3      -4200.962          19.000    23352018.938                1      -3272.145          27.000  
R21  20097291.516   107544983.055        -519.184          52.000    20097285.307    83645937.109        -403.846          50.000  
R12  22485897.108   120115630.959       -1939.841          48.000    22485895.230    93423245.159       -1508.773          46.000  
E15  24965510.495   131194708.918         466.177          45.000    24965511.941   100525864.179         357.282          50.000  
G23  23516114.672   123578155.919       -4011.829          45.000    23516108.852    96294698.058       -3126.294          40.000  
E34  23948662.165   125851298.040       -1098.553          47.000    23948662.948    96431667.358        -841.788          52.000  
G27  20026931.423   105242210.644        -560.332          49.000    20026929.094    82007012.538        -436.652          47.000  
E09  27405778.712   144018332.748       -1922.215          39.000    27405776.947   110351715.654       -1472.771          47.000  
G10  20680347.664   108676100.197       -2796.258          47.000    20680345.698    84682644.227       -2178.949          49.000  
E03  26214271.802   137756954.300        2123.895          44.000    26214272.152   105554049.554        1627.324          49.000  
G21  22884098.758   120256765.394        1957.876          43.000                                                                  
E27  25930026.201   136263072.661        -197.965          44.000    25930027.571   104409477.555        -151.703          47.000  
E18  25401364.763   133485104.515       -1420.508          44.000                                                                  
G32  22060917.134   115930926.202        1367.641          49.000    22060912.369    90335795.127        1065.867          42.000  
