     3.00           OBSERVATION DATA    M: Mixed            RINEX VERSION / TYPE
CONVBIN 2.4.3                           20240415 015942 UTC PGM / RUN BY / DATE 
format: u-blox UBX                                          COMMENT             
log: /home/regis/git/gnsspwv/obsdata/VERT00CHL/2024-04-15/VECOMMENT             
{self.marker}                                               MARKER NAME         
                                                            MARKER NUMBER       
GEODETIC                                                    MARKER TYPE         
{self.observer}     {self.institution}                      OBSERVER / AGENCY   
UNKNOWN             UBLOX-ZED-F9P                           REC # / TYPE / VERS 
UNKNOWN             TWIVSP6037L                             ANT # / TYPE        
  1713381.0000 -5047934.0000 -3490983.0000                  APPROX POSITION XYZ 
        0.0000        0.0000        0.0000                  ANTENNA: DELTA H/E/N
G    8 C1C L1C D1C S1C C2L L2L D2L S2L                      SYS / # / OBS TYPES 
R    8 C1C L1C D1C S1C C2C L2C D2C S2C                      SYS / # / OBS TYPES 
E    8 C1C L1C D1C S1C C7Q L7Q D7Q S7Q                      SYS / # / OBS TYPES 
S    4 C1C L1C D1C S1C                                      SYS / # / OBS TYPES 
  2024    04    15    01    45   00.0090000     GPS         TIME OF FIRST OBS   
  2024    04    15    01    59   30.0090000     GPS         TIME OF LAST OBS    
                                                            END OF HEADER       
> 2024 04 15 01 45 00.0090000  0 25                     
S33  42347977.667   222540213.5711       -760.193          42.000  
G28  26932531.157                3       2630.306          29.000    26932526.212                1       2049.230          29.000  
G32  25818417.109   135676696.6061      -1349.302          46.000    25818416.478   105722053.8041      -1051.228          41.000  
R14  26002111.129   138605901.8581      -3394.268          49.000    26002112.749   107804661.1841      -2640.127          43.000  
R17  22737514.568   121673550.8051      -2628.009          49.000    22737511.344    94635215.8531      -2044.008          52.000  
R16  23402937.200   125014444.3661       1432.080          53.000    23402933.322    97233369.2921       1113.880          49.000  
E11  26943042.760   141587004.8861       1707.264          45.000    26943041.399   108488960.9141       1308.147          46.000  
G06  26495381.979   139234137.7891      -2816.705          42.000    26495378.996   108494382.6741      -2194.904          38.000  
G29  24280190.938   127593628.0231       1431.700          48.000    24280187.750    99423868.0241       1115.607          43.000  
S31  41395040.712   217532490.5091       -759.613          42.000  
E03  28435152.758   149427775.9171      -1429.029          45.000    28435155.376   114496551.8021      -1095.067          48.000  
R15  22788854.359   121776953.2741      -1350.342          51.000    22788851.418    94715579.8961      -1050.275          51.000  
R18  22323557.153   119164744.1721       1449.839          53.000    22323555.622    92683978.4011       1127.660          49.000  
R19  25163403.439   134607366.4521       3615.575          42.000    25163413.356   104694162.1881       2811.927          46.000  
E31  30583586.016   160717774.9291      -2506.816          37.000    30583588.850   123147470.6471      -1920.884          40.000  
G11  25009286.770   131425153.0281       -795.081          47.000    25009283.637   102409399.8461       -619.621          44.000  
E24  27224189.402   143064204.4531      -1552.884          48.000    27224189.160   109620683.6061      -1189.948          52.000  
G24  24045162.598   126358264.5671      -3108.253          48.000    24045161.558    98461051.4351      -2421.996          47.000  
G12  23875231.315   125465497.1881      -1195.396          47.000    23875227.235    97765449.2741       -931.451          46.000  
E05  27242748.688   143161596.5811      -3313.792          41.000    27242756.726   109695268.4671      -2538.902          47.000  
G25  23823201.344   125191993.1251        332.707          46.000    23823199.652    97552272.5891        259.349          45.000  
E10  27519822.209   144618124.4541        548.671          48.000    27519822.702   110811539.5961        420.362          50.000  
E25  26953420.425   141641479.7491        145.889          46.000    26953422.821   108530636.9671        111.815          51.000  
E12  28118218.445   147762595.3431       -721.520          42.000    28118217.909   113220906.6381       -552.899          49.000  
E14  24723970.623   129925488.6211      -5294.708          46.000    24723971.173    99553351.4331      -4056.916          53.000  
> 2024 04 15 01 45 30.0090000  0 25                     
S33  42352318.274   222563023.150        -759.991          43.000  
G28  26917528.833                1       2627.383          30.000    26917522.418                1       2046.449          28.000  
G32  25826170.223   135717436.192       -1366.082          47.000    25826168.912   105753798.888       -1064.626          42.000  
R14  26021235.626   138707845.753       -3401.375          49.000    26021237.135   107883950.750       -2645.385          43.000  
R17  22752316.834   121752758.098       -2651.701          50.000    22752313.011    94696821.536       -2062.318          52.000  
R16  23394906.100   124971546.723        1428.320          52.000    23394902.311    97200004.488        1110.962          48.000  
E11  26933317.400   141535901.956        1700.357          44.000    26933316.843   108449804.297        1302.862          46.000  
G06  26511508.373   139318881.724       -2832.074          41.000    26511505.713   108560416.975       -2206.745          38.000  
G29  24272055.143   127550875.941        1418.972          48.000    24272052.248    99390554.838        1105.648          44.000  
S31  41399377.867   217555280.185        -759.113          43.000  
E03  28443348.072   149470845.052       -1441.615          45.000    28443351.611   114529552.794       -1104.580          48.000  
R15  22796467.677   121817638.057       -1361.416          52.000    22796464.682    94747223.611       -1058.846          51.000  
R18  22315476.516   119121608.384        1426.466          52.000    22315474.112    92650428.416        1109.509          49.000  
R19  25143146.700   134499014.985        3608.540          41.000    25143155.916   104609890.778        2806.480          45.000  
E31  30597900.380   160792999.716       -2507.222          37.000    30597904.294   123205110.417       -1921.384          40.000  
G11  25013882.046   131449298.011        -814.026          47.000    25013877.623   102428214.163        -634.295          44.000  
E24  27233061.560   143110827.832       -1554.622          48.000    27233061.693   109656408.022       -1191.220          53.000  
G24  24062947.644   126451728.230       -3122.197          47.000    24062946.941    98533880.207       -2432.888          46.000  
G12  23882069.806   125501429.719       -1199.652          47.000    23882065.310    97793448.653        -934.676          47.000  
E05  27261678.582   143261071.731       -3317.110          42.000    27261685.928   109771489.361       -2541.715          47.000  
G25  23821312.375   125182066.002         329.648          47.000    23821310.220    97544537.208         256.917          45.000  
E10  27516727.423   144601862.409         536.074          48.000    27516728.201   110799079.143         410.811          49.000  
E25  26952593.370   141637128.037         144.921          47.000    26952594.426   108527302.575         110.984          50.000  
E12  28122380.260   147784466.615        -736.004          42.000    28122379.830   113237665.181        -563.818          49.000  
E14  24754209.890   130084395.222       -5298.604          46.000    24754209.946    99675111.051       -4059.838          53.000  
> 2024 04 15 01 46 00.0090000  0 25                     
S33  42356656.687   222585822.712        -759.582          42.000  
G28  26902543.956                        2623.038          30.000    26902528.022                1       2043.752          26.000  
G32  25834020.135   135758687.599       -1383.604          47.000    25834019.110   105785942.784       -1078.304          41.000  
R14  26040399.990   138810002.631       -3408.747          50.000    26040402.798   107963405.939       -2651.257          45.000  
R17  22767253.945   121832682.039       -2676.031          51.000    22767248.493    94758984.626       -2081.344          52.000  
R16  23386897.514   124928765.663        1424.048          52.000    23386893.433    97166730.358        1107.556          48.000  
E11  26923635.243   141485019.188        1692.438          44.000    26923633.914   108410816.360        1296.940          46.000  
G06  26527722.694   139404088.872       -2847.949          40.000    26527720.946   108626812.190       -2219.141          39.000  
G29  24263993.534   127508510.877        1405.620          49.000    24263990.514    99357543.188        1095.421          44.000  
S31  41403712.417   217578059.836        -759.331          43.000  
E03  28451617.228   149514291.358       -1454.585          46.000    28451618.871   114562842.789       -1114.566          48.000  
R15  22804143.543   121858655.932       -1372.823          52.000    22804141.164    94779126.386       -1067.750          52.000  
R18  22307527.086   119079177.364        1402.622          52.000    22307525.000    92617426.567        1090.808          49.000  
R19  25122929.355   134390872.312        3601.095          42.000    25122937.971   104525781.699        2801.075          45.000  
E31  30612218.548   160868237.497       -2507.851          37.000    30612221.900   123262760.149       -1922.102          40.000  
G11  25018584.325   131474013.002        -833.386          46.000    25018580.794   102447472.628        -649.333          45.000  
E24  27241943.715   143157504.302       -1556.804          47.000    27241943.917   109692173.126       -1192.873          53.000  
G24  24080812.493   126545609.503       -3136.385          47.000    24080812.498    98607034.397       -2444.006          47.000  
G12  23888931.352   125537489.252       -1204.175          47.000    23888927.562    97821547.002        -938.159          47.000  
E05  27280629.043   143360656.718       -3321.485          41.000    27280637.345   109847794.410       -2545.019          47.000  
G25  23819442.443   125172236.304         325.809          47.000    23819440.208    97536877.708         254.070          45.000  
E10  27513704.393   144585981.031         523.043          47.000    27513706.205   110786910.377         400.711          49.000  
E25  26951771.324   141632810.097         143.353          47.000    26951772.927   108523994.037         109.861          51.000  
E12  28126624.727   147806768.676        -750.697          43.000    28126623.478   113254753.803        -575.176          49.000  
E14  24784471.475   130243417.111       -5302.589          46.000    24784470.839    99796958.984       -4063.037          52.000  
> 2024 04 15 01 46 30.0090000  0 25                     
S33  42360993.100   222608611.819        -759.406          42.000  
G28  26887580.320                1       2620.427          29.000    26887552.588                3       2042.110          25.000  
G32  25841966.526   135800448.803       -1400.450          45.000    25841966.157   105818483.915       -1091.356          41.000  
R14  26059604.641   138912371.796       -3415.711          50.000    26059607.343   108043026.269       -2656.692          46.000  
R17  22782322.755   121913318.888       -2699.607          50.000    22782317.265    94821702.198       -2099.691          52.000  
R16  23378910.946   124886102.598        1420.276          52.000    23378906.861    97133547.995        1104.706          48.000  
E11  26913994.530   141434358.023        1684.908          44.000    26913993.626   108371998.224        1291.107          46.000  
G06  26544024.845   139489756.720       -2862.885          39.000    26544023.037   108693566.433       -2231.091          40.000  
G29  24256004.923   127466532.965        1392.982          48.000    24256002.417    99324833.224        1085.493          44.000  
S31  41408045.417   217600829.474        -758.809          43.000  
E03  28459955.613   149558113.378       -1466.856          46.000    28459958.854   114596420.641       -1123.924          49.000  
R15  22811882.507   121900007.320       -1383.870          53.000    22811879.695    94811288.600       -1076.271          51.000  
R18  22299711.243   119037453.256        1379.128          53.000    22299708.769    92584974.545        1072.648          49.000  
R19  25102751.679   134282942.225        3594.412          42.000    25102760.140   104441837.920        2795.668          45.000  
E31  30626537.144   160943488.100       -2508.396          36.000    30626541.112   123320419.621       -1921.800          40.000  
G11  25023395.620   131499297.811        -852.241          46.000    25023392.653   102467175.143        -663.995          45.000  
E24  27250836.213   143204233.615       -1558.541          48.000    27250836.152   109727978.711       -1194.091          53.000  
G24  24098756.550   126639906.320       -3150.034          47.000    24098756.286    98680512.387       -2454.651          46.000  
G12  23895817.512   125573675.715       -1208.099          47.000    23895813.817    97849744.275        -941.441          47.000  
E05  27299600.647   143460348.838       -3324.463          42.000    27299608.383   109924181.532       -2547.427          47.000  
G25  23817590.133   125162503.883         323.034          47.000    23817588.382    97529294.048         251.582          45.000  
E10  27510755.845   144570481.020         510.550          48.000    27510756.697   110775033.821         391.090          49.000  
E25  26950956.717   141628525.348         142.399          47.000    26950957.483   108520710.961         109.125          51.000  
E12  28130951.777   147829501.098        -764.893          43.000    28130949.343   113272172.157        -585.921          49.000  
E14  24814752.716   130402549.525       -5306.117          46.000    24814752.898    99918891.629       -4065.666          53.000  
> 2024 04 15 01 47 00.0090000  0 25                     
S33  42365329.977   222631402.245        -759.213          43.000  
G28  26872635.873   141216645.4181       2616.588          29.000    26872618.258                        2039.408          31.000  
G32  25850012.142   135842728.516       -1417.879          46.000    25850013.031   105851429.096       -1104.602          43.000  
R14  26078850.521   139014963.786       -3423.265          49.000    26078853.192   108122819.922       -2662.605          46.000  
R17  22797526.251   121994675.819       -2723.626          50.000    22797520.318    94884979.823       -2118.372          51.000  
R16  23370948.585   124843570.242        1415.724          52.000    23370944.712    97100467.306        1101.104          48.000  
E11  26904397.209   141383930.714        1677.030          43.000    26904397.390   108333359.281        1284.957          47.000  
G06  26560416.170   139575893.544       -2878.778          39.000    26560414.191   108760686.049       -2243.469          40.000  
G29  24248092.569   127424953.240        1379.574          49.000    24248089.779    99292433.549        1074.984          44.000  
S31  41412378.126   217623598.760        -758.782          43.000  
E03  28468367.405   149602320.391       -1479.823          45.000    28468370.897   114630293.496       -1133.951          49.000  
R15  22819685.119   121941704.096       -1395.458          52.000    22819682.695    94843719.433       -1085.326          51.000  
R18  22292030.026   118996449.090        1354.980          53.000    22292028.127    92553082.441        1053.931          49.000  
R19  25082616.658   134175238.331        3586.490          42.000    25082624.685   104358069.996        2789.552          47.000  
E31  30640862.815   161018762.199       -2509.029          38.000    30640864.907   123378097.170       -1922.721          38.000  
G11  25028318.191   131525163.116        -871.665          47.000    25028314.859   102487329.983        -679.188          45.000  
E24  27259740.098   143251026.340       -1560.726          47.000    27259740.578   109763832.906       -1195.852          53.000  
G24  24116781.974   126734627.418       -3164.215          48.000    24116780.731    98754320.969       -2465.707          46.000  
G12  23902730.583   125609999.687       -1212.981          48.000    23902725.907    97878048.656        -945.114          47.000  
E05  27318592.116   143560156.352       -3328.671          42.000    27318601.464   110000657.046       -2550.509          47.000  
G25  23815758.366   125152879.436         318.997          47.000    23815756.486    97521794.478         248.786          45.000  
E10  27507881.046   144555373.873         497.207          48.000    27507881.656   110763458.281         380.989          50.000  
E25  26950148.690   141624284.095         140.910          47.000    26950150.190   108517461.192         107.915          50.000  
E12  28135361.073   147852674.179        -779.654          43.000    28135358.734   113289928.204        -597.346          48.000  
E14  24845056.761   130561798.568       -5309.978          47.000    24845057.026   100040913.652       -4068.736          53.000  
> 2024 04 15 01 47 30.0090000  0 25                     
S33  42369667.166   222654193.058        -759.350          42.000  
G28  26857713.494                1       2612.844          27.000    26857691.743                        2036.781          31.000  
G32  25858156.430   135885526.796       -1434.896          45.000    25858157.102   105884778.360       -1118.335          42.000  
R14  26098138.735   139117779.551       -3430.567          49.000    26098140.852   108202787.560       -2668.244          47.000  
R17  22812863.480   122076751.388       -2747.475          50.000    22812858.433    94948816.414       -2136.854          51.000  
R16  23363011.280   124801172.090        1411.432          52.000    23363007.221    97067490.987        1097.785          48.000  
E11  26894847.024   141333740.698        1669.472          44.000    26894846.386   108294902.169        1279.200          47.000  
G06  26576895.701   139662498.798       -2893.799          38.000    26576894.673   108828170.680       -2255.237          41.000  
G29  24240255.769   127383773.945        1366.238          49.000    24240253.531    99260345.880        1064.719          44.000  
S31  41416711.480   217646370.089        -758.781          44.000  
E03  28476852.517   149646912.928       -1492.463          45.000    28476856.687   114664461.753       -1143.715          50.000  
R15  22827553.725   121983749.405       -1406.897          52.000    22827551.377    94876421.332       -1094.163          51.000  
R18  22284484.094   118956168.997        1330.954          52.000    22284482.241    92521753.572        1035.138          50.000  
R19  25062524.228   134067766.562        3578.771          43.000    25062532.333   104274482.584        2783.499          47.000  
E31  30655192.429   161094061.642       -2509.757          37.000    30655194.919   123435794.147       -1923.572          40.000  
G11  25033350.074   131551610.760        -890.988          46.000    25033346.888   102507938.590        -694.353          45.000  
E24  27268656.883   143297884.293       -1562.695          47.000    27268657.159   109799737.073       -1197.376          53.000  
G24  24134887.193   126829772.703       -3178.280          47.000    24134886.550    98828460.073       -2476.410          46.000  
G12  23909669.009   125646462.842       -1217.510          48.000    23909664.360    97906461.524        -948.624          47.000  
E05  27337607.586   143660078.676       -3332.264          42.000    27337616.807   110077220.499       -2553.230          48.000  
G25  23813947.215   125143364.896         315.641          47.000    23813945.866    97514380.612         245.963          44.000  
E10  27505081.359   144540662.297         484.069          48.000    27505081.775   110752185.861         370.866          49.000  
E25  26949350.622   141620087.897         139.478          47.000    26949351.663   108514245.958         106.827          50.000  
E12  28139853.937   147876289.537        -794.279          43.000    28139852.538   113308023.139        -608.580          48.000  
E14  24875382.997   130721161.648       -5313.564          47.000    24875382.796   100163023.050       -4071.483          53.000  
> 2024 04 15 01 48 00.0090000  0 25                     
S33  42374004.965   222676988.419        -759.573          42.000  
G28  26842815.140                1       2609.080          27.000    26842788.324                        2033.753          30.000  
G32  25866399.268   135928843.678       -1452.235          46.000    25866399.933   105918531.670       -1131.593          43.000  
R14  26117469.152   139220820.950       -3438.122          49.000    26117471.763   108282930.727       -2674.059          47.000  
R17  22828334.069   122159544.453       -2771.400          49.000    22828330.649    95013211.041       -2155.488          51.000  
R16  23355100.072   124758911.494        1406.721          52.000    23355096.145    97034621.664        1093.987          48.000  
E11  26885342.223   141283791.632        1661.479          45.000    26885340.782   108256629.661        1273.021          46.000  
G06  26593465.463   139749572.150       -2909.912          38.000    26593463.581   108896020.078       -2267.334          41.000  
G29  24232495.832   127342997.472        1352.799          48.000    24232494.096    99228572.100        1054.271          44.000  
S31  41421045.032   217669143.799        -759.159          44.000  
E03  28485412.159   149691891.655       -1505.325          45.000    28485416.104   114698925.924       -1153.519          50.000  
R15  22835487.681   122026145.852       -1418.805          52.000    22835484.287    94909396.367       -1103.504          51.000  
R18  22277074.456   118916616.942        1306.543          52.000    22277072.895    92490990.950        1016.147          49.000  
R19  25042476.904   133960532.423        3570.931          43.000    25042484.024   104191079.922        2777.289          46.000  
E31  30669525.786   161169388.551       -2511.309          38.000    30669529.263   123493512.103       -1923.765          40.000  
G11  25038494.469   131578642.670        -910.454          46.000    25038490.829   102529002.438        -709.557          45.000  
E24  27277586.566   143344809.462       -1565.046          47.000    27277586.754   109835692.718       -1199.112          52.000  
G24  24153073.758   126925342.277       -3192.493          47.000    24153073.192    98902929.809       -2487.625          46.000  
G12  23916634.724   125683067.238       -1222.240          48.000    23916629.547    97934984.433        -952.311          47.000  
E05  27356645.117   143760115.274       -3336.051          43.000    27356653.565   110153871.503       -2556.250          48.000  
G25  23812158.305   125133962.337         311.942          47.000    23812157.030    97507053.976         242.890          44.000  
E10  27502358.745   144526349.149         470.820          48.000    27502357.929   110741218.694         360.751          49.000  
E25  26948560.152   141615938.393         137.993          46.000    26948561.815   108511066.497         105.699          50.000  
E12  28144432.932   147900348.929        -809.159          43.000    28144430.897   113326458.279        -619.857          49.000  
E14  24905730.736   130880636.282       -5317.188          47.000    24905729.910   100285217.920       -4074.204          52.000  
> 2024 04 15 01 48 30.0090000  0 25                     
S33  42378340.993   222699773.450        -759.176          42.000  
G32  25874737.476   135972664.138       -1468.807          46.000    25874738.504   105952677.432       -1144.346          42.000  
R14  26136838.586   139324074.223       -3444.989          48.000    26136841.159   108363238.701       -2679.487          45.000  
R17  22843937.085   122243037.826       -2794.427          49.000    22843933.153    95078150.361       -2173.494          51.000  
R16  23347212.708   124716777.118        1402.649          52.000    23347208.823    97001850.514        1090.923          48.000  
E11  26875880.507   141234071.998        1653.784          45.000    26875879.484   108218532.941        1267.159          47.000  
G06  26610121.754   139837098.086       -2924.628          39.000    26610119.264   108964222.152       -2278.937          41.000  
G29  24224810.458   127302610.983        1339.958          48.000    24224808.252    99197102.217        1044.233          44.000  
S31  41425376.890   217691908.651        -758.437          43.000  
E03  28494042.816   149737242.116       -1517.591          46.000    28494046.061   114733674.919       -1162.800          50.000  
R15  22843483.833   122068881.229       -1429.859          52.000    22843481.494    94942634.973       -1112.198          51.000  
R18  22269798.659   118877782.017        1282.701          52.000    22269797.990    92460786.054         997.688          49.000  
R19  25022472.817   133853526.866        3563.329          43.000    25022479.273   104107854.984        2771.341          46.000  
E31  30683861.907   161244729.741       -2511.647          37.000    30683866.338   123551241.113       -1924.400          40.000  
G11  25043747.108   131606245.704        -929.262          46.000    25043743.063   102550511.301        -724.084          45.000  
E24  27286527.543   143391788.646       -1566.404          48.000    27286526.700   109871689.783       -1200.331          52.000  
G24  24171338.251   127021321.076       -3205.757          48.000    24171337.510    98977718.421       -2498.134          46.000  
G12  23923624.479   125719799.428       -1226.196          47.000    23923619.287    97963606.918        -955.460          47.000  
E05  27375699.863   143860250.650       -3339.120          43.000    27375708.093   110230598.198       -2558.520          47.000  
G25  23810387.994   125124658.825         308.887          47.000    23810387.122    97499804.495         240.596          45.000  
E10  27499707.467   144512422.137         458.146          48.000    27499707.892   110730547.406         351.023          49.000  
E25  26947777.438   141611822.219         136.912          46.000    26947778.205   108507912.560         104.970          49.000  
E12  28149092.739   147924838.939        -823.139          42.000    28149091.229   113345223.397        -630.763          49.000  
E14  24936095.269   131040204.945       -5320.189          47.000    24936094.815   100407484.839       -4076.476          53.000  
G28                                                                  26827904.960                        2030.294          29.000  
> 2024 04 15 01 49 00.0090000  0 26                     
S33  42382675.072   222722549.649        -758.904          42.000  
G32  25883173.422   136016988.985       -1485.794          46.000    25883172.916   105987216.233       -1157.754          42.000  
R14  26156248.468   139427541.749       -3452.381          48.000    26156251.653   108443713.272       -2685.213          44.000  
R17  22859671.840   122327230.946       -2817.916          51.000    22859666.358    95143633.893       -2191.751          51.000  
R16  23339349.110   124674773.299        1398.015          51.000    23339346.259    96969180.902        1087.408          49.000  
E11  26866463.489   141184586.166        1645.706          45.000    26866462.363   108180615.374        1260.924          47.000  
G06  26626863.648   139925076.974       -2940.149          38.000    26626860.714   109032777.174       -2291.077          41.000  
G29  24217199.836   127262618.070        1326.555          49.000    24217197.236    99165939.026        1033.623          43.000  
S31  41429707.251   217714664.414        -758.454          44.000  
E03  28502743.673   149782965.714       -1530.217          45.000    28502747.032   114768709.861       -1172.502          49.000  
R15  22851544.915   122111959.494       -1441.517          51.000    22851542.785    94976140.303       -1121.243          51.000  
R18  22262658.745   118839668.928        1258.540          52.000    22262657.291    92431142.608         978.929          49.000  
R19  25002511.195   133746755.954        3555.140          41.000    25002518.073   104024812.435        2765.152          46.000  
E31  30698202.974   161320088.093       -2511.912          39.000    30698206.594   123608983.233       -1924.888          39.000  
G11  25049108.583   131634422.527        -948.638          46.000    25049104.740   102572467.300        -739.220          45.000  
E24  27295477.878   143438824.689       -1568.684          48.000    27295477.150   109907730.373       -1201.954          52.000  
G24  24189679.766   127117709.952       -3219.683          47.000    24189679.729    99052826.580       -2508.855          46.000  
G12  23930638.740   125756661.761       -1230.841          47.000    23930634.134    97992330.848        -959.146          47.000  
E05  27394773.726   143960485.191       -3342.648          43.000    27394782.387   110307400.862       -2561.168          46.000  
G25  23808637.469   125115457.191         305.150          47.000    23808635.387    97492634.410         237.721          44.000  
E10  27497131.905   144498884.899         444.716          48.000    27497132.164   110720174.766         340.895          50.000  
E25  26947000.645   141607741.817         135.538          47.000    26947001.575   108504786.055         103.799          49.000  
E12  28153834.257   147949762.045        -837.901          42.000    28153833.713   113364320.372        -641.896          48.000  
E14  24966477.282   131199866.001       -5323.357          46.000    24966477.230   100529822.552       -4078.945          53.000  
G28                                                                  26813040.439                        2027.615          30.000  
R09                                                                  27261427.456                3       1483.992          12.000  
> 2024 04 15 01 49 30.0090000  0 26                     
S33  42387008.661   222745321.542        -759.416          43.000  
G32  25891703.637   136061818.789       -1502.890          45.000    25891703.868   106022148.516       -1171.222          42.000  
R14  26175700.002   139531225.313       -3459.914          50.000    26175701.976   108524355.894       -2691.184          42.000  
R17  22875535.261   122412122.461       -2841.428          50.000    22875530.792    95209660.651       -2210.007          51.000  
R16  23331510.667   124632904.637        1393.137          51.000    23331508.365    96936616.428        1083.623          49.000  
E11  26857092.130   141135338.284        1637.576          45.000    26857090.812   108142880.132        1254.770          47.000  
G06  26643692.329   140013508.953       -2955.273          37.000    26643688.641   109101685.209       -2303.247          41.000  
G29  24209665.468   127223020.765        1313.140          49.000    24209662.041    99135084.091        1023.171          43.000  
S31  41434036.716   217737414.612        -758.797          44.000  
E03  28511516.083   149829063.632       -1543.099          45.000    28511519.241   114804031.590       -1182.303          49.000  
R15  22859671.502   122155383.761       -1453.478          51.000    22859668.992    95009914.724       -1130.374          51.000  
R18  22255654.614   118802282.359        1233.855          52.000    22255652.975    92402064.196         959.752          48.000  
R19  24982594.991   133640225.407        3546.594          41.000    24982601.945   103941956.823        2758.605          47.000  
E31  30712547.043   161395466.211       -2513.111          40.000    30712548.481   123666740.400       -1925.828          37.000  
G11  25054580.750   131663175.561        -968.176          47.000    25054576.023   102594872.321        -754.416          45.000  
E24  27304440.373   143485920.013       -1570.998          49.000    27304438.624   109943816.423       -1203.724          51.000  
G24  24208099.831   127214509.274       -3233.625          47.000    24208100.071    99128254.574       -2519.767          46.000  
G12  23937678.459   125793657.325       -1235.717          47.000    23937674.660    98021158.575        -962.786          47.000  
E05  27413867.551   144060818.898       -3346.352          44.000    27413875.657   110384279.533       -2563.995          46.000  
G25  23806906.088   125106360.046         301.288          47.000    23806903.398    97485545.776         234.601          43.000  
E10  27494629.291   144485740.711         431.467          47.000    27494630.800   110710103.329         330.572          50.000  
E25  26946231.576   141603699.404         133.977          47.000    26946232.568   108501688.651         102.730          50.000  
E12  28158660.992   147975120.424        -852.753          43.000    28158659.059   113383750.835        -653.386          48.000  
E14  24996875.752   131359617.567       -5326.765          45.000    24996876.871   100652229.610       -4081.387          53.000  
G28                                                                  26798202.522   109734036.5331       2024.365          32.000  
R09                                                                  27247708.234                3       1575.950          12.000  
> 2024 04 15 01 50 00.0090000  0 25                     
S33  42391341.555   222768092.001        -759.080          42.000  
G32  25900330.280   136107157.021       -1519.886          45.000    25900331.440   106057476.964       -1184.324          42.000  
R14  26195192.690   139635129.997       -3467.232          50.000    26195194.148   108605170.540       -2696.736          43.000  
R17  22891530.596   122497714.477       -2864.753          51.000    22891526.107    95276232.276       -2228.024          51.000  
R16  23323699.055   124591177.790        1388.463          51.000    23323696.995    96904162.239        1079.845          49.000  
E11  26847766.844   141086335.376        1629.302          45.000    26847765.833   108105332.588        1248.451          47.000  
G06  26660607.045   140102397.020       -2970.471          34.000    26660603.842   109170948.662       -2314.667          41.000  
G29  24202207.024   127183825.245        1299.572          49.000    24202204.248    99104542.195        1012.865          44.000  
S31  41438365.678   217760164.312        -758.109          44.000  
E03  28520359.177   149875539.944       -1555.702          44.000    28520362.884   114839643.258       -1191.963          48.000  
R15  22867865.364   122199160.724       -1465.288          52.000    22867861.282    95043963.494       -1139.609          50.000  
R18  22248788.994   118765629.941        1209.369          52.000    22248786.793    92373556.826         940.641          49.000  
R19  24962726.015   133533944.847        3538.607          41.000    24962732.682   103859295.619        2752.029          47.000  
E31  30726895.993   161470869.459       -2513.775          40.000    30726897.035   123724516.956       -1926.611          38.000  
G11  25060162.461   131692510.167        -987.533          47.000    25060158.059   102617730.462        -769.521          45.000  
E24  27313414.299   143533080.096       -1573.226          49.000    27313412.984   109979952.065       -1205.373          51.000  
G24  24226599.034   127311722.898       -3247.435          47.000    24226598.999    99204005.380       -2530.615          46.000  
G12  23944745.435   125830791.401       -1240.113          48.000    23944740.723    98050094.240        -966.468          47.000  
E05  27432979.987   144161254.846       -3349.610          44.000    27432988.359   110461236.512       -2566.488          46.000  
G25  23805195.493   125097373.049         297.869          47.000    23805193.138    97478542.937         232.109          44.000  
E10  27492204.349   144472995.920         418.007          47.000    27492205.396   110700337.890         320.312          50.000  
E25  26945470.646   141599700.210         132.522          47.000    26945471.703   108498624.350         101.539          50.000  
E12  28163570.585   148000919.204        -867.553          43.000    28163568.418   113403518.764        -664.485          48.000  
E14  25027293.190   131519460.760       -5329.721          45.000    25027294.108   100774706.892       -4083.836          53.000  
G28                                                                  26783380.426                1       2021.428          27.000  
> 2024 04 15 01 50 30.0090000  0 25                     
S33  42395674.407   222790863.979        -759.003          42.000  
G32  25909055.948   136153004.126       -1536.757          46.000    25909055.852   106093201.888       -1197.438          41.000  
R14  26214727.455   139739257.531       -3474.708          50.000    26214728.471   108686158.393       -2702.520          42.000  
R17  22907656.204   122584006.029       -2888.077          51.000    22907651.082    95343347.945       -2246.298          51.000  
R16  23315915.246   124549597.117        1383.520          51.000    23315912.471    96871821.758        1075.950          49.000  
E11  26838489.249   141037581.410        1620.653          45.000    26838488.096   108067975.817        1242.016          47.000  
G06  26677602.441   140191764.1571      -2985.553          34.000    26677604.507   109240567.476       -2326.672          41.000  
G29  24194824.773   127145034.302        1286.215          48.000    24194821.743    99074315.599        1002.081          45.000  
S31  41442695.193   217782914.576        -758.377          44.000  
E03  28529274.875   149922395.610       -1568.192          44.000    28529279.068   114875545.612       -1201.637          49.000  
R15  22876123.987   122243293.910       -1477.121          52.000    22876120.368    95078289.338       -1148.910          50.000  
R18  22242061.010   118729715.973        1184.768          52.000    22242058.376    92345623.820         921.499          48.000  
R19  24942905.134   133427920.450        3529.708          41.000    24942910.674   103776833.546        2745.374          46.000  
E31  30741248.570   161546300.384       -2514.702          38.000    30741252.045   123782314.605       -1927.008          41.000  
G11  25065856.008   131722428.518       -1007.180          47.000    25065851.531   102641043.487        -784.805          45.000  
E24  27322402.077   143580307.312       -1575.414          49.000    27322399.911   110016139.174       -1207.110          51.000  
G24  24245177.760   127409350.994       -3261.213          48.000    24245176.659    99280079.142       -2541.244          45.000  
G12  23951838.969   125868065.938       -1244.907          47.000    23951833.671    98079139.323        -970.060          47.000  
E05  27452111.707   144261792.988       -3352.911          44.000    27452120.879   110538271.782       -2569.205          46.000  
G25  23803506.665   125088498.717         293.737          47.000    23803504.618    97471627.913         229.149          44.000  
E10  27489855.412   144460653.643         404.676          47.000    27489856.454   110690880.879         309.976          49.000  
E25  26944718.632   141595746.292         131.068          47.000    26944719.144   108495594.752         100.469          50.000  
E12  28168564.160   148027160.364        -882.101          43.000    28168562.155   113423625.684        -676.004          48.000  
E14  25057727.353   131679393.656       -5332.646          46.000    25057728.154   100897252.898       -4085.985          53.000  
G28                                                                  26768582.575                        2017.704          30.000  
> 2024 04 15 01 51 00.0090000  0 25                     
S33  42400009.062   222813640.316        -759.094          43.000  
G32  25917876.470   136199359.877       -1553.499          46.000    25917877.901   106129323.207       -1210.367          42.000  
R14  26234303.318   139843609.684       -3481.879          50.000    26234306.347   108767320.983       -2708.057          44.000  
R17  22923911.244   122670995.256       -2911.030          51.000    22923906.059    95411006.235       -2264.056          50.000  
R16  23308160.437   124508166.485        1378.630          52.000    23308156.232    96839597.989        1072.346          49.000  
E11  26829260.019   140989079.933        1612.479          45.000    26829258.195   108030812.503        1235.491          46.000  
G06  26694694.515   140281563.676       -3000.512          34.000    26694692.858   109310541.190       -2337.849          41.000  
G29  24187520.753   127106649.841        1272.876          49.000    24187518.077    99044405.728         991.881          45.000  
S31  41447024.728   217805669.241        -758.601          43.000  
E03  28538264.591   149969631.230       -1580.836          45.000    28538267.844   114911739.089       -1211.216          49.000  
R15  22884450.074   122287786.342       -1488.881          52.000    22884446.976    95112894.533       -1157.940          51.000  
R18  22235473.207   118694544.348        1160.159          53.000    22235469.649    92318268.223         902.271          49.000  
R19  24923133.148   133322157.835        3521.031          40.000    24923138.104   103694575.040        2738.759          46.000  
E31  30755608.252   161621760.885       -2515.655          37.000    30755612.804   123840134.958       -1927.459          43.000  
G11  25071660.331   131752932.401       -1026.332          46.000    25071657.089   102664812.817        -799.701          46.000  
E24  27331401.343   143627603.571       -1577.510          48.000    27331399.700   110052379.200       -1208.766          51.000  
G24  24263835.082   127507393.522       -3274.910          48.000    24263833.531    99356475.884       -2552.081          45.000  
G12  23958958.976   125905482.671       -1249.464          49.000    23958953.968    98108295.257        -973.569          47.000  
E05  27471264.315   144362432.820       -3356.105          45.000    27471272.579   110615385.014       -2571.604          46.000  
G25  23801839.605   125079739.049         290.315          46.000    23801837.272    97464802.237         226.106          44.000  
E10  27487584.551   144448716.660         391.349          48.000    27487585.195   110681734.398         299.877          50.000  
E25  26943974.761   141591839.346         129.648          46.000    26943975.788   108492601.153          99.267          50.000  
E12  28173641.316   148053845.521        -896.674          42.000    28173640.222   113444072.806        -687.146          48.000  
E14  25088178.626   131839413.902       -5335.231          46.000    25088179.166   101019865.829       -4088.143          53.000  
G28                                                                  26753809.185                        2014.998          31.000  
> 2024 04 15 01 51 30.0090000  0 25                     
S33  42404342.104   222836412.065        -758.874          43.000  
G32  25926794.155   136246215.974       -1570.143          48.000    25926793.604   106165834.382       -1223.541          41.000  
R14  26253920.281   139948179.186       -3489.277          51.000    26253923.470   108848652.652       -2713.892          44.000  
R17  22940295.973   122758671.931       -2933.919          50.000    22940291.190    95479199.264       -2281.966          51.000  
R16  23300431.375   124466880.818        1373.859          52.000    23300427.029    96807486.972        1068.555          49.000  
E11  26820077.319   140940826.150        1604.425          45.000    26820075.552   107993838.955        1229.240          46.000  
G06  26711870.613   140371809.986       -3016.342          35.000    26711866.222   109380862.972       -2349.768          41.000  
G29  24180292.179   127068666.010        1259.458          48.000    24180290.179    99014808.047         981.362          46.000  
S31  41451353.717   217828419.311        -758.221          44.000  
E03  28547323.986   150017238.958       -1593.312          45.000    28547327.739   114948217.667       -1220.743          49.000  
R15  22892842.301   122332632.131       -1500.739          53.000    22892838.559    95147774.609       -1167.249          51.000  
R18  22229021.845   118660110.586        1135.550          52.000    22229019.326    92291486.455         883.222          49.000  
R19  24903409.374   133216653.994        3512.658          41.000    24903413.451   103612517.767        2731.962          45.000  
E31  30769972.158   161697244.740       -2516.753          37.000    30769976.683   123897973.226       -1928.267          43.000  
G11  25077575.726   131784015.239       -1045.667          47.000    25077572.745   102689033.237        -814.856          47.000  
E24  27340413.500   143674962.521       -1579.755          48.000    27340412.047   110088667.225       -1210.475          50.000  
G24  24282568.787   127605842.052       -3288.283          47.000    24282568.026    99433188.982       -2562.411          45.000  
G12  23966104.940   125943035.256       -1253.961          48.000    23966100.080    98137556.999        -977.094          46.000  
E05  27490433.491   144463165.574       -3359.313          45.000    27490441.276   110692569.386       -2573.897          46.000  
G25  23800193.421   125071087.859         286.663          47.000    23800191.080    97458061.080         223.298          44.000  
E10  27485389.015   144437179.302         377.963          48.000    27485390.059   110672894.145         289.604          51.000  
E25  26943238.894   141587972.678         128.288          47.000    26943240.046   108489638.424          98.268          51.000  
E12  28178801.917   148080967.996        -911.385          41.000    28178801.609   113464854.997        -698.287          48.000  
E14  25118643.935   131999510.763       -5337.785          46.000    25118644.402   101142537.480       -4089.971          53.000  
G28                                                                  26739062.239                        2011.917          31.000  
> 2024 04 15 01 52 00.0090000  0 25                     
S33  42408674.356   222859178.021        -758.492          43.000  
G28  26724334.960   140437406.0503       2576.850          30.000    26724336.065                1       2007.792          29.000  
G32  25935805.233   136293568.598       -1586.695          48.000    25935804.329   106202732.476       -1236.208          41.000  
R14  26273578.038   140052963.806       -3496.361          48.000    26273580.123   108930151.681       -2719.482          45.000  
R17  22956808.589   122847030.848       -2956.573          51.000    22956803.098    95547922.909       -2299.610          50.000  
R16  23292728.980   124425740.345        1368.916          51.000    23292725.428    96775488.856        1064.717          49.000  
E11  26810941.302   140892820.038        1596.003          44.000    26810940.232   107957055.174        1223.076          46.000  
G06  26729127.627   140462498.753       -3029.944          34.000    26729123.871   109451529.578       -2361.740          41.000  
G29  24173141.007   127031081.515        1246.077          49.000    24173137.569    98985521.525         970.985          45.000  
S31  41455681.676   217851163.478        -758.105          43.000  
E03  28556453.851   150065215.721       -1605.444          45.000    28556457.373   114984979.034       -1230.138          49.000  
R15  22901301.288   122377830.643       -1512.536          53.000    22901297.069    95182929.018       -1176.340          51.000  
R18  22222709.261   118626414.978        1110.908          52.000    22222707.393    92265278.809         864.129          49.000  
R19  24883734.206   133111411.064        3503.961          41.000    24883739.098   103530663.365        2725.038          46.000  
E31  30784340.859   161772750.136       -2517.005          37.000    30784344.672   123955828.043       -1928.787          43.000  
G11  25083600.191   131815675.072       -1064.974          46.000    25083597.241   102713703.293        -829.771          47.000  
E24  27349437.342   143722382.512       -1581.645          48.000    27349435.638   110125002.051       -1211.976          51.000  
G24  24301379.836   127704692.955       -3301.816          48.000    24301379.326    99510215.589       -2572.713          46.000  
G12  23973276.203   125980722.076       -1258.480          48.000    23973271.488    98166923.377        -980.555          46.000  
E05  27509619.957   144563987.128       -3362.167          46.000    27509627.819   110769821.811       -2576.184          47.000  
G25  23798568.124   125062543.715         283.037          48.000    23798565.633    97451403.328         220.463          44.000  
E10  27483269.818   144426040.741         364.511          48.000    27483270.785   110664359.436         279.345          51.000  
E25  26942510.742   141584144.402         126.978          47.000    26942511.557   108486705.095          97.299          51.000  
E12  28184046.053   148108525.564        -925.958          41.000    28184045.531   113485970.568        -709.343          48.000  
E14  25149122.202   132159678.395       -5340.089          46.000    25149123.412   101265263.356       -4091.712          53.000  
> 2024 04 15 01 52 30.0090000  0 26                     
S33  42413007.156   222881948.673        -759.139          42.000  
G28  26709635.007                        2571.855          27.000    26709630.990                        2004.044          28.000  
G32  25944911.951   136341426.028       -1603.459          47.000    25944912.032   106240023.893       -1249.365          41.000  
R14  26293277.536   140157973.322       -3503.856          48.000    26293279.510   109011825.540       -2725.367          44.000  
R17  22973449.698   122936078.710       -2979.566          51.000    22973443.817    95617182.361       -2317.513          51.000  
R16  23285057.081   124384757.507        1363.513          52.000    23285053.656    96743613.328        1060.615          49.000  
E11  26801855.697   140845073.406        1587.403          44.000    26801854.316   107920470.222        1216.177          47.000  
G06  26746469.724   140553637.825       -3045.603          36.000    26746466.986   109522547.035       -2372.979          41.000  
G29  24166066.641   126993906.790        1232.546          49.000    24166063.181    98956554.317         960.219          44.000  
S31  41460011.138   217873912.807        -758.329          43.000  
E03  28565654.864   150113570.362       -1618.043          46.000    28565658.608   115022029.954       -1239.739          49.000  
R15  22909827.679   122423393.107       -1524.739          53.000    22909823.560    95218366.487       -1185.920          50.000  
R18  22216536.995   118593469.571        1085.680          51.000    22216534.904    92239654.671         844.487          49.000  
R19  24864110.491   133006442.884        3494.405          42.000    24864115.131   103449022.598        2717.891          46.000  
E31  30798714.938   161848287.665       -2518.561          36.000    30798718.743   124013707.412       -1929.562          42.000  
G11  25089736.856   131847922.003       -1084.535          46.000    25089732.927   102738830.834        -845.271          46.000  
E24  27358474.161   143769873.801       -1584.103          48.000    27358472.799   110161391.499       -1213.754          50.000  
G24  24320268.004   127803954.403       -3315.456          47.000    24320268.170    99587562.118       -2583.353          46.000  
G12  23980475.214   126018553.330       -1263.385          47.000    23980470.868    98196402.275        -984.386          47.000  
E05  27528824.100   144664905.343       -3365.351          45.000    27528832.379   110847148.266       -2578.649          48.000  
G25  23796964.459   125054116.984         279.091          48.000    23796961.871    97444837.084         217.309          44.000  
E10  27481228.406   144415311.927         350.850          48.000    27481228.975   110656138.698         268.847          51.000  
E25  26941790.912   141580364.526         125.274          47.000    26941792.216   108483808.854          95.936          51.000  
E12  28189375.531   148136528.235        -940.605          41.000    28189374.159   113507427.184        -720.833          48.000  
E14  25179616.759   132319922.871       -5342.638          47.000    25179617.095   101388048.083       -4093.752          53.000  
R09                                                                  26267241.672                3       1656.218          11.000  
> 2024 04 15 01 53 00.0090000  0 25                     
S33  42417340.727   222904720.092        -759.204          42.000  
G28  26694963.242                        2567.712          28.000    26694960.749                        2001.715          29.000  
G32  25954113.456   136389784.374       -1620.378          45.000    25954113.717   106277705.636       -1262.474          41.000  
R14  26313018.615   140263205.522       -3511.450          48.000    26313021.189   109093672.577       -2731.005          44.000  
R17  22990217.417   123025809.897       -3002.377          50.000    22990212.742    95686973.293       -2335.151          51.000  
R16  23277414.931   124343932.130        1358.190          52.000    23277411.300    96711860.293        1056.359          50.000  
E11  26792818.117   140797586.119        1578.223          43.000    26792817.578   107884083.981        1209.480          47.000  
G06  26763898.568   140645222.959       -3060.053          40.000    26763895.015   109593912.090       -2384.524          41.000  
G29  24159069.914   126957140.038        1218.749          49.000    24159066.585    98927904.981         949.551          44.000  
S31  41464340.164   217896662.780        -758.398          45.000  
E03  28574928.173   150162299.741       -1630.513          46.000    28574931.479   115059367.993       -1249.317          49.000  
R15  22918421.641   122469318.636       -1536.958          53.000    22918418.129    95254086.324       -1195.330          51.000  
R18  22210505.897   118561274.626        1060.660          52.000    22210504.717    92214614.241         824.910          50.000  
R19  24844539.159   132901751.621        3485.132          41.000    24844542.420   103367597.149        2710.878          44.000  
E31  30813095.739   161923855.544       -2519.720          36.000    30813098.738   124071610.055       -1930.390          42.000  
G11  25095985.405   131880754.021       -1104.140          46.000    25095980.725   102764414.227        -860.299          47.000  
E24  27367524.974   143817434.738       -1586.490          49.000    27367523.162   110197834.295       -1215.590          50.000  
G24  24339233.930   127903622.625       -3329.129          47.000    24339233.951    99665225.594       -2593.788          45.000  
G12  23987701.568   126056527.208       -1268.207          48.000    23987696.406    98225992.343        -988.265          47.000  
E05  27548044.948   144765916.028       -3368.618          44.000    27548054.355   110924545.605       -2581.012          47.000  
G25  23795382.681   125045806.174         275.018          48.000    23795380.494    97438361.123         214.338          44.000  
E10  27479264.222   144404991.929         337.245          48.000    27479265.296   110648231.205         258.339          51.000  
E25  26941080.737   141576631.099         123.602          47.000    26941081.865   108480948.198          94.791          51.000  
E12  28194789.164   148164973.880        -955.713          41.000    28194787.153   113529223.192        -732.076          48.000  
E14  25210123.698   132480238.205       -5344.976          47.000    25210123.845   101510887.128       -4095.494          53.000  
> 2024 04 15 01 53 30.0090000  0 25                     
S33  42421674.917   222927498.404        -759.500          42.000  
G28  26680320.196                        2561.896          30.000    26680314.458                1       1996.521          27.000  
G32  25963411.623   136438644.556       -1636.944          46.000    25963411.604   106315778.447       -1275.574          41.000  
R14  26332802.462   140368662.743       -3519.007          48.000    26332805.732   109175694.656       -2736.989          45.000  
R17  23007113.043   123116223.644       -3025.179          50.000    23007108.692    95757295.100       -2352.871          50.000  
R16  23269802.213   124303268.926        1352.722          51.000    23269799.511    96680233.380        1052.192          50.000  
E11  26783831.244   140750362.713        1569.907          43.000    26783831.243   107847899.973        1202.895          47.000  
G06  26781411.244   140737254.621       -3075.208          40.000    26781407.927   109665625.080       -2396.453          39.000  
G29  24152151.373   126920784.774        1205.002          50.000    24152147.551    98899576.278         939.066          43.000  
S31  41468670.613   217919418.450        -758.292          43.000  
E03  28584272.773   150211405.386       -1642.981          45.000    28584275.955   115096994.362       -1258.907          48.000  
R15  22927085.215   122515611.503       -1549.189          53.000    22927080.637    95290091.912       -1204.952          51.000  
R18  22204615.949   118529834.812        1035.447          52.000    22204614.506    92190161.153         805.339          49.000  
R19  24825020.299   132797344.001        3475.368          41.000    24825023.726   103286392.252        2703.144          45.000  
E31  30827482.476   161999456.750       -2520.710          39.000    30827485.051   124129538.274       -1931.448          42.000  
G11  25102343.974   131914173.757       -1123.800          46.000    25102339.631   102790455.633        -875.631          47.000  
E24  27376588.765   143865068.304       -1588.980          48.000    27376587.572   110234332.756       -1217.574          50.000  
G24  24358277.884   128003698.636       -3342.763          47.000    24358277.718    99743206.848       -2604.783          46.000  
G12  23994955.173   126094646.339       -1273.088          47.000    23994950.080    98255695.559        -991.928          47.000  
E05  27567285.298   144867019.874       -3371.656          44.000    27567294.265   111002014.295       -2583.354          47.000  
G25  23793823.810   125037614.442         271.139          48.000    23793821.602    97431977.969         211.270          44.000  
E10  27477378.860   144395084.434         323.438          49.000    27477380.033   110640639.809         247.768          51.000  
E25  26940379.878   141572946.862         122.086          47.000    26940380.840   108478125.253          93.499          51.000  
E12  28200286.985   148193864.993        -970.417          41.000    28200285.083   113551360.568        -743.518          48.000  
E14  25240643.137   132640623.304       -5347.253          45.000    25240644.056   101633779.637       -4097.337          53.000  
> 2024 04 15 01 54 00.0090000  0 25                     
S33  42426010.058   222950278.119        -759.597          43.000  
G28  26665705.869   140129186.834        2557.605          31.000    26665699.960                        1993.518          32.000  
G32  25972803.442   136488002.678       -1653.823          45.000    25972803.906   106354239.279       -1288.415          41.000  
R14  26352628.431   140474342.933       -3526.583          47.000    26352631.134   109257890.162       -2742.843          45.000  
R17  23024135.301   123207314.439       -3047.792          52.000    23024130.525    95828143.531       -2370.419          51.000  
R16  23262221.481   124262768.172        1347.092          53.000    23262217.694    96648732.811        1047.758          50.000  
E11  26774896.144   140703403.060        1560.875          44.000    26774895.409   107811918.006        1196.095          48.000  
G06  26799007.685   140829728.596       -3089.948          41.000    26799005.617   109737682.740       -2407.802          40.000  
G29  24145311.496   126884839.893        1191.141          50.000    24145307.585    98871567.368         928.138          43.000  
S31  41473001.211   217942177.142        -758.639          43.000  
E03  28593687.848   150260884.134       -1655.602          45.000    28593691.218   115134906.597       -1268.518          48.000  
R15  22935815.894   122562270.432       -1561.535          52.000    22935812.516    95326382.189       -1214.517          50.000  
R18  22198867.242   118499150.186        1010.008          51.000    22198866.083    92166295.367         785.599          49.000  
R19  24805554.731   132693221.709        3465.843          42.000    24805558.932   103205409.262        2695.564          46.000  
E31  30841875.124   162075089.667       -2521.707          39.000    30841878.161   124187490.761       -1932.039          45.000  
G11  25108813.746   131948179.156       -1143.365          45.000    25108810.688   102816953.398        -890.997          47.000  
E24  27385666.859   143912772.812       -1591.490          48.000    27385665.801   110270885.560       -1219.474          51.000  
G24  24377398.226   128104178.511       -3356.179          46.000    24377398.579    99821502.805       -2615.362          46.000  
G12  24002235.463   126132909.677       -1277.822          46.000    24002231.479    98285511.196        -995.892          47.000  
E05  27586542.846   144968212.683       -3374.723          45.000    27586551.396   111079551.119       -2585.731          48.000  
G25  23792287.307   125029540.285         266.821          48.000    23792285.062    97425686.457         207.980          44.000  
E10  27475571.676   144385588.476         309.549          48.000    27475572.803   110633363.740         237.234          51.000  
E25  26939687.596   141569309.876         120.425          47.000    26939688.691   108475338.498          92.190          51.000  
E12  28205869.325   148223199.375        -985.383          41.000    28205867.178   113573837.593        -754.915          48.000  
E14  25271176.035   132801072.238       -5349.387          46.000    25271176.721   101756721.048       -4098.870          53.000  
> 2024 04 15 01 54 30.0090000  0 25                     
S33  42430346.073   222973065.284        -759.888          42.000  
G28  26651116.246   140052518.930        2553.333          34.000    26651111.654   109131829.1321       1989.337          32.000  
G32  25982291.693   136537860.834       -1670.147          45.000    25982292.867   106393089.701       -1301.389          42.000  
R14  26372495.273   140580249.405       -3533.948          48.000    26372498.979   109340261.640       -2748.640          45.000  
R17  23041284.475   123299082.589       -3070.243          51.000    23041279.274    95899518.804       -2387.929          51.000  
R16  23254671.006   124222435.755        1341.533          53.000    23254666.885    96617363.195        1043.389          49.000  
E11  26766011.443   140656712.928        1551.796          44.000    26766010.673   107776142.580        1188.995          48.000  
G06  26816688.387   140922646.499       -3104.496          41.000    26816687.760   109810086.385       -2419.118          40.000  
G29  24138550.450   126849308.950        1177.416          50.000    24138545.025    98843881.005         917.498          42.000  
S31  41477333.472   217964941.808        -759.028          44.000  
E03  28603174.722   150310738.699       -1668.025          45.000    28603178.641   115173106.811       -1278.132          47.000  
R15  22944616.974   122609301.274       -1573.984          53.000    22944613.514    95362961.722       -1224.104          50.000  
R18  22193262.447   118469226.703         984.750          52.000    22193260.453    92143021.608         765.813          49.000  
R19  24786145.923   132589392.627        3455.779          43.000    24786148.387   103124654.274        2687.975          47.000  
E31  30856273.556   162150758.577       -2522.927          38.000    30856277.469   124245470.835       -1932.962          44.000  
G11  25115396.948   131982774.127       -1162.904          45.000    25115394.229   102843910.549        -906.268          47.000  
E24  27394759.002   143960552.526       -1593.963          48.000    27394757.966   110307495.999       -1221.420          51.000  
G24  24396596.946   128205064.425       -3369.624          47.000    24396596.778    99900115.125       -2625.647          46.000  
G12  24009544.980   126171320.987       -1282.948          45.000    24009541.179    98315442.069        -999.603          47.000  
E05  27605816.483   145069496.207       -3377.696          45.000    27605826.403   111157157.480       -2587.924          49.000  
G25  23790773.977   125021588.128         262.938          48.000    23790771.880    97419489.972         205.160          44.000  
E10  27473843.409   144376508.927         295.666          48.000    27473844.450   110626406.750         226.572          50.000  
E25  26939005.422   141565724.137         118.567          47.000    26939006.340   108472591.007          90.886          51.000  
E12  28211535.332   148252980.789       -1000.078          41.000    28211534.234   113596657.181        -766.465          48.000  
E14  25301719.843   132961585.142       -5351.401          46.000    25301720.909   101879711.485       -4100.479          53.000  
> 2024 04 15 01 55 00.0090000  0 25                     
S33  42434683.508   222995856.437        -759.666          42.000  
G28  26636556.957   139976000.615        2548.816          35.000    26636550.539                        1985.730          33.000  
G32  25991873.925   136588215.061       -1686.422          46.000    25991874.500   106432326.695       -1314.072          41.000  
R14  26392406.485   140686379.971       -3541.302          50.000    26392408.313   109422807.427       -2754.443          45.000  
R17  23058560.035   123391522.867       -3092.427          52.000    23058554.635    95971416.822       -2405.295          52.000  
R16  23247152.422   124182271.749        1335.980          52.000    23247148.157    96586124.558        1039.154          49.000  
E11  26757176.496   140610292.102        1542.909          42.000    26757176.844   107740573.497        1182.239          48.000  
G06  26834454.422   141016004.098       -3118.820          42.000    26834453.880   109882832.547       -2430.320          40.000  
G29  24131867.754   126814190.652        1163.801          51.000    24131863.029    98816516.180         907.056          43.000  
S31  41481666.189   217987711.755        -759.318          43.000  
E03  28612733.358   150360965.835       -1680.204          46.000    28612736.362   115211592.477       -1287.484          47.000  
R15  22953488.160   122656702.508       -1586.083          53.000    22953484.315    95399829.362       -1233.618          51.000  
R18  22187799.330   118440064.321         959.463          52.000    22187796.555    92120339.811         746.249          49.000  
R19  24766789.304   132485859.019        3446.397          43.000    24766792.956   103044129.070        2680.413          47.000  
E31  30870679.674   162226461.739       -2523.858          38.000    30870682.975   124303477.164       -1933.881          44.000  
G11  25122092.161   132017956.481       -1182.366          44.000    25122089.036   102871325.414        -921.262          47.000  
E24  27403865.218   144008405.714       -1596.228          48.000    27403864.277   110344162.727       -1223.085          51.000  
G24  24415871.929   128306352.493       -3382.792          48.000    24415870.922    99979040.834       -2635.867          46.000  
G12  24016882.125   126209878.574       -1287.739          46.000    24016878.153    98345486.976       -1003.353          47.000  
E05  27625106.857   145170866.340       -3380.320          45.000    27625116.380   111234830.177       -2590.193          48.000  
G25  23789283.119   125013756.410         259.084          47.000    23789281.363    97413387.367         201.719          44.000  
E10  27472194.501   144367844.735         281.899          48.000    27472195.467   110619767.999         216.014          50.000  
E25  26938332.757   141562187.653         117.116          47.000    26938333.244   108469881.257          89.766          51.000  
E12  28217287.598   148283207.108       -1014.913          41.000    28217286.251   113619817.629        -777.639          48.000  
E14  25332276.039   133122156.159       -5353.215          46.000    25332276.603   102002746.440       -4101.815          53.000  
> 2024 04 15 01 55 30.0090000  0 25                     
S33  42439021.691   223018654.181        -759.643          41.000  
G28  26622024.460   139899636.335        2542.786          34.000    26622019.528   109012699.883        1981.934          33.000  
G32  26001551.351   136639065.392       -1702.948          47.000    26001551.804   106471950.300       -1327.280          43.000  
R14  26412359.270   140792736.012       -3548.871          50.000    26412359.622   109505528.565       -2760.199          44.000  
R17  23075960.721   123484633.460       -3114.718          53.000    23075955.089    96043836.205       -2422.542          52.000  
R16  23239665.470   124142280.801        1330.254          51.000    23239661.504    96555020.514        1034.760          49.000  
E11  26748394.974   140564144.353        1534.011          43.000    26748395.216   107705213.652        1175.387          48.000  
G06  26852303.411   141109801.001       -3133.519          43.000    26852302.705   109955921.098       -2441.663          40.000  
G29  24125263.841   126779487.963        1150.024          50.000    24125259.361    98789475.229         896.039          43.000  
S31  41486000.110   218010487.750        -759.355          43.000  
E03  28622362.535   150411566.265       -1692.679          46.000    28622365.548   115250364.189       -1296.958          47.000  
R15  22962428.579   122704477.722       -1598.591          53.000    22962425.197    95436987.848       -1243.260          51.000  
R18  22182479.439   118411666.849         934.027          52.000    22182477.001    92098252.957         726.535          49.000  
R19  24747490.379   132382626.677        3436.355          42.000    24747493.615   102963838.135        2672.670          46.000  
E31  30885093.003   162302201.515       -2525.046          38.000    30885095.403   124361511.524       -1934.937          43.000  
G11  25128899.391   132053728.105       -1202.085          44.000    25128896.304   102899199.427        -936.648          47.000  
E24  27412985.836   144056334.662       -1598.782          48.000    27412984.660   110380887.510       -1225.003          50.000  
G24  24435222.921   128408042.821       -3396.126          48.000    24435222.727   100058280.004       -2646.354          46.000  
G12  24024247.723   126248584.478       -1292.373          45.000    24024243.384    98375647.419       -1007.163          48.000  
E05  27644412.966   145272322.883       -3383.241          43.000    27644423.405   111312569.087       -2592.200          48.000  
G25  23787816.464   125006047.634         255.175          47.000    23787814.226    97407380.556         198.754          44.000  
E10  27470625.020   144359598.807         268.041          48.000    27470626.708   110613449.748         205.379          50.000  
E25  26937669.418   141558702.419         115.486          47.000    26937670.035   108467210.806          88.442          52.000  
E12  28223124.413   148313879.994       -1029.772          41.000    28223122.819   113643320.282        -789.064          47.000  
E14  25362842.480   133282783.442       -5354.943          46.000    25362842.663   102125824.508       -4103.188          52.000  
> 2024 04 15 01 56 00.0090000  0 25                     
S33  42443359.458   223041451.838        -759.813          42.000  
G28  26607520.081   139823421.770        2538.153          34.000    26607516.333   108953312.030        1978.040          34.000  
G32  26011320.935   136690403.390       -1719.407          47.000    26011321.438   106511953.888       -1339.901          43.000  
R14  26432352.655   140899310.773       -3556.116          50.000    26432353.423   109588419.840       -2765.955          45.000  
R17  23093483.292   123578404.054       -3136.653          51.000    23093478.222    96116768.893       -2439.613          51.000  
R16  23232210.013   124102457.746        1324.670          51.000    23232206.259    96524047.028        1030.297          48.000  
E11  26739664.802   140518265.027        1524.959          43.000    26739664.304   107670059.476        1168.631          48.000  
G06  26870234.591   141204028.401       -3148.083          43.000    26870233.411   110029345.072       -2452.920          41.000  
G29  24118737.579   126745194.261        1136.283          50.000    24118733.413    98762752.957         885.341          43.000  
S31  41490333.962   218033263.619        -759.224          44.000  
E03  28632061.348   150462532.245       -1704.787          46.000    28632064.434   115289415.979       -1306.313          47.000  
R15  22971437.439   122752620.987       -1610.840          53.000    22971433.698    95474432.625       -1252.957          50.000  
R18  22177302.378   118384029.535         908.584          52.000    22177299.757    92076757.358         706.671          49.000  
R19  24728246.981   132279692.601        3426.198          41.000    24728250.037   102883779.152        2664.830          46.000  
E31  30899511.257   162377971.621       -2526.356          39.000    30899513.583   124419569.133       -1935.725          42.000  
G11  25135817.812   132090082.299       -1221.484          45.000    25135813.519   102927527.383        -951.968          46.000  
E24  27422119.961   144104333.115       -1601.098          48.000    27422118.187   110417665.559       -1226.806          50.000  
G24  24454648.441   128510127.021       -3409.347          48.000    24454648.753   100137826.085       -2656.533          46.000  
G12  24031640.188   126287432.483       -1297.344          46.000    24031635.875    98405918.603       -1011.067          47.000  
E05  27663733.491   145373857.168       -3385.796          42.000    27663744.812   111390367.582       -2594.274          48.000  
G25  23786371.838   124998455.753         251.084          47.000    23786370.239    97401464.826         195.791          45.000  
E10  27469135.372   144351765.553         254.305          48.000    27469135.790   110607447.713         194.757          50.000  
E25  26937013.596   141555262.005         113.980          46.000    26937015.271   108464574.679          87.365          52.000  
E12  28229045.204   148344992.675       -1044.309          41.000    28229043.267   113667159.914        -800.220          47.000  
E14  25393417.219   133443456.672       -5356.427          46.000    25393417.618   102248937.796       -4104.343          52.000  
> 2024 04 15 01 56 30.0090000  0 25                     
S33  42447697.506   223064245.879        -759.816          43.000  
G28  26593046.861   139747356.457        2532.837          33.000    26593042.399   108894040.386        1973.706          34.000  
G32  26021182.027   136742224.069       -1735.664          46.000    26021182.747   106552333.584       -1352.457          43.000  
R14  26452384.817   141006100.685       -3563.312          47.000    26452388.808   109671478.461       -2771.429          46.000  
R17  23111127.695   123672827.906       -3158.566          50.000    23111123.728    96190209.672       -2456.582          51.000  
R16  23224786.567   124062801.946        1318.920          52.000    23224782.480    96493203.684        1025.780          49.000  
E11  26730986.007   140472652.979        1515.550          44.000    26730984.659   107635110.101        1161.343          48.000  
G06  26888246.400   141298680.972       -3162.467          43.000    26888245.139   110103100.318       -2464.031          41.000  
G29  24112288.443   126711306.747        1122.677          50.000    24112285.452    98736347.180         874.988          44.000  
S31  41494667.843   218056036.612        -759.106          44.000  
E03  28641828.236   150513859.544       -1717.094          45.000    28641831.409   115328744.622       -1315.737          47.000  
R15  22980515.779   122801130.503       -1623.232          53.000    22980511.319    95512162.225       -1262.533          50.000  
R18  22172266.720   118357151.030         883.083          52.000    22172264.511    92055851.909         686.977          49.000  
R19  24709059.386   132177057.582        3415.956          41.000    24709062.036   102803952.762        2656.928          45.000  
E31  30913934.059   162453769.382       -2527.085          37.000    30913937.835   124477647.997       -1936.458          42.000  
G11  25142846.498   132127015.792       -1240.915          45.000    25142842.378   102956306.773        -966.924          47.000  
E24  27431266.404   144152398.415       -1603.349          49.000    27431264.671   110454494.827       -1228.567          50.000  
G24  24474148.409   128612600.240       -3422.392          47.000    24474148.629   100217675.290       -2666.906          45.000  
G12  24039059.135   126326419.919       -1302.032          46.000    24039055.189    98436298.419       -1014.454          47.000  
E05  27683068.449   145475464.073       -3388.223          41.000    27683080.404   111468221.674       -2596.165          47.000  
G25  23784948.826   124990978.278         247.145          48.000    23784947.343    97395638.254         192.813          45.000  
E10  27467722.653   144344342.867         240.413          48.000    27467722.655   110601760.269         184.210          49.000  
E25  26936366.520   141551863.519         112.476          46.000    26936368.604   108461970.673          86.092          52.000  
E12  28235048.353   148376541.939       -1059.093          41.000    28235046.696   113691334.067        -811.485          47.000  
E14  25423999.188   133604169.164       -5357.828          45.000    25424000.420   102372081.157       -4105.378          52.000  
> 2024 04 15 01 57 00.0090000  0 26                     
S33  42452034.291   223087036.192        -759.562          42.000  
G28  26578597.904   139671442.238        2528.436          33.000    26578596.434   108834886.488        1970.990          33.000  
G32  26031134.722   136794524.968       -1751.245          44.000    26031135.472   106593087.455       -1364.732          43.000  
R14  26472459.343   141113104.963       -3570.258          48.000    26472463.114   109754703.783       -2776.862          47.000  
R17  23128894.117   123767901.096       -3179.865          49.000    23128889.739    96264155.511       -2473.323          50.000  
R16  23217394.308   124023314.979        1313.427          51.000    23217390.759    96462491.641        1021.464          50.000  
E11  26722357.145   140427309.379        1506.841          44.000    26722355.763   107600366.399        1154.656          48.000  
G06  26906338.406   141393755.838       -3176.112          43.000    26906337.428   110177184.654       -2474.938          41.000  
G29  24105916.919   126677825.539        1109.287          49.000    24105913.911    98710257.993         864.547          44.000  
S31  41499000.334   218078805.196        -758.789          44.000  
E03  28651664.765   150565546.398       -1728.801          46.000    28651666.769   115368348.761       -1324.623          46.000  
R15  22989661.769   122850007.185       -1635.305          53.000    22989658.086    95550177.431       -1271.938          50.000  
R18  22167373.503   118331032.781         857.856          52.000    22167371.766    92035537.773         667.239          50.000  
R19  24689928.734   132074725.398        3406.113          40.000    24689930.738   102724361.865        2649.065          45.000  
E31  30928363.460   162529594.730       -2527.889          38.000    30928367.977   124535747.897       -1936.920          44.000  
G11  25149984.830   132164527.958       -1260.072          45.000    25149980.850   102985537.049        -981.825          47.000  
E24  27440425.853   144200530.430       -1605.547          49.000    27440423.718   110491375.200       -1230.201          50.000  
G24  24493722.693   128715460.062       -3435.092          48.000    24493722.021   100297825.746       -2676.810          44.000  
G12  24046504.964   126365546.508       -1306.417          46.000    24046500.820    98466786.699       -1018.038          47.000  
E05  27702418.306   145577140.956       -3390.298          42.000    27702429.551   111546129.393       -2597.762          48.000  
G25  23783547.962   124983615.228         243.427          48.000    23783546.189    97389900.841         189.804          45.000  
E10  27466388.543   144337331.164         226.854          48.000    27466388.274   110596387.720         173.772          49.000  
E25  26935728.669   141548506.502         111.192          46.000    26935729.901   108459398.419          85.185          52.000  
E12  28241135.583   148408527.046       -1073.508          42.000    28241133.171   113715842.181        -822.549          47.000  
E14  25454588.990   133764916.666       -5358.837          46.000    25454589.749   102495251.338       -4106.103          52.000  
R07                                                                  26067327.823                3       -969.749          12.000  
> 2024 04 15 01 57 30.0090000  0 27                     
S33  42456369.481   223109817.092        -759.352          42.000  
G28  26564179.226   139595675.693        2522.137          32.000    26564178.068   108775847.700        1965.918          33.000  
G32  26041176.359   136847298.218       -1767.006          44.000    26041177.362   106634209.439       -1376.992          42.000  
R14  26492572.802   141220317.111       -3577.393          48.000    26492576.373   109838090.766       -2782.355          46.000  
R17  23146780.673   123863613.994       -3201.234          49.000    23146776.348    96338598.879       -2489.795          50.000  
R09  26125444.174                3       2799.655          11.000                                                                  
R16  23210033.404   123983993.374        1307.801          52.000    23210029.398    96431908.211        1017.064          49.000  
G20  27971242.981   146989853.2281       1310.855          31.000                                                                  
E11  26713778.165   140382230.262        1498.010          44.000    26713777.414   107565825.374        1147.882          48.000  
G06  26924509.937   141489244.883       -3190.031          42.000    26924508.120   110251591.697       -2485.586          41.000  
G29  24099621.727   126644745.360        1095.808          48.000    24099618.414    98684481.331         853.926          43.000  
S31  41503331.359   218101564.333        -758.558          44.000  
E03  28661567.216   150617585.695       -1740.614          46.000    28661569.871   115408222.987       -1333.674          46.000  
R15  22998877.137   122899245.885       -1647.498          54.000    22998873.171    95588474.180       -1281.311          50.000  
R18  22162622.948   118305670.544         832.646          53.000    22162620.421    92015811.660         647.542          49.000  
R19  24670855.041   131972693.868        3395.742          42.000    24670857.273   102645004.769        2641.137          46.000  
E31  30942796.023   162605442.071       -2528.733          38.000    30942800.675   124593864.681       -1937.621          44.000  
G11  25157231.854   132202612.692       -1279.082          44.000    25157227.919   103015213.513        -996.749          47.000  
E24  27449596.561   144248723.586       -1607.626          49.000    27449594.529   110528302.440       -1231.787          49.000  
G24  24513368.556   128818698.793       -3447.710          48.000    24513367.616   100378271.440       -2686.631          45.000  
G12  24053976.904   126404806.768       -1311.053          47.000    24053971.810    98497379.108       -1021.628          47.000  
E05  27721779.610   145678879.793       -3392.462          43.000    27721790.718   111624084.575       -2599.338          49.000  
G25  23782167.975   124976361.286         239.913          48.000    23782165.677    97384248.437         186.983          45.000  
E10  27465131.083   144330725.524         213.268          48.000    27465131.461   110591326.331         163.412          49.000  
E25  26935096.690   141545185.205         109.963          47.000    26935097.924   108456853.564          84.241          52.000  
E12  28247304.387   148440941.843       -1087.836          42.000    28247301.435   113740679.538        -833.442          47.000  
E14  25485182.672   133925689.646       -5359.692          46.000    25485184.002   102618441.060       -4106.735          53.000  
> 2024 04 15 01 58 00.0090000  0 26                     
S33  42460702.146   223132587.619        -759.174          42.000  
G28  26549790.441   139520058.527        2518.024          35.000    26549788.295   108716925.384        1961.005          33.000  
G32  26051307.830   136900541.163       -1782.926          45.000    26051308.821   106675697.387       -1389.168          41.000  
R14  26512724.508   141327736.478       -3584.369          48.000    26512727.587   109921638.914       -2787.671          45.000  
R17  23164786.270   123959962.003       -3222.352          50.000    23164781.002    96413536.229       -2506.325          50.000  
R16  23202703.874   123944838.166        1302.129          52.000    23202699.619    96401454.202        1012.792          50.000  
G20  27963765.672   146950551.771        1308.205          35.000                                                                  
E11  26705250.702   140337416.764        1489.145          44.000    26705249.252   107531487.875        1141.089          48.000  
G06  26942758.865   141585145.027       -3203.784          41.000    26942756.761   110326319.143       -2496.750          40.000  
G29  24093402.855   126612066.010        1082.338          49.000    24093399.855    98659016.995         843.175          43.000  
S31  41507659.991   218124312.980        -758.363          44.000  
E03  28671536.202   150669975.484       -1752.313          45.000    28671540.089   115448365.774       -1342.680          47.000  
R15  23008158.611   122948847.161       -1659.688          53.000    23008154.955    95627052.966       -1290.833          50.000  
R18  22158012.923   118281065.252         807.253          52.000    22158011.122    91996674.263         627.862          49.000  
R19  24651837.526   131870966.499        3385.761          41.000    24651840.123   102565884.208        2633.189          47.000  
E31  30957233.175   162681311.090       -2529.703          38.000    30957237.785   124651998.081       -1938.201          43.000  
G11  25164587.953   132241269.066       -1298.314          44.000    25164583.840   103045335.417       -1011.748          47.000  
E24  27458779.119   144296977.654       -1609.766          48.000    27458777.054   110565276.331       -1233.423          49.000  
G24  24533085.815   128922313.797       -3460.446          47.000    24533085.004   100459010.329       -2696.511          45.000  
G12  24061473.155   126444200.319       -1315.570          47.000    24061468.571    98528075.417       -1025.090          48.000  
E05  27741150.958   145780677.850       -3394.412          42.000    27741162.994   111702085.115       -2600.822          49.000  
G25  23780808.087   124969216.359         235.942          48.000    23780805.695    97378680.993         183.688          44.000  
E10  27463952.068   144324526.151         199.653          48.000    27463951.763   110586576.225         152.992          49.000  
E25  26934470.950   141541899.075         108.721          47.000    26934472.711   108454335.657          83.331          52.000  
E12  28253552.484   148473785.459       -1102.405          40.000    28253551.503   113765845.454        -844.523          47.000  
E14  25515782.042   134086483.765       -5360.345          47.000    25515782.278   102741646.972       -4107.322          53.000  
> 2024 04 15 01 58 30.0090000  0 26                     
S33  42465032.874   223155345.786        -758.506          42.000  
G28  26535430.710   139444592.090        2513.379          36.000    26535424.445                        1958.203          29.000  
G32  26061529.286   136954250.716       -1798.240          46.000    26061529.379   106717548.912       -1401.237          41.000  
R14  26532912.787   141435360.891       -3591.003          47.000    26532917.385   110005346.591       -2792.969          44.000  
R17  23182909.217   124056940.511       -3243.196          51.000    23182903.249    96488963.987       -2522.517          50.000  
R16  23195405.279   123905851.042        1296.747          52.000    23195401.809    96371130.933        1008.576          50.000  
G20  27956300.613   146911323.689        1306.511          36.000                                                                  
E11  26696773.943   140292869.627        1480.108          44.000    26696772.159   107497354.463        1134.210          48.000  
G06  26961085.480   141681452.877       -3217.262          40.000    26961083.645   110401364.269       -2506.778          40.000  
G29  24087261.094   126579786.472        1069.170          49.000    24087257.059    98633864.170         833.297          43.000  
S31  41511986.875   218147050.248        -757.922          44.000  
E03  28681571.553   150722713.417       -1763.764          45.000    28681575.748   115488775.334       -1351.403          48.000  
R15  23017508.685   122998811.219       -1671.621          53.000    23017505.386    95665913.878       -1300.179          50.000  
R18  22153545.577   118257217.718         782.151          52.000    22153544.178    91978126.251         608.298          50.000  
R19  24632877.648   131769545.674        3375.386          42.000    24632880.027   102487002.063        2625.359          46.000  
E31  30971675.343   162757201.068       -2529.822          38.000    30971679.487   124710147.555       -1938.548          44.000  
G11  25172051.650   132280495.751       -1317.153          45.000    25172047.958   103075901.721       -1026.385          46.000  
E24  27467972.656   144345291.786       -1611.548          48.000    27467970.951   110602296.273       -1234.843          49.000  
G24  24552873.329   129026302.120       -3472.675          46.000    24552873.323   100540040.140       -2706.089          44.000  
G12  24068994.115   126483726.319       -1319.838          46.000    24068989.652    98558874.922       -1028.536          48.000  
E05  27760533.458   145882531.952       -3396.287          42.000    27760545.472   111780128.599       -2602.277          49.000  
G25  23779468.868   124962179.921         232.780          48.000    23779466.779    97373198.088         181.271          45.000  
E10  27462849.349   144318732.854         186.282          48.000    27462849.118   110582137.266         142.730          49.000  
E25  26933851.848   141538647.122         107.800          46.000    26933853.912   108451843.936          82.521          52.000  
E12  28259883.849   148507056.468       -1116.257          40.000    28259882.915   113791338.875        -855.283          47.000  
E14  25546383.945   134247294.334       -5360.592          48.000    25546383.300   102864865.470       -4107.477          53.000  
> 2024 04 15 01 59 00.0090000  0 26                     
S33  42469361.352   223178092.818        -758.220          42.000  
G28  26521099.270   139369278.724        2507.635          34.000    26521093.066                        1954.309          31.000  
G32  26071837.989   137008424.595       -1813.843          46.000    26071838.507   106759762.244       -1413.483          41.000  
R14  26553143.366   141543190.260       -3597.955          49.000    26553145.770   110089213.589       -2798.462          45.000  
R17  23201149.209   124154545.491       -3264.168          51.000    23201143.040    96564878.996       -2538.814          50.000  
R16  23188138.579   123867033.391        1290.837          51.000    23188135.284    96340939.465        1003.947          50.000  
G20  27948850.357   146872171.492        1303.474          34.000                                                                  
E11  26688348.117   140248590.360        1471.115          45.000    26688345.864   107463426.300        1127.217          47.000  
G06  26979489.062   141778165.853       -3230.720          40.000    26979486.904   110476725.106       -2517.371          39.000  
G29  24081194.350   126547906.835        1055.719          49.000    24081190.603    98609023.002         822.423          43.000  
S31  41516311.138   218169775.248        -757.655          44.000  
E03  28691673.516   150775798.036       -1775.425          45.000    28691678.005   115529450.507       -1360.465          49.000  
R15  23026926.768   123049138.828       -1683.944          52.000    23026923.206    95705057.581       -1309.795          50.000  
R18  22149220.558   118234129.296         756.691          52.000    22149218.103    91960168.653         588.497          49.000  
R19  24613975.089   131668435.181        3364.667          41.000    24613976.757   102408361.197        2617.019          45.000  
E31  30986121.543   162833112.165       -2530.907          39.000    30986125.014   124768313.207       -1939.463          44.000  
G11  25179624.865   132320292.264       -1336.244          44.000    25179620.911   103106912.030       -1041.403          46.000  
E24  27477178.565   144393666.247       -1613.747          48.000    27477176.145   110639362.423       -1236.489          49.000  
G24  24572732.030   129130661.604       -3485.084          46.000    24572732.187   100621359.151       -2715.640          44.000  
G12  24076540.002   126523384.968       -1324.445          46.000    24076536.483    98589777.783       -1032.035          48.000  
E05  27779926.371   145984439.760       -3398.092          41.000    27779938.646   111858213.165       -2603.657          49.000  
G25  23778150.774   124955252.338         228.953          48.000    23778148.834    97367799.985         178.323          45.000  
E10  27461823.234   144313346.261         172.579          47.000    27461823.916   110578009.940         132.144          49.000  
E25  26933239.322   141535429.295         106.413          46.000    26933241.489   108449378.360          81.539          52.000  
E12  28266296.572   148540754.324       -1130.737          40.000    28266295.551   113817159.352        -866.274          47.000  
E14  25576987.389   134408117.545       -5361.061          48.000    25576986.712   102988093.655       -4107.915          53.000  
> 2024 04 15 01 59 30.0090000  0 27                     
S33  42473688.033   223200829.518        -757.997          42.000  
G28  26506797.170   139294122.967        2502.899          33.000    26506794.224                        1950.275          30.000  
G32  26082235.930   137063062.995       -1829.218          46.000    26082235.776   106802337.545       -1425.293          42.000  
R14  26573410.026   141651226.074       -3604.901          49.000    26573412.820   110173241.199       -2803.949          43.000  
R17  23219505.499   124252775.489       -3284.913          50.000    23219499.736    96641280.151       -2554.945          50.000  
R16  23180903.854   123828390.131        1284.918          51.000    23180901.289    96310883.614         999.377          50.000  
G20  27941415.176   146833100.372        1300.581          38.000                                                                  
E11  26679972.567   140204583.095        1462.184          44.000    26679971.617   107429706.581        1120.329          48.000  
G06  26997970.052   141875283.822       -3244.004          40.000    26997967.488   110552401.579       -2527.966          39.000  
G29  24075204.471   126516429.903        1042.279          50.000    24075200.545    98584495.591         812.122          43.000  
S31  41520633.721   218192491.380        -757.376          44.000  
E03  28701842.026   150829230.252       -1787.106          46.000    28701845.881   115570392.028       -1369.353          49.000  
R15  23036413.333   123099833.257       -1696.180          53.000    23036409.590    95744486.579       -1319.195          49.000  
R18  22145037.674   118211803.795         731.257          51.000    22145035.647    91942804.433         568.802          49.000  
R19  24595132.614   131567641.406        3354.224          41.000    24595133.581   102329966.688        2608.920          45.000  
E31  31000571.998   162909046.872       -2531.792          41.000    31000574.595   124826496.988       -1939.832          44.000  
G11  25187306.521   132360660.456       -1355.216          45.000    25187302.156   103138367.805       -1056.176          45.000  
E24  27486395.122   144442103.547       -1615.822          48.000    27486393.511   110676476.736       -1237.969          49.000  
G24  24592661.587   129235392.592       -3497.424          47.000    24592661.610   100702967.636       -2725.030          44.000  
G12  24084111.960   126563178.674       -1328.956          45.000    24084109.005    98620785.882       -1035.455          48.000  
E05  27799330.760   146086401.357       -3399.833          43.000    27799341.424   111936338.974       -2605.077          48.000  
G25  23776853.246   124948436.434         225.140          48.000    23776851.605    97362488.919         175.518          45.000  
E10  27460876.398   144308369.478         158.910          48.000    27460877.330   110574196.631         121.733          49.000  
E25  26932634.190   141532247.948         105.227          47.000    26932635.959   108446940.746          80.665          52.000  
E12  28272791.839   148574880.996       -1144.962          41.000    28272789.564   113843308.393        -877.250          47.000  
E14  25607592.630   134568952.045       -5361.495          47.000    25607592.447   103111330.502       -4108.211          53.000  
R07                                                                  26091304.369                3      -1051.022          13.000  
