     3.00           OBSERVATION DATA    M: Mixed            RINEX VERSION / TYPE
CONVBIN 2.4.3                           20240415 002942 UTC PGM / RUN BY / DATE 
format: u-blox UBX                                          COMMENT             
log: /home/regis/git/gnsspwv/obsdata/VERT00CHL/2024-04-15/VECOMMENT             
{self.marker}                                               MARKER NAME         
                                                            MARKER NUMBER       
GEODETIC                                                    MARKER TYPE         
{self.observer}     {self.institution}                      OBSERVER / AGENCY   
UNKNOWN             UBLOX-ZED-F9P                           REC # / TYPE / VERS 
UNKNOWN             TWIVSP6037L                             ANT # / TYPE        
  1713381.0000 -5047934.0000 -3490983.0000                  APPROX POSITION XYZ 
        0.0000        0.0000        0.0000                  ANTENNA: DELTA H/E/N
G    8 C1C L1C D1C S1C C2L L2L D2L S2L                      SYS / # / OBS TYPES 
R    8 C1C L1C D1C S1C C2C L2C D2C S2C                      SYS / # / OBS TYPES 
E    8 C1C L1C D1C S1C C7Q L7Q D7Q S7Q                      SYS / # / OBS TYPES 
S    4 C1C L1C D1C S1C                                      SYS / # / OBS TYPES 
  2024    04    15    00    15   00.0060000     GPS         TIME OF FIRST OBS   
  2024    04    15    00    29   30.0060000     GPS         TIME OF LAST OBS    
                                                            END OF HEADER       
> 2024 04 15 00 15 00.0060000  0 28                     
S33  41563019.759   218415221.4221       -768.148          42.000  
E33  29080578.349   152819467.0501       -733.007          39.000    29080577.258   117095482.8021       -561.615          44.000  
G13  26041150.225   136846811.0371      -4576.551          38.000                                                                  
G15  24522262.664   128865243.7361      -3763.022          48.000    24522269.094   100414476.1291      -2932.163          43.000  
G32  26104583.589   137180468.8191       1778.519          32.000    26104573.276                        1385.947          27.000  
R14  23181869.565   123572468.0631      -2272.429          48.000    23181867.697    96112002.7351      -1767.385          50.000  
R17  22500936.593   120407533.7281       2011.926          51.000    22500933.664    93650527.1501       1564.868          50.000  
R06  25083480.915                1       1139.715          29.000                                                                  
R05  23034823.998   123134351.1681      -2840.670          50.000    23034823.417    95771170.9751      -2209.363          48.000  
R04  24788497.714   132740918.7561      -4903.818          47.000    24788516.106   103242864.9301      -3813.995          41.000  
G19  24930681.424   131011791.5511      -3863.999          48.000                                                                  
G06  25243683.266   132656633.9091        366.824          41.000    25243682.918   103368855.0661        286.090          41.000  
S31  40610571.684   213410059.7001       -767.800          44.000  
E03  28210922.164   148249457.8281        934.626          36.000    28210927.181   113593687.1871        715.955          43.000  
R15  22201319.459   118637338.7021        -32.186          51.000    22201315.924    92273656.5891        -25.081          49.000  
R24  23076064.474   123398418.5691      -1950.976          48.000    23076060.425    95976568.7611      -1517.490          50.000  
E31  28007884.751   147182461.4801      -2548.100          32.000    28007888.600   112776208.7061      -1952.517          44.000  
E09  27853295.460   146369958.3421      -3676.518          46.000    27853304.293   112153594.7141      -2817.113          47.000  
G11  25697450.631   135041385.9321       1717.975          45.000    25697450.743   105227220.9681       1338.422          44.000  
E24  25796464.947   135561461.3381      -1204.665          46.000    25796465.230   103871827.5951       -923.012          50.000  
G24  22292239.546   117146613.6841       -332.448          48.000    22292237.453    91283146.1111       -259.126          46.000  
G12  23079617.616   121284497.4731       -288.737          49.000    23079612.574    94507523.8991       -224.958          45.000  
E05  24561111.102   129069572.8511      -1613.311          47.000    24561113.376    98897504.5751      -1236.264          50.000  
G25  24466522.398   128572631.0191        941.477          44.000    24466522.840   100186526.3391        733.572          42.000  
E10  28962083.358   152197095.8791       1897.688          43.000    28962095.654   116618759.1721       1454.170          45.000  
E25  27264844.645   143277983.6531        520.240          45.000    27264848.219   109784572.2931        398.496          50.000  
E12  28580857.150   150193722.0891       1376.158          40.000    28580858.400   115083704.4481       1054.347          45.000  
E14  20620618.891   108362206.9551      -1704.148          50.000    20620620.738    83030831.2351      -1305.808          54.000  
> 2024 04 15 00 15 30.0060000  0 29                     
S33  41567403.121   218438256.162        -767.709          43.000  
E33  29084799.702   152841661.692        -746.539          37.000    29084800.785   117112489.116        -572.159          44.000  
G13  26067278.328   136984122.195       -4577.366          35.000                                                                  
G15  24543763.454   128978224.973       -3768.885          48.000    24543769.978   100502512.546       -2937.001          43.000  
G32  26094471.256   137127315.853        1764.801          31.000    26094442.987                3       1375.660          25.000  
R14  23194667.867   123640700.751       -2276.427          47.000    23194667.055    96165072.574       -1770.553          48.000  
R17  22489711.524   120347466.169        1992.676          52.000    22489708.490    93603808.082        1549.896          50.000  
R06  25077130.848                        1118.621          27.000                                                                  
R05  23050824.134   123219881.824       -2861.328          49.000    23050824.188    95837694.736       -2225.436          48.000  
R04  24815974.364   132888051.511       -4904.927          47.000    24815992.216   103357301.653       -3814.972          41.000  
G19  24952764.346   131127838.116       -3872.453          48.000                                                                  
G06  25241631.071   132645850.900         351.792          40.000    25241629.643   103360452.762         274.433          40.000  
S31  40614952.117   213433080.622        -767.184          44.000  
E03  28205618.826   148221592.689         923.706          37.000    28205624.494   113572335.981         707.850          44.000  
R15  22201510.108   118638362.910         -36.140          51.000    22201506.846    92274453.205         -28.027          48.000  
R18  25255857.673                3       3636.083          28.000    25255883.196   104858101.6943       2828.515          32.000  
R24  23087081.023   123457330.815       -1976.420          48.000    23087077.640    96022389.372       -1537.181          50.000  
E31  28022432.762                       -2547.500          30.000    28022432.939   112834774.117       -1951.537          44.000  
E09  27874295.357   146480312.288       -3680.160          46.000    27874304.733   112238150.982       -2819.893          47.000  
G11  25687658.582   134989937.965        1712.182          40.000    25687658.268   105187132.075        1333.801          41.000  
E24  25803349.217   135597635.528       -1206.867          47.000    25803348.371   103899545.513        -924.734          50.000  
G24  22294174.966   117156783.911        -345.595          48.000    22294172.507    91291070.947        -269.197          46.000  
G12  23081282.942   121293252.013        -294.948          49.000    23081278.932    94514345.649        -229.892          45.000  
E05  24570359.775   129118174.550       -1626.632          48.000    24570362.128    98934744.798       -1246.332          50.000  
G25  24461158.351   128544441.863         937.830          46.000    24461158.840   100164560.867         730.696          44.000  
E10  28951251.089   152140173.561        1897.124          43.000    28951262.975   116575144.410        1453.571          46.000  
E25  27261882.003   143262425.245         517.309          44.000    27261887.134   109772651.021         396.345          50.000  
E12  28573019.259   150152537.325        1369.770          41.000    28573020.797   115052147.469        1049.452          44.000  
E14  20630447.961   108413858.170       -1739.064          51.000    20630449.403    83070408.200       -1332.557          54.000  
> 2024 04 15 00 16 00.0060000  0 29                     
S33  41571785.609   218461286.318        -767.912          43.000  
E33  29089101.453   152864267.431        -760.490          36.000    29089102.444   117129810.393        -582.836          44.000  
G13  26093409.770   137121457.801       -4578.397          34.000                                                                  
G15  24565298.414   129091386.207       -3775.400          49.000    24565305.157   100590689.187       -2942.116          43.000  
R14  23207493.511   123709062.025       -2281.246          48.000    23207492.328    96218242.469       -1774.230          50.000  
R17  22478595.618   120287987.225        1972.440          51.000    22478593.073    93557546.811        1534.111          50.000  
R06  25070899.049                        1097.604          30.000                                                                  
R05  23066941.954   123306036.989       -2882.477          50.000    23066941.258    95904704.265       -2241.995          48.000  
R04  24843457.380   133035225.209       -4906.729          44.000    24843475.257   103471770.235       -3816.596          41.000  
G19  24974896.179   131244140.830       -3881.340          48.000                                                                  
G06  25239665.651   132635525.113         336.174          38.000    25239664.802   103352406.810         261.906          40.000  
S31  40619331.765   213456095.102        -767.413          44.000  
E03  28200381.023   148194056.305         912.220          39.000    28200384.286   113551236.718         698.927          44.000  
R15  22201724.989   118639513.820         -40.811          50.000    22201722.835    92275348.384         -31.758          49.000  
R18  25235433.027   134708213.2361       3636.099          32.000    25235454.561   104773253.1171       2828.283          35.000  
R24  23098243.077   123517011.994       -2002.562          50.000    23098238.438    96068808.067       -1557.496          49.000  
E09  27895317.283   146590783.296       -3684.720          45.000    27895327.650   112322796.931       -2823.246          47.000  
G11  25677900.620   134938666.559        1705.774          43.000    25677903.731   105147180.811        1329.327          43.000  
E24  25810248.001   135633888.192       -1209.996          47.000    25810247.054   103927323.570        -927.270          50.000  
G24  22296186.014   117167354.500        -359.156          48.000    22296184.044    91299307.775        -279.908          46.000  
G12  23082985.024   121302199.614        -301.916          49.000    23082982.113    94521317.841        -234.985          46.000  
E05  24579684.150   129167176.536       -1640.316          47.000    24579686.880    98972291.751       -1256.859          50.000  
G25  24455817.194   128516372.081         933.267          46.000    24455817.348   100142688.395         727.293          44.000  
E10  28940425.252   152083285.392        1895.249          44.000    28940436.418   116531555.774        1452.197          46.000  
E25  27258940.051   143246961.560         513.601          44.000    27258944.573   109760802.310         393.582          50.000  
E12  28565218.952   150111551.154        1362.428          41.000    28565221.608   115020742.614        1044.003          44.000  
E14  20640478.024   108466567.286       -1774.960          51.000    20640479.379    83110795.765       -1359.982          54.000  
E31                                                                  28036973.367   112893322.685       -1951.617          43.000  
G32                                                                  26084417.966                        1364.750          26.000  
> 2024 04 15 00 16 30.0060000  0 29                     
S33  41576168.736   218484320.671        -768.053          43.000  
E33  29093482.193   152887293.804        -774.947          35.000    29093484.326   117147454.008        -593.586          45.000  
G13  26119548.114                       -4579.547          30.000                                                                  
G15  24586868.040   129204733.875       -3781.434          49.000    24586875.091   100679011.085       -2946.628          43.000  
R14  23220342.160   123777561.779       -2285.767          47.000    23220343.048    96271520.004       -1777.781          49.000  
R17  22467592.504   120229110.648        1952.385          50.000    22467591.393    93511754.067        1518.548          51.000  
R06  25064792.446   133750541.2461       1073.470          32.000                                                                  
R05  23083177.309   123392822.546       -2903.428          50.000    23083177.063    95972204.054       -2258.146          49.000  
R04  24870950.385   133182444.636       -4908.193          44.000    24870967.604   103586274.566       -3817.534          42.000  
G19  24997078.245   131360705.834       -3889.844          48.000                                                                  
G06  25237789.897   132625668.026         320.783          39.000    25237787.578   103344726.035         249.833          38.000  
S31  40623712.164   213479114.693        -767.515          44.000  
E03  28195206.436   148166859.358         900.830          40.000    28195208.615   113530397.503         690.270          44.000  
R15  22201966.037   118640801.029         -45.233          51.000    22201964.222    92276349.544         -35.114          49.000  
R18  25215001.802   134599122.539        3636.337          33.000    25215022.457   104688403.266        2828.088          37.000  
R24  23109547.816   123577470.215       -2028.247          47.000    23109544.764    96115831.153       -1577.562          50.000  
E31  28051512.516   147411650.2111      -2546.647          32.000    28051511.920   112951861.343       -1951.226          44.000  
E09  27916363.538   146701378.825       -3688.582          44.000    27916373.697   112407538.285       -2826.300          47.000  
G11  25668180.813   134887584.314        1699.579          44.000    25668182.369   105107376.901        1324.078          43.000  
E24  25817163.202   135670228.088       -1212.701          47.000    25817162.289   103955168.436        -929.291          50.000  
G24  22298275.975   117178336.331        -372.931          47.000    22298273.782    91307865.027        -290.631          46.000  
G12  23084726.493   121311348.681        -308.428          49.000    23084723.508    94528446.998        -240.205          46.000  
E05  24589087.025   129216587.422       -1653.859          47.000    24589089.548    99010152.017       -1267.219          51.000  
G25  24450499.826   128488430.533         929.024          45.000    24450499.628   100120915.852         723.954          43.000  
E10  28929607.289   152026442.813        1893.854          43.000    28929618.762   116488002.032        1451.209          46.000  
E25  27256017.099   143231601.359         510.212          45.000    27256021.241   109749032.897         390.975          50.000  
E12  28557460.433   150070774.896        1355.730          42.000    28557461.853   114989498.635        1038.824          44.000  
E14  20650710.232   108520340.007       -1810.134          50.000    20650711.710    83151998.316       -1386.952          53.000  
G32                                                                  26074451.776                1       1353.950          27.000  
> 2024 04 15 00 17 00.0060000  0 29                     
S33  41580552.201   218507356.352        -768.117          43.000  
E33  29097945.826   152910739.064        -787.969          36.000    29097946.398   117165418.618        -604.144          46.000  
G13  26145692.019   137396218.477       -4580.175          28.000                                                                  
G15  24608472.687   129318262.985       -3787.154          48.000    24608479.416   100767474.341       -2951.000          42.000  
R14  23233218.873   123846198.681       -2290.087          48.000    23233218.422    96324904.291       -1781.119          49.000  
R17  22456704.067   120170838.507        1932.391          51.000    22456701.294    93466431.422        1502.928          51.000  
R06  25058809.836   133718642.324        1052.061          33.000                                                                  
R05  23099528.098   123480232.638       -2923.979          49.000    23099528.077    96040189.591       -2274.143          48.000  
R04  24898449.887   133329703.509       -4909.113          45.000    24898468.943   103700809.555       -3818.052          43.000  
G19  25019308.884   131477528.542       -3898.207          48.000                                                                  
G06  25236003.429   132616279.721         304.990          39.000    25236001.136   103337410.464         237.637          38.000  
S31  40628092.639   213502135.424        -767.331          44.000  
E03  28190096.176   148140001.064         889.780          41.000    28190097.499   113509817.807         681.636          44.000  
R15  22202232.342   118642223.193         -49.512          51.000    22202230.156    92277455.713         -38.612          49.000  
R18  25194567.791   134490031.244        3636.357          38.000    25194589.186   104603553.019        2828.368          41.000  
R24  23120998.287   123638701.920       -2053.824          48.000    23120995.880    96163455.794       -1597.391          50.000  
E31  28066051.455   147488033.056       -2545.452          33.000    28066046.097   113010388.458       -1950.587          42.000  
E09  27937432.593   146812094.988       -3692.432          45.000    27937443.015   112492372.057       -2829.273          47.000  
G11  25658496.770   134836692.296        1693.439          46.000    25658496.487   105067721.102        1319.464          43.000  
E24  25824094.879   135706652.544       -1215.478          46.000    25824094.000   103983078.083        -931.349          50.000  
G24  22300444.181   117189728.831        -386.568          47.000    22300441.376    91316742.264        -301.049          46.000  
G12  23086506.140   121320696.577        -314.957          50.000    23086501.556    94535731.125        -245.424          46.000  
E05  24598566.269   129266404.434       -1667.206          47.000    24598569.751    99048323.467       -1277.530          51.000  
G25  24445206.438   128460614.688         925.173          44.000    24445206.060   100099241.284         720.965          43.000  
E10  28918798.497   151969645.972        1892.543          43.000    28918809.880   116444483.330        1450.071          47.000  
E25  27253112.872   143216342.048         506.936          45.000    27253117.430   109737340.806         388.489          50.000  
E12  28549739.952   150030208.623        1348.651          41.000    28549742.422   114958415.569        1033.485          45.000  
E14  20661144.383   108575170.732       -1845.314          49.000    20661145.653    83194011.533       -1413.873          53.000  
G32                                                                  26064595.239                        1343.457          30.000  
> 2024 04 15 00 17 30.0060000  0 29                     
S33  41584937.432   218530400.926        -768.108          43.000  
E33  29102487.610   152934608.969        -802.889          34.000    29102488.008   117183708.539        -614.858          45.000  
G15  24630112.425   129431976.008       -3793.482          48.000    24630119.247   100856080.883       -2956.140          42.000  
R14  23246121.796   123914978.569       -2294.929          47.000    23246120.777    96378399.764       -1785.066          47.000  
R17  22445927.369   120113180.054        1911.741          49.000    22445926.639    93421586.071        1486.869          51.000  
R06  25052956.531   133687413.585        1030.055          35.000                                                                  
R05  23115997.060   123568269.078       -2944.998          49.000    23115997.217    96108662.268       -2290.590          48.000  
R16  24936952.081                3       1559.648          12.000    24937313.911                3       1467.672          14.000  
R04  24925956.141   133477003.000       -4910.630          45.000    24925974.780   103815376.223       -3819.274          43.000  
G19  25041588.825   131594611.460       -3907.047          47.000                                                                  
G06  25234306.959   132607367.526         288.954          38.000    25234306.295   103330465.943         225.125          39.000  
S31  40632474.821   213525164.049        -767.600          44.000  
E03  28185051.521   148113488.159         878.266          42.000    28185052.460   113489502.719         672.980          44.000  
R15  22202524.664   118643786.050         -54.458          51.000    22202522.648    92278671.304         -42.341          50.000  
R18  25174134.940   134380948.813        3636.115          42.000    25174156.194   104518709.824        2828.001          43.000  
R24  23132593.680   123700710.897       -2079.950          47.000    23132591.643    96211684.986       -1617.732          49.000  
E31  28080577.387   147564406.129       -2545.237          32.000    28080580.667   113068908.042       -1950.326          44.000  
E09  27958525.929   146922935.196       -3696.552          46.000    27958536.269   112577300.873       -2832.443          48.000  
G11  25648849.754   134785998.886        1686.511          44.000    25648851.780   105028220.139        1314.117          46.000  
E24  25831043.709   135743166.389       -1218.474          47.000    25831042.505   104011056.221        -933.652          50.000  
G24  22302692.058   117201538.825        -400.563          48.000    22302688.519    91325944.859        -312.258          45.000  
G12  23088323.238   121330248.116        -321.680          49.000    23088318.736    94543173.907        -250.791          45.000  
E05  24608124.041   129316632.221       -1681.114          46.000    24608128.039    99086809.647       -1288.077          52.000  
G25  24439938.406   128432929.603         920.712          46.000    24439938.105   100077668.586         717.443          44.000  
E10  28907999.326   151912902.375        1890.579          42.000    28908011.074   116401005.395        1448.662          47.000  
E25  27250230.443   143201188.539         503.634          46.000    27250233.759   109725729.776         385.718          49.000  
E12  28542059.448   149989859.745        1341.370          38.000    28542063.563   114927499.064        1027.846          44.000  
E14  20671780.714   108631061.096       -1880.619          50.000    20671781.461    83236836.678       -1441.002          54.000  
G32                                                                  26054781.829                        1332.507          29.000  
> 2024 04 15 00 18 00.0060000  0 29                     
S33  41589325.015   218553457.192        -768.640          42.000  
E33  29107111.739   152958909.426        -817.751          34.000    29107112.484   117202328.417        -626.190          45.000  
G15  24651786.603   129545875.708       -3799.691          47.000    24651794.226   100944832.859       -2960.542          42.000  
R14  23259053.788   123983908.402       -2300.144          48.000    23259051.791    96432011.807       -1788.987          48.000  
R17  22435270.707   120056145.314        1890.948          51.000    22435268.059    93377225.857        1470.610          51.000  
R06  25047231.635   133656862.736        1007.503          35.000                                                                  
R05  23132584.277   123656933.737       -2965.879          50.000    23132583.828    96177623.569       -2306.724          49.000  
R16  24927038.269                3       1439.481          11.000                                                                  
R04  24953471.212   133624344.441       -4911.933          46.000    24953488.570   103929975.502       -3820.549          42.000  
G19  25063917.879   131711957.427       -3915.785          46.000                                                                  
G06  25232703.231   132598939.225         272.819          37.000    25232702.555   103323898.512         212.745          38.000  
S31  40636859.502   213548205.411        -768.074          44.000  
E03  28180072.276   148087327.589         866.260          42.000    28180074.257   113469457.619         663.743          44.000  
R15  22202844.757   118645495.889         -59.326          51.000    22202843.009    92280001.203         -46.155          50.000  
R18  25153705.675   134271884.981        3635.192          45.000    25153725.625   104433881.216        2827.311          45.000  
R24  23144336.331   123763501.334       -2105.946          48.000    23144333.962    96260522.008       -1637.988          48.000  
E31  28095110.895   147640774.865       -2545.151          33.000    28095112.913   113127424.285       -1950.369          43.000  
E09  27979642.485   147033903.290       -3700.930          46.000    27979653.739   112662327.653       -2835.854          48.000  
G11  25639240.152   134735512.869        1679.596          40.000    25639243.614   104988880.808        1308.655          46.000  
E24  25838009.253   135779774.640       -1221.685          46.000    25838008.611   104039106.711        -936.131          50.000  
G24  22305019.940   117213773.503        -414.839          47.000    22305017.024    91335478.345        -323.003          45.000  
G12  23090180.124   121340007.594        -328.666          49.000    23090175.985    94550778.730        -256.223          45.000  
E05  24617761.866   129367275.649       -1694.941          47.000    24617765.170    99125614.306       -1298.685          52.000  
G25  24434696.198   128405380.499         916.326          46.000    24434695.736   100056201.850         714.146          44.000  
E10  28897213.201   151856219.862        1888.500          43.000    28897224.289   116357574.233        1447.108          47.000  
E25  27247368.899   143186145.992         499.722          46.000    27247371.137   109714203.751         382.888          49.000  
E12  28534425.149   149949736.011        1333.765          40.000    28534428.032   114896755.084        1022.023          44.000  
E14  20682618.362   108688012.990       -1915.902          50.000    20682619.193    83280475.217       -1468.003          54.000  
G32                                                                  26045061.028                        1321.370          28.000  
> 2024 04 15 00 18 30.0060000  0 29                     
S33  41593715.053   218576529.171        -769.311          42.000  
E33  29111820.491   152983642.652        -831.449          37.000    29111819.093   117221279.910        -637.229          46.000  
G15  24673497.337   129659961.271       -3806.051          46.000    24673505.611   101033729.624       -2965.580          43.000  
R14  23272014.814   124052990.210       -2305.269          48.000    23272011.958    96485742.097       -1792.998          48.000  
R17  22424730.068   119999740.063        1869.554          50.000    22424726.996    93333355.246        1454.063          51.000  
R06  25041633.585                         984.471          31.000                                                                  
R05  23149288.148   123746224.785       -2986.797          50.000    23149287.925    96247072.053       -2323.092          49.000  
R16  24919515.004                3       1557.769          25.000                                                                  
R04  24980993.780   133771725.657       -4913.276          46.000    24981011.922   104044605.773       -3821.668          43.000  
G19  25086298.256   131829565.876       -3924.672          46.000                                                                  
G06  25231192.796   132590998.712         256.542          40.000    25231191.411   103317711.218         199.802          38.000  
S31  40641247.050   213571261.597        -768.918          44.000  
E03  28175161.231   148061522.572         854.271          41.000    28175163.618   113449684.944         654.575          44.000  
R15  22203193.168   118647355.275         -64.460          52.000    22203190.732    92281447.427         -50.295          50.000  
R18  25133281.244   134162845.760        3634.224          44.000    25133299.909   104349071.886        2826.542          45.000  
R24  23156225.496   123827073.688       -2132.003          48.000    23156221.212    96309967.209       -1658.212          48.000  
E31  28109640.517                       -2545.550          31.000    28109643.974   113185938.670       -1950.464          42.000  
E09  28000784.175   147144999.271       -3705.414          46.000    28000795.568   112747452.402       -2839.072          48.000  
G11  25629672.848   134685239.388        1672.131          42.000    25629675.790   104949707.040        1302.991          44.000  
E24  25844993.567   135816478.716       -1225.108          46.000    25844993.101   104067230.614        -938.700          50.000  
G24  22307429.535   117226436.239        -429.360          47.000    22307427.233    91345345.420        -334.492          46.000  
G12  23092076.832   121349976.420        -335.857          48.000    23092073.104    94558546.681        -261.694          45.000  
E05  24627478.214   129418335.866       -1709.014          47.000    24627481.514    99164738.326       -1309.562          51.000  
G25  24429479.577   128377968.872         911.366          46.000    24429479.763   100034842.254         710.074          44.000  
E10  28886438.810   151799602.521        1886.161          43.000    28886449.777   116314192.967        1445.238          47.000  
E25  27244526.775   143171215.792         495.766          46.000    27244529.663   109702763.818         379.896          49.000  
E12  28526833.537   149909841.517        1325.734          40.000    28526835.942   114866186.702        1015.983          44.000  
E14  20693656.969   108746024.566       -1951.457          50.000    20693658.368    83324925.719       -1495.249          54.000  
G32                                                                  26035421.599                        1309.526          28.000  
> 2024 04 15 00 19 00.0060000  0 28                     
S33  41598106.537   218599607.975        -769.190          42.000  
E33  29116609.120   153008801.544        -845.710          38.000    29116606.239   117240557.526        -647.796          46.000  
G15  24695241.402   129774222.047       -3811.330          47.000    24695250.111   101122762.861       -2969.854          43.000  
R14  23284998.924   124122217.207       -2309.724          46.000    23284998.147    96539585.323       -1796.450          47.000  
R17  22414307.215   119943961.017        1849.085          51.000    22414301.821    93289971.682        1438.178          49.000  
R06  25036160.262                         961.182          31.000                                                                  
R05  23166107.337   123836131.106       -3006.877          50.000    23166106.283    96316999.074       -2338.662          49.000  
R04  25008520.213   133919134.560       -4913.699          45.000    25008539.721   104159257.571       -3821.769          43.000  
G19  25108725.986   131947426.681       -3932.732          46.000                                                                  
G06  25229773.657   132583540.702         240.581          40.000    25229772.924   103311899.846         187.955          39.000  
S31  40645636.179   213594326.006        -768.793          44.000  
E03  28170317.439   148036067.000         842.764          42.000    28170319.516   113430180.033         645.829          45.000  
R15  22203567.902   118649356.985         -68.969          51.000    22203564.897    92283004.325         -53.521          50.000  
R18  25112858.937   134053827.591        3633.573          45.000    25112877.806   104264279.021        2826.345          42.000  
R24  23168258.410   123891418.908       -2157.549          49.000    23168253.229    96360013.502       -1678.082          47.000  
E31  28124172.395   147793497.414       -2544.913          34.000    28124174.597   113244445.390       -1949.887          43.000  
E09  28021947.437   147256213.877       -3708.988          45.000    28021959.751   112832668.050       -2841.879          48.000  
G11  25620148.329   134635174.147        1665.552          45.000    25620149.391   104910695.496        1297.791          45.000  
E24  25851995.046   135853270.627       -1227.622          47.000    25851994.402   104095421.828        -940.630          50.000  
G24  22309918.525   117239521.095        -442.993          47.000    22309917.348    91355541.424        -345.233          45.000  
G12  23094012.592   121360146.569        -342.090          49.000    23094008.119    94566471.493        -266.708          45.000  
E05  24637272.827   129469804.695       -1722.409          47.000    24637275.641    99204175.447       -1319.675          51.000  
G25  24424287.518   128350686.929         907.423          46.000    24424288.176   100013583.673         707.208          44.000  
E10  28875675.343   151743045.154        1884.316          42.000    28875686.348   116270857.581        1443.999          47.000  
E25  27241705.184   143156390.036         492.691          45.000    27241708.373   109691403.905         377.497          49.000  
E12  28519285.726   149870170.829        1318.935          41.000    28519287.827   114835789.808        1010.498          45.000  
E14  20704895.792   108805084.579       -1985.873          50.000    20704897.032    83370179.559       -1521.648          54.000  
G32                                                                  26025867.277                        1299.067          29.000  
> 2024 04 15 00 19 30.0060000  0 29                     
S33  41602499.157   218622691.629        -769.845          42.000  
E33  29121475.732   153034383.386        -860.127          37.000    29121474.891   117260159.189        -659.008          46.000  
G15  24717017.803   129888652.291       -3817.490          47.000    24717026.844   101211928.151       -2974.585          44.000  
R14  23298011.722   124191586.751       -2314.960          45.000    23298012.850    96593539.397       -1800.446          49.000  
R17  22404000.722   119888809.065        1827.660          51.000    22403995.017    93247075.828        1421.600          50.000  
R06  25030818.176                         938.837          27.000                                                                  
R05  23183039.731   123926645.589       -3027.456          50.000    23183039.985    96387399.054       -2354.612          50.000  
R16  25202823.069                3       1420.635          13.000    25198325.004                3       1443.771          12.000  
R04  25036051.084   134066563.910       -4914.638          46.000    25036069.989   104273925.411       -3822.819          43.000  
G19  25131201.511   132065533.880       -3941.329          43.000                                                                  
G06  25228444.582   132576564.177         224.366          38.000    25228446.583   103306463.735         174.934          41.000  
S31  40650025.862   213617394.269        -768.994          44.000  
E03  28165539.404   148010959.145         830.942          42.000    28165541.457   113410941.581         636.568          45.000  
R15  22203968.894   118651498.832         -73.871          52.000    22203965.412    92284670.251         -57.477          49.000  
R18  25092441.238   133944831.580        3632.710          43.000    25092460.178   104179503.512        2825.331          43.000  
R24  23180434.186   123956531.857       -2183.350          49.000    23180429.975    96410656.925       -1698.260          48.000  
E31  28138698.834   147869840.516       -2544.704          34.000    28138700.789   113302942.078       -1949.991          41.000  
E09  28043133.123   147367542.239       -3712.994          46.000    28043145.375   112917970.830       -2844.979          47.000  
G11  25610661.381   134585317.285        1658.313          46.000    25610661.242   104871846.270        1292.200          45.000  
E24  25859012.696   135890146.842       -1230.880          47.000    25859011.581   104123677.645        -943.142          50.000  
G24  22312488.503   117253026.558        -457.466          47.000    22312487.042    91366065.155        -356.439          45.000  
G12  23095985.917   121370514.339        -349.060          50.000    23095981.124    94574550.300        -271.816          45.000  
E05  24647143.933   129521678.312       -1735.962          47.000    24647146.993    99243922.752       -1330.293          51.000  
G25  24419119.476   128323531.241         902.859          45.000    24419120.734    99992423.511         703.414          44.000  
E10  28864923.972   151686546.887        1881.965          43.000    28864934.825   116227567.487        1442.081          48.000  
E25  27238902.771   143141665.252         488.967          45.000    27238906.354   109680121.369         374.600          49.000  
E12  28511778.993   149830723.046        1311.164          41.000    28511780.771   114805563.744        1004.557          45.000  
E14  20716333.237   108865186.089       -2021.016          50.000    20716333.866    83416231.442       -1548.566          54.000  
G32                                                                  26016390.506                        1287.099          30.000  
> 2024 04 15 00 20 00.0060000  0 29                     
S33  41606892.779   218645778.996        -769.499          43.000  
E33  29126423.202   153060387.186        -873.522          35.000    29126422.681   117280084.212        -669.339          46.000  
G15  24738825.171   130003247.949       -3822.408          45.000    24738834.640   101301222.287       -2978.423          42.000  
G32  26007002.795                3       1638.298          31.000    26006996.009                        1276.661          27.000  
R14  23311052.742   124261098.324       -2319.465          46.000    23311052.345    96647603.918       -1804.077          48.000  
R17  22393808.871   119834286.909        1806.899          48.000    22393807.373    93204669.843        1405.356          51.000  
R06  25025613.950                3        929.384          22.000                                                                  
R05  23200085.501   124017763.359       -3047.200          51.000    23200085.143    96458268.318       -2369.954          49.000  
R16  24893240.313                3       1557.987          25.000                                                                  
R04  25063583.264   134214008.557       -4914.883          45.000    25063603.440   104388605.225       -3822.737          41.000  
G19  25153723.095   132183883.694       -3948.893          42.000                                                                  
G06  25227208.208   132570070.057         208.649          37.000    25227209.926   103301403.434         162.158          40.000  
S31  40654415.897   213640466.302        -769.062          44.000  
E03  28160827.157   147986199.185         819.492          41.000    28160829.595   113391969.670         628.202          45.000  
R15  22204395.546   118653779.936         -78.285          52.000    22204392.456    92286444.476         -60.865          50.000  
R18  25072026.615   133835860.746        3632.053          40.000    25072047.746   104094747.656        2824.943          44.000  
R24  23192754.493   124022409.899       -2208.524          50.000    23192750.070    96461895.415       -1717.825          49.000  
E31  28153226.409   147946169.339       -2543.878          36.000    28153226.144   113361427.784       -1949.183          42.000  
E09  28064340.621   147478981.330       -3716.341          46.000    28064352.389   113003358.452       -2847.496          47.000  
G11  25601212.987   134535670.830        1651.117          45.000    25601214.758   104833161.022        1286.817          47.000  
E24  25866046.109   135927105.687       -1233.242          47.000    25866044.891   104151996.760        -945.044          50.000  
G24  22315138.702   117266952.955        -471.126          47.000    22315136.904    91376916.882        -367.294          45.000  
G12  23097996.211   121381077.448        -355.256          50.000    23097991.686    94582781.346        -276.725          46.000  
E05  24657092.573   129573954.830       -1749.123          48.000    24657095.230    99283978.744       -1340.250          52.000  
G25  24413975.556   128296500.302         898.919          46.000    24413976.539    99971360.522         700.536          44.000  
E10  28854183.818   151630108.816        1880.400          44.000    28854194.704   116184323.485        1440.805          49.000  
E25  27236118.470   143127039.786         485.972          45.000    27236123.357   109668914.938         372.349          50.000  
E12  28504315.419   149791499.103        1303.847          41.000    28504316.706   114775509.171         999.068          46.000  
E14  20727967.008   108926324.011       -2054.948          50.000    20727968.146    83463077.442       -1574.624          54.000  
> 2024 04 15 00 20 30.0060000  0 29                     
S33  41611284.389   218668856.946        -769.525          43.000  
E33  29131449.384   153086801.734        -887.218          35.000    29131449.364   117300323.937        -680.119          46.000  
G15  24760662.002   130117994.276       -3827.563          46.000    24760670.078   101390633.809       -2982.490          41.000  
R14  23324120.525   124330741.190       -2323.964          47.000    23324118.291    96701770.516       -1807.438          48.000  
R17  22383736.477   119780386.730        1786.163          48.000    22383734.878    93162747.582        1389.220          50.000  
R06  25020518.058                3        896.530          25.000                                                                  
R05  23217239.956   124109468.812       -3066.768          49.000    23217240.462    96529594.661       -2385.344          48.000  
R16  24884472.246                3       1559.976          25.000                                                                  
R04  25091117.309   134361452.089       -4914.841          45.000    25091136.737   104503284.241       -3822.543          43.000  
G19  25176287.934   132302462.027       -3956.592          43.000                                                                  
G06  25226062.554   132564048.622         192.576          39.000    25226063.835   103296711.516         149.985          39.000  
S31  40658805.289   213663529.764        -768.729          44.000  
E03  28156179.104   147961776.792         808.351          41.000    28156182.261   113373256.443         619.330          45.000  
R15  22204846.441   118656189.168         -82.648          51.000    22204842.999    92288318.371         -64.264          50.000  
R18  25051614.810   133726907.258        3631.418          39.000    25051638.591   104010005.400        2824.396          43.000  
R24  23205214.663   124089039.674       -2233.722          51.000    23205211.197    96513718.571       -1737.344          49.000  
E31  28167745.456   148022472.146       -2542.970          37.000    28167746.835   113419893.577       -1948.694          43.000  
E09  28085565.918   147590517.717       -3719.723          45.000    28085577.952   113088820.584       -2850.137          48.000  
G11  25591804.042   134486226.253        1644.519          44.000    25591804.108   104794633.138        1281.512          45.000  
E24  25873091.758   135964135.062       -1235.654          47.000    25873091.608   104180369.928        -946.833          50.000  
G24  22317867.251   117281290.143        -484.869          48.000    22317865.065    91388088.689        -377.906          44.000  
G12  23100040.598   121391823.691        -361.515          49.000    23100036.603    94591155.087        -281.713          46.000  
E05  24667113.612   129626621.847       -1762.232          47.000    24667117.491    99324333.959       -1350.271          52.000  
G25  24408853.694   128269582.135         895.170          46.000    24408853.927    99950385.422         697.698          44.000  
E10  28843451.294   151573721.561        1878.386          42.000    28843463.329   116141118.382        1439.380          48.000  
E25  27233352.422   143112501.604         482.953          45.000    27233356.727   109657775.358         369.999          50.000  
E12  28496892.071   149752489.583        1296.507          41.000    28496893.313   114745618.926         993.434          46.000  
E14  20739795.047   108988482.724       -2089.134          50.000    20739796.510    83510705.603       -1600.699          55.000  
G32                                                                  25997681.172                        1266.020          29.000  
> 2024 04 15 00 21 00.0060000  0 30                     
S33  41615677.026   218691941.170        -769.385          43.000  
E33  29136554.634   153113639.911        -901.495          33.000    29136556.232   117320888.248        -690.730          46.000  
G15  24782529.287   130232901.489       -3832.889          45.000    24782538.222   101480170.648       -2986.511          42.000  
R14  23337210.403   124400528.606       -2328.563          46.000    23337209.297    96756049.579       -1811.177          49.000  
R17  22373783.762   119727125.471        1764.819          49.000    22373781.571    93121322.284        1372.644          50.000  
R06  25015537.792                3        872.111          26.000                                                                  
R05  23234507.877   124201770.806       -3086.530          50.000    23234506.824    96601385.033       -2400.712          47.000  
R16  24875700.101                1       1559.665          29.000    24875686.272                2       1213.446          27.000  
R04  25118652.352   134508903.362       -4915.022          45.000    25118670.849   104617969.358       -3822.878          43.000  
G19  25198897.089   132421278.515       -3964.453          41.000                                                                  
G06  25225010.729   132558514.688         176.372          38.000    25225009.681   103292399.384         137.191          39.000  
G29  26512263.803   139322879.2111       2944.675          36.000                                                                  
S31  40663194.783   213686597.685        -768.845          45.000  
E03  28151598.607   147937705.969         796.594          42.000    28151601.971   113354812.585         610.406          46.000  
R15  22205322.899   118658739.726         -87.244          51.000    22205320.416    92290302.192         -67.976          50.000  
R18  25031210.034   133617988.278        3630.039          40.000    25031234.936   103925290.057        2823.543          43.000  
R24  23217817.734   124156432.090       -2258.918          51.000    23217814.123    96566134.916       -1757.139          49.000  
E31  28182263.787   148098761.622       -2542.584          39.000    28182263.814   113478349.124       -1948.195          42.000  
E09  28106811.548   147702162.241       -3723.175          45.000    28106824.090   113174365.538       -2852.829          48.000  
G11  25582433.229   134436999.375        1637.219          42.000    25582435.384   104756274.918        1275.867          45.000  
E24  25880153.532   136001247.087       -1238.288          48.000    25880153.623   104208806.430        -948.836          50.000  
G24  22320676.590   117296052.254        -499.054          48.000    22320674.214    91399591.620        -388.824          45.000  
G12  23102121.991   121402765.691        -367.916          49.000    23102118.381    94599681.369        -286.851          46.000  
E05  24677211.943   129679691.260       -1775.597          47.000    24677215.979    99364997.498       -1360.530          51.000  
G25  24403755.053   128242789.005         891.119          46.000    24403755.455    99929507.752         694.506          44.000  
E10  28832732.699   151517399.967        1876.329          42.000    28832744.482   116097963.587        1437.679          47.000  
E25  27230605.397   143098062.840         479.861          46.000    27230609.170   109646711.987         367.607          50.000  
E12  28489511.628   149713709.152        1289.002          41.000    28489513.619   114715904.207         987.691          46.000  
E14  20751817.931   109051670.857       -2123.329          49.000    20751820.855    83559122.558       -1626.905          55.000  
G32                                                                  25988457.325   106418284.8371       1254.214          33.000  
> 2024 04 15 00 21 30.0060000  0 30                     
S33  41620069.354   218715024.075        -769.376          43.000  
E33  29141743.576   153140897.764        -915.343          35.000    29141743.674   117341774.139        -701.494          46.000  
G15  24804426.401   130347962.448       -3838.034          45.000    24804435.193   101569827.206       -2990.643          43.000  
R14  23350326.882   124470457.038       -2333.441          45.000    23350327.813    96810438.338       -1814.860          48.000  
R17  22363950.301   119674502.712        1743.319          50.000    22363947.909    93080393.575        1355.900          51.000  
R06  25010710.763                3        856.572          23.000                                                                  
R05  23251885.841   124294661.264       -3106.215          50.000    23251884.312    96673633.040       -2415.952          48.000  
R16  24866940.231                1       1560.254          30.000    24866924.320                1       1212.998          31.000  
R04  25146187.472   134656354.181       -4915.080          46.000    25146204.736   104732654.121       -3822.632          46.000  
G19  25221551.557   132540326.706       -3972.146          42.000                                                                  
G06  25224048.163   132553465.929         160.297          35.000    25224050.027   103288465.342         124.617          40.000  
G29  26495465.521   139234603.196        2940.645          35.000                                                                  
S31  40667584.404   213709666.594        -768.976          45.000  
E03  28147084.492   147913983.813         784.635          42.000    28147088.106   113336635.888         601.359          47.000  
R15  22205826.027   118661428.422         -91.982          51.000    22205823.791    92292393.440         -71.510          50.000  
R18  25010812.601   133509103.653        3628.938          41.000    25010837.525   103840601.592        2822.392          43.000  
R24  23230561.355   124224580.925       -2284.318          51.000    23230558.494    96619139.596       -1776.685          49.000  
E31  28196778.043   148175033.546       -2542.177          40.000    28196778.330   113536791.252       -1947.856          43.000  
E09  28128076.701   147813908.871       -3726.708          45.000    28128089.238   113259988.689       -2855.420          47.000  
G11  25573108.388   134387989.333        1629.816          45.000    25573109.031   104718085.603        1269.995          44.000  
E24  25887230.993   136038437.181       -1240.980          48.000    25887230.652   104237302.753        -951.045          50.000  
G24  22323566.136   117311236.573        -513.345          49.000    22323563.425    91411423.554        -399.959          45.000  
G12  23104239.948   121413898.508        -374.343          48.000    23104237.284    94608356.334        -291.814          47.000  
E05  24687386.238   129733158.081       -1788.944          46.000    24687390.506    99405965.539       -1370.752          51.000  
G25  24398679.174   128216116.388         887.131          47.000    24398680.456    99908723.995         691.223          45.000  
E10  28822028.115   151461142.162        1874.032          42.000    28822038.628   116054857.628        1435.940          47.000  
E25  27227876.503   143083718.922         476.515          46.000    27227879.623   109635721.284         365.054          50.000  
E12  28482173.731   149675155.789        1281.497          40.000    28482176.700   114686363.500         981.641          45.000  
E14  20764037.417   109115880.151       -2157.355          49.000    20764039.618    83608321.957       -1653.066          55.000  
G32                                                                  25979307.247   106380814.139        1243.039          35.000  
> 2024 04 15 00 22 00.0060000  0 30                     
S33  41624460.384   218738099.453        -769.403          43.000  
E33  29147009.038   153168566.077        -929.242          34.000    29147008.978   117362974.548        -712.144          46.000  
G15  24826349.620   130463164.446       -3842.788          44.000    24826358.191   101659593.642       -2994.347          42.000  
R14  23363470.812   124540517.638       -2338.077          45.000    23363470.965    96864929.861       -1818.577          48.000  
R17  22354236.584   119622512.763        1722.111          52.000    22354232.137    93039957.060        1339.309          51.000  
R06  25006010.947                3        827.259          25.000                                                                  
R05  23269369.979   124388126.874       -3125.354          49.000    23269369.381    96746328.389       -2430.879          49.000  
R16  24858162.435   132787928.9411       1561.656          33.000    24858161.685   103279401.9051       1214.089          33.000  
R04  25173718.875   134803790.405       -4914.442          46.000    25173737.400   104847327.677       -3822.463          47.000  
G19  25244248.881   132659594.411       -3979.469          43.000                                                                  
G06  25223177.999   132548894.860         143.566          35.000    25223181.121   103284903.520         112.328          41.000  
G29  26478685.991   139146427.270        2937.632          38.000                                                                  
S31  40671972.550   213732726.228        -768.486          44.000  
E03  28142635.388   147890602.196         773.186          42.000    28142638.782   113318720.128         592.486          47.000  
R15  22206354.378   118664245.888         -96.414          52.000    22206350.688    92294584.829         -75.040          50.000  
R18  24990419.922   133400247.988        3627.744          43.000    24990445.724   103755935.706        2821.395          43.000  
R24  23243445.743   124293475.220       -2309.158          52.000    23243441.382    96672724.093       -1796.163          47.000  
E31  28211286.288   148251278.407       -2541.555          40.000    28211287.052   113595212.615       -1947.322          43.000  
E09  28149360.181   147925746.311       -3729.693          45.000    28149371.935   113345681.434       -2857.781          47.000  
G11  25563823.373   134339189.793        1622.845          46.000    25563820.364   104680060.270        1264.301          42.000  
E24  25894320.970   136075695.360       -1243.436          48.000    25894320.394   104265851.233        -952.752          50.000  
G24  22326534.486   117326835.124        -527.114          49.000    22326531.571    91423578.262        -410.738          45.000  
G12  23106392.759   121425210.642        -380.497          49.000    23106390.476    94617170.994        -296.393          47.000  
E05  24697634.668   129787012.019       -1801.958          47.000    24697638.788    99447230.223       -1380.777          51.000  
G25  24393624.723   128189554.509         883.303          47.000    24393626.146    99888026.522         688.268          45.000  
E10  28811333.173   151404940.917        1872.060          43.000    28811343.198   116011795.002        1434.412          48.000  
E25  27225163.840   143069459.944         473.563          47.000    27225166.392   109624795.651         362.820          50.000  
E12  28474880.030   149636822.175        1273.736          40.000    28474881.736   114656991.114         975.967          45.000  
E14  20776448.546   109181097.012       -2191.113          49.000    20776449.762    83658293.370       -1678.926          55.000  
G32                                                                  25970235.943   106343673.619        1232.137          33.000  
> 2024 04 15 00 22 30.0060000  0 30                     
S33  41628850.772   218761169.925        -768.684          43.000  
E33  29152352.290   153196650.111        -943.053          36.000    29152353.091   117384493.509        -722.487          45.000  
G15  24848299.481   130578510.102       -3846.858          44.000    24848309.194   101749471.970       -2997.599          43.000  
R14  23376639.364   124610716.236       -2341.908          45.000    23376639.952    96919528.727       -1821.521          49.000  
R17  22344640.258   119571164.720        1701.072          51.000    22344636.148    93000019.802        1323.064          50.000  
R06  25001418.009                         804.294          27.000                                                                  
R05  23286962.052   124482168.556       -3144.000          50.000    23286962.664    96819471.755       -2445.309          49.000  
R16  24849390.886   132741080.794        1562.146          37.000    24849387.671   103242964.562        1214.986          34.000  
R04  25201248.272   134951213.269       -4913.668          46.000    25201267.504   104961990.845       -3821.761          46.000  
G19  25266986.425   132779083.727       -3986.446          41.000                                                                  
G06  25222403.323   132544808.434         128.417          39.000    25222403.863   103281719.375         100.066          40.000  
G29  26461926.889   139058358.586        2934.042          40.000                                                                  
S31  40676359.749   213755781.467        -767.888          44.000  
E03  28138251.795   147867567.377         762.384          42.000    28138255.186   113301070.092         584.081          47.000  
R15  22206906.437   118667198.016        -100.361          52.000    22206902.695    92296880.942         -78.120          49.000  
R18  24970035.198   133291430.416        3626.885          45.000    24970059.627   103671299.542        2820.871          42.000  
R24  23256468.372   124363117.690       -2333.589          51.000    23256463.638    96726890.453       -1815.166          46.000  
E31  28225792.802   148327501.293       -2540.115          41.000    28225791.856   113653617.130       -1946.335          43.000  
E09  28170660.566   148037677.766       -3732.352          45.000    28170672.874   113431446.197       -2859.872          48.000  
G11  25554577.860   134290608.944        1615.790          44.000    25554577.012   104642205.334        1258.997          43.000  
E24  25901425.124   136113026.178       -1245.332          48.000    25901424.077   104294455.360        -954.165          50.000  
G24  22329583.231   117342854.359        -540.859          49.000    22329580.213    91436060.750        -421.314          45.000  
G12  23108581.204   121436707.390        -386.145          49.000    23108577.747    94626129.522        -300.911          47.000  
E05  24707958.100   129841257.294       -1814.461          47.000    24707961.405    99488794.742       -1390.323          52.000  
G25  24388592.141   128163107.996         879.902          47.000    24388592.357    99867418.926         685.595          44.000  
E10  28800649.662   151348803.457        1870.542          44.000    28800659.822   115968781.252        1433.108          47.000  
E25  27222467.003   143055290.465         470.951          47.000    27222470.045   109613938.594         360.945          50.000  
E12  28467628.040   149598715.382        1266.586          40.000    28467629.163   114627792.556         970.663          44.000  
E14  20789050.107   109247322.248       -2224.005          49.000    20789051.857    83709037.437       -1704.123          55.000  
G32                                                                  25961247.578                        1221.452          31.000  
> 2024 04 15 00 23 00.0060000  0 30                     
S33  41633240.028   218784234.624        -769.058          43.000  
E33  29157776.926   153225148.601        -957.133          38.000    29157775.964   117406330.047        -733.288          44.000  
G15  24870277.268   130693995.051       -3851.867          44.000    24870287.815   101839458.813       -3001.503          43.000  
R14  23389834.849   124681051.734       -2347.001          47.000    23389834.687    96974234.063       -1825.426          49.000  
R17  22335163.820   119520460.658        1679.235          50.000    22335160.669    92960583.428        1306.183          50.000  
R06  24996961.086                3        786.951          24.000                                                                  
R05  23304662.240   124576780.716       -3163.452          51.000    23304661.979    96893058.844       -2460.417          50.000  
R16  24840614.090   132694212.500        1562.425          40.000    24840609.519   103206511.561        1215.050          38.000  
R04  25228774.247   135098616.698       -4913.337          45.000    25228792.885   105076638.940       -3821.253          45.000  
G19  25289764.747   132898790.601       -3993.916          39.000                                                                  
G06  25221717.593   132541207.178         111.441          36.000    25221717.678   103278913.259          86.769          39.000  
G29  26445189.042   138970397.867        2930.116          40.000                                                                  
S31  40680745.827   213778831.910        -768.351          44.000  
E03  28133935.198   147844879.167         750.520          42.000    28133937.760   113283685.645         574.907          47.000  
R15  22207483.454   118670284.066        -105.317          52.000    22207480.133    92299281.227         -81.960          50.000  
R18  24949657.760   133182653.878        3624.980          45.000    24949681.327   103586695.394        2819.356          40.000  
R24  23269631.311   124433505.315       -2358.669          51.000    23269626.613    96781636.425       -1834.646          47.000  
E31  28240291.484   148403700.592       -2539.959          40.000    28240292.864   113712003.617       -1946.076          44.000  
E09  28191977.071   148149699.956       -3735.625          44.000    28191990.804   113517280.465       -2862.506          48.000  
G11  25545374.376   134242248.458        1608.160          44.000    25545374.283   104604522.129        1253.333          45.000  
E24  25908542.327   136150427.708       -1248.158          48.000    25908541.485   104323113.675        -956.469          50.000  
G24  22332711.944   117359294.232        -555.226          49.000    22332708.492    91448871.029        -432.562          45.000  
G12  23110803.082   121448386.816        -392.488          49.000    23110799.513    94635230.418        -305.701          47.000  
E05  24718354.941   129895891.589       -1827.839          48.000    24718357.917    99530657.338       -1400.509          51.000  
G25  24383581.384   128136775.042         875.668          47.000    24383580.411    99846899.851         682.461          43.000  
E10  28789979.819   151292730.591        1867.874          45.000    28789988.348   115925816.953        1431.233          46.000  
E25  27219786.817   143041208.562         467.674          46.000    27219789.921   109603148.636         358.442          49.000  
E12  28460420.493   149560836.043        1258.803          40.000    28460420.612   114598768.275         964.351          43.000  
E14  20801843.272   109314550.144       -2257.785          49.000    20801844.920    83760549.773       -1729.916          55.000  
G32                                                                  25952335.844                        1210.684          28.000  
> 2024 04 15 00 23 30.0060000  0 30                     
S33  41637629.482   218807302.482        -769.049          43.000  
E33  29163280.019   153254068.755        -971.255          40.000    29163279.686   117428489.719        -744.212          45.000  
G15  24892282.262   130809623.378       -3856.726          46.000    24892291.899   101929557.378       -3004.952          42.000  
G32  25943547.383                        1537.832          28.000    25943509.866                1       1198.083          29.000  
R14  23403059.206   124751532.538       -2351.976          49.000    23403056.662    97029052.448       -1829.199          49.000  
R17  22325809.765   119470411.836        1657.330          49.000    22325807.565    92921656.681        1289.069          50.000  
R06  24992634.903                3        761.959          21.000                                                                  
R05  23322468.729   124671967.087       -3182.516          51.000    23322469.344    96967092.571       -2475.269          50.000  
R16  24831836.909   132647331.126        1562.955          46.000    24831836.038   103170048.344        1215.663          42.000  
R04  25256295.605   135246004.009       -4912.609          45.000    25256315.110   105191274.623       -3820.923          45.000  
G19  25312585.878   133018719.767       -4001.417          39.000                                                                  
G06  25221124.640   132538100.003          95.293          37.000    25221124.695   103276492.117          74.248          37.000  
G29  26428474.097   138882554.522        2925.818          39.000                                                                  
S31  40685132.705   213801884.213        -768.542          44.000  
E03  28129685.908   147822545.939         738.458          42.000    28129688.252   113266573.207         565.774          48.000  
R15  22208087.826   118673511.687        -110.133          52.000    22208084.225    92301791.630         -85.534          49.000  
R18  24929290.356   133073929.473        3623.181          45.000    24929313.966   103502131.821        2818.217          40.000  
R24  23282934.497   124504643.136       -2383.820          50.000    23282930.549    96836965.846       -1854.080          46.000  
E31  28254789.587   148479883.484       -2539.445          40.000    28254790.209   113770377.477       -1945.662          45.000  
E09  28213313.993   148261818.155       -3739.122          44.000    28213326.843   113603188.256       -2864.869          48.000  
G11  25536214.880   134194118.596        1600.342          44.000    25536216.401   104567018.644        1247.113          46.000  
E24  25915673.562   136187906.581       -1250.684          47.000    25915673.537   104351831.255        -958.290          50.000  
G24  22335921.964   117376163.257        -569.593          49.000    22335918.584    91462015.715        -443.756          45.000  
G12  23113061.511   121460255.149        -398.878          48.000    23113058.109    94644478.518        -310.857          46.000  
E05  24728826.508   129950921.137       -1840.949          48.000    24728829.536    99572822.810       -1410.667          51.000  
G25  24378593.269   128110562.398         871.662          47.000    24378591.608    99826474.532         679.027          42.000  
E10  28779323.724   151236731.622        1865.403          45.000    28779331.219   115882909.277        1429.276          46.000  
E25  27217124.970   143027220.891         464.739          46.000    27217127.940   109592430.879         356.047          49.000  
E12  28453256.418   149523193.400        1250.441          40.000    28453257.345   114569925.330         958.283          44.000  
E14  20814827.225   109382783.483       -2291.298          48.000    20814829.001    83812832.526       -1755.624          54.000  
> 2024 04 15 00 24 00.0060000  0 30                     
S33  41642019.789   218830374.451        -768.807          43.000  
E33  29168864.721   153283414.381        -984.914          40.000    29168863.613   117450975.362        -754.890          45.000  
G15  24914314.041   130925395.685       -3861.249          46.000    24914324.060   102019768.138       -3008.468          43.000  
G32  25934792.816   136288258.2831       1523.384          32.000    25934776.702   106198560.3741       1186.823          34.000  
R14  23416307.986   124822162.542       -2356.555          49.000    23416306.597    97083986.856       -1832.943          49.000  
R17  22316581.916   119421025.750        1635.375          51.000    22316578.322    92883245.416        1271.992          50.000  
R06  24988454.317                3        737.836          16.000                                                                  
R05  23340383.138   124767727.191       -3201.265          52.000    23340383.552    97041572.525       -2489.875          50.000  
R16  24823059.791   132600440.169        1563.536          46.000    24823058.635   103133577.711        1215.957          41.000  
R04  25283814.873   135393374.911       -4912.051          46.000    25283834.845   105305897.598       -3820.189          44.000  
G19  25335448.900   133138871.941       -4008.581          38.000                                                                  
G06  25220628.397   132535492.357          78.751          40.000    25220629.569   103274460.275          61.778          39.000  
G29  26411781.465   138794834.797        2922.266          39.000                                                                  
S31  40689520.312   213824941.176        -768.353          45.000  
E03  28125503.942   147800572.506         726.734          42.000    28125506.899   113249736.459         556.704          48.000  
R15  22208719.000   118676885.568        -114.661          52.000    22208716.245    92304415.773         -89.160          50.000  
R18  24908934.084   132965265.248        3621.238          46.000    24908959.664   103417615.295        2816.535          42.000  
R24  23296378.377   124576532.677       -2408.641          50.000    23296374.200    96892879.986       -1873.301          46.000  
E31  28269283.132   148556053.454       -2538.699          40.000    28269283.867   113828741.451       -1945.045          44.000  
E09  28234668.545   148374033.982       -3742.026          44.000    28234681.633   113689170.852       -2867.083          48.000  
G11  25527101.661   134146226.126        1592.639          46.000    25527102.007   104529700.058        1241.089          46.000  
E24  25922820.738   136225465.896       -1253.123          47.000    25922820.811   104380610.478        -960.194          50.000  
G24  22339214.375   117393466.391        -583.759          49.000    22339211.585    91475498.679        -454.858          46.000  
G12  23115356.834   121472315.004        -404.838          49.000    23115353.438    94653875.848        -315.566          47.000  
E05  24739374.520   130006348.662       -1853.962          48.000    24739377.138    99615293.207       -1420.542          52.000  
G25  24373627.909   128084473.279         867.989          47.000    24373627.305    99806145.437         676.326          43.000  
E10  28768682.576   151180812.351        1862.809          46.000    28768689.645   115840062.660        1427.325          47.000  
E25  27214481.803   143013330.570         461.586          46.000    27214484.297   109581787.702         353.742          48.000  
E12  28446139.104   149485793.049        1242.758          40.000    28446140.845   114541268.046         952.304          45.000  
E14  20828002.665   109452021.461       -2324.442          48.000    20828004.303    83865885.062       -1781.027          54.000  
> 2024 04 15 00 24 30.0060000  0 29                     
S33  41646409.242   218853441.509        -768.559          43.000  
E33  29174527.949   153313175.530        -998.971          40.000    29174527.253   117473779.371        -765.430          46.000  
G15  24936370.673   131041298.962       -3865.346          45.000    24936381.468   102110080.891       -3012.036          43.000  
G32  25926139.775                        1508.368          26.000    25926125.357   106163126.270        1174.807          36.000  
R14  23429584.533   124892932.210       -2361.210          49.000    23429582.759    97139029.916       -1836.532          49.000  
R17  22307477.801   119372295.860        1613.432          51.000    22307472.495    92845344.502        1254.888          50.000  
R05  23358401.171   124864046.535       -3219.824          51.000    23358401.202    97116487.450       -2504.414          48.000  
R16  24814277.334   132553529.459        1564.314          44.000    24814276.405   103097091.778        1216.409          40.000  
R04  25311330.218   135540714.875       -4910.552          46.000    25311347.859   105420496.560       -3819.396          42.000  
G19  25358354.866   133259234.270       -4015.326          41.000                                                                  
G06  25220227.334   132533376.014          62.247          40.000    25220226.667   103272811.232          48.422          38.000  
G29  26395110.597   138707230.648        2918.059          37.000                                                                  
S31  40693907.143   213847994.538        -768.232          44.000  
E03  28121389.914   147778949.975         714.883          42.000    28121392.344   113233168.566         547.886          48.000  
R15  22209376.467   118680395.655        -119.197          52.000    22209372.659    92307145.858         -92.596          49.000  
R18  24888588.140   132856655.265        3619.612          47.000    24888611.211   103333141.114        2815.181          41.000  
R24  23309961.280   124649161.886       -2433.147          51.000    23309957.362    96949369.369       -1892.457          47.000  
E31  28283772.557   148632200.454       -2537.773          39.000    28283774.242   113887087.821       -1944.354          44.000  
E09  28256038.995   148486335.507       -3744.558          43.000    28256052.902   113775219.069       -2869.251          48.000  
G11  25518031.821   134098563.966        1585.040          45.000    25518032.609   104492560.972        1235.016          46.000  
E24  25929981.673   136263095.049       -1255.364          47.000    25929981.484   104409443.219        -961.919          50.000  
G24  22342587.976   117411194.933        -598.061          49.000    22342585.154    91489313.118        -465.758          46.000  
G12  23117686.361   121484555.636        -410.878          49.000    23117682.515    94663414.033        -320.232          46.000  
E05  24749995.682   130062163.142       -1866.789          48.000    24749998.412    99658060.109       -1430.441          51.000  
G25  24368684.481   128058497.179         864.250          46.000    24368684.620    99785904.420         673.417          43.000  
E10  28758054.703   151124964.878        1860.422          46.000    28758062.097   115797271.032        1425.619          48.000  
E25  27211854.815   142999526.986         458.817          46.000    27211857.186   109571210.997         351.517          48.000  
E12  28439066.835   149448626.982        1235.107          40.000    28439068.667   114512790.297         946.314          46.000  
E14  20841366.986   109522249.572       -2357.276          48.000    20841368.205    83919696.257       -1806.184          54.000  
> 2024 04 15 00 25 00.0060000  0 29                     
S33  41650797.551   218876503.119        -768.723          43.000  
E33  29180270.662   153343350.579       -1012.776          39.000    29180269.268   117496900.517        -776.028          46.000  
G15  24958451.229   131157328.718       -3870.075          44.000    24958462.758   102200492.138       -3015.496          43.000  
R14  23442887.479   124963840.534       -2366.156          49.000    23442885.045    97194180.806       -1840.490          49.000  
R17  22298494.208   119324223.895        1591.104          52.000    22298488.997    92807955.306        1237.509          50.000  
R05  23376523.144   124960919.585       -3238.469          51.000    23376523.016    97191833.035       -2518.809          48.000  
R16  24805491.275   132506596.842        1564.608          44.000    24805490.177   103060588.704        1216.796          43.000  
R04  25338837.938   135688017.963       -4909.572          46.000    25338853.979   105535066.928       -3818.556          43.000  
G19  25381298.529   133379802.419       -4022.401          42.000                                                                  
G06  25219916.825   132531751.035          45.440          39.000    25219917.538   103271545.048          35.704          40.000  
G29  26378462.542   138619742.202        2913.969          37.000    26378488.084   108015549.2601       2270.987          34.000  
S31  40698292.640   213871040.690        -768.150          44.000  
E03  28117342.535   147757677.863         702.990          42.000    28117344.335   113216869.185         538.625          48.000  
R15  22210058.280   118684041.109        -123.965          52.000    22210054.548    92309981.254         -96.419          49.000  
R18  24868252.332   132748101.834        3617.260          48.000    24868273.412   103248711.083        2813.296          40.000  
R24  23323679.317   124722526.815       -2457.803          50.000    23323677.777    97006431.032       -1911.781          46.000  
E31  28298259.226   148708322.677       -2537.210          40.000    28298259.866   113945415.233       -1944.157          44.000  
E09  28277424.927   148598719.201       -3747.760          43.000    28277439.467   113861330.197       -2871.515          48.000  
G11  25509005.945   134051133.609        1576.770          46.000    25509006.567   104455602.529        1228.729          46.000  
E24  25937155.382   136300791.882       -1257.687          47.000    25937154.993   104438327.804        -963.776          50.000  
G24  22346042.021   117429348.515        -612.448          49.000    22346040.118    91503458.758        -477.323          46.000  
G12  23120050.031   121496974.738        -417.146          49.000    23120045.128    94673091.291        -325.067          46.000  
E05  24760689.848   130118361.949       -1879.857          48.000    24760692.698    99701121.493       -1440.407          51.000  
G25  24363762.440   128032632.027         860.127          46.000    24363763.384    99765749.828         670.292          44.000  
E10  28747439.741   151069189.721        1857.857          44.000    28747447.707   115754534.790        1423.480          48.000  
E25  27209243.356   142985807.953         455.810          45.000    27209246.260   109560699.078         349.300          48.000  
E12  28432039.746   149411695.416        1226.987          41.000    28432041.218   114484492.216         940.203          46.000  
E14  20854918.165   109593461.573       -2390.245          49.000    20854919.458    83974261.354       -1831.449          54.000  
G32                                                                  25917555.100   106128034.514        1163.802          35.000  
> 2024 04 15 00 25 30.0060000  0 29                     
S33  41655185.156   218899560.128        -768.359          43.000  
E33  29186091.212   153373941.589       -1026.658          38.000    29186090.477   117520340.397        -786.592          46.000  
G15  24980555.364   131273484.190       -3873.940          44.000    24980568.096   102291001.343       -3018.512          44.000  
R14  23456216.002   125034890.076       -2370.752          49.000    23456213.280    97249441.546       -1843.794          49.000  
R17  22289634.041   119276815.697        1569.201          51.000    22289629.482    92771082.365        1220.415          50.000  
R05  23394748.265   125058344.205       -3256.648          51.000    23394748.027    97267607.578       -2532.903          48.000  
R16  24796701.598   132459644.417        1565.340          45.000    24796701.638   103024070.277        1217.392          42.000  
R04  25366337.721   135835282.220       -4908.014          46.000    25366352.708   105649607.259       -3817.470          41.000  
G19  25404281.132   133500575.663       -4028.991          42.000                                                                  
G06  25219701.771   132530621.200          29.331          41.000    25219702.402   103270664.683          23.023          40.000  
G29  26361837.366   138532374.077        2910.208          37.000    26361856.963   107947470.036        2267.397          34.000  
S31  40702677.033   213894082.306        -768.060          44.000  
E03  28113360.734   147736759.306         691.308          41.000    28113363.879   113200840.705         529.628          48.000  
R15  22210765.983   118687824.447        -128.437          52.000    22210763.016    92312923.846         -99.909          49.000  
R18  24847927.787   132639611.114        3615.206          47.000    24847948.653   103164329.906        2811.682          39.000  
R24  23337538.202   124796627.450       -2482.180          51.000    23337533.173    97064064.898       -1930.583          45.000  
E31  28312741.941   148784422.114       -2536.457          40.000    28312741.067   114003725.158       -1943.478          44.000  
E09  28298827.387   148711185.084       -3750.176          42.000    28298842.016   113947504.303       -2873.573          48.000  
G11  25500025.906   134003940.166        1569.238          46.000    25500025.589   104418828.658        1222.711          45.000  
E24  25944342.013   136338557.878       -1260.062          47.000    25944341.558   104467265.386        -965.545          50.000  
G24  22349577.923   117447930.427        -626.477          48.000    22349576.401    91517938.140        -488.240          46.000  
G12  23122447.361   121509573.574        -423.018          49.000    23122442.505    94682908.599        -329.622          46.000  
E05  24771456.994   130174946.127       -1892.734          47.000    24771460.233    99744478.167       -1450.202          51.000  
G25  24358861.990   128006879.407         856.569          46.000    24358862.988    99745682.916         667.479          44.000  
E10  28736839.725   151013491.081        1855.284          43.000    28736848.542   115711857.138        1421.610          49.000  
E25  27206649.313   142972174.980         452.974          45.000    27206652.117   109550253.113         347.152          48.000  
E12  28425057.126   149375002.420        1219.159          40.000    28425058.904   114456376.942         934.083          47.000  
E14  20868656.242   109665654.916       -2422.724          49.000    20868657.197    84029578.396       -1856.444          54.000  
G32                                                                  25909068.194   106093288.428        1152.680          32.000  
> 2024 04 15 00 26 00.0060000  0 29                     
S33  41659572.148   218922614.544        -768.474          43.000  
E33  29191994.046   153404950.557       -1040.864          39.000    29191991.031   117544100.489        -797.501          46.000  
G15  25002683.399   131389764.164       -3878.176          44.000    25002696.782   102381607.526       -3022.010          44.000  
R14  23469572.230   125106083.597       -2375.703          50.000    23469570.396    97304814.256       -1847.724          50.000  
R17  22280898.418   119230076.895        1546.616          50.000    22280896.022    92734730.084        1202.916          51.000  
R05  23413076.800   125156317.988       -3275.049          51.000    23413076.406    97343809.263       -2547.320          48.000  
R16  24787907.272   132412674.067        1565.871          43.000    24787907.991   102987537.883        1217.816          40.000  
R04  25393829.737   135982505.263       -4906.831          46.000    25393844.558   105764115.622       -3816.524          44.000  
G19  25427302.299   133621553.364       -4036.078          40.000                                                                  
G06  25219582.273   132529990.076          12.497          40.000    25219581.627   103270172.983           9.740          39.000  
G29  26345235.675   138445130.421        2905.722          38.000    26345252.333   107879487.757        2264.281          32.000  
S31  40707061.300   213917121.963        -768.334          44.000  
E03  28109447.681   147716197.316         679.391          40.000    28109450.923   113185085.448         520.587          48.000  
R15  22211500.334   118691748.192        -133.271          52.000    22211497.256    92315975.700        -103.664          49.000  
R18  24827616.927   132531189.407        3612.753          49.000    24827637.764   103080002.513        2809.766          42.000  
R24  23351532.972   124871463.284       -2506.875          51.000    23351528.048    97122270.495       -1949.651          45.000  
E31  28327217.086   148860500.558       -2535.709          38.000    28327217.981   114062019.025       -1942.987          43.000  
E09  28320245.532   148823733.207       -3752.872          43.000    28320260.726   114033741.379       -2875.652          49.000  
G11  25491091.224   133956988.611        1560.706          46.000    25491090.032   104382243.246        1216.168          45.000  
E24  25951542.027   136376394.405       -1262.546          47.000    25951541.499   104496256.998        -967.285          50.000  
G24  22353195.835   117466943.877        -641.201          48.000    22353194.212    91532753.822        -499.734          46.000  
G12  23124878.970   121522353.454        -429.087          48.000    23124874.785    94692866.982        -334.358          46.000  
E05  24782297.387   130231916.551       -1905.500          47.000    24782301.390    99788130.792       -1460.072          51.000  
G25  24353983.852   127981240.815         852.427          46.000    24353983.525    99725704.841         664.443          45.000  
E10  28726254.489   150957872.976        1852.352          41.000    28726264.481   115669241.227        1419.382          49.000  
E25  27204070.876   142958629.433         449.905          44.000    27204074.775   109539874.121         344.787          49.000  
E12  28418120.458   149338551.795        1211.046          41.000    28418121.923   114428447.410         927.846          46.000  
E14  20882580.278   109738826.885       -2455.442          48.000    20882581.541    84085645.282       -1881.444          54.000  
G32                                                                  25900665.350   106058891.126        1140.849          32.000  
> 2024 04 15 00 26 30.0060000  0 29                     
S33  41663959.449   218945669.360        -768.209          43.000  
E33  29197974.771   153436381.239       -1054.324          38.000    29197971.967   117568183.727        -808.027          45.000  
G15  25024835.442   131506169.588       -3882.047          45.000    25024849.673   102472311.458       -3024.836          43.000  
G32  25892354.785                1       1448.290          30.000    25892349.984                        1129.886          30.000  
R14  23482953.879   125177425.269       -2380.282          49.000    23482953.260    97360302.170       -1851.447          49.000  
R17  22272290.845   119184015.074        1524.247          50.000    22272288.131    92698904.314        1185.515          50.000  
R05  23431507.469   125254840.663       -3293.000          50.000    23431507.629    97420437.888       -2561.326          48.000  
R16  24779111.981   132365689.382        1566.779          43.000    24779111.377   102950994.330        1218.417          39.000  
R04  25421312.971   136129687.069       -4905.117          47.000    25421328.184   105878591.911       -3815.058          45.000  
G19  25450363.043   133742736.331       -4042.858          40.000                                                                  
G06  25219558.306   132529863.218          -4.129          42.000    25219555.949   103270074.245          -3.343          38.000  
G29  26328658.831   138358017.167        2901.608          40.000    26328674.044   107811607.072        2261.222          32.000  
S31  40711446.120   213940162.657        -767.903          44.000  
E03  28105603.941   147695996.952         667.303          40.000    28105606.850   113169607.267         511.407          48.000  
R15  22212262.892   118695817.251        -137.831          52.000    22212258.919    92319140.546        -107.271          49.000  
R18  24807320.001   132422844.756        3610.369          48.000    24807341.495   102995735.240        2808.212          44.000  
R24  23365664.846   124947036.215       -2531.149          50.000    23365660.172    97181049.482       -1968.668          44.000  
E31  28341691.628   148936561.876       -2534.723          39.000    28341691.895   114120299.748       -1942.182          43.000  
E09  28341680.031   148936365.491       -3755.532          44.000    28341695.510   114120042.908       -2877.552          49.000  
G11  25482203.710   133910285.843        1552.758          46.000    25482202.712   104345851.692        1210.102          45.000  
E24  25958756.457   136414304.783       -1264.821          48.000    25958755.320   104525305.217        -969.068          49.000  
G24  22356897.333   117486393.994        -655.477          49.000    22356896.012    91547909.731        -510.700          47.000  
G12  23127345.208   121535317.704        -435.049          48.000    23127341.615    94702969.049        -339.055          46.000  
E05  24793212.803   130289276.132       -1918.171          47.000    24793216.396    99832081.596       -1469.821          51.000  
G25  24349126.645   127955719.618         848.910          46.000    24349126.495    99705818.279         661.390          44.000  
E10  28715688.629   150902341.404        1849.947          43.000    28715696.920   115626691.630        1417.424          49.000  
E25  27201510.812   142945174.662         447.118          45.000    27201514.550   109529564.674         342.788          49.000  
E12  28411231.458   149302349.585        1202.844          41.000    28411232.712   114400708.198         921.659          46.000  
E14  20896690.508   109812976.686       -2487.567          49.000    20896691.804    84142461.412       -1906.161          55.000  
> 2024 04 15 00 27 00.0060000  0 29                     
S33  41668345.511   218968718.000        -767.935          43.000  
E33  29204033.679   153468225.376       -1068.480          38.000    29204031.640   117592583.782        -818.478          44.000  
G15  25047009.915   131622689.190       -3885.701          46.000    25047023.703   102563104.351       -3027.827          42.000  
G32  25884127.522                        1433.924          28.000    25884120.049                        1116.959          32.000  
R14  23496364.064   125248907.565       -2384.933          50.000    23496363.362    97415899.490       -1855.010          50.000  
R17  22263807.629   119138624.902        1502.000          51.000    22263805.386    92663600.941        1168.354          50.000  
R05  23450039.169   125353899.969       -3310.665          50.000    23450038.864    97497483.876       -2574.883          49.000  
R16  24770312.431   132318681.699        1567.486          44.000    24770311.529   102914432.925        1219.274          41.000  
R04  25448787.770   136276814.767       -4903.045          48.000    25448801.226   105993026.218       -3813.631          43.000  
G19  25473461.261   133864113.700       -4048.995          43.000                                                                  
G06  25219627.873   132530234.014         -20.453          39.000    25219626.093   103270363.223         -16.110          39.000  
G29  26312105.233   138271028.181        2897.822          41.000    26312124.176   107743823.378        2257.731          33.000  
S31  40715828.791   213963195.966        -767.656          44.000  
E03  28101827.903   147676150.905         655.810          41.000    28101830.048   113154400.590         502.445          47.000  
R15  22213049.781   118700023.511        -142.347          52.000    22213045.861    92322412.058        -110.712          49.000  
R18  24787035.432   132314572.853        3608.077          47.000    24787057.810   102911524.789        2806.169          44.000  
R24  23379933.346   125023335.322       -2555.222          49.000    23379927.907    97240393.236       -1987.363          44.000  
E31  28356160.771   149012597.613       -2533.881          38.000    28356160.873   114178560.880       -1941.525          43.000  
E09  28363128.320   149049071.635       -3757.878          44.000    28363143.902   114206401.035       -2879.450          49.000  
G11  25473361.259   133863826.564        1544.861          44.000    25473362.410   104309649.911        1203.606          46.000  
E24  25965982.851   136452280.193       -1266.790          48.000    25965981.673   104554403.275        -970.662          49.000  
G24  22360681.091   117506273.667        -669.710          50.000    22360678.868    91563400.367        -521.765          47.000  
G12  23129845.519   121548456.356        -440.699          48.000    23129842.027    94713206.999        -343.589          46.000  
E05  24804201.245   130347015.444       -1930.887          47.000    24804204.098    99876323.369       -1479.482          51.000  
G25  24344291.159   127930307.093         845.469          46.000    24344290.424    99686016.392         658.909          44.000  
E10  28705136.202   150846890.285        1847.248          44.000    28705144.598   115584203.642        1415.335          49.000  
E25  27198967.055   142931801.755         444.604          46.000    27198970.068   109519317.975         340.568          49.000  
E12  28404388.680   149266389.338        1194.954          41.000    28404389.118   114373154.354         915.394          45.000  
E14  20910984.520   109888091.190       -2519.683          49.000    20910985.617    84200016.722       -1930.715          55.000  
> 2024 04 15 00 27 30.0060000  0 30                     
S33  41672731.191   218991764.612        -768.502          41.000  
E33  29210172.798   153500489.338       -1082.891          37.000    29210171.169   117617305.496        -829.571          43.000  
G15  25069206.961   131739326.433       -3890.046          47.000    25069221.114   102653988.870       -3031.062          42.000  
G32  25875981.674                        1418.595          28.000    25875977.567                        1104.644          30.000  
R14  23509802.924   125320537.831       -2390.553          50.000    23509801.770    97471611.879       -1859.183          49.000  
R17  22255453.650   119093916.446        1478.667          51.000    22255450.440    92628827.772        1150.047          50.000  
R05  23468671.213   125453497.860       -3329.093          50.000    23468670.172    97574948.721       -2589.327          48.000  
R16  24761509.809   132271657.820        1567.246          44.000    24761508.414   102877858.912        1219.255          39.000  
R04  25476250.844   136423890.852       -4901.862          47.000    25476265.429   106107420.478       -3812.573          46.000  
G19  25496595.565   133985688.923       -4055.957          42.000                                                                  
E11  28724832.602   150949998.3301       2037.895          37.000    28724858.489   115663099.2871       1561.864          43.000  
G06  25219792.910   132531110.467         -37.799          37.000    25219794.893   103271046.193         -29.438          40.000  
G29  26295576.464   138184172.049        2892.682          42.000    26295596.937   107676143.195        2254.028          35.000  
S31  40720212.264   213986228.948        -767.819          45.000  
E03  28098120.523   147656666.699         643.094          42.000    28098121.874   113139471.142         492.776          46.000  
R15  22213863.911   118704373.949        -147.608          52.000    22213859.594    92325795.736        -114.863          48.000  
R18  24766767.160   132206384.268        3604.536          48.000    24766788.148   102827379.262        2803.847          43.000  
R24  23394337.236   125100364.921       -2580.003          46.000    23394331.936    97300305.100       -2006.688          44.000  
E31  28370625.384   149088614.084       -2533.740          37.000    28370626.649   114236807.270       -1941.494          43.000  
E09  28384590.967   149161856.123       -3761.069          43.000    28384606.896   114292819.145       -2881.803          49.000  
G11  25464567.871   133817620.235        1535.735          44.000    25464569.433   104273645.228        1196.715          45.000  
E24  25973222.912   136490326.487       -1269.742          48.000    25973221.826   104583555.624        -972.772          50.000  
G24  22364547.439   117526590.511        -684.711          49.000    22364545.282    91579231.662        -533.545          47.000  
G12  23132380.560   121561775.512        -447.253          49.000    23132376.590    94723585.592        -348.451          46.000  
E05  24815261.288   130405139.775       -1944.113          47.000    24815264.520    99920860.148       -1489.599          51.000  
G25  24339476.645   127905009.175         841.059          44.000    24339476.826    99666303.827         655.430          44.000  
E10  28694601.365   150791528.074        1843.578          45.000    28694608.625   115541783.740        1412.674          49.000  
E25  27196438.439   142918516.572         441.168          46.000    27196441.658   109509138.477         338.037          49.000  
E12  28397593.773   149230679.268        1185.695          41.000    28397593.799   114345792.214         908.739          45.000  
E14  20925460.817   109964171.999       -2552.248          48.000    20925462.668    84258312.456       -1955.620          54.000  
> 2024 04 15 00 28 00.0060000  0 30                     
S33  41677118.661   219014820.339        -768.538          42.000  
E33  29216392.690   153533181.903       -1097.032          36.000    29216391.346   117642355.712        -840.486          40.000  
G15  25091426.360   131856087.035       -3893.897          45.000    25091441.332   102744969.536       -3034.392          42.000  
G32  25867929.678   135937004.4101       1402.404          33.000    25867930.958                1       1093.445          30.000  
R14  23523268.493   125392325.205       -2395.445          49.000    23523268.115    97527446.475       -1863.133          49.000  
R17  22247229.025   119049902.697        1455.657          52.000    22247225.001    92594594.970        1132.183          50.000  
R05  23487405.479   125553639.552       -3347.008          51.000    23487404.534    97652836.540       -2603.114          48.000  
R16  24752705.780   132224626.395        1567.949          41.000    24752705.433   102841279.091        1219.450          43.000  
R04  25503705.585   136570920.291       -4900.159          45.000    25503719.968   106221778.478       -3811.158          43.000  
G19  25519769.505   134107468.277       -4062.701          43.000                                                                  
E11  28713189.824   150888810.287        2041.173          38.000    28713215.450   115616214.237        1564.178          43.000  
G06  25220059.755   132532503.098         -54.863          39.000    25220059.139   103272131.407         -42.860          40.000  
G29  26279075.130   138097459.599        2887.974          42.000    26279097.568   107608575.084        2250.232          35.000  
S31  40724596.423   214009269.435        -768.120          44.000  
E03  28094482.236   147637554.307         630.715          40.000    28094484.574   113124826.642         483.377          46.000  
R15  22214706.988   118708878.480        -152.576          52.000    22214702.653    92329299.287        -118.665          49.000  
R18  24746517.518   132098292.396        3601.543          48.000    24746538.243   102743309.126        2801.243          43.000  
R24  23408881.595   125178131.486       -2604.327          48.000    23408875.795    97360790.235       -2025.634          45.000  
E31  28385089.037   149164620.173       -2533.081          37.000    28385090.257   114295045.651       -1940.832          44.000  
E09  28406070.767   149274725.941       -3763.656          43.000    28406086.787   114379302.615       -2883.815          49.000  
G11  25455826.445   133771678.795        1527.044          46.000    25455826.030   104237846.939        1189.873          45.000  
E24  25980478.513   136528452.074       -1272.069          48.000    25980476.832   104612768.741        -974.767          49.000  
G24  22368498.897   117547354.659        -699.408          49.000    22368496.878    91595411.492        -544.971          47.000  
G12  23134951.892   121575283.932        -453.436          49.000    23134946.560    94734111.635        -353.176          45.000  
E05  24826395.927   130463657.129       -1957.116          46.000    24826400.307    99965698.078       -1499.600          51.000  
G25  24334686.589   127879834.360         837.466          46.000    24334686.351    99646687.158         652.366          45.000  
E10  28684085.281   150736265.869        1840.474          45.000    28684092.102   115499440.470        1410.152          48.000  
E25  27193928.547   142905327.494         438.135          45.000    27193932.287   109499032.636         335.698          50.000  
E12  28390847.849   149195230.340        1177.456          41.000    28390847.469   114318630.193         902.034          45.000  
E14  20940124.728   110041223.271       -2584.406          50.000    20940125.559    84317351.783       -1980.323          55.000  
> 2024 04 15 00 28 30.0060000  0 31                     
S33  41681506.544   219037880.435        -769.254          43.000  
E33  29222697.896   153566300.240       -1111.295          38.000    29222694.083   117667732.077        -851.397          39.000  
G15  25113669.185   131972965.501       -3898.332          45.000    25113684.241   102836042.020       -3037.108          42.000  
G32  25859964.517   135895149.008        1386.889          32.000    25859963.810                1       1081.060          29.000  
R14  23536765.365   125464267.518       -2401.080          50.000    23536764.620    97583401.550       -1867.574          48.000  
R17  22239133.654   119006583.754        1432.036          52.000    22239129.667    92560902.541        1113.749          50.000  
R06  24956443.555                1        526.919          26.000                                                                  
R05  23506239.607   125654317.445       -3365.266          51.000    23506238.155    97731141.436       -2617.444          49.000  
R16  24743898.965   132177584.369        1567.942          41.000    24743899.113   102804691.015        1219.522          43.000  
R04  25531150.963   136717895.875       -4898.682          46.000    25531164.182   106336094.648       -3809.992          42.000  
G19  25542980.866   134229446.546       -4069.647          42.000                                                                  
E11  28701530.048   150827536.244        2043.639          38.000    28701556.063   115569263.313        1565.917          43.000  
G06  25220422.804   132534410.429         -72.487          40.000    25220422.233   103273617.744         -56.545          41.000  
G29  26262601.706   138010890.221        2882.939          42.000    26262624.790   107541118.459        2246.505          37.000  
S31  40728981.729   214032315.362        -768.905          44.000  
E03  28090914.640   147618811.882         618.210          39.000    28090917.863   113110465.585         473.695          46.000  
R15  22215577.599   118713535.035        -158.040          51.000    22215574.860    92332921.063        -123.018          49.000  
R18  24726284.616   131990298.253        3597.730          45.000    24726307.191   102659315.214        2798.208          47.000  
R24  23423559.923   125256630.001       -2629.205          46.000    23423556.774    97421844.560       -2044.949          47.000  
E31  28399549.720   149240612.906       -2533.071          37.000    28399551.799   114353273.796       -1941.013          45.000  
E09  28427565.420   149387676.159       -3766.799          44.000    28427582.323   114465847.647       -2886.157          50.000  
G11  25447134.632   133726002.385        1517.816          46.000    25447134.264   104202255.136        1182.750          44.000  
E24  25987747.770   136566653.473       -1275.194          48.000    25987746.463   104642039.961        -977.010          50.000  
G24  22372534.949   117568564.383        -714.865          49.000    22372532.196    91611938.541        -556.929          47.000  
G12  23137557.366   121588977.086        -459.894          50.000    23137552.591    94744781.658        -358.440          46.000  
E05  24837605.548   130522563.349       -1970.283          46.000    24837609.694   100010833.987       -1509.769          51.000  
G25  24329918.584   127854779.279         832.742          46.000    24329918.541    99627163.762         648.971          44.000  
E10  28673586.912   150681102.821        1836.720          45.000    28673593.946   115457173.176        1407.339          48.000  
E25  27191436.582   142892231.005         434.678          45.000    27191439.624   109488997.735         333.011          49.000  
E12  28384151.455   149160041.409        1168.341          41.000    28384151.320   114291667.353         895.132          45.000  
E14  20954970.232   110119237.094       -2616.775          49.000    20954971.069    84377128.655       -2005.015          55.000  
> 2024 04 15 00 29 00.0060000  0 31                     
S33  41685897.070   219060951.015        -769.100          43.000  
E33  29229080.614   153599849.457       -1125.373          38.000    29229078.131   117693438.643        -862.416          36.000  
G15  25135933.991   132089963.981       -3901.715          44.000    25135950.086   102927208.040       -3040.178          43.000  
G32  25852088.215                        1371.643          26.000    25852085.784                3       1064.859          15.000  
R14  23550292.234   125536370.729       -2405.886          50.000    23550290.326    97639481.801       -1871.274          48.000  
R17  22231169.937   118963968.475        1408.935          52.000    22231166.655    92527757.394        1095.819          51.000  
R06  24953558.961                         503.205          27.000                                                                  
R05  23525173.445   125755532.552       -3382.479          50.000    23525173.253    97809864.126       -2630.852          49.000  
R16  24735091.214   132130537.015        1568.455          39.000    24735092.564   102768098.772        1219.746          44.000  
R04  25558587.406   136864818.852       -4896.253          47.000    25558598.754   106450369.860       -3808.436          43.000  
G19  25566231.410   134351625.843       -4075.867          43.000                                                                  
E11  28689855.524   150766183.396        2046.452          38.000    28689881.785   115522252.052        1568.034          43.000  
G06  25220885.494   132536839.521         -89.558          40.000    25220884.205   103275510.593         -69.770          41.000  
G29  26246157.002   137924471.771        2878.239          42.000    26246180.684   107473779.546        2242.848          37.000  
S31  40733369.511   214055371.907        -768.506          43.000  
E03  28087420.885   147600445.791         606.064          39.000    28087423.160   113096392.873         464.385          46.000  
R15  22216478.325   118718349.404        -162.927          52.000    22216475.768    92336665.551        -126.758          50.000  
R18  24706072.326   131882411.463        3594.568          45.000    24706094.896   102575405.017        2795.778          47.000  
R24  23438377.028   125335862.969       -2653.171          46.000    23438373.761    97483470.238       -2063.523          48.000  
E31  28414008.303   149316597.386       -2532.689          38.000    28414011.123   114411495.676       -1940.558          45.000  
E09  28449075.488   149500710.150       -3768.889          43.000    28449092.847   114552456.833       -2887.894          50.000  
G11  25438495.060   133680599.300        1508.971          45.000    25438494.817   104166876.309        1175.874          45.000  
E24  25995032.931   136604935.496       -1277.205          48.000    25995030.984   104671372.959        -978.690          50.000  
G24  22376657.074   117590226.110        -729.475          49.000    22376654.829    91628817.786        -568.317          47.000  
G12  23140198.370   121602859.500        -465.741          49.000    23140194.843    94755599.144        -363.029          47.000  
E05  24848891.055   130581862.695       -1983.140          47.000    24848893.939   100056271.106       -1519.451          51.000  
G25  24325174.625   127829848.755         829.152          46.000    24325174.243    99607737.447         645.903          44.000  
E10  28663110.418   150626046.414        1833.654          45.000    28663116.429   115414987.581        1404.969          48.000  
E25  27188962.836   142879231.882         431.892          45.000    27188965.937   109479037.434         330.928          49.000  
E12  28377504.289   149125119.896        1160.095          40.000    28377506.847   114264909.459         888.474          46.000  
E14  20969998.435   110198213.904       -2648.328          49.000    20969999.761    84437643.412       -2029.299          55.000  
> 2024 04 15 00 29 30.0060000  0 31                     
S33  41690287.176   219084024.753        -769.065          42.000  
E33  29235546.475   153633821.892       -1139.444          37.000    29235544.018   117719469.463        -873.076          37.000  
G15  25158220.268   132207071.969       -3905.268          44.000    25158237.656   103018459.420       -3042.883          44.000  
R14  23563846.345   125608627.921       -2410.928          49.000    23563845.599    97695681.812       -1875.128          48.000  
R17  22223336.640   118922052.493        1385.828          51.000    22223332.750    92495156.198        1077.684          50.000  
R06  24950771.912                3        478.938          25.000                                                                  
R05  23544205.018   125857273.090       -3399.869          48.000    23544205.905    97888995.454       -2644.328          49.000  
R16  24726279.126   132083476.685        1568.864          35.000    24726281.467   102731496.423        1220.266          44.000  
R04  25586010.992   137011677.540       -4894.043          47.000    25586022.159   106564595.124       -3806.531          44.000  
G19  25589517.071   134473996.093       -4081.933          43.000                                                                  
E11  28678165.214   150704746.025        2049.417          40.000    28678191.453   115475176.067        1570.529          44.000  
G06  25221446.803   132539784.236        -106.784          38.000    25221444.005   103277805.168         -83.223          39.000  
G29  26229739.954   137838198.358        2873.322          43.000    26229763.347   107406553.659        2239.067          38.000  
S31  40737757.791   214078430.431        -768.416          44.000  
E03  28083996.311   147582449.437         593.764          40.000    28083998.896   113082603.457         455.058          46.000  
R15  22217407.734   118723314.465        -167.847          51.000    22217404.732    92340527.294        -130.585          49.000  
R18  24685881.389   131774628.524        3591.137          48.000    24685901.531   102491575.684        2793.031          47.000  
R24  23453329.164   125415820.481       -2677.120          47.000    23453325.572    97545659.368       -2082.159          47.000  
E31  28428465.203   149392566.081       -2531.919          38.000    28428467.103   114469705.402       -1939.955          45.000  
E09  28470601.295   149613818.388       -3771.341          45.000    28470617.761   114639122.883       -2889.575          50.000  
G11  25429905.125   133635464.914        1500.177          44.000    25429905.775   104131706.866        1168.784          46.000  
E24  26002331.269   136643289.988       -1279.485          48.000    26002330.120   104700761.486        -980.367          50.000  
G24  22380863.410   117612333.469        -744.239          48.000    22380861.819    91646044.306        -579.994          48.000  
G12  23142874.655   121616923.033        -471.729          49.000    23142871.262    94766557.752        -367.617          46.000  
E05  24860248.925   130641546.427       -1995.610          48.000    24860251.241   100102002.743       -1529.096          51.000  
G25  24320452.356   127805034.755         825.194          45.000    24320452.854    99588401.928         643.118          45.000  
E10  28652652.212   150571091.202        1830.353          46.000    28652658.813   115372879.500        1402.323          48.000  
E25  27186506.126   142866321.969         429.034          45.000    27186509.315   109469145.480         328.661          49.000  
E12  28370909.183   149090460.035        1151.254          40.000    28370911.014   114238351.996         882.058          46.000  
E14  20985208.366   110278141.101       -2679.856          49.000    20985209.363    84498886.381       -2053.432          55.000  
G32                                                                  25844302.703                3       1060.181          22.000  
