     3.00           OBSERVATION DATA    M: Mixed            RINEX VERSION / TYPE
CONVBIN 2.4.3                           20240415 174442 UTC PGM / RUN BY / DATE 
format: u-blox UBX                                          COMMENT             
log: /home/regis/git/gnsspwv/obsdata/VERT00CHL/2024-04-15/VECOMMENT             
{self.marker}                                               MARKER NAME         
                                                            MARKER NUMBER       
GEODETIC                                                    MARKER TYPE         
{self.observer}     {self.institution}                      OBSERVER / AGENCY   
UNKNOWN             UBLOX-ZED-F9P                           REC # / TYPE / VERS 
UNKNOWN             TWIVSP6037L                             ANT # / TYPE        
  1713381.0000 -5047934.0000 -3490983.0000                  APPROX POSITION XYZ 
        0.0000        0.0000        0.0000                  ANTENNA: DELTA H/E/N
G    8 C1C L1C D1C S1C C2L L2L D2L S2L                      SYS / # / OBS TYPES 
R    8 C1C L1C D1C S1C C2C L2C D2C S2C                      SYS / # / OBS TYPES 
E    8 C1C L1C D1C S1C C7Q L7Q D7Q S7Q                      SYS / # / OBS TYPES 
S    4 C1C L1C D1C S1C                                      SYS / # / OBS TYPES 
  2024    04    15    17    30   00.0080000     GPS         TIME OF FIRST OBS   
  2024    04    15    17    44   30.0090000     GPS         TIME OF LAST OBS    
                                                            END OF HEADER       
> 2024 04 15 17 30 00.0080000  0 24                     
G04  26926565.393   141500087.6501      -3201.393          35.000    26926577.794   110259782.0501      -2494.227          36.000  
G09  24019447.865   126223011.3251      -2047.125          47.000    24019451.250    98355582.7561      -1595.179          48.000  
E27  28783134.778   151256504.4471       1991.814          43.000    28783147.931   115897960.9111       1526.076          48.000  
G11  25088247.319   131839621.2651      -1652.768          45.000    25088250.048   102732171.9071      -1287.630          45.000  
R13  22399558.246   119612529.2441       1516.867          45.000    22399560.977    93032062.4271       1179.608          42.000  
R02  22666171.321   120951023.8381       -973.900          49.000    22666176.317    94073021.1361       -757.430          52.000  
R03  23759435.609   127186237.6221       1538.726          47.000    23759436.526    98922669.6881       1196.669          47.000  
R01  25119480.411   134277902.6201      -3143.925          45.000    25119492.681   104438343.4511      -2445.084          45.000  
E33  28545548.459   150007814.2171       -657.894          45.000    28545554.935   114941118.2011       -504.215          49.000  
G07  22371356.038   117562267.9031      -1578.216          49.000    22371355.446    91606965.3721      -1229.621          48.000  
S31  41325510.846   217167008.3641       -820.921          43.000  
S33  42274520.073   222154082.4051       -820.460          41.000  
G14  26339368.654   138414372.5051       2674.487          39.000    26339378.407   107855438.7371       2084.467          36.000  
G20  24497085.629   128733119.4501       1691.237          46.000                                                                  
R18  25252397.479   134798882.0021      -2890.917          46.000    25252404.680   104843635.9561      -2248.213          46.000  
R12  22554383.995   120481486.9511      -2193.352          49.000    22554388.398    93707838.8651      -1705.980          52.000  
E07  26439290.272   138939395.1551      -1112.792          48.000    26439296.746   106460066.7301       -852.642          52.000  
E08  29260241.409   153763499.6701      -2421.836          39.000    29260251.873   117818780.4511      -1855.668          45.000  
E26  27772983.061   145947962.4951      -2903.402          44.000    27772989.708   111830257.2271      -2224.606          48.000  
G06  25146897.882   132147765.0581      -3654.326          45.000    25146904.773   102972277.5171      -2847.800          44.000  
G30  23187546.999   121851437.2371        653.839          50.000    23187547.979    94949213.5411        509.637          44.000  
E30  27670229.136   145408107.5721        166.275          47.000    27670237.550   111416671.0731        127.335          51.000  
E02  29788631.236   156540348.4271      -2235.369          43.000    29788642.067   119946530.5661      -1712.853          45.000  
E13                                                                  30245356.774                       -2944.125          25.000  
> 2024 04 15 17 30 30.0080000  0 25                     
G04  26944842.942   141596155.815       -3203.505          33.000    26944860.535   110334640.003       -2496.072          36.000  
G09  24031149.419   126284503.865       -2052.917          49.000    24031152.584    98403498.945       -1599.558          47.000  
E27  28771774.112   151196806.604        1987.831          44.000    28771787.937   115852218.541        1523.117          48.000  
G11  25097732.528   131889465.118       -1670.812          45.000    25097735.628   102771011.208       -1301.833          45.000  
R13  22391102.564   119567375.642        1492.993          45.000    22391104.766    92996942.990        1161.364          41.000  
R02  22671675.361   120980393.029        -984.445          49.000    22671680.006    94095863.792        -765.607          52.000  
R03  23750821.021   127140121.174        1535.393          47.000    23750822.029    98886801.394        1194.207          47.000  
R01  25137150.413   134372348.514       -3153.102          47.000    25137161.615   104511801.053       -2452.387          45.000  
E33  28549347.426   150027780.727        -673.459          44.000    28549353.834   114956417.165        -516.008          48.000  
G07  22380418.088   117609889.663       -1596.972          50.000    22380417.602    91644073.198       -1244.370          48.000  
S31  41330200.905   217191651.133        -821.925          45.000  
S33  42279205.340   222178702.855        -821.448          42.000  
G14  26324100.110   138334140.862        2673.621          39.000    26324109.700   107792920.986        2083.234          36.000  
G20  24487466.119   128682566.662        1678.573          46.000                                                                  
R18  25268694.641   134885875.582       -2909.169          46.000    25268703.018   104911297.444       -2262.761          47.000  
R12  22566775.506   120547677.223       -2219.774          50.000    22566779.280    93759320.124       -1726.382          51.000  
E07  26445650.077   138972821.146       -1115.955          47.000    26445657.656   106485678.832        -854.945          53.000  
E08  29274070.867   153836173.439       -2423.595          39.000    29274081.338   117874465.344       -1856.850          44.000  
E26  27789587.259   146035212.525       -2913.594          45.000    27789592.782   111897110.974       -2232.419          48.000  
G06  25167787.949   132257542.546       -3664.309          44.000    25167796.009   103057818.176       -2855.278          45.000  
G30  23183859.957   121832063.557         637.378          50.000    23183861.307    94934117.187         496.600          43.000  
E30  27669317.740   145403320.557         152.674          46.000    27669326.671   111413003.125         116.986          51.000  
E02  29801429.087   156607600.096       -2248.345          42.000    29801439.847   119998060.962       -1722.738          46.000  
E13                                                                  30267281.092                3      -2938.830          22.000  
R19                                                                  25987000.064                        -290.295          26.000  
> 2024 04 15 17 31 00.0080000  0 25                     
G04  26963137.699   141692289.505       -3205.714          35.000    26963153.374   110409549.108       -2497.357          34.000  
G09  24042885.848   126346177.653       -2058.742          50.000    24042888.870    98451556.361       -1604.283          48.000  
E27  28760437.917   151137232.287        1983.753          44.000    28760451.208   115806570.818        1519.986          48.000  
G11  25107324.009   131939867.080       -1689.358          45.000    25107326.053   102810285.376       -1316.283          45.000  
R13  22382780.185   119522941.570        1468.950          43.000    22382783.309    92962383.200        1142.888          41.000  
R02  22677239.881   121010089.830        -995.454          49.000    22677245.565    94118961.251        -774.276          52.000  
R03  23742225.908   127094110.527        1531.992          48.000    23742226.148    98851015.435        1191.486          47.000  
R01  25154873.358   134467081.522       -3162.535          45.000    25154882.669   104585481.903       -2459.724          44.000  
E33  28553236.067   150048219.248        -689.057          42.000    28553243.613   114972077.783        -528.075          49.000  
G07  22389588.923   117658082.167       -1615.921          49.000    22389587.275    91681625.757       -1259.121          46.000  
S31  41334896.990   217216329.898        -823.035          44.000  
S33  42283896.742   222203357.003        -822.517          42.000  
G14  26308840.862   138253951.977        2672.253          38.000    26308850.905   107730436.488        2082.385          37.000  
G20  24477918.942   128632398.304        1665.835          45.000                                                                  
R18  25285097.799   134973433.970       -2927.984          48.000    25285104.904   104979398.237       -2277.328          46.000  
R12  22579315.251   120614665.921       -2246.255          50.000    22579319.913    93811422.437       -1747.122          51.000  
E07  26452031.240   139006348.245       -1119.341          48.000    26452037.371   106511368.388        -857.591          53.000  
E08  29287911.201   153908908.701       -2425.542          37.000    29287923.795   117930197.331       -1858.777          46.000  
E26  27806247.332   146122769.095       -2923.683          43.000    27806255.105   111964199.621       -2240.255          48.000  
G06  25188734.889   132367616.937       -3674.124          45.000    25188742.679   103143590.221       -2863.053          45.000  
G30  23180269.171   121813193.589         620.673          50.000    23180270.957    94919413.372         483.582          44.000  
E30  27668487.725   145398952.086         138.594          47.000    27668495.697   111409655.850         106.238          51.000  
E02  29814300.935   156675245.873       -2261.484          41.000    29814312.866   120049893.398       -1732.860          46.000  
E13                                                                  30289200.611                3      -2925.016          19.000  
R19                                                                  25989174.158                3       -310.478          27.000  
> 2024 04 15 17 31 30.0090000  0 25                     
G04  26981446.679   141788491.318       -3207.679          34.000    26981459.685   110484511.351       -2500.001          33.000  
G09  24054656.885   126408033.875       -2064.875          50.000    24054658.945    98499755.909       -1608.926          47.000  
E27  28749124.290   151077780.437        1979.606          43.000    28749137.753   115761016.929        1516.833          48.000  
G11  25117020.589   131990826.141       -1707.676          45.000    25117023.646   102849993.685       -1330.831          45.000  
R13  22374593.759   119479227.114        1445.007          44.000    22374597.468    92928383.121        1123.934          42.000  
R02  22682867.486   121040115.694       -1006.311          50.000    22682872.515    94142314.651        -782.664          52.000  
R03  23733650.879   127048204.262        1528.317          49.000    23733650.738    98815310.628        1188.714          47.000  
R01  25172648.893   134562103.866       -3172.104          46.000    25172658.288   104659387.814       -2467.098          43.000  
E33  28557216.140   150069129.295        -704.778          42.000    28557222.304   114988099.719        -540.133          48.000  
G07  22398868.393   117706843.853       -1634.731          49.000    22398866.104    91719621.816       -1273.747          46.000  
S31  41339599.612   217241043.452        -824.211          44.000  
S33  42288595.197   222228047.676        -823.534          42.000  
G14  26293589.336   138173804.913        2670.799          40.000    26293598.712   107667984.579        2080.967          38.000  
G20  24468444.683   128582614.075        1652.899          45.000                                                                  
R18  25301606.302   135061555.146       -2946.607          47.000    25301613.172   105047936.808       -2291.755          46.000  
R12  22592005.471   120682451.762       -2272.664          50.000    22592009.220    93864144.724       -1767.634          51.000  
E07  26458430.869   139039976.636       -1122.669          47.000    26458436.872   106537135.556        -860.117          53.000  
E08  29301766.454   153981707.150       -2427.286          38.000    29301776.844   117985977.750       -1860.186          45.000  
E26  27822967.101   146210632.243       -2933.713          43.000    27822974.658   112031523.170       -2247.843          47.000  
G06  25209737.452   132477987.607       -3683.674          45.000    25209745.720   103229593.108       -2870.455          45.000  
G30  23176773.553   121794825.997         603.867          50.000    23176776.359    94905100.983         470.710          44.000  
E30  27667734.889   145395002.020         124.734          46.000    27667743.909   111406629.199          95.609          51.000  
E02  29827248.736   156743285.999       -2274.590          41.000    29827260.421   120102027.947       -1742.644          46.000  
E13                                                                  30311111.826                3      -2944.332          19.000  
R19                                                                  25991460.991                3       -329.201          25.000  
> 2024 04 15 17 32 00.0090000  0 25                     
G04  26999764.014   141884750.396       -3209.575          32.000    26999776.946                       -2500.505          32.000  
G09  24066460.698   126470063.946       -2070.460          49.000    24066462.807    98548090.944       -1613.265          46.000  
E27  28737834.631   151018452.388        1975.626          44.000    28737847.978   115715557.898        1513.850          48.000  
G11  25126822.298   132042332.639       -1725.984          44.000    25126826.118   102890128.521       -1344.811          46.000  
R13  22366542.560   119436233.122        1421.272          44.000    22366545.913    92894943.426        1105.480          41.000  
R02  22688554.363   121070465.406       -1016.881          50.000    22688559.670    94165919.927        -790.994          52.000  
R03  23725095.263   127002402.579        1525.115          51.000    23725095.044    98779687.149        1186.238          48.000  
R01  25190475.391   134657404.837       -3181.289          44.000    25190486.408   104733510.470       -2474.490          43.000  
E33  28561283.752   150090504.736        -720.328          43.000    28561289.930   115004478.253        -551.880          48.000  
G07  22408253.566   117756165.232       -1653.287          49.000    22408252.628    91758054.020       -1288.330          47.000  
S31  41344308.357   217265785.944        -825.369          44.000  
S33  42293299.275   222252767.067        -824.213          42.000  
G14  26278346.785   138093703.362        2669.323          43.000    26278355.475   107605568.082        2079.892          38.000  
G20  24459044.099   128533215.201        1640.363          44.000                                                                  
R18  25318216.080   135150224.630       -2964.586          46.000    25318224.323   105116901.796       -2306.062          46.000  
R12  22604841.247   120751023.232       -2298.690          49.000    22604845.650    93917478.070       -1787.907          51.000  
E07  26464847.882   139073699.582       -1125.663          47.000    26464854.000   106562975.185        -862.487          53.000  
E08  29315628.027   154054559.736       -2429.120          36.000    29315640.165   118041799.681       -1861.354          44.000  
E26  27839744.411   146298789.500       -2943.433          45.000    27839750.405   112099072.062       -2255.291          47.000  
G06  25230794.351   132588639.204       -3692.882          45.000    25230801.834   103315814.877       -2877.589          44.000  
G30  23173372.954   121776957.617         587.518          49.000    23173375.876    94891177.566         457.720          44.000  
E30  27667061.440   145391467.027         111.060          46.000    27667070.999   111403920.611          84.911          50.000  
E02  29840268.551   156811710.193       -2287.020          39.000    29840281.095   120154456.825       -1752.521          46.000  
E13                                                                  30333007.850                3      -2938.289          18.000  
R19                                                                  25993932.486                1       -348.716          28.000  
> 2024 04 15 17 32 30.0090000  0 25                     
G04  27018088.994   141981057.277       -3210.940          33.000    27018104.204                       -2502.692          31.000  
G09  24078295.968   126532257.306       -2075.853          49.000    24078297.715    98596553.222       -1617.618          46.000  
E27  28726565.721   150959235.356        1972.140          43.000    28726579.290   115670183.938        1511.009          49.000  
G11  25136726.400   132094373.714       -1743.656          46.000    25136729.168   102930679.932       -1358.843          46.000  
R13  22358625.043   119393948.199        1397.511          44.000    22358626.598    92862055.191        1087.063          41.000  
R02  22694301.148   121101128.228       -1027.475          50.000    22694305.889    94189768.753        -799.171          51.000  
R03  23716556.715   126956692.446        1522.170          50.000    23716556.236    98744134.861        1183.831          48.000  
R01  25208354.921   134752974.884       -3190.216          45.000    25208364.324   104807842.373       -2481.230          42.000  
E33  28565437.058   150112333.300        -735.069          43.000    28565443.323   115021203.997        -563.457          48.000  
G07  22417743.138   117806033.540       -1671.274          49.000    22417741.812    91796912.402       -1302.426          47.000  
S31  41349020.047   217290545.984        -825.901          44.000  
S33  42298006.366   222277504.110        -824.839          42.000  
G14  26263110.066   138013634.605        2668.186          44.000    26263118.326   107543177.115        2079.111          38.000  
G20  24449715.095   128484189.522        1627.829          45.000                                                                  
R18  25334927.127   135239428.275       -2982.363          45.000    25334935.521   105186282.246       -2319.601          46.000  
R12  22617823.279   120820367.137       -2324.346          50.000    22617827.009    93971412.203       -1807.824          51.000  
E07  26471280.219   139107505.529       -1128.360          47.000    26471286.938   106588878.417        -864.452          53.000  
E08  29329502.266   154127456.370       -2430.448          38.000    29329512.512   118097655.373       -1862.281          44.000  
E26  27856573.826   146387228.937       -2952.627          45.000    27856580.221   112166837.180       -2262.459          47.000  
G06  25251902.501   132699559.216       -3701.962          45.000    25251909.598   103402245.811       -2884.514          43.000  
G30  23170065.752   121759575.271         571.195          50.000    23170068.288    94877632.866         445.195          44.000  
E30  27666466.244   145388335.127          97.582          46.000    27666474.265   111401520.879          74.868          50.000  
E02  29853358.777   156880506.825       -2299.490          37.000    29853372.758   120207171.075       -1761.869          45.000  
E13                                                                  30354893.364                3      -2936.920          20.000  
R19                                                                  25996515.854   108160668.9901       -367.757          34.000  
> 2024 04 15 17 33 00.0090000  0 25                     
G04  27036425.684   142077406.211       -3212.026          36.000    27036442.120   110709638.831       -2502.681          36.000  
G09  24090160.707   126594608.323       -2080.720          49.000    24090163.645    98645138.358       -1621.481          46.000  
E27  28715317.280   150900125.522        1968.736          43.000    28715331.165   115624892.111        1508.501          49.000  
G11  25146729.981   132146941.846       -1760.940          47.000    25146733.254   102971642.048       -1372.225          46.000  
R13  22350838.038   119352369.064        1374.377          44.000    22350840.252    92829715.927        1068.991          42.000  
R02  22700105.357   121132100.102       -1037.344          50.000    22700109.806    94213857.958        -806.864          51.000  
R03  23708032.840   126911069.322        1519.504          48.000    23708033.260    98708650.280        1181.674          48.000  
R01  25226281.814   134848808.284       -3198.586          46.000    25226292.934   104882379.064       -2487.782          43.000  
E33  28569675.765   150134608.974        -749.590          43.000    28569682.456   115038272.333        -574.550          48.000  
G07  22427335.748   117856440.707       -1689.038          49.000    22427333.378    91836190.685       -1316.093          46.000  
S31  41353733.946   217315316.405        -825.640          44.000  
S33  42302715.697   222302251.797        -825.018          42.000  
G14  26247878.549   137933595.736        2667.570          44.000    26247887.466   107480809.464        2078.545          40.000  
G20  24440456.409   128435534.057        1615.875          45.000                                                                  
R18  25351736.631   135329156.362       -2999.385          46.000    25351744.339   105256070.572       -2333.147          45.000  
R12  22630947.838   120890475.250       -2349.493          50.000    22630951.370    94025940.695       -1827.378          51.000  
E07  26477729.266   139141388.833       -1130.471          48.000    26477734.764   106614840.912        -866.241          53.000  
E08  29343379.959   154200391.626       -2431.612          37.000    29343391.770   118153540.645       -1863.188          43.000  
E26  27873454.968   146475942.766       -2961.375          45.000    27873461.572   112234812.544       -2269.137          46.000  
G06  25273059.368   132810738.488       -3710.039          44.000    25273066.729   103488878.755       -2890.817          43.000  
G30  23166849.884   121742673.325         555.652          50.000    23166852.573    94864462.528         433.076          45.000  
E30  27665945.274   145385601.506          84.654          46.000    27665954.517   111399426.331          64.793          50.000  
E02  29866520.186   156949668.986       -2311.083          35.000    29866533.723   120260165.410       -1770.947          45.000  
E13                                                                  30376765.394                3      -2931.482          17.000  
R19                                                                  25999235.097                        -386.991          31.000  
> 2024 04 15 17 33 30.0090000  0 24                     
G04  27054764.111   142173766.946       -3211.886          37.000    27054778.971   110784724.826       -2503.172          35.000  
G09  24102049.971   126657086.685       -2084.768          48.000    24102052.637    98693822.704       -1624.473          46.000  
E27  28704084.004   150841094.383        1966.446          43.000    28704097.862   115579660.596        1506.773          49.000  
G11  25156827.361   132200004.810       -1776.894          46.000    25156829.980   103012989.734       -1384.683          46.000  
R13  22343178.518   119311467.368        1352.254          44.000    22343180.968    92797903.536        1051.753          42.000  
R02  22705961.838   121163351.303       -1046.296          51.000    22705966.801    94238164.402        -813.763          52.000  
R03  23699520.941   126865504.060        1518.049          48.000    23699520.757    98673210.679        1180.559          48.000  
R01  25244254.204   134944873.980       -3206.039          47.000    25244266.248   104957096.442       -2493.456          43.000  
E33  28573994.193   150157301.227        -763.163          43.000    28574000.482   115055659.865        -584.933          48.000  
G07  22437023.713   117907354.759       -1705.519          49.000    22437021.533    91875863.947       -1328.944          46.000  
S31  41358443.520   217340067.617        -824.703          44.000  
S33  42307421.502   222326981.409        -823.526          42.000  
G14  26232647.810   137853559.130        2668.050          44.000    26232657.219   107418443.590        2078.791          40.000  
G20  24431263.141   128387220.557        1604.726          46.000                                                                  
R18  25368639.805   135419373.972       -3015.331          48.000    25368644.829   105326239.584       -2345.048          44.000  
R12  22644209.344   120961314.060       -2373.311          50.000    22644212.780    94081037.518       -1845.918          52.000  
R19  26002086.468                1       -520.079          28.000    26002097.168                1       -404.563          31.000  
E07  26484185.819   139175319.143       -1131.709          48.000    26484191.521   106640839.448        -867.089          53.000  
E08  29357261.974   154273335.421       -2431.563          39.000    29357271.813   118209432.436       -1863.231          42.000  
E26  27890382.822   146564898.552       -2969.065          45.000    27890389.010   112302973.295       -2275.002          46.000  
G06  25294257.915   132922143.183       -3717.193          41.000    25294264.920   103575687.394       -2896.569          41.000  
G30  23163719.175   121726221.520         541.016          50.000    23163721.625    94851642.935         421.687          45.000  
E30  27665496.325   145383236.745          72.571          46.000    27665504.667   111397614.384          55.727          51.000  
E02  29879743.553                       -2322.650          31.000    29879758.139   120313415.592       -1779.122          45.000  
> 2024 04 15 17 34 00.0090000  0 24                     
G04  27073103.674   142270137.954       -3212.115          38.000    27073116.170   110859818.842       -2503.810          32.000  
G09  24113963.134   126719690.885       -2089.004          49.000    24113965.843    98742605.114       -1627.688          46.000  
E27  28692867.247   150782142.346        1963.694          45.000    28692879.483   115534489.663        1504.661          49.000  
G11  25167017.958   132253559.269       -1793.342          45.000    25167020.576   103054720.380       -1397.493          47.000  
R13  22335645.148   119271243.859        1329.423          43.000    22335648.727    92766618.640        1033.731          42.000  
R02  22711871.759   121194881.756       -1055.646          50.000    22711875.626    94262688.055        -821.082          51.000  
R03  23691020.219   126819996.107        1515.868          49.000    23691019.383    98637815.704        1179.022          47.000  
R01  25262269.575   135041170.639       -3213.817          47.000    25262280.576   105031993.472       -2499.442          43.000  
E33  28578391.086   150180408.174        -777.315          44.000    28578398.271   115073365.130        -595.487          49.000  
G07  22446808.099   117958771.961       -1722.338          49.000    22446806.022    91915929.244       -1342.146          46.000  
S31  41363150.395   217364798.818        -823.940          45.000  
S33  42312123.268   222351687.961        -823.115          42.000  
G14  26217417.289   137773525.975        2667.590          44.000    26217426.119   107356080.428        2078.754          41.000  
G20  24422134.660   128339249.681        1593.251          46.000                                                                  
R18  25385630.133   135510075.184       -3031.312          44.000    25385635.695   105396784.778       -2357.885          44.000  
R12  22657606.078   121032879.245       -2397.585          50.000    22657609.352    94136699.315       -1864.823          50.000  
R19  26005062.471                3       -546.746          17.000    26005079.098                        -422.916          30.000  
E07  26490650.985   139209294.994       -1133.309          48.000    26490656.953   106666872.883        -868.363          53.000  
E08  29371143.437   154346286.392       -2431.978          39.000    29371153.657   118265329.708       -1863.309          41.000  
E26  27907357.088   146654092.585       -2977.074          46.000    27907362.601   112371316.604       -2281.220          46.000  
G06  25315500.231   133033768.298       -3724.493          42.000    25315506.909   103662667.770       -2902.233          41.000  
G30  23160673.286   121710218.332         525.909          50.000    23160675.600    94839172.922         409.857          44.000  
E30  27665116.752   145381240.025          60.449          47.000    27665125.066   111396084.470          46.237          51.000  
E02  29893034.626   157088992.153       -2333.139          36.000    29893046.393   120366919.493       -1787.714          46.000  
> 2024 04 15 17 34 30.0090000  0 24                     
G04  27091448.126   142366536.622       -3213.768          37.000    27091459.213   110934934.276       -2504.137          32.000  
G09  24125903.847   126782438.332       -2094.133          49.000    24125905.969    98791499.155       -1631.859          45.000  
E27  28681667.537   150723288.514        1960.089          45.000    28681679.823   115489393.986        1501.919          48.000  
G11  25177305.336   132307620.559       -1810.596          45.000    25177308.441   103096845.965       -1410.816          47.000  
R13  22328244.119   119231719.002        1305.680          43.000    22328246.390    92735877.134        1015.433          41.000  
R02  22717836.078   121226710.504       -1066.064          50.000    22717840.006    94287443.695        -829.081          51.000  
R03  23682532.781   126774565.040        1513.123          48.000    23682532.687    98602480.510        1176.819          49.000  
R01  25280328.002   135137715.727       -3222.324          43.000    25280341.980   105107083.702       -2506.388          42.000  
E33  28582870.502   150203946.742        -791.790          43.000    28582877.193   115091401.165        -606.742          48.000  
G07  22456691.862   118010707.838       -1739.912          49.000    22456689.909    91956398.712       -1355.793          47.000  
S31  41367855.243   217389525.327        -824.381          44.000  
S33  42316824.619   222376392.532        -823.269          41.000  
G14  26202192.235   137693516.372        2666.540          44.000    26202200.936   107293735.555        2077.765          41.000  
G20  24413074.468   128291641.250        1580.818          47.000                                                                  
R18  25402714.345   135601273.585       -3048.058          46.000    25402721.570   105467716.596       -2370.722          44.000  
R12  22671142.377   121105186.147       -2422.519          50.000    22671145.807    94192937.971       -1884.245          51.000  
R19  26008184.675                3       -574.412          21.000    26008196.842                3       -441.534          27.000  
E07  26497128.075   139243333.721       -1135.574          48.000    26497134.244   106692954.478        -870.182          53.000  
E08  29385031.746   154419262.133       -2432.833          40.000    29385040.904   118321245.956       -1864.217          41.000  
E26  27924378.137   146743540.053       -2985.774          46.000    27924384.330   112439854.123       -2287.873          46.000  
G06  25336787.120   133145627.624       -3732.492          43.000    25336793.590   103749830.603       -2908.492          41.000  
G30  23157717.203   121694681.142         510.088          50.000    23157719.629    94827066.009         397.509          45.000  
E30  27664809.139   145379629.570          47.207          46.000    27664818.864   111394850.515          36.182          51.000  
E02  29906391.433   157159166.496       -2344.998          32.000    29906400.581   120420689.371       -1796.782          47.000  
> 2024 04 15 17 35 00.0090000  0 24                     
G04  27109798.465   142462970.771       -3214.806          35.000    27109810.396                       -2505.039          33.000  
G09  24137873.409   126845336.895       -2099.005          48.000    24137875.563    98840510.934       -1635.575          44.000  
E27  28670488.688   150664542.607        1956.527          45.000    28670500.719   115444380.996        1499.167          49.000  
G11  25187690.536   132362194.604       -1827.537          45.000    25187693.011   103139371.123       -1424.233          46.000  
R13  22320974.631   119192902.964        1282.230          44.000    22320976.702    92705686.924         997.217          40.000  
R02  22723857.658   121258846.686       -1076.313          50.000    22723862.073    94312438.470        -837.190          51.000  
R03  23674061.864   126729219.917        1510.217          49.000    23674062.058    98567212.149        1174.579          49.000  
R01  25298438.350   135234517.683       -3230.912          46.000    25298451.349   105182373.701       -2512.871          43.000  
E33  28587433.104   150227924.530        -806.552          43.000    28587440.200   115109773.679        -617.883          48.000  
G07  22466674.575   118063168.142       -1757.406          50.000    22466672.997    91997276.832       -1369.390          47.000  
S31  41372561.548   217414255.941        -824.474          44.000  
S33  42321526.277   222401101.033        -823.517          42.000  
G14  26186973.337   137613540.832        2665.391          45.000    26186981.600   107231417.272        2077.001          41.000  
G20  24404086.065   128244405.252        1568.381          47.000                                                                  
R18  25419892.200   135692972.955       -3064.808          47.000    25419899.974   105539038.105       -2383.859          43.000  
R12  22684818.507   121178239.743       -2447.463          50.000    22684821.550    94249757.420       -1903.623          51.000  
R19  26011446.486                3       -592.571          16.000    26011453.989                        -459.958          31.000  
E07  26503618.960   139277443.175       -1138.002          48.000    26503625.333   106719090.265        -872.063          53.000  
E08  29398924.284   154492270.622       -2434.182          39.000    29398934.443   118377187.323       -1865.196          42.000  
E26  27941448.783   146833246.695       -2994.373          45.000    27941455.592   112508590.182       -2294.353          47.000  
G06  25358117.945   133257725.548       -3740.340          43.000    25358123.796   103837179.379       -2914.756          39.000  
G30  23154850.268   121679617.809         494.266          50.000    23154853.165    94815328.318         385.055          45.000  
E30  27664579.123   145378413.980          34.052          48.000    27664587.092   111393919.130          26.130          51.000  
E02  29919807.758                       -2356.768          31.000    29919820.987   120474730.300       -1805.698          46.000  
> 2024 04 15 17 35 30.0090000  0 24                     
G04  27128157.968   142559445.074       -3215.934          35.000    27128167.343                       -2505.863          29.000  
G09  24149871.533   126908391.271       -2104.290          47.000    24149874.923    98889644.128       -1639.589          45.000  
E27  28659329.910   150605911.110        1952.366          44.000    28659343.454   115399455.690        1496.064          49.000  
G11  25198174.722   132417284.103       -1844.777          46.000    25198176.497   103182297.911       -1437.424          46.000  
R13  22313839.984   119154802.829        1258.126          43.000    22313841.196    92676053.505         978.396          40.000  
R02  22729938.319   121291296.584       -1086.823          50.000    22729942.985    94337677.219        -845.289          50.000  
R03  23665607.844   126683967.470        1507.001          49.000    23665608.501    98532015.907        1172.022          49.000  
R01  25316596.923   135331580.847       -3239.708          47.000    25316608.886   105257866.881       -2519.575          43.000  
E33  28592080.902   150252345.730        -821.230          44.000    28592088.080   115128485.971        -629.389          49.000  
G07  22476757.150   118116155.195       -1774.959          49.000    22476756.292    92038565.425       -1383.072          48.000  
S31  41377269.259   217438995.139        -824.794          44.000  
S33  42326229.512   222425817.282        -823.612          42.000  
G14  26171761.738   137533606.916        2663.640          45.000    26171770.462   107169131.366        2075.542          41.000  
G20  24395168.948   128197548.590        1555.631          46.000                                                                  
R18  25437165.774   135785173.825       -3081.625          48.000    25437172.325   105610749.712       -2396.894          44.000  
R12  22698632.643   121252042.009       -2472.413          49.000    22698637.192    94307159.176       -1923.057          50.000  
R19  26014812.061                3       -620.478          20.000    26014839.185   108237019.0681       -479.323          33.000  
E07  26510123.412   139311628.060       -1140.542          47.000    26510130.660   106745283.843        -873.943          53.000  
E08  29412821.873   154565316.869       -2435.386          38.000    29412834.815   118433157.612       -1866.243          41.000  
E26  27958569.816   146923215.001       -3003.084          45.000    27958576.428   112577526.764       -2301.164          47.000  
G06  25379496.200   133370063.236       -3748.652          42.000    25379502.258   103924715.011       -2921.080          41.000  
G30  23152075.110   121665032.953         478.370          49.000    23152077.118    94803963.510         372.809          44.000  
E30  27664423.072   145377598.728          20.522          48.000    27664431.465   111393294.494          15.731          51.000  
E02  29933298.005   157300579.661       -2369.277          34.000    29933309.868   120529044.843       -1815.025          46.000  
> 2024 04 15 17 36 00.0090000  0 24                     
G04  27146522.794   142655960.997       -3218.573          35.000    27146534.027   111160458.780       -2506.685          31.000  
G09  24161900.449   126971602.906       -2109.786          48.000    24161903.828    98938899.885       -1644.022          45.000  
E27  28648196.347   150547397.300        1948.496          45.000    28648208.415   115354620.546        1492.885          48.000  
G11  25208755.857   132472888.433       -1862.110          46.000    25208757.026   103225625.871       -1451.099          45.000  
R13  22306839.407   119117422.700        1233.902          43.000    22306841.886    92646980.097         959.746          41.000  
R02  22736079.483   121324062.565       -1097.552          50.000    22736083.651    94363161.839        -853.730          51.000  
R03  23657171.850   126638810.204        1503.613          50.000    23657173.003    98496893.676        1169.476          49.000  
R01  25334803.679   135428906.576       -3248.840          46.000    25334815.560   105333564.352       -2526.643          41.000  
E33  28596812.688   150277211.293        -836.397          44.000    28596819.562   115147538.731        -640.872          48.000  
G07  22486940.722   118169668.871       -1792.581          50.000    22486939.954    92080264.387       -1396.979          47.000  
S31  41381978.872   217463743.298        -825.145          44.000  
S33  42330935.097   222450543.168        -824.337          42.000  
G14  26156558.407   137453718.596        2662.133          44.000    26156568.536   107106881.032        2074.080          41.000  
G20  24386325.499   128151075.061        1542.563          47.000                                                                  
R18  25454531.938   135877873.331       -3098.246          48.000    25454537.933   105682849.094       -2409.747          42.000  
R12  22712588.656   121326591.612       -2497.499          50.000    22712593.443    94365142.154       -1942.469          51.000  
R19  26018359.794                3       -657.968          19.000    26018362.422   108251692.162        -498.715          34.000  
E07  26516643.594   139345889.800       -1143.486          47.000    26516650.410   106771536.295        -876.125          52.000  
E08  29426730.279   154638402.389       -2436.979          37.000    29426742.734   118489158.049       -1867.402          42.000  
E26  27975738.849   147013444.183       -3012.088          43.000    27975745.965   112646663.230       -2307.969          45.000  
G06  25400918.364   133482638.556       -3756.554          41.000    25400925.257   104012435.772       -2927.170          41.000  
G30  23149390.951   121650927.943         462.083          49.000    23149393.263    94792972.583         359.964          44.000  
E30  27664344.416   145377185.929           6.897          48.000    27664353.584   111392978.256           5.328          52.000  
E02  29946855.327   157371821.902       -2380.638          36.000    29946866.329   120583633.032       -1824.179          45.000  
> 2024 04 15 17 36 30.0090000  0 24                     
G04  27164897.146   142752518.656       -3219.294          37.000    27164911.710   111235698.094       -2507.909          32.000  
G09  24173958.890   127034972.079       -2114.606          48.000    24173961.844    98988278.360       -1647.659          44.000  
E27  28637084.451   150489003.170        1944.696          45.000    28637095.825   115309877.106        1489.956          48.000  
G11  25219434.243   132529005.786       -1878.954          47.000    25219436.453   103269353.604       -1464.215          46.000  
R13  22299974.510   119080764.890        1209.972          42.000    22299977.088    92618468.521         941.053          41.000  
R02  22742280.086   121357146.473       -1107.856          50.000    22742283.879    94388893.701        -861.745          51.000  
R03  23648755.363   126593749.996        1500.684          50.000    23648755.308    98461846.887        1167.108          49.000  
R01  25353060.242   135526495.299       -3257.274          47.000    25353071.093   105409466.300       -2533.184          41.000  
E33  28601628.423   150302521.017        -850.736          43.000    28601635.904   115166931.849        -651.964          48.000  
G07  22497224.534   118223706.986       -1809.855          50.000    22497223.172    92122371.932       -1410.275          48.000  
S31  41386690.713   217488501.503        -825.505          45.000  
S33  42335641.857   222475279.339        -824.660          41.000  
G14  26141365.630   137373878.985        2660.588          44.000    26141375.217   107044668.581        2073.265          42.000  
G20  24377555.062   128104987.118        1530.058          46.000                                                                  
R18  25471990.119   135971067.513       -3114.493          47.000    25471996.728   105755333.260       -2422.276          46.000  
R12  22726685.292   121401886.101       -2522.069          50.000    22726688.938    94423704.508       -1961.568          51.000  
R19  26022033.589                3       -658.595          12.000    26022025.221                3       -520.354          16.000  
E07  26523178.085   139380228.570       -1145.693          47.000    26523184.901   106797847.794        -877.837          53.000  
E08  29440645.692   154711527.592       -2438.072          38.000    29440659.323   118545188.869       -1868.177          42.000  
E26  27992958.227   147103932.207       -3020.380          43.000    27992965.603   112715998.028       -2314.204          46.000  
G06  25422385.758   133595448.123       -3764.185          41.000    25422392.575   104100339.141       -2933.060          41.000  
G30  23146798.076   121637302.893         446.491          49.000    23146799.971    94782355.657         347.746          45.000  
E30  27664342.735   145377176.600          -6.287          49.000    27664351.420   111392971.116          -4.838          52.000  
E02  29960482.306   157443420.163       -2392.169          36.000    29960491.433   120638494.007       -1833.214          46.000  
> 2024 04 15 17 37 00.0090000  0 24                     
G04  27183281.638   142849120.738       -3220.551          37.000    27183297.506                       -2510.106          31.000  
G09  24186049.005   127098501.435       -2120.146          48.000    24186051.433    99037781.672       -1651.881          44.000  
E27  28625994.202   150430733.196        1940.543          43.000    28626007.877   115265228.808        1486.903          49.000  
G11  25230211.697   132585636.760       -1895.988          47.000    25230212.709   103313481.509       -1477.397          45.000  
R13  22293245.340   119044834.121        1185.857          43.000    22293247.807    92590522.416         922.303          40.000  
R02  22748540.134   121390552.404       -1118.656          51.000    22748544.394    94414876.013        -870.084          51.000  
R03  23640356.276   126548791.364        1497.156          52.000    23640355.379    98426879.106        1164.478          49.000  
R01  25371366.137   135624349.522       -3265.871          46.000    25371377.813   105485574.727       -2540.088          42.000  
E33  28606529.439   150328277.145        -865.854          42.000    28606536.534   115186666.997        -663.343          47.000  
G07  22507607.239   118278269.936       -1827.489          49.000    22507606.282    92164888.474       -1423.800          48.000  
S31  41391404.039   217513271.550        -825.638          44.000  
S33  42340351.665   222500027.053        -824.903          42.000  
G14  26126183.177   137294093.276        2658.812          45.000    26126192.091   106982498.164        2072.010          42.000  
G20  24368858.908   128059289.775        1516.920          46.000                                                                  
R18  25489540.305   136064754.850       -3130.746          46.000    25489549.065   105828200.959       -2435.055          46.000  
R12  22740920.082   121477925.260       -2546.777          50.000    22740923.925    94482846.030       -1980.746          51.000  
R19  26025827.083                3       -688.622          24.000                                                                  
E07  26529728.383   139414647.020       -1148.481          48.000    26529734.478   106824220.340        -879.929          53.000  
E08  29454569.776   154784695.403       -2439.288          38.000    29454582.006   118601252.263       -1869.121          42.000  
E26  28010227.621   147194679.528       -3029.150          44.000    28010234.766   112785531.494       -2320.919          46.000  
G06  25443897.711   133708491.084       -3771.650          40.000    25443904.709   104188424.308       -2939.169          41.000  
G30  23144296.938   121624160.382         430.315          49.000    23144299.169    94772114.709         335.259          44.000  
E30  27664418.360   145377574.006         -19.771          48.000    27664426.840   111393275.654         -15.096          51.000  
E02  29974174.517   157515375.634       -2404.164          39.000    29974184.333   120693628.702       -1842.359          46.000  
> 2024 04 15 17 37 30.0090000  0 24                     
G04  27201672.516   142945761.957       -3221.811          36.000    27201676.583                3      -2502.402          20.000  
G09  24198168.171   127162185.727       -2125.370          49.000    24198170.356    99087405.688       -1656.204          44.000  
E27  28614928.896   150372583.905        1936.542          43.000    28614942.683   115220672.982        1483.841          50.000  
G11  25241084.903   132642773.976       -1912.879          48.000    25241085.782   103358003.929       -1490.511          46.000  
R13  22286653.039   119009627.482        1161.729          44.000    22286653.264    92563139.503         903.486          38.000  
R02  22754859.937   121424275.880       -1129.223          50.000    22754864.125    94441105.338        -878.333          51.000  
R03  23631975.796   126503929.624        1493.988          52.000    23631973.926    98391986.703        1161.945          48.000  
R01  25389720.564   135722463.826       -3274.489          46.000    25389732.793   105561885.475       -2546.886          42.000  
E33  28611515.445   150354473.972        -880.405          44.000    28611521.994   115206739.830        -674.612          48.000  
G07  22518088.242   118333350.486       -1844.398          49.000    22518087.477    92207808.358       -1437.103          47.000  
S31  41396118.749   217538048.026        -825.662          44.000  
S33  42345062.088   222524782.217        -824.911          42.000  
G14  26111009.595   137214359.070        2657.190          44.000    26111019.167   106920367.892        2070.452          43.000  
G20  24360236.908   128013979.829        1504.116          47.000                                                                  
R18  25507182.081   136158925.543       -3146.884          48.000    25507190.797   105901444.559       -2447.684          46.000  
R12  22755291.592   121554700.447       -2571.270          48.000    22755296.402    94542560.030       -1999.850          52.000  
R19  26029759.542                3       -713.404          26.000    26029793.179                3       -555.754          18.000  
E07  26536291.615   139449139.962       -1150.736          47.000    26536298.426   106850649.960        -881.716          53.000  
E08  29468501.420   154857900.583       -2440.668          39.000    29468512.426   118657344.377       -1870.009          42.000  
E26  28027545.340   147285678.668       -3037.313          44.000    28027551.613   112855257.921       -2327.318          46.000  
G06  25465451.589   133821758.645       -3779.105          40.000    25465459.964   104276684.470       -2944.431          42.000  
G30  23141886.783   121611494.999         414.440          49.000    23141888.634    94762245.562         322.998          44.000  
E30  27664570.357   145378373.643         -33.197          48.000    27664579.278   111393888.382         -25.333          52.000  
E02  29987932.740   157587681.706       -2415.877          37.000    29987943.532   120749032.039       -1851.085          46.000  
> 2024 04 15 17 38 00.0090000  0 24                     
G04  27220070.321   143042440.508       -3223.312          36.000    27220082.112                       -2511.013          30.000  
G09  24210315.830   127226023.076       -2130.468          49.000    24210317.292    99137148.996       -1660.018          43.000  
E27  28603886.199   150314555.290        1932.296          43.000    28603900.281   115176209.623        1480.573          49.000  
G11  25252052.702   132700413.478       -1929.626          47.000    25252055.163   103402917.739       -1503.681          46.000  
R13  22280195.772   118975145.118        1137.324          44.000    22280196.655    92536319.924         884.675          40.000  
R02  22761238.844   121458316.596       -1139.995          51.000    22761243.066    94467581.366        -886.636          50.000  
R03  23623612.852   126459164.966        1490.442          51.000    23623611.592    98357169.817        1159.235          49.000  
R01  25408122.455   135820836.212       -3283.499          45.000    25408135.869   105638396.848       -2553.691          41.000  
E33  28616583.610   150381109.020        -894.998          43.000    28616591.061   115227148.470        -685.844          48.000  
G07  22528667.560   118388944.712       -1861.657          49.000    22528666.503    92251128.485       -1450.701          47.000  
S31  41400834.444   217562828.835        -826.222          44.000  
S33  42349773.779   222549541.407        -825.277          42.000  
G14  26095846.090   137134677.192        2655.193          44.000    26095855.899   106858278.394        2068.975          43.000  
G20  24351688.680   127969057.881        1490.825          47.000                                                                  
R18  25524913.429   136253573.353       -3162.821          50.000    25524921.256   105975059.278       -2460.021          46.000  
R12  22769800.831   121632207.402       -2595.677          49.000    22769805.844    94602843.160       -2018.907          52.000  
R19  26033819.721                3       -735.220          17.000    26033868.848                3       -568.613          22.000  
E07  26542868.543   139483705.523       -1153.391          47.000    26542876.004   106877135.225        -883.734          53.000  
E08  29482437.558   154931141.556       -2441.947          39.000    29482450.165   118713463.906       -1871.317          42.000  
E26  28044907.322   147376925.498       -3045.619          43.000    28044915.668   112925174.150       -2333.666          46.000  
G06  25487047.754   133935245.407       -3786.735          37.000    25487056.664   104365115.458       -2950.625          42.000  
G30  23139566.997   121599304.733         398.417          48.000    23139569.088    94752746.672         310.632          44.000  
E30  27664799.682   145379574.301         -46.663          49.000    27664807.607   111394808.393         -35.836          51.000  
E02  30001758.810   157660335.119       -2427.482          36.000    30001769.332   120804701.513       -1860.144          46.000  
> 2024 04 15 17 38 30.0090000  0 24                     
G04  27238473.944   143139151.555       -3223.821          36.000    27238487.282   111537028.1931      -2512.261          35.000  
G09  24222491.875   127290008.924       -2135.200          49.000    24222494.076    99187008.031       -1663.707          44.000  
E27  28592867.033   150256644.455        1928.468          44.000    28592879.765   115131836.502        1477.610          49.000  
G11  25263115.430   132758548.499       -1946.002          46.000    25263118.020   103448217.666       -1516.483          46.000  
R13  22273873.380   118941384.585        1113.423          44.000    22273875.258    92510061.787         865.676          40.000  
R02  22767677.330   121492671.232       -1150.283          51.000    22767681.332    94494301.582        -894.701          51.000  
R03  23615268.103   126414494.348        1487.464          52.000    23615267.342    98322426.058        1156.885          48.000  
R01  25426573.583   135919461.819       -3291.640          47.000    25426586.151   105715105.267       -2560.197          42.000  
E33  28621733.919   150408177.218        -909.302          43.000    28621741.734   115247888.975        -696.856          48.000  
G07  22539343.616   118445045.666       -1878.431          49.000    22539342.177    92294843.481       -1463.775          46.000  
S31  41405549.837   217587610.088        -825.814          44.000  
S33  42354485.244   222574300.572        -825.234          42.000  
G14  26080692.716   137055045.758        2653.548          45.000    26080701.774   106796228.164        2067.562          42.000  
G20  24343213.833   127924521.134        1478.164          47.000                                                                  
R18  25542731.519   136348689.274       -3178.177          49.000    25542740.290   106049038.094       -2471.915          45.000  
R12  22784445.942   121710438.147       -2619.545          48.000    22784450.334    94663689.242       -2037.591          51.000  
R19  26038030.665                3       -757.907          21.000    26038078.558                3       -589.022          22.000  
E07  26549459.560   139518339.022       -1155.313          47.000    26549466.546   106903672.552        -885.266          53.000  
E08  29496380.840   155004413.842       -2442.973          40.000    29496393.561   118769607.356       -1871.709          42.000  
E26  28062315.643   147468413.162       -3053.570          41.000    28062324.854   112995274.895       -2339.715          46.000  
G06  25508681.928   134048943.182       -3793.208          37.000    25508692.691   104453710.830       -2955.958          42.000  
G30  23137335.934   121587584.767         382.982          48.000    23137338.836    94743614.264         298.561          44.000  
E30  27665103.409   145381172.017         -59.727          48.000    27665111.729   111396032.627         -45.823          52.000  
E02  30015648.691   157733329.904       -2438.621          36.000    30015660.042   120860632.525       -1868.692          46.000  
> 2024 04 15 17 39 00.0090000  0 24                     
G04  27256884.195   143235895.256       -3225.647          36.000    27256897.365   111612412.485       -2513.142          39.000  
G09  24234695.970   127354143.127       -2140.105          49.000    24234698.914    99236982.661       -1667.572          44.000  
E27  28581868.625   150198853.038        1924.689          44.000    28581882.076   115087554.891        1474.750          49.000  
G11  25274271.785   132817176.714       -1962.289          45.000    25274274.782   103493901.880       -1529.053          46.000  
R13  22267686.589   118908347.842        1089.324          43.000    22267688.681    92484366.550         847.197          40.000  
R02  22774174.943   121527340.640       -1160.696          52.000    22774178.406    94521266.594        -902.746          51.000  
R03  23606940.919   126369918.910        1484.381          52.000    23606940.639    98287756.315        1154.468          49.000  
R01  25445071.839   136018340.526       -3299.989          46.000    25445084.154   105792010.532       -2566.701          42.000  
E33  28626967.150   150435677.847        -923.537          42.000    28626974.873   115268960.826        -707.700          48.000  
G07  22550115.246   118501650.968       -1894.985          49.000    22550114.388    92338951.470       -1476.650          47.000  
S31  41410265.039   217612389.326        -825.725          44.000  
S33  42359196.647   222599058.456        -825.043          42.000  
G14  26065549.774   136975467.287        2651.929          45.000    26065558.267   106734219.190        2066.477          44.000  
G20  24334812.694   127880371.801        1465.481          47.000                                                                  
R18  25560637.054   136444268.785       -3193.581          48.000    25560644.873   106123377.503       -2483.735          43.000  
R12  22799226.688   121789389.465       -2643.371          50.000    22799230.305    94725095.770       -2056.105          51.000  
R19  26042365.458                        -785.603          28.000    26042414.890                3       -606.472          18.000  
E07  26556063.998   139553040.364       -1157.654          47.000    26556069.943   106930261.834        -886.977          53.000  
E08  29510330.590   155077717.460       -2443.670          41.000    29510342.345   118825774.834       -1872.255          41.000  
E26  28079771.071   147560139.294       -3061.104          40.000    28079780.263   113065558.346       -2345.479          46.000  
G06  25530357.901   134162848.150       -3799.604          39.000    25530367.458   104542467.710       -2961.047          41.000  
G30  23135195.344   121576334.788         367.435          48.000    23135197.028    94734848.049         286.487          44.000  
E30  27665483.071   145383167.221         -72.865          48.000    27665491.666   111397561.429         -55.870          52.000  
E02  30029604.564   157806664.335       -2449.771          39.000    30029615.219   120916823.827       -1877.184          46.000  
> 2024 04 15 17 39 30.0090000  0 24                     
G04  27275295.483   143332655.280       -3225.493          35.000    27275310.069   111687809.560       -2513.254          39.000  
G09  24246925.458   127418409.756       -2144.385          49.000    24246928.416    99287060.463       -1670.875          44.000  
E27  28570891.934   150141166.941        1921.319          45.000    28570904.358   115043353.978        1472.195          48.000  
G11  25285519.492   132876280.010       -1977.773          47.000    25285521.636   103539956.293       -1541.115          46.000  
R13  22261631.952   118876020.300        1065.901          43.000    22261634.871    92459222.939         829.237          40.000  
R02  22780728.509   121562309.878       -1170.593          52.000    22780731.744    94548464.815        -910.456          51.000  
R03  23598629.128   126325423.776        1482.037          52.000    23598628.387    98253149.043        1152.686          50.000  
R01  25463612.833   136117455.723       -3307.474          46.000    25463626.145   105869099.708       -2572.385          42.000  
E33  28632281.012   150463594.384        -937.305          44.000    28632287.082   115290351.367        -718.186          48.000  
G07  22560979.244   118558742.539       -1910.961          49.000    22560978.587    92383438.394       -1489.063          47.000  
S31  41414977.380   217637152.926        -825.032          44.000  
S33  42363904.684   222623799.929        -824.267          42.000  
G14  26050414.278   136895928.607        2650.707          45.000    26050422.227   106672241.248        2065.628          42.000  
G20  24326481.912   127836596.141        1453.178          47.000                                                                  
R18  25578626.343   136540291.467       -3207.959          47.000    25578634.636   106198061.605       -2495.137          43.000  
R12  22814138.040   121869042.340       -2666.451          48.000    22814141.989    94787047.947       -2074.043          52.000  
R19  26046839.224                        -808.465          27.000    26046847.277                        -628.953          28.000  
E07  26562677.217   139587793.528       -1159.152          47.000    26562682.942   106956890.854        -888.120          53.000  
E08  29524282.212   155151036.666       -2444.127          41.000    29524293.703   118881954.291       -1872.886          40.000  
E26  28097268.458   147652085.641       -3068.287          41.000    28097277.318   113136010.531       -2351.063          46.000  
G06  25552070.887   134276940.933       -3806.055          40.000    25552079.518   104631370.844       -2965.796          42.000  
G30  23133141.273   121565538.641         352.595          48.000    23133142.940    94726435.475         274.437          44.000  
E30  27665935.833   145385544.611         -85.389          48.000    27665943.834   111399383.083         -65.495          52.000  
E02  30043620.414   157880321.133       -2460.502          40.000    30043631.200   120973262.121       -1885.236          45.000  
> 2024 04 15 17 40 00.0090000  0 25                     
G04  27293711.368   143429438.044       -3226.966          33.000    27293727.398   111763224.432       -2514.411          38.000  
G09  24259181.507   127482815.184       -2149.274          49.000    24259184.907    99337246.392       -1674.696          44.000  
E27  28559936.510   150083594.225        1916.865          45.000    28559948.652   114999239.911        1468.934          49.000  
G11  25296858.269   132935862.492       -1994.182          47.000    25296859.255   103586384.112       -1553.848          45.000  
R13  22255712.433   118844411.106        1041.414          43.000    22255715.620    92434638.031         810.094          40.000  
R02  22787338.690   121597586.859       -1181.141          51.000    22787342.211    94575902.411        -918.771          50.000  
R03  23590333.411   126281017.518        1478.620          51.000    23590332.620    98218610.883        1149.976          49.000  
R01  25482200.169   136216813.887       -3316.104          46.000    25482212.722   105946377.899       -2579.202          42.000  
E33  28637673.252   150491932.614        -951.787          44.000    28637679.909   115312065.032        -729.319          48.000  
G07  22571936.180   118616324.292       -1927.621          49.000    22571935.932    92428307.244       -1502.129          47.000  
S31  41419688.105   217661905.075        -825.197          44.000  
S33  42368610.807   222648531.318        -824.227          42.000  
G14  26035287.420   136816438.751        2648.636          45.000    26035296.300   106610301.368        2063.820          43.000  
G20  24318223.904   127793202.487        1439.892          46.000                                                                  
R18  25596699.266   136636759.046       -3223.023          46.000    25596706.850   106273091.673       -2506.781          41.000  
R12  22829179.997   121949400.001       -2690.400          48.000    22829185.006    94849548.280       -2092.643          52.000  
R19  26051430.376                3       -842.369          21.000    26051445.809                        -645.766          30.000  
R14  26091132.344   139080427.7501       3621.258          44.000    26091150.126   108173784.0711       2816.324          44.000  
E07  26569300.625   139622604.935       -1161.383          47.000    26569307.484   106983564.489        -889.881          53.000  
E08  29538238.939   155224377.937       -2445.273          40.000    29538251.541   118938150.651       -1873.453          41.000  
E26  28114808.687   147744256.294       -3076.203          41.000    28114816.841   113206634.586       -2357.007          46.000  
G06  25573819.237   134391224.210       -3812.701          40.000    25573827.544   104720422.455       -2970.965          42.000  
G30  23131174.333   121555202.433         336.840          48.000    23131177.268    94718381.271         262.500          45.000  
E30  27666462.134   145388311.184         -98.826          48.000    27666470.183   111401502.947         -75.777          52.000  
E02  30057698.417   157954305.116       -2471.813          41.000    30057710.475   121029951.173       -1893.980          45.000  
> 2024 04 15 17 40 30.0090000  0 25                     
G04  27312137.069   143526240.3751      -3228.103          34.000    27312152.971   111838670.041       -2515.534          39.000  
G09  24271467.378   127547376.203       -2154.629          49.000    24271470.932    99387553.582       -1678.870          45.000  
E27  28549006.095   150026153.486        1912.473          45.000    28549017.935   114955227.022        1465.476          49.000  
G11  25308289.780   132995938.767       -2010.606          47.000    25308292.398   103633196.694       -1566.751          46.000  
R13  22249932.318   118813538.901        1016.685          44.000    22249933.426    92410626.321         791.196          40.000  
R02  22794010.542   121633189.781       -1192.285          51.000    22794014.192    94603593.487        -927.299          50.000  
R03  23582057.078   126236718.405        1474.872          51.000    23582057.113    98184156.068        1147.083          49.000  
R01  25500835.050   136316431.943       -3324.761          45.000    25500848.870   106023858.120       -2585.978          41.000  
E33  28643149.240   150520708.747        -966.451          44.000    28643155.899   115334114.224        -740.556          48.000  
G07  22582989.896   118674411.244       -1944.583          49.000    22582989.545    92473569.750       -1515.303          47.000  
S31  41424399.369   217686663.042        -825.338          44.000  
S33  42373318.063   222673268.255        -824.641          42.000  
G14  26020173.513   136737017.304        2646.219          45.000    26020182.209   106548414.775        2062.100          43.000  
G20  24310042.683   127750209.902        1426.399          46.000                                                                  
R18  25614855.017   136733684.360       -3238.179          41.000    25614863.761   106348477.713       -2518.511          38.000  
R12  22844357.005   122030476.241       -2714.470          48.000    22844363.243    94912607.549       -2111.223          52.000  
R19  26056175.054                3       -857.036          19.000    26056175.950                        -666.196          28.000  
R14  26070761.623   138971844.496        3617.757          46.000    26070778.955   108089331.332        2813.906          46.000  
E07  26575939.294   139657491.421       -1164.173          47.000    26575946.281   107010295.640        -891.972          53.000  
E08  29552203.929   155297758.238       -2446.573          41.000    29552215.727   118994376.920       -1874.708          42.000  
E26  28132394.306   147836665.760       -3084.215          42.000    28132401.874   113277441.631       -2363.250          46.000  
G06  25595604.196   134505711.130       -3819.507          38.000    25595612.931   104809632.844       -2976.283          41.000  
G30  23129298.221   121545342.690         320.814          49.000    23129300.658    94710698.359         249.890          45.000  
E30  27667066.514   145391484.297        -112.420          49.000    27667073.860   111403934.318         -86.250          52.000  
E02  30071840.448   158028631.650       -2483.252          39.000    30071854.257   121086902.706       -1902.782          43.000  
> 2024 04 15 17 41 00.0090000  0 25                     
G04  27330571.205   143623103.681       -3229.396          37.000    27330585.624   111914147.570       -2516.214          39.000  
G09  24283782.948   127612094.196       -2159.817          48.000    24283786.578    99437983.093       -1683.136          45.000  
E27  28538102.054   149968847.831        1907.952          46.000    28538112.667   114911317.623        1461.891          49.000  
G11  25319815.853   133056507.906       -2027.200          46.000    25319818.331   103680393.320       -1579.595          46.000  
R13  22244289.236   118783407.123         992.117          44.000    22244291.932    92387190.525         771.341          41.000  
R02  22800744.857   121669121.529       -1203.104          51.000    22800747.755    94631540.324        -935.813          50.000  
R03  23573802.849   126192529.604        1471.173          52.000    23573802.274    98149787.041        1144.269          49.000  
R01  25519520.958   136416310.996       -3333.451          46.000    25519533.708   106101541.412       -2592.787          42.000  
E33  28648708.614   150549923.532        -981.061          44.000    28648715.259   115356499.523        -751.845          48.000  
G07  22594139.749   118733002.086       -1961.210          49.000    22594139.395    92519224.898       -1528.397          48.000  
S31  41429112.037   217711427.969        -825.457          44.000  
S33  42378026.472   222698011.628        -824.581          42.000  
G14  26005073.626   136657668.388        2643.720          45.000    26005082.387   106486584.675        2060.137          44.000  
G20  24301938.455   127707622.027        1412.852          46.000                                                                  
R18  25633096.684   136831064.422       -3253.441          37.000    25633105.890   106424217.550       -2530.237          36.000  
R12  22859670.366   122112269.421       -2738.331          48.000    22859674.915    94976224.412       -2129.822          51.000  
R19  26061057.900                3       -870.509          21.000    26061057.473                1       -684.615          25.000  
R14  26050409.341   138863363.149        3614.475          46.000    26050427.373   108004957.833        2811.167          47.000  
E07  26582593.180   139692454.322       -1166.633          46.000    26582599.657   107037085.344        -893.867          53.000  
E08  29566175.161   155371179.116       -2448.059          41.000    29566186.661   119050634.253       -1875.862          41.000  
E26  28150024.591   147929313.101       -3092.154          42.000    28150033.113   113348430.935       -2369.260          46.000  
G06  25617427.631   134620399.754       -3826.153          38.000    25617437.870   104899000.287       -2981.534          41.000  
G30  23127513.034   121535960.536         304.825          49.000    23127515.210    94703387.574         237.590          45.000  
E30  27667747.699   145395065.887        -126.090          48.000    27667755.632   111406678.660         -96.619          52.000  
E02  30086050.039   158103300.619       -2494.552          39.000    30086063.680   121144116.579       -1911.459          44.000  
> 2024 04 15 17 41 30.0090000  0 25                     
G04  27349011.604   143719996.268       -3229.836          36.000    27349023.058   111989647.900       -2516.731          39.000  
G09  24296126.159   127676957.629       -2164.119          48.000    24296129.324    99488525.903       -1685.981          44.000  
E27  28527219.990   149911667.482        1904.532          46.000    28527231.229   114867504.246        1459.173          48.000  
G11  25331432.623   133117556.059       -2042.480          45.000    25331435.266   103727963.198       -1591.599          45.000  
R13  22238783.522   118754005.972         968.172          44.000    22238786.023    92364322.959         752.896          41.000  
R02  22807538.042   121705371.257       -1213.173          52.000    22807541.629    94659734.466        -943.600          50.000  
R03  23565567.178   126148440.875        1468.427          52.000    23565566.928    98115495.869        1142.181          50.000  
R01  25538252.197   136516438.896       -3341.294          46.000    25538265.168   106179418.264       -2598.716          43.000  
E33  28654349.099   150579564.731        -994.557          44.000    28654355.405   115379211.541        -762.127          47.000  
G07  22605382.479   118792082.873       -1977.099          49.000    22605382.594    92565261.843       -1540.573          48.000  
S31  41433823.653   217736187.799        -824.581          44.000  
S33  42382734.570   222722750.561        -824.185          42.000  
G14  25989985.850   136578383.078        2642.073          45.000    25989995.229   106424804.172        2058.969          44.000  
G20  24293909.798   127665429.204        1400.267          47.000                                                                  
R18  25651422.193   136928882.916       -3267.621          37.000    25651430.233   106500298.294       -2541.294          34.000  
R12  22875114.253   122194764.554       -2760.982          49.000    22875117.741    95040387.238       -2147.475          51.000  
R19  26066065.054                3       -905.871          22.000    26066062.817                3       -702.886          26.000  
R14  26030074.264   138754975.232        3611.751          44.000    26030093.208   107920657.011        2809.229          47.000  
E07  26589258.165   139727482.054       -1168.124          47.000    26589265.288   107063924.726        -895.056          53.000  
E08  29580152.649   155444629.102       -2448.090          41.000    29580164.519   119106913.914       -1876.049          41.000  
E26  28167697.694   148022184.433       -3098.994          43.000    28167706.152   113419591.860       -2374.601          46.000  
G06  25639287.883   134735274.640       -3831.605          38.000    25639298.067   104988512.916       -2986.147          41.000  
G30  23125816.531   121527044.059         289.885          49.000    23125818.492    94696439.679         226.155          44.000  
E30  27668504.581   145399044.904        -138.795          48.000    27668512.872   111409727.534        -106.302          53.000  
E02  30100321.734   158178298.943       -2504.830          40.000    30100334.550   121201582.815       -1919.346          41.000  
> 2024 04 15 17 42 00.0090000  0 25                     
G04  27367450.865   143816894.372       -3229.895          34.000    27367462.741   112065152.572       -2516.825          39.000  
G09  24308492.825   127741942.794       -2168.213          49.000    24308495.493    99539163.613       -1689.584          44.000  
E27  28516357.843   149854590.469        1900.979          45.000    28516369.766   114823770.055        1456.586          48.000  
G11  25343136.089   133179057.266       -2057.550          44.000    25343138.593   103775886.138       -1603.530          45.000  
R13  22233409.410   118725313.222         944.502          42.000    22233412.696    92342006.395         734.681          41.000  
R02  22814385.927   121741916.545       -1223.049          51.000    22814389.584    94688158.512        -951.340          49.000  
R03  23557345.626   126104429.709        1465.747          52.000    23557345.266    98081265.007        1140.039          49.000  
R01  25557025.503   136616791.710       -3348.802          45.000    25557040.034   106257470.031       -2604.664          44.000  
E33  28660065.505   150609607.989       -1007.992          44.000    28660072.546   115402231.633        -772.396          48.000  
G07  22616713.855   118851628.054       -1992.446          49.000    22616713.007    92611660.657       -1552.629          47.000  
S31  41438530.237   217760919.413        -823.974          45.000  
S33  42387436.554   222747460.565        -823.211          42.000  
G14  25974906.540   136499140.504        2640.722          45.000    25974916.073   106363056.960        2057.814          45.000  
G20  24285951.472   127623609.905        1387.830          46.000                                                                  
R18  25669822.733                       -3280.620          32.000    25669830.862                       -2551.633          29.000  
R12  22890683.439   122277934.409       -2783.517          48.000    22890687.433    95105074.821       -2164.937          51.000  
R19  26071137.227                3       -920.413          19.000    26071199.465                3       -723.238          13.000  
R14  26009754.536   138646660.162        3609.342          46.000    26009772.582   107836412.812        2807.189          47.000  
E07  26595931.890   139762550.977       -1169.631          47.000    26595939.024   107090795.664        -896.243          54.000  
E08  29594130.622   155518084.761       -2448.627          40.000    29594143.573   119163197.822       -1876.138          43.000  
E26  28185407.415   148115253.785       -3105.460          43.000    28185416.173   113490904.547       -2379.672          45.000  
G06  25661178.220   134850308.607       -3836.975          41.000    25661188.551   105078149.495       -2989.928          41.000  
G30  23124202.952   121518569.261         275.071          50.000    23124204.946    94689835.961         214.281          44.000  
E30  27669332.444   145403398.197        -151.296          48.000    27669341.230   111413063.198        -115.935          52.000  
E02  30114650.106   158253601.432       -2515.192          38.000    30114664.368   121259282.126       -1927.168          41.000  
> 2024 04 15 17 42 30.0090000  0 25                     
G04  27385892.905   143913812.950       -3231.409          35.000    27385905.602   112140673.347       -2517.889          38.000  
G09  24320884.772   127807064.812       -2173.191          48.000    24320887.935    99589907.961       -1693.399          44.000  
E27  28505520.398   149797633.652        1896.397          46.000    28505531.193   114780127.965        1452.992          48.000  
G11  25354927.941   133241024.271       -2073.553          45.000    25354930.412   103824172.004       -1615.784          44.000  
R13  22228171.736   118697345.928         919.828          42.000    22228175.652    92320254.087         715.439          42.000  
R02  22821293.193   121778773.539       -1233.899          50.000    22821296.775    94716824.990        -959.799          50.000  
R03  23549141.556   126060513.104        1462.128          52.000    23549141.382    98047107.682        1137.201          50.000  
R01  25575844.088   136717384.344       -3357.344          48.000    25575858.809   106335708.341       -2611.417          43.000  
E33  28665862.291   150640067.806       -1022.509          44.000    28665869.621   115425570.879        -783.475          49.000  
G07  22628135.935   118911650.260       -2008.863          49.000    22628135.184    92658431.190       -1565.399          48.000  
S31  41443233.622   217785636.571        -823.995          44.000  
S33  42392136.394   222772156.879        -823.286          41.000  
G14  25959838.451   136419958.467        2638.166          44.000    25959847.546   106301356.916        2055.695          44.000  
G20  24278067.755   127582181.425        1374.079          47.000                                                                  
R18  25688303.049                       -3295.745          29.000    25688311.607                       -2563.347          28.000  
R12  22906381.726   122361791.076       -2806.974          49.000    22906386.175    95170296.604       -2183.132          52.000  
R19  26076428.038                3       -956.675          18.000    26076418.673                2       -739.921          25.000  
R14  25989451.107   138538436.290        3605.764          47.000    25989468.718   107752239.545        2804.413          46.000  
E07  26602615.944   139797676.184       -1172.045          47.000    26602623.195   107117709.717        -898.045          54.000  
E08  29608113.269   155591561.271       -2449.661          40.000    29608125.672   119219497.764       -1877.225          42.000  
E26  28203160.697   148208533.981       -3113.141          45.000    28203167.283   113562378.793       -2385.368          44.000  
G06  25683102.623   134965513.269       -3843.016          42.000    25683110.834   105167919.021       -2994.507          42.000  
G30  23122677.955   121510550.943         259.528          51.000    23122679.583    94683587.928         202.302          44.000  
E30  27670234.703   145408141.391        -164.799          48.000    27670243.334   111416697.639        -126.264          52.000  
E02  30129040.563   158329221.674       -2526.037          39.000    30129054.363   121317224.925       -1935.515          40.000  
> 2024 04 15 17 43 00.0090000  0 25                     
G04  27404343.253   144010769.611       -3232.159          36.000    27404356.354   112216223.689       -2518.971          39.000  
G09  24333306.296   127872341.332       -2178.472          47.000    24333309.087    99640772.645       -1697.431          43.000  
E27  28494707.857   149740816.448        1891.517          46.000    28494718.969   114736592.813        1449.382          48.000  
G11  25366810.979   133303472.329       -2089.655          45.000    25366814.420   103872832.724       -1628.355          45.000  
R13  22223073.924   118670123.535         894.953          43.000    22223077.066    92299081.159         695.967          41.000  
R02  22828262.528   121815961.433       -1245.199          52.000    22828265.991    94745748.845        -968.519          50.000  
R03  23540957.607   126016710.373        1458.099          51.000    23540958.155    98013038.953        1134.149          49.000  
R01  25594709.907   136818234.708       -3366.092          46.000    25594724.329   106414147.119       -2617.882          43.000  
E33  28671741.670   150670961.021       -1037.130          44.000    28671748.001   115449242.232        -794.686          49.000  
G07  22639651.105   118972164.646       -2025.382          49.000    22639650.221    92705585.225       -1578.168          47.000  
S31  41447937.944   217810356.830        -824.309          44.000  
S33  42396836.894   222796857.020        -823.127          42.000  
G14  25944785.968   136340857.204        2635.264          44.000    25944795.552   106239719.821        2053.460          45.000  
G20  24270261.937   127541163.761        1360.316          46.000                                                                  
R18  25706866.963                1      -3310.105          27.000    25706861.909                3      -2568.530          22.000  
R12  22922211.212   122446349.047       -2830.300          50.000    22922215.903    95236063.864       -2201.295          52.000  
R19  26081813.389                3       -961.220          20.000    26081852.885                        -757.091          28.000  
R14  25969170.034   138430325.288        3601.740          48.000    25969186.674   107668153.963        2801.355          47.000  
E07  26609314.342   139832875.253       -1174.563          47.000    26609321.232   107144680.398        -899.938          54.000  
E08  29622101.650   155665076.350       -2451.014          40.000    29622116.178   119275827.268       -1878.227          43.000  
E26  28220951.797   148302040.200       -3120.491          42.000    28220961.178   113634026.202       -2391.094          45.000  
G06  25705059.997   135080902.406       -3849.200          40.000    25705069.673   105257832.370       -2999.512          43.000  
G30  23121242.138   121503006.333         243.530          50.000    23121244.369    94677709.032         189.802          45.000  
E30  27671215.504   145413292.622        -178.501          49.000    27671223.387   111420644.689        -136.771          52.000  
E02  30143494.854   158405175.735       -2537.584          40.000    30143507.864   121375423.472       -1944.204          40.000  
> 2024 04 15 17 43 30.0090000  0 25                     
G04  27422798.388   144107766.938       -3234.226          35.000    27422815.962   112291805.628       -2519.886          40.000  
G09  24345757.668   127937774.835       -2183.904          47.000    24345759.966    99691759.718       -1701.924          42.000  
E27  28483923.193   149684143.062        1886.398          46.000    28483933.740   114693167.896        1445.474          47.000  
G11  25378786.928   133366401.569       -2106.005          46.000    25378789.523   103921868.381       -1640.798          44.000  
R13  22218116.868   118643650.798         869.662          43.000    22218118.829    92278491.272         676.555          40.000  
R02  22835293.811   121853483.832       -1256.578          51.000    22835297.493    94774932.849        -977.298          49.000  
R03  23532796.641   125973025.908        1453.857          51.000    23532797.586    97979062.211        1130.786          49.000  
R01  25613625.940   136919344.959       -3374.973          48.000    25613639.308   106492787.982       -2624.872          43.000  
E33  28677703.021   150702289.426       -1051.660          44.000    28677709.974   115473247.049        -805.781          49.000  
G07  22651259.990   119033171.453       -2041.898          48.000    22651259.902    92753122.949       -1591.188          47.000  
S31  41452643.036   217835082.625        -824.576          44.000  
S33  42401538.045   222821562.223        -823.979          42.000  
G14  25929750.325   136261842.112        2632.007          44.000    25929758.541   106178149.846        2051.017          45.000  
G20  24262535.598   127500561.240        1346.304          46.000                                                                  
R18  25725506.597                3      -3324.483          28.000    25725509.564                3      -2584.043          21.000  
R12  22938171.094   122531607.665       -2853.782          49.000    22938175.818    95302376.116       -2219.702          52.000  
R19  26087358.786                3       -992.873          15.000    26087359.469                1       -776.273          27.000  
R14  25948909.985   138322332.694        3597.462          49.000    25948926.535   107584160.470        2798.062          47.000  
E07  26616026.937   139868150.775       -1177.273          47.000    26616033.911   107171709.648        -902.108          54.000  
E08  29636100.172   155738632.797       -2452.513          41.000    29636113.445   119332188.416       -1879.140          42.000  
E26  28238790.146   148395772.733       -3128.413          43.000    28238797.758   113705846.980       -2396.923          45.000  
G06  25727053.141   135196475.178       -3855.503          39.000    25727062.525   105347888.742       -3004.509          42.000  
G30  23119897.231   121495937.557         227.415          51.000    23119900.078    94672200.908         177.299          45.000  
E30  27672273.973   145418854.825        -192.498          48.000    27672281.850   111424906.663        -147.443          52.000  
E02  30158012.794   158481464.613       -2548.864          41.000    30158024.713   121433878.547       -1952.896          40.000  
> 2024 04 15 17 44 00.0090000  0 25                     
G04  27441266.868   144204811.374       -3235.475          38.000    27441283.362   112367424.293       -2521.082          40.000  
G09  24358240.390   128003371.903       -2189.231          47.000    24358243.231    99742874.239       -1705.946          42.000  
E27  28473167.385   149627621.745        1881.527          46.000    28473178.078   114649859.486        1441.736          47.000  
G11  25390853.906   133429816.207       -2121.837          46.000    25390856.655   103971282.287       -1653.264          45.000  
R13  22213300.933   118617935.809         844.369          43.000    22213302.872    92258490.752         656.906          40.000  
R02  22842390.732   121891348.983       -1267.793          51.000    22842393.858    94804383.449        -986.098          50.000  
R03  23524660.383   125929468.373        1449.841          52.000    23524660.408    97945184.174        1127.655          49.000  
R01  25632590.281   137020721.153       -3383.582          46.000    25632603.549   106571635.710       -2631.938          43.000  
E33  28683748.580   150734058.891       -1066.146          44.000    28683755.786   115497589.820        -816.939          49.000  
G07  22662963.860   119094674.930       -2058.253          47.000    22662963.216    92801047.692       -1603.985          47.000  
S31  41457350.809   217859820.980        -824.793          44.000  
S33  42406241.230   222846280.033        -823.776          42.000  
G14  25914731.947   136182922.417        2629.137          45.000    25914740.423   106116654.223        2048.688          45.000  
G20  24254890.743   127460382.523        1332.323          47.000                                                                  
R18  25744218.659                3      -3340.907          25.000    25744263.673                3      -2596.493          19.000  
R12  22954264.049   122617570.355       -2877.023          50.000    22954268.175    95369235.919       -2237.717          52.000  
R19  26093034.926                3      -1023.891          22.000    26093030.001                3       -794.722          27.000  
R14  25928674.485   138214468.320        3593.322          48.000    25928690.637   107500266.668        2794.749          48.000  
E07  26622755.377   139903509.290       -1179.847          46.000    26622762.477   107198802.496        -903.990          54.000  
E08  29650107.862   155812237.241       -2453.989          41.000    29650119.843   119388586.378       -1880.421          43.000  
E26  28256668.456   148489735.713       -3135.778          40.000    28256678.610   113777844.419       -2402.870          45.000  
G06  25749080.880   135312234.376       -3861.508          39.000    25749090.693   105438090.413       -3008.797          41.000  
G30  23118643.964   121489350.815         211.503          51.000    23118646.520    94667068.412         164.965          45.000  
E30  27673411.519   145424835.003        -206.145          48.000    27673419.997   111429488.936        -157.994          52.000  
E02  30172594.683   158558093.304       -2559.652          40.000    30172606.784   121492594.012       -1961.390          39.000  
> 2024 04 15 17 44 30.0090000  0 26                     
G04  27459741.100   144301896.000       -3236.735          36.000    27459758.654   112443074.307       -2521.957          40.000  
G09  24370753.761   128069125.742       -2194.307          47.000    24370757.007    99794110.880       -1709.674          43.000  
E27  28462439.793   149571247.468        1877.041          46.000    28462450.652   114606663.754        1438.165          48.000  
G11  25403011.783   133493706.988       -2137.454          45.000    25403015.009   104021067.165       -1665.410          45.000  
R13  22208626.278   118592973.242         819.738          43.000    22208628.341    92239075.435         637.470          41.000  
R02  22849549.008   121929550.811       -1278.866          51.000    22849552.817    94834095.919        -994.624          50.000  
R03  23516547.025   125886031.871        1445.978          52.000    23516546.478    97911400.306        1124.719          49.000  
R01  25651603.083   137122356.295       -3391.903          46.000    25651617.190   106650684.830       -2638.153          43.000  
E33  28689876.066   150766261.856       -1080.388          43.000    28689883.702   115522264.747        -827.952          49.000  
G07  22674760.360   119156665.677       -2074.383          47.000    22674759.147    92849352.090       -1616.141          47.000  
S31  41462059.140   217884563.687        -824.469          44.000  
S33  42410946.168   222871002.512        -823.957          42.000  
G14  25899730.788   136104094.051        2626.158          45.000    25899739.204   106055229.741        2046.448          44.000  
G20  24247325.019   127420622.758        1318.463          48.000                                                                  
R18  25763067.473                       -3352.857          27.000    25763085.488                3      -2606.765          24.000  
R12  22970487.132   122704226.588       -2899.798          52.000    22970490.713    95436635.157       -2255.427          52.000  
R14  25908463.444   138106728.909        3589.374          50.000    25908477.983   107416470.076        2791.799          47.000  
E07  26629498.514   139938943.951       -1182.253          47.000    26629505.615   107225953.700        -905.853          54.000  
E08  29664120.971   155885882.944       -2455.386          40.000    29664133.624   119445015.917       -1881.402          41.000  
E26  28274591.501   148583920.051       -3143.063          40.000    28274601.769   113850011.395       -2408.251          45.000  
G06  25771142.021   135428169.742       -3867.250          36.000    25771152.096   105528429.296       -3013.409          41.000  
G30  23117480.291   121483238.777         196.032          50.000    23117483.623    94662305.797         152.869          45.000  
E30  27674627.999   145431226.847        -219.695          49.000    27674636.580   111434386.622        -168.329          52.000  
E02  30187240.439   158635053.417       -2570.899          42.000    30187252.203   121551563.380       -1969.706          40.000  
G05                                                                  27256362.173                3       2013.190          24.000  
R19                                                                  26098808.494                3       -812.158          23.000  
