     3.00           OBSERVATION DATA    M: Mixed            RINEX VERSION / TYPE
CONVBIN 2.4.3                           20240415 131442 UTC PGM / RUN BY / DATE 
format: u-blox UBX                                          COMMENT             
log: /home/regis/git/gnsspwv/obsdata/VERT00CHL/2024-04-15/VECOMMENT             
{self.marker}                                               MARKER NAME         
                                                            MARKER NUMBER       
GEODETIC                                                    MARKER TYPE         
{self.observer}     {self.institution}                      OBSERVER / AGENCY   
UNKNOWN             UBLOX-ZED-F9P                           REC # / TYPE / VERS 
UNKNOWN             TWIVSP6037L                             ANT # / TYPE        
  1713381.0000 -5047934.0000 -3490983.0000                  APPROX POSITION XYZ 
        0.0000        0.0000        0.0000                  ANTENNA: DELTA H/E/N
G    8 C1C L1C D1C S1C C2L L2L D2L S2L                      SYS / # / OBS TYPES 
R    8 C1C L1C D1C S1C C2C L2C D2C S2C                      SYS / # / OBS TYPES 
E    8 C1C L1C D1C S1C C7Q L7Q D7Q S7Q                      SYS / # / OBS TYPES 
S    4 C1C L1C D1C S1C                                      SYS / # / OBS TYPES 
  2024    04    15    13    00   00.0050000     GPS         TIME OF FIRST OBS   
  2024    04    15    13    14   30.0050000     GPS         TIME OF LAST OBS    
                                                            END OF HEADER       
> 2024 04 15 13 00 00.0050000  0 22                     
S33  41265991.676   216854390.8871       -667.846          42.000  
G09  25175974.321   132300562.7751       2578.403          42.000    25175975.440   103091378.9371       2009.307          40.000  
G04  22160818.753   116455858.6281       1103.002          45.000    22160817.476    90744837.3631        859.484          48.000  
G02  21795394.455   114535575.9641      -2023.200          48.000                                                                  
R08  21457080.088   114901692.3611      -2539.102          50.000    21457074.294    89368120.9951      -1974.844          48.000  
R01  22246549.171   118920497.4941        992.737          48.000    22246549.071    92493706.7591        772.388          43.000  
R22  23123759.059   123436096.7521      -4422.766          50.000    23123757.905    96005911.3401      -3439.958          47.000  
G28  25284760.156   132872387.6971      -1808.490          40.000    25284760.154   103536875.0331      -1409.277          35.000  
G17  23525944.430   123629623.9191         79.097          47.000    23525942.309    96334780.7421         61.796          44.000  
E08  24946812.392   131096350.0501        -33.042          47.000    24946813.259   100450437.2651        -25.221          52.000  
S31  40314010.110   211851653.8281       -668.463          44.000  
R24  22941430.174   122678073.2801       2770.930          49.000    22941428.055    95416299.3051       2155.155          47.000  
R23  20715055.778   110811463.6341      -1055.758          49.000                                                                  
E15  25198862.863   132420967.1861      -1487.933          47.000    25198866.906   101465459.1271      -1140.096          54.000  
G03  22480963.685   118138240.9661       -279.291          49.000    22480963.063    92055767.2151       -217.615          46.000  
E34  28806184.864   151377620.0551      -3138.382          43.000    28806194.239   115990761.1671      -2404.599          44.000  
G31  24587546.961   129208456.1561        -58.007          46.000    24587545.101   100681897.6121        -45.032          45.000  
E07  28027869.931   147287505.9451       1909.223          39.000    28027875.512   112856646.2861       1463.048          42.000  
E03  26168611.039   137516974.4151      -2518.745          48.000    26168613.600   105370160.1391      -1929.980          50.000  
G21  21983400.654   115523532.6391      -2990.509          47.000                                                                  
E18  28798318.255   151336181.7101       -981.352          45.000                                                                  
E13  25729390.075   135208889.1531       1027.135          47.000    25729392.887   103601579.8761        787.030          52.000  
> 2024 04 15 13 00 30.0050000  0 25                     
S33  41269804.490   216874427.197        -667.987          42.000  
G09  25161274.487   132223316.738        2570.996          41.000    25161276.543   103031187.274        2003.665          41.000  
G04  22154568.711   116423012.595        1086.542          46.000    22154567.273    90719243.075         846.605          48.000  
G02  21806997.787   114596551.105       -2041.833          48.000                                                                  
R08  21471336.792   114978035.401       -2550.530          50.000    21471330.764    89427498.875       -1983.671          48.000  
R01  22241018.146   118890930.133         978.369          48.000    22241017.479    92470709.924         760.883          43.000  
R02  26154696.403                3       3064.023          12.000                                                                  
R22  23148652.777   123568976.078       -4435.993          51.000    23148651.595    96109261.758       -3450.294          49.000  
G28  25295133.989   132926903.208       -1826.068          42.000    25295133.932   103579354.465       -1423.157          37.000  
G17  23525553.646   123627567.752          57.713          48.000    23525551.085    96333178.495          44.872          44.000  
E08  24947034.363   131097516.748         -44.880          47.000    24947034.988   100451331.220         -34.485          52.000  
S31  40317828.577   211871719.713        -669.117          44.000  
G19  25649101.351   134786950.5051       1415.850          28.000                                                                  
R24  22925921.307   122595139.605        2757.723          49.000    22925918.487    95351795.328        2144.951          46.000  
R23  20721050.019   110843529.865       -1082.076          49.000                                                                  
E15  25207388.181   132465766.605       -1498.754          47.000    25207391.898   101499785.924       -1148.420          54.000  
G03  22482573.479   118146698.604        -284.546          48.000    22482572.428    92062357.554        -221.753          46.000  
E34  28824117.585   151471854.723       -3144.208          43.000    28824127.234   116062966.640       -2409.211          45.000  
G31  24587922.860   129210430.289         -73.919          46.000    24587920.847   100683435.893         -57.550          44.000  
E07  28016987.970   147230322.374        1903.023          40.000    28016993.809   112812830.375        1458.103          42.000  
E03  26183011.892   137592651.287       -2526.351          48.000    26183014.560   105428146.253       -1935.784          50.000  
G21  22000526.111   115613520.763       -3008.641          48.000                                                                  
E18  28803913.666   151365583.441        -979.098          44.000                                                                  
E13  25723544.612   135178169.796        1020.597          47.000    25723547.242   103578041.663         781.990          52.000  
R07                                                                  24602433.414                3      -3477.576          11.000  
> 2024 04 15 13 01 00.0050000  0 24                     
S33  41273620.603   216894479.626        -668.223          42.000  
G09  25146618.758   132146300.197        2563.420          41.000    25146620.922   102971174.453        1997.084          40.000  
G04  22148413.552   116390662.243        1070.276          47.000    22148411.039    90694035.014         833.892          48.000  
G02  21818708.326   114658086.465       -2060.321          49.000                                                                  
R07  24619729.296                3      -4064.000          11.000    24623635.023                3      -3490.000          12.000  
R08  21485656.381   115054721.159       -2561.766          49.000    21485651.624    89487143.333       -1992.503          49.000  
R01  22235569.772   118861802.823         963.849          48.000    22235569.912    92448055.372         749.561          44.000  
R02  26143680.931                3       3056.881          10.000                                                                  
R22  23173620.410   123702257.327       -4449.205          50.000    23173620.352    96212924.759       -3460.603          48.000  
G28  25305611.992   132981956.219       -1843.835          42.000    25305611.497   103622252.820       -1437.170          35.000  
G17  23525284.881   123626157.478          36.332          48.000    23525282.157    96332079.525          28.376          43.000  
E08  24947325.110   131099046.196         -56.843          47.000    24947326.115   100452503.127         -43.608          52.000  
S31  40321649.819   211891800.859        -669.285          44.000  
R24  22910488.158   122512607.577        2744.580          50.000    22910484.240    95287603.780        2134.638          46.000  
R23  20727193.722   110876391.940       -1108.536          50.000                                                                  
E15  25215975.145   132510892.036       -1509.454          47.000    25215979.173   101534362.514       -1156.667          54.000  
G03  22484212.715   118155313.365        -289.618          49.000    22484211.351    92069070.361        -225.714          46.000  
E34  28842084.503   151566267.199       -3149.870          44.000    28842094.083   116135308.358       -2413.599          46.000  
G31  24588391.007   129212888.242         -89.931          45.000    24588387.707   100685351.166         -70.097          43.000  
E07  28006142.838   147173327.357        1896.654          40.000    28006148.890   112769158.887        1453.512          43.000  
E03  26197456.420   137668556.441       -2533.781          48.000    26197458.681   105486307.278       -1941.537          50.000  
G21  22017755.033   115704055.186       -3026.745          48.000                                                                  
E18  28809495.875   151394921.627        -976.761          44.000                                                                  
E13  25717737.467   135147652.970        1014.006          47.000    25717740.050   103554658.637         776.949          52.000  
> 2024 04 15 13 01 30.0050000  0 27                     
S33  41277439.555   216914548.467        -669.217          41.000  
G09  25132006.742   132069517.615        2555.678          41.000    25132010.036   102911343.908        1991.560          41.000  
G04  22142353.086   116358811.186        1053.400          48.000    22142349.749    90669216.036         820.900          48.000  
G02  21830525.267   114720184.242       -2079.172          49.000                                                                  
R08  21500041.715   115131749.336       -2573.042          51.000    21500036.388    89547054.098       -2001.154          49.000  
R01  22230203.505   118833117.877         948.853          49.000    22230203.678    92425744.864         738.159          43.000  
R02  26127082.046                3       3043.723          11.000                                                                  
R22  23198663.685   123835940.459       -4462.747          50.000    23198663.676    96316900.296       -3470.858          48.000  
G28  25316190.302   133037548.694       -1861.761          43.000    25316190.162   103665571.570       -1450.775          36.000  
G17  23525140.178   123625396.394          14.819          48.000    23525137.142    96331486.413          11.573          43.000  
E08  24947685.967   131100940.976         -69.021          46.000    24947686.843   100453954.957         -53.036          52.000  
S31  40325474.537   211911899.979        -670.310          44.000  
G19  25633095.040                        1387.381          31.000                                                                  
R24  22895130.770   122430484.086        2730.662          49.000    22895125.981    95223729.999        2123.716          46.000  
R10  26061226.976                3       2097.754          25.000                                                                  
R23  20733486.488   110910053.373       -1135.300          50.000                                                                  
E15  25224625.423   132556346.754       -1520.607          47.000    25224629.090   101569191.404       -1165.175          54.000  
G03  22485882.276   118164087.975        -295.150          49.000    22485881.271    92075907.710        -229.890          46.000  
E34  28860084.448   151660859.648       -3155.877          43.000    28860095.241   116207787.959       -2418.189          47.000  
G31  24588950.136   129215833.673        -106.130          44.000    24588948.516   100687646.300         -82.664          44.000  
E07  27995333.256   147116524.519        1890.387          41.000    27995339.418   112725634.676        1448.363          42.000  
E03  26211944.119   137744691.140       -2541.471          48.000    26211946.613   105544644.194       -1947.405          50.000  
G21  22035087.171   115795137.341       -3045.074          47.000                                                                  
E18  28815068.477   151424198.871        -974.932          45.000                                                                  
E13  25711969.360   135117343.104        1006.947          47.000    25711972.443   103531434.188         771.495          53.000  
R07                                                                  24648407.187                3      -3498.813          11.000  
R09                                                                  25729995.365                3        420.414          15.000  
> 2024 04 15 13 02 00.0050000  0 23                     
S33  41281260.719   216934630.661        -669.624          42.000  
G09  25117438.842   131992965.214        2547.672          41.000    25117442.028   102851692.741        1985.235          40.000  
G04  22136386.055   116327454.802        1036.919          47.000    22136382.992    90644782.517         807.914          48.000  
G02  21842447.607   114782838.674       -2097.973          48.000                                                                  
R08  21514489.256   115209111.760       -2584.343          51.000    21514483.257    89607224.854       -2010.095          49.000  
R01  22224919.185   118804869.638         934.271          48.000    22224919.467    92403774.045         726.538          44.000  
R22  23223781.205   123970016.764       -4475.870          50.000    23223779.902    96421181.698       -3481.145          47.000  
G28  25326871.080   133093674.506       -1879.797          44.000    25326870.984   103709305.819       -1465.002          37.000  
G17  23525116.398   123625279.204          -6.861          47.000    23525115.038    96331395.038          -5.364          44.000  
E08  24948115.113   131103195.347         -81.125          46.000    24948115.721   100455682.312         -62.232          52.000  
S31  40329301.444   211932011.640        -670.692          43.000  
G19  25625214.754                1       1372.851          26.000                                                                  
R24  22879848.884   122348767.976        2716.907          49.000    22879844.416    95160173.063        2113.010          45.000  
R23  20739927.604   110944508.998       -1161.856          50.000                                                                  
E15  25233336.319   132602125.763       -1531.392          47.000    25233340.565   101604268.792       -1173.467          54.000  
G03  22487581.641   118173016.910        -300.297          48.000    22487580.528    92082865.311        -234.141          46.000  
E34  28878118.093   151755626.058       -3161.802          43.000    28878128.936   116280400.849       -2422.728          47.000  
G31  24589603.353   129219263.014        -122.446          46.000    24589601.348   100690318.535         -95.417          44.000  
E07  27984560.877   147059909.509        1883.914          42.000    27984565.451   112682254.343        1443.445          42.000  
E03  26226473.933   137821048.443       -2549.031          47.000    26226476.900   105603151.688       -1953.056          50.000  
G21  22052521.401   115886759.782       -3063.100          46.000                                                                  
E18  28820626.698   151453409.452        -972.632          45.000                                                                  
E13  25706239.853   135087236.326        1000.102          46.000    25706243.429   103508365.355         766.300          52.000  
> 2024 04 15 13 02 30.0050000  0 24                     
S33  41285084.244   216954723.042        -669.887          42.000  
G09  25102915.926   131916642.876        2540.224          42.000    25102918.101   102792220.812        1979.240          40.000  
G04  22130512.461   116296592.193        1020.477          47.000    22130510.035    90620733.754         795.215          48.000  
G02  21854475.983   114846047.517       -2116.224          49.000                                                                  
R08  21528997.812   115286803.919       -2595.152          51.000    21528991.168    89667652.038       -2018.469          48.000  
R01  22219716.254   118777055.643         919.824          47.000    22219716.167    92382140.962         715.436          44.000  
R22  23248970.531   124104481.519       -4488.504          49.000    23248969.514    96525765.194       -3491.199          46.000  
G28  25337652.933   133150331.142       -1897.351          44.000    25337650.701   103753453.765       -1478.076          36.000  
G17  23525217.332   123625804.974         -28.353          47.000    23525215.715    96331804.677         -22.027          44.000  
E08  24948611.429   131105807.286         -93.088          46.000    24948612.533   100457683.659         -71.358          52.000  
S31  40333130.643   211952133.663        -671.023          44.000  
R24  22864644.395   122267461.674        2703.254          48.000    22864640.688    95096934.887        2102.568          46.000  
R23  20746516.803   110979757.558       -1188.162          49.000                                                                  
E15  25242108.705   132648227.834       -1542.077          46.000    25242113.441   101639593.716       -1181.745          54.000  
G03  22489310.504   118182098.372        -305.402          49.000    22489308.798    92089941.742        -237.928          46.000  
E34  28896184.847   151850564.062       -3167.611          44.000    28896194.892   116353145.232       -2427.165          46.000  
G31  24590348.546   129223175.696        -138.598          45.000    24590346.091   100693367.352        -107.843          44.000  
E07  27973823.008   147003481.529        1877.708          43.000    27973827.753   112639017.347        1438.954          42.000  
E03  26241046.824   137897625.155       -2556.211          48.000    26241048.957   105661827.291       -1958.646          50.000  
G21  22070059.804   115978919.554       -3080.962          47.000                                                                  
E18  28826171.679   151482551.441        -970.254          44.000                                                                  
E13  25700549.233   135057332.584         993.363          46.000    25700552.642   103485452.081         761.164          52.000  
R07                                                                  24697441.444                3      -3513.859          12.000  
R09                                                                  25724232.252                3        388.805          15.000  
> 2024 04 15 13 03 00.0050000  0 23                     
S33  41288910.007   216974826.334        -670.405          42.000  
G09  25088436.001   131840551.614        2532.679          42.000    25088438.643   102732928.987        1973.438          41.000  
G04  22124733.064   116266223.509        1004.126          46.000    22124731.814    90597069.850         782.427          48.000  
G02  21866610.070   114909809.431       -2134.453          49.000                                                                  
R07  24719231.481                3      -4100.000          13.000                                                                  
R08  21543566.664   115364822.637       -2605.921          50.000    21543561.033    89728333.245       -2026.801          48.000  
R01  22214593.806   118749675.047         905.554          48.000    22214594.018    92360844.931         704.327          44.000  
R22  23274232.878   124239331.020       -4501.268          50.000    23274231.425    96630647.940       -3500.912          47.000  
G28  25348534.426   133207517.150       -1914.972          44.000    25348532.277   103798014.186       -1492.218          37.000  
G17  23525439.669   123626973.542         -49.666          47.000    23525438.371    96332715.191         -38.583          44.000  
E08  24949176.545   131108775.890        -104.760          46.000    24949177.622   100459958.292         -80.351          52.000  
S31  40336961.602   211972265.656        -671.040          43.000  
R24  22849516.681   122186568.647        2689.476          47.000    22849514.071    95034018.105        2091.774          47.000  
R23  20753253.609   111015798.849       -1214.577          49.000                                                                  
E15  25250943.488   132694652.787       -1552.803          47.000    25250947.732   101675166.034       -1189.832          53.000  
G03  22491067.061   118191331.685        -310.328          48.000    22491065.332    92097136.519        -241.974          45.000  
E34  28914283.208   151945672.384       -3173.183          43.000    28914293.554   116426020.095       -2431.144          46.000  
G31  24591185.318   129227572.462        -154.572          46.000    24591182.786   100696793.431        -120.391          44.000  
E07  27963121.535   146947240.939        1871.573          44.000    27963125.488   112595923.895        1434.387          41.000  
E03  26255660.819   137974419.124       -2563.332          48.000    26255662.316   105720669.359       -1964.119          49.000  
G21  22087698.638   116071614.625       -3098.639          46.000                                                                  
E18  28831704.420   151511623.982        -967.894          44.000                                                                  
E13  25694898.385   135027632.857         986.640          46.000    25694900.904   103462695.127         755.930          52.000  
> 2024 04 15 13 03 30.0050000  0 22                     
S33  41292737.476   216994938.833        -670.535          42.000  
G09  25074000.703   131764692.469        2524.729          41.000    25074002.358   102673818.021        1967.506          40.000  
G04  22119047.841   116236348.903         987.658          46.000    22119046.441    90573790.958         769.629          48.000  
G02  21878848.609   114974123.538       -2152.901          49.000                                                                  
R08  21558196.593   115443164.228       -2616.720          51.000    21558191.241    89789265.547       -2035.321          49.000  
R01  22209552.403   118722726.609         891.125          48.000    22209552.329    92339885.054         693.195          43.000  
R22  23299565.855   124374561.555       -4513.803          50.000    23299565.879    96735827.080       -3510.630          47.000  
G28  25359516.695   133265231.107       -1932.446          44.000    25359516.707   103842986.001       -1505.701          41.000  
G17  23525785.359   123628784.434         -71.046          48.000    23525783.083    96334126.222         -55.291          44.000  
E08  24949809.061   131112100.225        -116.575          46.000    24949810.315   100462505.513         -89.435          52.000  
S31  40340794.827   211992408.654        -671.539          44.000  
R24  22834466.955   122106092.354        2675.592          48.000    22834464.829    94971425.461        2081.071          48.000  
R23  20760139.462   111052632.286       -1240.872          49.000                                                                  
E15  25259839.892   132741400.455       -1563.489          47.000    25259843.540   101710985.641       -1198.069          53.000  
G03  22492852.617   118200716.216        -315.300          48.000    22492851.320    92104449.092        -245.618          46.000  
E34  28932413.911   152040949.786       -3178.520          43.000    28932424.213   116499024.526       -2435.625          45.000  
G31  24592113.553   129232453.980        -170.809          45.000    24592111.623   100700597.238        -132.997          43.000  
E07  27952454.063   146891188.073        1865.364          43.000    27952459.634   112552974.293        1429.264          42.000  
E03  26270314.501   138051428.228       -2570.337          48.000    26270316.789   105779676.277       -1969.485          50.000  
G21  22105440.044   116164842.951       -3116.302          47.000                                                                  
E18  28837223.908   151540626.184        -965.501          45.000                                                                  
E13  25689285.499   134998138.138         979.895          46.000    25689288.169   103440095.262         750.750          52.000  
> 2024 04 15 13 04 00.0050000  0 24                     
S33  41296565.526   217015056.050        -670.946          42.000  
G09  25059608.524   131689061.514        2516.900          41.000    25059609.496   102614884.876        1960.865          39.000  
G04  22113456.473   116206963.621         971.105          46.000    22113454.883    90550893.343         756.676          49.000  
G02  21891191.071   115038983.544       -2171.339          50.000                                                                  
R08  21572884.849   115521819.741       -2627.388          51.000    21572879.568    89850441.984       -2043.525          48.000  
R01  22204591.007   118696204.829         876.721          49.000    22204591.039    92319257.043         681.891          44.000  
R22  23324969.491   124510164.416       -4526.540          50.000    23324969.553    96841295.791       -3520.549          48.000  
G28  25370598.128   133323466.590       -1950.226          44.000    25370598.619   103888364.220       -1519.623          41.000  
G17  23526251.476   123631232.858         -92.491          48.000    23526248.459    96336034.014         -72.113          43.000  
E08  24950508.737   131115774.483        -128.472          47.000    24950509.550   100465320.838         -98.418          52.000  
S31  40344628.621   212012554.854        -671.742          44.000  
G19  25594519.999   134500094.8953       1315.937          29.000                                                                  
R24  22819495.105   122026031.351        2661.393          47.000    22819492.983    94909155.803        2070.074          48.000  
R10  26002620.132                3       2068.221          25.000                                                                  
R23  20767173.013   111090252.861       -1267.495          49.000                                                                  
E15  25268796.133   132788465.735       -1574.344          47.000    25268799.980   101747048.611       -1206.377          53.000  
G03  22494665.990   118210246.300        -320.492          48.000    22494665.774    92111875.106        -249.663          47.000  
E34  28950576.083   152136390.090       -3184.269          43.000    28950585.607   116572153.749       -2439.790          44.000  
G31  24593133.788   129237815.840        -187.072          46.000    24593131.527   100704775.290        -145.549          43.000  
E07  27941822.014   146835318.358        1858.888          43.000    27941827.088   112510165.012        1424.439          41.000  
E03  26285008.520   138128645.426       -2577.418          48.000    26285010.845   105838842.635       -1974.972          50.000  
G21  22123280.604   116258597.643       -3134.156          47.000                                                                  
E18  28842727.745   151569552.285        -963.060          45.000                                                                  
E13  25683710.607   134968844.544         972.919          46.000    25683713.864   103417649.515         745.442          52.000  
> 2024 04 15 13 04 30.0050000  0 25                     
S33  41300394.740   217035178.592        -671.241          42.000  
G09  25045259.571   131613660.778        2508.999          41.000    25045260.756   102556131.104        1955.166          40.000  
G04  22107958.018   116178068.767         954.574          47.000    22107956.398    90528377.896         743.938          48.000  
G02  21903637.619   115104389.756       -2189.596          50.000                                                                  
R08  21587632.631   115600787.359       -2637.445          51.000    21587625.518    89911861.190       -2051.355          47.000  
R01  22199709.237   118670108.911         862.439          49.000    22199709.204    92298960.259         670.776          44.000  
R22  23350442.849   124646136.876       -4538.703          51.000    23350441.039    96947051.954       -3530.092          47.000  
G28  25381779.554   133382223.165       -1967.480          44.000    25381780.923   103934148.489       -1533.246          44.000  
G17  23526838.405   123634318.948        -113.703          47.000    23526835.470    96338438.710         -88.816          43.000  
E08  24951274.630   131119798.734        -140.281          47.000    24951275.448   100468404.344        -107.479          52.000  
S31  40348463.529   212032706.138        -672.164          44.000  
G19  25587041.895                        1301.197          27.000                                                                  
R24  22804601.169   121946390.445        2647.455          47.000    22804599.217    94847212.880        2059.032          47.000  
R10  25990989.053                        2061.440          29.000                                                                  
R23  20774352.585   111128661.395       -1293.823          49.000                                                                  
E15  25277813.373   132835849.446       -1585.010          48.000    25277816.727   101783355.564       -1214.469          53.000  
G03  22496507.453   118219922.350        -325.238          48.000    22496506.997    92119414.863        -253.355          47.000  
E34  28968769.388   152231992.999       -3189.679          43.000    28968778.869   116645407.615       -2444.000          44.000  
G31  24594246.278   129243659.973        -203.189          46.000    24594244.514   100709329.160        -158.411          43.000  
E07  27931224.229   146779633.145        1852.731          42.000    27931230.506   112467497.136        1419.737          42.000  
E03  26299741.786   138206069.619       -2584.466          48.000    26299744.391   105898167.599       -1980.311          50.000  
G21  22141221.447   116352877.349       -3151.668          46.000                                                                  
E18  28848218.290   151598402.469        -960.588          45.000                                                                  
E13  25678175.120   134939754.097         966.025          46.000    25678178.029   103395359.408         740.220          52.000  
R09                                                                  25714017.293                3        334.484          15.000  
> 2024 04 15 13 05 00.0050000  0 25                     
S33  41304224.719   217055302.656        -670.833          42.000  
G09  25030955.457   131538489.549        2501.916          41.000    25030956.272   102497556.128        1949.270          40.000  
G04  22102552.534   116149662.691         938.719          47.000    22102550.466    90506243.302         731.450          48.000  
G02  21916187.258   115170338.805       -2207.394          50.000                                                                  
R07  24810492.329                3      -4144.898          10.000                                                                  
R08  21602436.312   115680062.125       -2648.106          50.000    21602429.610    89973519.290       -2059.702          48.000  
R01  22194906.161   118644436.422         848.669          49.000    22194907.237    92278992.792         660.144          44.000  
R22  23375982.642   124782473.497       -4550.582          51.000    23375982.408    97053091.344       -3539.443          48.000  
G28  25393059.387   133441497.566       -1984.540          43.000    25393060.734   103980336.251       -1546.436          44.000  
G17  23527546.337   123638041.169        -134.560          47.000    23527543.003    96341339.054        -104.757          42.000  
E08  24952106.045   131124170.260        -151.515          47.000    24952107.228   100471753.937        -116.026          52.000  
S31  40352298.406   212052859.595        -671.821          44.000  
G19  25579640.916   134421955.8211       1287.959          32.000                                                                  
R24  22789788.353   121867170.998        2633.595          49.000    22789784.711    94785597.770        2048.448          48.000  
R10  25979406.088                        2055.364          30.000                                                                  
R23  20781679.901   111167855.653       -1319.507          50.000                                                                  
E15  25286890.752   132883549.656       -1595.249          48.000    25286893.857   101819905.042       -1222.351          53.000  
G03  22498376.176   118229741.983        -329.631          48.000    22498375.669    92127066.487        -256.993          47.000  
E34  28986992.556   152327755.568       -3194.741          43.000    28987003.172   116718783.783       -2447.860          46.000  
G31  24595448.935   129249984.962        -218.927          46.000    24595448.381   100714257.755        -170.348          43.000  
E07  27920662.706   146724131.007        1846.948          41.000    27920669.020   112424969.559        1415.265          42.000  
E03  26314513.252   138283696.929       -2590.910          47.000    26314516.432   105957648.200       -1985.279          50.000  
G21  22159261.068   116447678.277       -3168.715          46.000                                                                  
E18  28853692.986   151627174.140        -957.864          45.000                                                                  
E13  25672678.035   134910866.090         959.660          46.000    25672680.788   103373224.424         735.272          52.000  
> 2024 04 15 13 05 30.0050000  0 24                     
S33  41308054.887   217075430.414        -671.333          42.000  
G09  25016695.365   131463550.757        2493.884          39.000    25016695.757   102439162.312        1943.236          40.000  
G04  22097240.144   116121747.567         921.965          47.000    22097238.832    90484491.262         718.376          48.000  
G02  21928840.877   115236831.681       -2225.869          50.000                                                                  
R08  21617297.039   115759642.101       -2658.116          51.000    21617291.003    90035414.775       -2067.443          49.000  
R01  22190183.762   118619188.561         834.161          49.000    22190183.306    92259355.605         648.853          44.000  
R22  23401591.093   124919172.527       -4563.120          51.000    23401591.466    97159412.611       -3548.987          49.000  
G28  25404437.594   133501290.280       -2002.118          42.000    25404438.679   104026927.949       -1560.059          43.000  
G17  23528375.961   123642400.982        -156.278          47.000    23528372.413    96344736.298        -121.821          42.000  
E08  24953003.912   131128890.189        -163.381          46.000    24953005.528   100475370.488        -125.213          52.000  
S31  40356134.765   212073017.524        -672.421          44.000  
G19  25572335.260   134383543.294        1273.087          34.000                                                                  
R24  22775054.844   121788378.769        2619.007          49.000    22775050.387    94724314.951        2036.975          47.000  
R10  25967856.912                        2047.977          30.000                                                                  
R23  20789154.353   111207837.484       -1346.094          50.000                                                                  
E15  25296028.321   132931568.249       -1606.200          48.000    25296031.745   101856698.455       -1230.733          53.000  
G03  22500272.575   118239706.593        -334.718          48.000    22500271.974    92134831.098        -260.851          47.000  
E34  29005246.956   152423678.538       -3200.340          43.000    29005257.594   116792282.845       -2452.196          47.000  
G31  24596745.250   129256793.730        -235.474          46.000    24596743.034   100719563.294        -183.568          42.000  
E07  27910137.530   146668814.356        1840.424          41.000    27910142.993   112382584.091        1410.309          43.000  
E03  26329323.823   138361527.323       -2597.898          48.000    26329327.255   106017284.412       -1990.675          50.000  
G21  22177400.230   116543000.543       -3186.348          46.000                                                                  
E18  28859153.570   151655868.494        -955.512          45.000                                                                  
E13  25667219.508   134882183.584         952.353          46.000    25667222.632   103351246.912         729.740          51.000  
> 2024 04 15 13 06 00.0050000  0 24                     
S33  41311886.353   217095564.578        -671.252          42.000  
G09  25002479.888   131388847.667        2486.156          40.000    25002480.010   102380952.118        1937.218          40.000  
G04  22092021.513   116094325.644         905.777          47.000    22092020.203    90463123.534         705.777          47.000  
G02  21941597.047   115303869.468       -2243.759          49.000                                                                  
R08  21632214.156   115839526.009       -2667.906          49.000    21632208.869    90097546.630       -2074.942          49.000  
R01  22185540.386   118594365.955         820.367          49.000    22185538.601    92240049.171         637.897          43.000  
R22  23427267.491   125056232.534       -4574.637          51.000    23427267.980    97266014.624       -3558.027          49.000  
G28  25415914.002   133561601.980       -2019.232          40.000    25415915.253   104073924.037       -1573.236          44.000  
G17  23529328.093   123647400.608        -177.226          48.000    23529324.305    96348632.051        -138.147          43.000  
E08  24953969.171   131133959.764        -174.898          46.000    24953970.275   100479254.951        -133.915          52.000  
S31  40359971.428   212093180.731        -672.135          44.000  
G19  25565106.545   134345563.762        1258.846          33.000                                                                  
R24  22760400.146   121710019.778        2604.757          49.000    22760396.943    94663369.088        2025.839          47.000  
R10  25956345.710                        2042.023          27.000                                                                  
R23  20796776.037   111248608.342       -1372.197          50.000                                                                  
E15  25305226.800   132979907.186       -1616.645          48.000    25305230.567   101893737.337       -1238.707          53.000  
G03  22502196.268   118249817.787        -339.557          48.000    22502195.316    92142709.930        -264.682          46.000  
E34  29023530.819   152519762.825       -3205.186          42.000    29023542.007   116865905.518       -2456.090          47.000  
G31  24598133.120   129264088.982        -251.410          46.000    24598131.392   100725247.922        -195.828          42.000  
E07  27899645.667   146613685.723        1834.401          40.000    27899652.451   112340342.679        1405.658          44.000  
E03  26344173.764   138439560.909       -2604.433          48.000    26344176.582   106077076.313       -1995.635          50.000  
G21  22195639.129   116638843.641       -3203.357          46.000                                                                  
E18  28864599.370   151684486.877        -952.643          45.000                                                                  
E13  25661801.198   134853709.825         945.521          46.000    25661804.325   103329429.335         724.581          51.000  
> 2024 04 15 13 06 30.0050000  0 24                     
S33  41315718.238   217115701.466        -671.714          42.000  
G09  24988309.071   131314379.296        2478.051          39.000    24988309.747   102322924.822        1931.141          41.000  
G04  22086897.431   116067394.973         889.220          47.000    22086895.871    90442138.566         692.962          48.000  
G02  21954456.850   115371448.891       -2262.076          49.000                                                                  
R08  21647187.148   115919708.953       -2678.037          49.000    21647182.468    90159911.059       -2082.914          48.000  
R01  22180975.623   118569965.714         805.942          49.000    22180974.279    92221071.225         627.025          44.000  
R22  23453010.176   125193647.829       -4586.725          51.000    23453010.243    97372892.962       -3567.317          49.000  
G28  25427489.429   133622429.223       -2036.737          41.000    25427490.005   104121321.767       -1587.122          44.000  
G17  23530401.129   123653037.149        -198.823          48.000    23530397.476    96353024.112        -155.019          43.000  
E08  24954999.714   131139376.021        -186.584          46.000    24955000.860   100483405.060        -142.895          52.000  
S31  40363809.092   212113346.745        -672.718          44.000  
G19  25557956.654   134308016.661        1244.526          28.000                                                                  
R24  22745826.828   121632095.560        2589.776          49.000    22745824.742    94602761.361        2014.419          48.000  
R10  25944867.755   138300760.5381       2035.746          34.000                                                                  
R23  20804544.033   111290166.092       -1398.736          49.000                                                                  
E15  25314486.208   133028564.301       -1627.604          48.000    25314489.827   101931020.015       -1247.010          53.000  
G03  22504147.746   118260072.914        -344.579          48.000    22504146.481    92150700.938        -268.300          46.000  
E34  29041845.531   152616005.183       -3210.944          43.000    29041856.583   116939649.298       -2460.204          48.000  
G31  24599614.343   129271869.275        -267.601          46.000    24599612.302   100731310.460        -208.639          42.000  
E07  27889191.302   146558743.433        1828.028          40.000    27889196.630   112298244.064        1400.661          44.000  
E03  26359060.830   138517793.570       -2611.470          48.000    26359063.420   106137020.740       -2000.851          49.000  
G21  22213975.221   116735203.567       -3220.850          46.000                                                                  
E18  28870030.762   151713026.448        -950.232          45.000                                                                  
E13  25656422.696   134825443.807         938.466          47.000    25656425.430   103307770.947         719.085          51.000  
> 2024 04 15 13 07 00.0050000  0 25                     
S33  41319551.776   217135846.646        -671.634          42.000  
G09  24974184.989   131240152.823        2470.135          39.000    24974184.410   102265086.090        1924.513          40.000  
G04  22081867.488   116040961.856         872.918          48.000    22081865.683    90421541.337         680.243          47.000  
G02  21967420.783   115439574.962       -2279.859          48.000                                                                  
R08  21662216.975   116000193.402       -2687.763          48.000    21662212.193    90222510.011       -2090.305          49.000  
R01  22176490.841   118545992.763         792.034          49.000    22176489.603    92202425.613         616.267          43.000  
R22  23478819.182   125331420.906       -4598.267          49.000    23478820.689    97480049.583       -3576.433          49.000  
G28  25439163.781   133683776.479       -2053.625          40.000    25439163.938   104169124.766       -1599.915          44.000  
G17  23531595.360   123659316.661        -219.925          48.000    23531593.313    96357917.197        -171.446          44.000  
E08  24956097.587   131145144.239        -198.022          47.000    24956098.363   100487824.875        -151.790          52.000  
S31  40367648.273   212133521.632        -672.498          44.000  
G19  25550895.506   134270909.485        1229.595          29.000                                                                  
R24  22731337.928   121554615.741        2575.381          50.000    22731335.299    94542499.297        2002.995          48.000  
R10  25933433.583   138239802.998        2028.390          34.000                                                                  
R23  20812461.166   111332516.231       -1424.806          49.000                                                                  
E15  25323807.319   133077545.588       -1637.971          48.000    25323810.777   101968551.094       -1255.086          54.000  
G03  22506127.860   118270477.644        -349.122          48.000    22506126.873    92158808.505        -271.973          46.000  
E34  29060191.270   152712410.550       -3216.036          44.000    29060202.508   117013518.026       -2464.469          48.000  
G31  24601187.914   129280141.427        -283.913          46.000    24601186.400   100737756.298        -221.105          42.000  
E07  27878772.173   146503994.072        1821.870          38.000    27878778.066   112256293.258        1396.127          45.000  
E03  26373987.095   138596229.433       -2617.761          49.000    26373989.506   106197120.885       -2005.820          49.000  
G21  22232412.467   116832084.429       -3237.878          47.000                                                                  
E18  28875446.987   151741492.632        -947.540          45.000                                                                  
E13  25651084.858   134797392.857         931.576          47.000    25651087.484   103286277.347         713.766          51.000  
R07                                                                  24908752.662                3      -3586.336          12.000  
> 2024 04 15 13 07 30.0050000  0 25                     
S33  41323387.193   217156002.662        -672.251          42.000  
G09  24960106.280   131166170.950        2462.037          37.000    24960105.609   102207437.890        1918.496          39.000  
G04  22076932.305   116015028.066         856.042          47.000    22076930.470    90401333.198         666.948          47.000  
G02  21980488.499   115508248.265       -2298.365          48.000                                                                  
R08  21677302.992   116080978.398       -2697.895          48.000    21677298.104    90285342.713       -2098.364          48.000  
R01  22172086.589   118522447.924         777.619          50.000    22172085.201    92184112.980         604.914          43.000  
R22  23504695.904   125469549.806       -4610.302          50.000    23504696.648    97587482.970       -3585.790          49.000  
G28  25450937.784   133745644.104       -2071.112          40.000    25450936.476   104217333.235       -1613.843          43.000  
G17  23532912.861   123666240.252        -241.663          48.000    23532911.048    96363312.160        -188.293          45.000  
E08  24957261.893   131151265.180        -210.069          47.000    24957263.021   100492514.952        -160.963          52.000  
S31  40371489.269   212153706.803        -673.045          44.000  
G19  25543919.625                        1214.347          31.000                                                                  
R24  22716933.843   121477585.755        2559.963          50.000    22716930.606    94482587.139        1991.109          48.000  
R10  25922038.158   138179060.533        2020.950          35.000                                                                  
R23  20820526.194   111375660.133       -1451.542          49.000                                                                  
E15  25333190.311   133126852.598       -1649.176          49.000    25333193.788   102006331.737       -1263.631          54.000  
G03  22508136.689   118281033.163        -354.461          48.000    22508135.419    92167033.566        -276.310          47.000  
E34  29078567.921   152808979.466       -3221.839          43.000    29078578.600   117087512.021       -2468.686          47.000  
G31  24602857.109   129288907.582        -300.462          46.000    24602853.899   100744587.064        -234.064          41.000  
E07  27868390.948   146449439.689        1815.082          39.000    27868396.867   112214491.880        1390.889          46.000  
E03  26388952.395   138674868.183       -2624.867          49.000    26388954.134   106257376.482       -2011.208          49.000  
G21  22250946.474   116929485.757       -3255.634          46.000                                                                  
E18  28880850.886   151769886.337        -945.387          46.000                                                                  
E13  25645788.703   134769559.758         923.904          47.000    25645791.185   103264950.676         707.869          51.000  
R07                                                                  24930144.895                3      -3594.793          12.000  
> 2024 04 15 13 08 00.0050000  0 24                     
S33  41327224.254   217176166.408        -672.075          42.000  
G09  24946073.288   131092433.169        2453.947          37.000    24946073.511   102149979.908        1912.126          39.000  
G04  22072091.597   115989592.069         839.653          48.000    22072090.357    90381512.964         654.258          48.000  
G02  21993660.465   115577465.782       -2316.312          49.000                                                                  
R08  21692444.252   116162058.313       -2707.370          49.000    21692439.291    90348404.828       -2105.734          49.000  
R01  22167761.714   118499328.554         763.658          50.000    22167759.974    92166131.258         594.086          43.000  
R22  23530637.519   125608029.276       -4621.668          50.000    23530639.304    97695188.985       -3594.636          49.000  
G28  25462808.701   133808028.789       -2088.013          40.000    25462807.709   104265944.624       -1627.142          44.000  
G17  23534352.629   123673806.034        -262.838          47.000    23534350.455    96369207.546        -204.838          44.000  
E08  24958493.701   131157736.377        -221.430          47.000    24958494.462   100497473.399        -169.669          52.000  
S31  40375331.992   212173899.853        -673.233          44.000  
G19  25537033.052   134198022.269        1200.442          29.000                                                                  
R24  22702612.971   121401007.715        2545.155          50.000    22702609.398    94423026.458        1979.604          47.000  
R10  25910684.334   138118534.856        2013.540          37.000                                                                  
R23  20828740.238   111419595.574       -1477.695          50.000                                                                  
E15  25342633.708   133176483.558       -1659.602          48.000    25342638.170   102044360.604       -1271.613          53.000  
G03  22510173.551   118291737.327        -359.336          48.000    22510172.273    92175374.445        -279.967          47.000  
E34  29096974.952   152905709.045       -3227.048          43.000    29096985.721   117161629.148       -2472.527          45.000  
G31  24604618.817   129298166.817        -316.745          45.000    24604615.622   100751802.063        -246.828          41.000  
E07  27858045.469   146395079.069        1808.881          38.000    27858052.212   112172838.976        1386.004          46.000  
E03  26403955.328   138753706.198       -2631.235          50.000    26403956.859   106317784.749       -2016.032          50.000  
G21  22269579.561   117027403.421       -3272.455          46.000                                                                  
E18  28886240.474   151798205.206        -942.651          46.000                                                                  
E13  25640534.211   134741943.997         917.018          48.000    25640536.087   103243790.539         702.649          51.000  
> 2024 04 15 13 08 30.0050000  0 23                     
S33  41331061.965   217196333.470        -672.306          42.000  
G09  24932087.196   131018936.806        2446.306          37.000    24932087.897   102092710.070        1906.038          39.000  
G04  22067345.702   115964650.324         823.237          48.000    22067343.879    90362077.849         641.332          48.000  
G02  22006934.971   115647222.640       -2334.241          49.000                                                                  
R08  21707640.498   116243426.937       -2716.740          50.000    21707635.625    90411691.484       -2112.926          49.000  
R01  22163515.183   118476629.842         749.696          49.000    22163513.989    92148476.712         583.051          45.000  
R22  23556644.105   125746851.789       -4633.033          49.000    23556645.019    97803161.858       -3603.493          48.000  
G28  25474776.790   133870925.426       -2104.877          39.000    25474776.485   104314954.902       -1640.277          43.000  
G17  23535913.560   123682009.903        -283.955          48.000    23535911.974    96375600.140        -221.335          44.000  
E08  24959790.491   131164553.238        -232.929          47.000    24959791.475   100502696.719        -178.557          52.000  
S31  40379175.154   212194096.619        -673.231          44.000  
R24  22688375.944   121324881.578        2530.160          50.000    22688373.090    94363817.267        1967.747          47.000  
R10  25899371.126   138058225.663        2006.616          36.000                                                                  
R23  20837100.715   111464318.359       -1503.709          50.000                                                                  
E15  25352138.801   133226434.723       -1670.453          48.000    25352143.579   102082634.807       -1279.931          53.000  
G03  22512237.954   118302585.977        -364.006          48.000    22512236.948    92183827.939        -283.664          46.000  
E34  29115411.894   153002594.479       -3232.003          43.000    29115422.346   117235865.697       -2476.460          44.000  
G31  24606473.853   129307916.116        -333.227          44.000    24606470.611   100759398.902        -259.611          41.000  
E07  27847737.992   146340909.013        1802.458          39.000    27847744.106   112131332.067        1381.100          46.000  
E03  26418994.335   138832737.865       -2637.778          49.000    26418996.245   106378341.402       -2020.958          50.000  
G21  22288309.796   117125831.878       -3289.368          46.000                                                                  
E18  28891614.311   151826444.833        -939.916          46.000                                                                  
E13  25635320.323   134714543.070         909.777          48.000    25635321.663   103222795.008         697.078          51.000  
> 2024 04 15 13 09 00.0050000  0 24                     
S33  41334901.311   217216507.421        -672.529          42.000  
G09  24918148.122   130945685.952        2437.332          37.000    24918150.303   102035631.502        1899.315          41.000  
G04  22062694.147   115940205.757         806.431          48.000    22062692.206    90343030.136         628.510          48.000  
G02  22020311.886   115717520.751       -2352.469          49.000                                                                  
R08  21722888.535   116325083.211       -2726.742          50.000    21722884.336    90475201.857       -2120.735          49.000  
R01  22159346.717   118454353.608         735.442          47.000    22159347.146    92131150.796         572.058          45.000  
R22  23582714.388   125886016.732       -4644.651          49.000    23582715.712    97911401.012       -3612.468          49.000  
G28  25486842.504   133934335.378       -2122.257          39.000    25486843.343   104364365.199       -1653.711          43.000  
G17  23537595.955   123690854.029        -305.439          47.000    23537594.572    96382491.606        -238.173          44.000  
E08  24961154.443   131171717.778        -244.782          47.000    24961154.743   100508186.428        -187.484          51.000  
S31  40383019.796   212214299.939        -673.679          44.000  
G19  25523500.873                1       1169.865          30.000                                                                  
R24  22674225.712   121249213.788        2514.460          50.000    22674222.375    94304964.558        1955.745          47.000  
R10  25888099.166   137998139.962        1999.011          38.000                                                                  
R23  20845609.603   111509830.877       -1530.370          51.000                                                                  
E15  25361706.643   133276708.752       -1681.216          49.000    25361710.581   102121156.405       -1288.235          53.000  
G03  22514329.693   118313581.513        -369.137          48.000    22514329.272    92192395.896        -287.662          46.000  
E34  29133878.134   153099637.421       -3237.407          41.000    29133889.362   117310222.944       -2480.734          45.000  
G31  24608422.983   129318159.108        -349.654          45.000    24608421.028   100767380.440        -272.444          42.000  
E07  27837468.162   146286932.778        1795.695          40.000    27837472.460   112089973.654        1376.058          46.000  
E03  26434070.776   138911964.029       -2644.180          49.000    26434072.253   106439047.101       -2026.052          49.000  
G21  22307137.567   117224771.880       -3306.573          46.000                                                                  
E18  28896973.423   151854607.348        -937.594          46.000                                                                  
E13  25630147.613   134687360.969         902.315          48.000    25630148.968   103201967.150         691.370          51.000  
> 2024 04 15 13 09 30.0050000  0 25                     
S33  41338740.980   217236685.423        -672.271          42.000  
G09  24904255.308   130872679.294        2429.636          39.000    24904257.609   101978743.273        1893.322          40.000  
G04  22058136.973   115916256.258         790.329          48.000    22058134.700    90324368.194         615.793          48.000  
G02  22033791.835   115788356.522       -2369.933          49.000                                                                  
R08  21738190.358   116407021.978       -2735.767          49.000    21738185.822    90538931.987       -2127.719          50.000  
R01  22155257.039   118432496.206         721.824          47.000    22155258.837    92114150.590         561.399          45.000  
R22  23608848.796   126025518.178       -4655.356          50.000    23608848.333    98019901.892       -3620.862          47.000  
G28  25499006.114   133998254.910       -2138.783          38.000    25499006.748   104414172.506       -1666.555          42.000  
G17  23539400.415   123700336.407        -326.389          47.000    23539398.684    96389880.389        -254.217          44.000  
E08  24962583.175   131179226.889        -255.730          47.000    24962584.060   100513940.158        -195.886          52.000  
S31  40386864.503   212234506.653        -673.359          44.000  
G19  25516861.576                        1156.335          31.000                                                                  
R24  22660161.220   121174005.988        2499.552          50.000    22660158.295    94246469.610        1944.079          48.000  
R10  25876869.296   137938279.097        1992.097          40.000                                                                  
R23  20854264.581   111556130.058       -1556.066          51.000                                                                  
E15  25371335.245   133327303.372       -1691.472          49.000    25371338.106   102159923.650       -1296.065          53.000  
G03  22516449.981   118324721.379        -373.431          48.000    22516449.524    92201076.292        -291.052          47.000  
E34  29152375.455   153196834.556       -3242.140          43.000    29152385.916   117384698.306       -2484.417          45.000  
G31  24610465.637   129328893.852        -366.258          44.000    24610464.191   100775745.136        -284.982          43.000  
E07  27827231.641   146233148.558        1789.946          39.000    27827237.760   112048762.401        1371.600          47.000  
E03  26449182.299   138991380.592       -2650.022          48.000    26449184.850   106499898.700       -2030.595          50.000  
G21  22326061.648   117324219.035       -3323.187          47.000                                                                  
E18  28902316.473   151882689.873        -934.401          45.000                                                                  
E13  25625015.726   134660396.706         895.499          48.000    25625017.915   103181306.203         686.256          51.000  
R07                                                                  25019672.679                3      -3624.242          13.000  
> 2024 04 15 13 10 00.0050000  0 23                     
S33  41342579.655   217256857.471        -672.194          42.000  
G09  24890409.050   130799910.061        2421.827          40.000    24890410.529   101922040.003        1887.128          40.000  
G04  22053671.515   115892793.900         774.066          47.000    22053670.840    90306085.846         603.119          49.000  
G02  22047371.927   115859720.753       -2387.550          49.000                                                                  
R08  21753542.486   116489231.997       -2744.617          50.000    21753537.507    90602873.090       -2134.836          48.000  
R01  22151245.300   118411048.920         708.253          48.000    22151246.570    92097469.367         550.971          45.000  
R22  23635042.709   126165344.290       -4666.242          49.000    23635042.532    98128655.307       -3629.186          47.000  
G28  25511265.034   134062674.468       -2155.600          35.000    25511265.542   104464369.463       -1679.538          42.000  
G17  23541325.723   123710448.193        -347.581          48.000    23541322.853    96397759.653        -270.688          44.000  
E08  24964076.021   131187071.696        -267.061          47.000    24964076.982   100519951.109        -204.586          52.000  
S31  40390709.611   212254708.708        -673.176          44.000  
R24  22646182.770   121099253.542        2484.217          50.000    22646180.142    94188328.850        1931.949          48.000  
R10  25865680.706   137878639.070        1984.261          40.000                                                                  
R23  20863064.657   111603207.333       -1582.152          50.000                                                                  
E15  25381022.194   133378210.439       -1702.044          49.000    25381025.296   102198930.300       -1304.167          53.000  
G03  22518595.883   118335997.076        -378.009          49.000    22518595.446    92209862.535        -294.571          46.000  
E34  29170898.755   153294176.638       -3247.046          42.000    29170909.914   117459284.732       -2488.079          45.000  
G31  24612601.073   129340113.272        -381.637          44.000    24612598.807   100784487.545        -297.557          42.000  
E07  27817031.897   146179548.834        1783.400          39.000    27817038.201   112007692.521        1366.677          47.000  
E03  26464329.397   139070977.561       -2656.171          48.000    26464331.835   106560888.517       -2035.239          50.000  
G21  22345080.510   117424163.425       -3339.740          46.000                                                                  
E18  28907644.076   151910683.661        -931.592          45.000                                                                  
E13  25619924.233   134633643.439         888.380          48.000    25619927.226   103160806.931         680.679          51.000  
> 2024 04 15 13 10 30.0050000  0 24                     
S33  41346419.569   217277036.423        -672.759          42.000  
G09  24876607.808   130727389.751        2412.911          39.000    24876610.189   101865530.713        1880.260          40.000  
G04  22049301.800   115869829.262         757.237          47.000    22049300.601    90288191.330         590.130          49.000  
G02  22061054.943   115931622.538       -2405.629          50.000                                                                  
R08  21768945.571   116571720.464       -2754.629          48.000    21768941.170    90667030.735       -2142.457          48.000  
R01  22147311.754   118390021.007         694.011          48.000    22147312.592    92081114.375         539.511          45.000  
R22  23661299.021   126305502.116       -4677.331          50.000    23661299.516    98237666.708       -3638.032          47.000  
G28  25523622.067   134127602.908       -2172.580          35.000    25523620.876   104514962.948       -1693.061          40.000  
G17  23543371.954   123721199.168        -369.173          48.000    23543369.283    96406136.986        -287.698          45.000  
E08  24965634.117   131195261.824        -278.726          46.000    24965635.762   100526226.660        -213.598          52.000  
S31  40394554.507   212274916.360        -673.596          44.000  
G19  25503838.404   134023566.8333       1125.929          27.000                                                                  
R24  22632291.661   121024970.963        2468.265          50.000    22632289.194    94130553.525        1919.622          47.000  
R10  25854536.217   137819234.394        1976.279          40.000                                                                  
R23  20872012.187   111651072.813       -1608.732          50.000                                                                  
E15  25390771.074   133429440.331       -1712.949          49.000    25390774.119   102238184.313       -1312.571          52.000  
G03  22520769.400   118347418.760        -383.271          48.000    22520768.292    92218762.528        -298.568          46.000  
E34  29189452.248   153391673.026       -3252.386          43.000    29189463.433   117533989.400       -2492.148          46.000  
G31  24614829.727   129351828.129        -398.565          43.000    24614828.125   100793615.958        -310.603          43.000  
E07  27806868.615   146126144.510        1776.981          39.000    27806875.665   111966772.369        1361.492          47.000  
E03  26479512.024   139150763.506       -2662.687          49.000    26479514.434   106622023.133       -2040.260          49.000  
G21  22364196.796   117524612.861       -3356.677          48.000                                                                  
E18  28912956.056   151938598.534        -929.106          45.000                                                                  
E13  25614875.346   134607112.891         880.541          47.000    25614878.964   103140478.303         674.805          51.000  
> 2024 04 15 13 11 00.0050000  0 24                     
S33  41350260.635   217297219.283        -673.181          42.000  
G09  24862855.557   130655119.273        2404.802          40.000    24862857.002   101809216.080        1873.975          39.000  
G04  22045026.845   115847362.150         740.482          47.000    22045024.503    90270684.498         576.957          48.000  
G02  22074839.437   116004060.562       -2423.715          50.000                                                                  
R08  21784402.593   116654483.989       -2763.380          51.000    21784396.783    90731402.323       -2149.316          48.000  
R01  22143456.958   118369411.497         679.843          49.000    22143457.467    92065084.713         528.937          45.000  
R22  23687617.281   126445987.764       -4688.441          50.000    23687618.338    98346933.086       -3646.555          49.000  
G28  25536075.250   134193038.546       -2190.237          34.000    25536072.997   104565951.584       -1706.202          41.000  
G17  23545538.755   123732589.337        -390.333          47.000    23545537.098    96415012.378        -304.406          45.000  
E08  24967258.541   131203796.169        -290.333          47.000    24967259.786   100532765.959        -222.471          52.000  
S31  40398401.360   212295128.946        -673.970          44.000  
G19  25497422.971                3       1111.697          26.000                                                                  
R24  22618488.552   120951161.531        2452.305          50.000    22618486.476    94073146.198        1907.238          48.000  
R10  25843435.941   137760068.194        1968.062          42.000                                                                  
R23  20881107.408   111699725.660       -1635.063          49.000                                                                  
E15  25400579.665   133480992.705       -1723.895          48.000    25400584.126   102277685.432       -1320.930          52.000  
G03  22522971.069   118358985.809        -388.272          49.000    22522969.151    92227775.789        -302.372          45.000  
E34  29208034.210   153489322.379       -3257.665          42.000    29208045.634   117608811.265       -2496.116          45.000  
G31  24617153.762   129364038.990        -415.773          42.000    24617150.931   100803130.839        -323.600          42.000  
E07  27796742.322   146072935.854        1770.420          39.000    27796750.382   111926002.131        1356.485          47.000  
E03  26494730.304   139230736.294       -2669.048          49.000    26494732.712   106683300.916       -2045.016          49.000  
G21  22383407.008   117625565.049       -3373.578          47.000                                                                  
E18  28918253.474   151966433.579        -926.637          46.000                                                                  
E13  25609869.673   134580806.042         873.018          47.000    25609873.044   103120321.084         668.953          51.000  
> 2024 04 15 13 11 30.0050000  0 25                     
S33  41354104.027   217317417.742        -673.633          42.000  
G09  24849152.513   130583110.154        2396.177          41.000    24849154.035   101753105.090        1867.487          39.000  
G04  22040848.047   115825403.091         723.625          48.000    22040845.774    90253573.566         563.822          48.000  
G02  22088728.067   116077044.084       -2441.719          51.000                                                                  
R08  21799911.411   116737530.388       -2772.653          50.000    21799905.443    90795993.949       -2156.365          48.000  
R01  22139681.696   118349229.537         665.733          49.000    22139682.062    92049387.663         517.611          45.000  
R22  23713997.674   126586808.279       -4699.435          50.000    23713998.511    98456459.903       -3655.197          48.000  
G28  25548625.299   134258990.187       -2207.062          34.000    25548622.288   104617342.309       -1719.354          38.000  
G17  23547830.557   123744628.335        -412.181          48.000    23547827.465    96424393.299        -321.038          44.000  
E08  24968950.200   131212684.341        -301.959          47.000    24968951.036   100539576.378        -231.434          52.000  
S31  40402250.293   212315356.436        -674.357          44.000  
G19  25491133.742                        1095.915          28.000                                                                  
R24  22604776.923   120877839.701        2435.980          51.000    22604775.258    94016118.093        1894.650          48.000  
R10  25832384.295   137701155.324        1959.694          41.000                                                                  
R23  20890351.566   111749175.680       -1661.445          49.000                                                                  
E15  25410452.973   133532877.944       -1734.850          47.000    25410457.597   102317441.596       -1329.384          52.000  
G03  22525201.796   118370708.324        -392.959          49.000    22525200.150    92236910.229        -306.475          46.000  
E34  29226646.973   153587133.997       -3263.034          42.000    29226658.908   117683757.455       -2500.213          46.000  
G31  24619574.118   129376756.820        -432.222          41.000    24619570.984   100813040.867        -337.006          42.000  
E07  27786657.499   146019933.831        1763.503          41.000    27786664.316   111885390.195        1351.264          46.000  
E03  26509986.166   139310904.500       -2675.303          49.000    26509987.862   106744728.454       -2049.976          49.000  
G21  22402714.712   117727028.495       -3390.582          47.000                                                                  
E18  28923536.870   151994198.633        -924.254          46.000                                                                  
E13  25604908.901   134554734.571         865.354          48.000    25604911.791   103100344.225         663.092          51.000  
R09                                                                  25691930.055                3        110.263          26.000  
> 2024 04 15 13 12 00.0050000  0 24                     
S33  41357950.095   217337628.569        -673.329          42.000  
G09  24835499.573   130511361.593        2387.715          41.000    24835501.347   101697197.209        1860.354          39.000  
G04  22036766.008   115803950.196         707.030          48.000    22036763.327    90236857.010         551.125          48.000  
G02  22102719.787   116150570.031       -2459.522          50.000                                                                  
R08  21815471.704   116820854.378       -2781.695          51.000    21815465.722    90860801.457       -2163.519          49.000  
R01  22135985.766   118329472.172         652.095          49.000    22135985.688    92034020.845         507.172          44.000  
R22  23740439.130   126727957.977       -4709.958          49.000    23740440.793    98566242.761       -3663.263          48.000  
G28  25561273.515   134325454.332       -2223.740          37.000    25561269.664   104669132.449       -1732.576          37.000  
G17  23550244.121   123757313.515        -433.235          47.000    23550240.820    96434277.840        -337.558          43.000  
E08  24970707.889   131221923.487        -313.382          47.000    24970708.977   100546655.721        -240.097          52.000  
S31  40406102.036   212335596.586        -674.570          44.000  
G19  25484921.150   133924076.5701       1081.117          32.000                                                                  
R24  22591156.811   120805007.323        2419.998          51.000    22591154.634    93959470.696        1882.349          47.000  
R10  25821379.341   137642497.780        1951.350          41.000                                                                  
R23  20899744.828   111799420.161       -1687.720          50.000                                                                  
E15  25420390.166   133585093.995       -1745.725          48.000    25420393.933   102357451.226       -1337.618          52.000  
G03  22527461.506   118382584.026        -397.958          50.000    22527460.335    92246164.010        -310.127          46.000  
E34  29245291.332   153685104.747       -3268.071          43.000    29245302.549   117758825.587       -2503.906          46.000  
G31  24622089.541   129389980.041        -448.698          43.000    24622087.094   100823344.652        -349.727          42.000  
E07  27776611.884   145967136.873        1757.009          42.000    27776617.575   111844935.400        1346.256          46.000  
E03  26525278.336   139391264.287       -2681.461          49.000    26525279.818   106806302.789       -2054.665          49.000  
G21  22422118.087   117828998.421       -3406.982          45.000                                                                  
E18  28928806.751   152021891.053        -921.346          46.000                                                                  
E13  25599992.535   134528897.779         857.660          48.000    25599995.120   103080547.187         657.232          51.000  
> 2024 04 15 13 12 30.0050000  0 24                     
S33  41361797.326   217357846.458        -674.193          42.000  
G09  24821894.474   130439869.457        2379.295          41.000    24821896.368   101641489.099        1853.340          37.000  
G04  22032778.612   115782998.346         690.234          47.000    22032776.397    90220530.880         537.989          48.000  
G02  22116813.312   116224631.779       -2477.480          50.000                                                                  
R08  21831082.023   116904447.672       -2790.614          50.000    21831075.406    90925818.395       -2170.422          49.000  
R01  22132368.541   118310133.251         637.908          49.000    22132368.271    92018979.453         496.141          45.000  
R22  23766941.744   126869427.970       -4720.759          50.000    23766943.960    98676274.734       -3671.644          49.000  
G28  25574017.879   134392424.162       -2240.754          39.000    25574014.732   104721316.651       -1745.964          39.000  
G17  23552779.834   123770639.315        -454.498          47.000    23552776.846    96444661.554        -354.186          43.000  
E08  24972532.088   131231507.614        -324.926          46.000    24972533.071   100553999.390        -248.972          52.000  
S31  40409955.058   212355844.558        -675.051          44.000  
G19  25478801.620   133891889.587        1065.057          34.000                                                                  
R24  22577628.586   120732662.711        2403.509          51.000    22577625.922    93903202.664        1869.372          47.000  
R10  25810422.807   137584093.892        1942.712          42.000                                                                  
R23  20909285.347   111850453.017       -1714.053          50.000                                                                  
E15  25430388.727   133637635.522       -1756.608          48.000    25430392.562   102397710.261       -1345.858          52.000  
G03  22529749.375   118394607.408        -403.023          49.000    22529748.570    92255532.871        -314.017          46.000  
E34  29263963.858   153783228.314       -3273.052          43.000    29263975.268   117834010.846       -2507.917          46.000  
G31  24624701.004   129403704.421        -465.546          43.000    24624699.115   100834038.977        -362.781          42.000  
E07  27766603.734   145914540.311        1749.914          43.000    27766609.235   111804634.144        1341.035          47.000  
E03  26540605.932   139471808.589       -2687.778          49.000    26540607.232   106868018.505       -2059.418          49.000  
G21  22441617.455   117931467.608       -3423.736          46.000                                                                  
E18  28934061.001   152049505.047        -918.873          45.000                                                                  
E13  25595119.948   134503291.716         849.868          48.000    25595122.462   103060926.941         651.254          51.000  
> 2024 04 15 13 13 00.0050000  0 24                     
S33  41365644.165   217378060.362        -673.781          42.000  
G09  24808336.328   130368623.957        2370.718          41.000    24808338.559   101585973.111        1847.438          36.000  
G04  22028884.933   115762536.619         673.991          48.000    22028882.306    90204586.683         525.126          48.000  
G02  22131006.183   116299216.935       -2494.919          50.000                                                                  
R08  21846739.649   116988296.277       -2799.676          51.000    21846733.682    90991033.912       -2177.462          50.000  
R01  22128827.122   118291200.241         624.344          49.000    22128826.728    92004253.819         485.569          45.000  
R22  23793501.281   127011203.566       -4730.844          50.000    23793503.100    98786544.381       -3679.602          48.000  
G28  25586855.862   134459887.182       -2257.117          40.000    25586853.406   104773885.126       -1758.845          39.000  
G17  23555436.066   123784594.204        -475.604          47.000    23555432.306    96455535.419        -370.565          43.000  
E08  24974419.294   131241424.899        -336.065          46.000    24974420.334   100561598.342        -257.561          52.000  
S31  40413807.115   212376087.354        -674.525          44.000  
G19  25472756.868   133860148.826        1050.250          29.000                                                                  
R24  22564189.338   120660798.690        2387.413          51.000    22564187.215    93847308.411        1856.880          48.000  
R10  25799513.118   137525936.446        1934.425          41.000                                                                  
R23  20918969.975   111902262.134       -1739.962          49.000                                                                  
E15  25440446.633   133690491.512       -1767.092          48.000    25440450.674   102438210.249       -1354.020          52.000  
G03  22532063.259   118406767.300        -407.574          49.000    22532062.488    92265008.093        -317.507          46.000  
E34  29282662.940   153881492.695       -3277.712          41.000    29282674.183   117909303.986       -2511.445          45.000  
G31  24627406.434   129417919.385        -481.943          44.000    24627404.358   100845115.593        -375.725          42.000  
E07  27756631.231   145862133.636        1743.695          44.000    27756636.276   111764478.418        1336.203          47.000  
E03  26555965.705   139552524.610       -2693.374          49.000    26555967.273   106929865.789       -2063.750          49.000  
G21  22461210.122   118034423.582       -3440.039          47.000                                                                  
E18  28939298.157   152077029.019        -915.886          45.000                                                                  
E13  25590289.142   134477906.718         842.585          49.000    25590291.884   103041476.091         645.600          51.000  
> 2024 04 15 13 13 30.0050000  0 24                     
S33  41369490.465   217398273.657        -673.898          41.000  
G09  24794826.823   130297629.282        2362.202          40.000    24794828.402   101530652.634        1840.886          36.000  
G04  22025085.310   115742568.156         657.420          47.000    22025082.366    90189026.857         512.291          48.000  
G02  22145298.912   116374327.501       -2512.386          49.000                                                                  
R08  21862445.916   117072399.639       -2807.657          51.000    21862439.813    91056447.591       -2183.744          49.000  
R01  22125361.478   118272675.500         610.654          49.000    22125361.148    91989845.718         474.899          44.000  
R22  23820118.138   127153284.303       -4741.183          50.000    23820119.439    98897051.372       -3687.486          48.000  
G28  25599787.240   134527844.939       -2273.493          38.000    25599786.969   104826839.081       -1771.650          42.000  
G17  23558211.784   123799180.643        -496.866          47.000    23558207.368    96466901.428        -387.262          43.000  
E08  24976370.955   131251677.615        -347.470          47.000    24976371.254   100569454.301        -266.189          52.000  
S31  40417659.264   212396329.461        -674.820          44.000  
G19  25466798.864   133828858.349        1035.730          31.000                                                                  
R24  22550841.524   120589421.911        2370.964          52.000    22550839.495    93791793.136        1844.317          48.000  
R10  25788650.466   137468033.021        1925.807          40.000                                                                  
R23  20928800.527   111954850.277       -1765.945          49.000                                                                  
E15  25450565.778   133743664.978       -1777.660          48.000    25450569.215   102478953.500       -1362.190          52.000  
G03  22534403.438   118419066.478        -412.420          49.000    22534403.231    92274591.859        -321.321          46.000  
E34  29301389.677   153979899.902       -3282.711          41.000    29301400.859   117984706.557       -2515.157          45.000  
G31  24630204.863   129432628.309        -498.527          43.000    24630201.999   100856577.067        -388.479          41.000  
E07  27746694.582   145809920.498        1737.185          44.000    27746700.595   111724470.978        1331.011          47.000  
E03  26571358.412   139633413.606       -2699.135          49.000    26571360.180   106991845.609       -2068.219          49.000  
G21  22480895.682   118137867.095       -3456.360          48.000                                                                  
E18  28944518.993   152104465.500        -913.185          45.000                                                                  
E13  25585501.778   134452747.202         834.942          48.000    25585504.125   103022198.010         639.705          51.000  
> 2024 04 15 13 14 00.0050000  0 24                     
S33  41373336.278   217418483.395        -673.381          41.000  
G09  24781364.719   130226884.660        2353.784          40.000    24781366.883   101475527.112        1834.114          34.000  
G04  22021378.269   115723091.079         640.953          46.000    22021375.652    90173849.949         499.351          48.000  
G02  22159692.478   116449960.532       -2529.983          50.000                                                                  
R08  21878198.273   117156753.096       -2816.387          50.000    21878192.952    91122055.798       -2190.545          49.000  
R01  22121971.258   118254555.893         597.123          49.000    22121970.799    91975752.739         464.378          44.000  
R22  23846791.283   127295664.629       -4751.194          50.000    23846792.778    99007791.384       -3695.343          49.000  
G28  25612812.651   134596293.917       -2289.769          38.000    25612813.276   104880175.827       -1784.196          42.000  
G17  23561106.965   123814396.266        -517.728          46.000    23561102.892    96478757.667        -403.371          43.000  
E08  24978384.632   131262263.008        -358.535          46.000    24978385.215   100577565.165        -274.688          51.000  
S31  40421510.743   212416568.321        -674.669          44.000  
G19  25460929.838   133798017.507        1020.349          35.000                                                                  
R24  22537584.985   120518534.422        2354.646          51.000    22537582.494    93736658.445        1831.183          48.000  
R10  25777835.045   137410384.930        1917.281          41.000                                                                  
R23  20938775.811   112008214.200       -1791.896          49.000                                                                  
E15  25460745.510   133797153.931       -1788.430          49.000    25460747.860   102519938.477       -1370.308          53.000  
G03  22536769.848   118431502.791        -417.064          49.000    22536769.489    92284282.478        -324.880          46.000  
E34  29320142.127   154078446.865       -3287.452          41.000    29320154.057   118060216.209       -2518.930          45.000  
G31  24633098.718   129447829.832        -515.247          44.000    24633095.342   100868422.390        -401.423          41.000  
E07  27736795.746   145757899.470        1730.816          44.000    27736801.419   111684610.736        1326.074          47.000  
E03  26586782.790   139714471.833       -2704.889          49.000    26586784.989   107053955.102       -2072.658          49.000  
G21  22500672.356   118241793.430       -3472.426          48.000                                                                  
E18  28949723.381   152131811.954        -910.110          45.000                                                                  
E13  25580756.563   134427812.504         827.294          48.000    25580759.073   103003092.207         633.904          51.000  
> 2024 04 15 13 14 30.0050000  0 25                     
S33  41377182.898   217438696.195        -673.729          41.000  
G09  24767951.185   130156397.765        2345.602          40.000    24767954.725   101420602.357        1827.652          34.000  
G04  22017766.729   115704111.946         624.499          47.000    22017764.229    90159061.056         486.546          48.000  
G02  22174184.884   116526120.966       -2547.260          50.000                                                                  
R08  21893998.015   117241360.713       -2824.193          51.000    21893992.159    91187861.658       -2196.754          49.000  
R01  22118659.148   118236846.793         583.692          50.000    22118657.776    91961979.006         454.060          43.000  
R22  23873521.080   127438347.634       -4760.919          51.000    23873522.639    99118766.792       -3703.021          49.000  
G28  25625931.673   134665239.080       -2306.449          37.000    25625931.241   104933899.186       -1797.077          38.000  
G17  23564123.309   123830246.564        -538.778          46.000    23564119.609    96491108.507        -419.664          43.000  
E08  24980462.892   131273186.779        -369.603          46.000    24980463.586   100585935.321        -283.249          51.000  
S31  40425362.447   212436809.404        -674.594          44.000  
G19  25455151.004   133767634.107        1005.170          37.000                                                                  
R24  22524422.053   120448146.486        2338.070          51.000    22524419.371    93681912.279        1818.494          48.000  
R10  25767070.587   137353002.921        1908.419          39.000                                                                  
R23  20948899.109   112062360.054       -1817.683          50.000                                                                  
E15  25470984.879   133850964.788       -1798.796          49.000    25470987.855   102561170.144       -1378.366          53.000  
G03  22539163.429   118444082.543        -421.537          49.000    22539163.442    92294084.858        -328.486          46.000  
E34  29338923.752   154177139.056       -3292.040          42.000    29338934.833   118135837.123       -2522.385          45.000  
G31  24636086.330   129463531.235        -531.489          44.000    24636084.743   100880657.268        -414.201          42.000  
E07  27726934.192   145706077.574        1724.209          45.000    27726939.872   111644903.081        1321.248          47.000  
E03  26602240.981   139795704.069       -2710.490          49.000    26602242.695   107116197.924       -2076.850          49.000  
G21  22520540.486   118346207.021       -3488.325          46.000                                                                  
E18  28954912.073   152159074.341        -907.196          46.000                                                                  
E13  25576055.882   134403110.496         819.726          48.000    25576058.162   102984164.703         627.998          51.000  
R09                                                                  25689167.301                2         16.363          29.000  
