     3.00           OBSERVATION DATA    M: Mixed            RINEX VERSION / TYPE
CONVBIN 2.4.3                           20240415 215942 UTC PGM / RUN BY / DATE 
format: u-blox UBX                                          COMMENT             
log: /home/regis/git/gnsspwv/obsdata/VERT00CHL/2024-04-15/VECOMMENT             
{self.marker}                                               MARKER NAME         
                                                            MARKER NUMBER       
GEODETIC                                                    MARKER TYPE         
{self.observer}     {self.institution}                      OBSERVER / AGENCY   
UNKNOWN             UBLOX-ZED-F9P                           REC # / TYPE / VERS 
UNKNOWN             TWIVSP6037L                             ANT # / TYPE        
  1713381.0000 -5047934.0000 -3490983.0000                  APPROX POSITION XYZ 
        0.0000        0.0000        0.0000                  ANTENNA: DELTA H/E/N
G    8 C1C L1C D1C S1C C2L L2L D2L S2L                      SYS / # / OBS TYPES 
R    8 C1C L1C D1C S1C C2C L2C D2C S2C                      SYS / # / OBS TYPES 
E    8 C1C L1C D1C S1C C7Q L7Q D7Q S7Q                      SYS / # / OBS TYPES 
S    4 C1C L1C D1C S1C                                      SYS / # / OBS TYPES 
  2024    04    15    21    45   00.4950000     GPS         TIME OF FIRST OBS   
  2024    04    15    21    59   30.4960000     GPS         TIME OF LAST OBS    
                                                            END OF HEADER       
> 2024 04 15 21 45 00.4950000  0 22                     
G05  22159191.587   116447163.7521      -3703.268          36.000    22159202.690    90738007.8851      -2885.363          38.000  
E19  22176344.510   116537555.7171        128.099          43.000    22176347.654    89295094.8481         97.986          46.000  
G24  21703616.043   114053358.7981       1299.198          45.000    21703617.466    88872772.0491       1012.571          42.000  
E27  23862292.685   125397415.6551      -2942.077          46.000    23862297.420    96083884.8881      -2254.227          47.000  
R16  21413893.747   114389092.3361       1641.414          52.000    21413903.050    88969451.7341       1276.651          49.000  
R04  18459873.726    98851826.9441      -3517.815          52.000    18459871.848    76884756.9731      -2736.096          49.000  
R03  22237482.812                       -5307.666          27.000    22237522.356    92585614.6661      -4128.144          32.000  
R15  18521243.066    98972113.5191       -682.133          52.000    18521243.885    76978612.0221       -530.507          49.000  
R05  18345477.276    98067157.0341        605.638          52.000    18345477.645    76274357.5831        470.999          48.000  
G19  20304680.652   106702231.5971       1036.354          49.000                                                                  
S31  37347879.663   196264383.8811       -801.436          44.000  
S33  38297556.821   201255049.2061       -802.850          43.000  
G14  21248381.091   111661223.3071      -3853.351          42.000    21248381.738    87008872.5001      -3002.742          47.000  
R24  21918564.385   117208550.1861       1379.209          39.000    21918572.202    91162286.6921       1072.506          43.000  
R14  19678987.748   104900332.8721      -3261.735          52.000    19678989.685    81589326.8971      -2537.034          49.000  
G12  22677564.248   119171370.8371       2206.391          29.000    22677566.428    92860900.1271       1719.236          33.000  
G13  18622826.459    97863702.1011      -1154.708          49.000                                                                  
G17  20245472.100   106391072.3761        -81.046          50.000    20245471.300    82902334.6251        -63.058          46.000  
G15  19529750.766   102629574.8191        584.967          49.000    19529749.838    79971129.4051        455.861          45.000  
G22  19365160.925   101764904.8951      -2699.591          46.000                                                                  
G30  22732655.464   119460920.2131      -3239.567          35.000    22732661.485    93086461.0731      -2524.061          39.000  
E21  22022455.293   115729120.2771       -726.620          48.000    22022459.692    88675743.0741       -556.797          51.000  
> 2024 04 15 21 45 30.4950000  0 22                     
G05  22180341.664   116558312.731       -3706.792          36.000    22180353.678    90824617.000       -2888.139          38.000  
E19  22175644.328   116533875.408         117.457          43.000    22175647.618    89292274.924          89.783          47.000  
G24  21696200.851   114014391.708        1298.478          44.000    21696202.646    88842408.215        1011.647          43.000  
E27  23879099.751   125485734.731       -2945.815          47.000    23879103.566    96151557.992       -2257.188          47.000  
R16  21404699.758   114339980.526        1632.647          52.000    21404708.521    88931254.136        1269.797          48.000  
R04  18479642.930    98957688.946       -3539.762          53.000    18479641.695    76967093.993       -2753.141          50.000  
R03  22267252.993                3      -5310.594          24.000    22267279.333                       -4130.878          31.000  
R15  18525105.423    98992750.318        -693.722          52.000    18525106.115    76994662.963        -539.685          48.000  
R05  18342150.106    98049371.199         580.008          52.000    18342150.298    76260524.213         451.158          49.000  
G19  20298807.698   106671373.087        1020.816          49.000                                                                  
S31  37352455.356   196288428.966        -801.531          44.000  
S33  38302139.905   201279134.460        -802.950          43.000  
G14  21270392.342   111776893.877       -3858.094          42.000    21270390.627    87099005.431       -3006.356          46.000  
R24  21910871.038   117167400.755        1363.958          41.000    21910876.424    91130281.986        1060.802          42.000  
R14  19697352.949   104998232.213       -3264.980          51.000    19697355.885    81665470.816       -2539.371          49.000  
G12  22664986.930                        2197.848          29.000    22664991.598    92809408.673        1713.373          35.000  
G13  18629465.572    97898596.256       -1171.819          48.000                                                                  
G17  20245991.054   106393801.423        -101.005          50.000    20245990.510    82904461.292         -78.692          46.000  
G15  19526454.232   102612252.299         569.519          49.000    19526453.559    79957631.387         443.885          46.000  
G22  19380609.488   101846090.642       -2712.860          46.000                                                                  
G30  22751156.784   119558142.136       -3241.808          40.000    22751162.141    93162218.398       -2526.060          40.000  
E21  22026632.686   115751074.443        -736.898          48.000    22026637.040    88692565.152        -564.616          51.000  
> 2024 04 15 21 46 00.4950000  0 22                     
G05  22201514.671   116669571.493       -3710.010          38.000    22201526.188    90911311.746       -2890.521          39.000  
E19  22175005.389   116530520.725         106.658          43.000    22175008.682    89289704.490          81.612          46.000  
G24  21688789.233   113975448.391        1297.961          44.000    21688792.684    88812062.877        1011.264          43.000  
E27  23895929.422   125574172.536       -2949.577          47.000    23895933.334    96219322.033       -2260.186          48.000  
R16  21395554.623   114291134.575        1624.074          52.000    21395563.242    88893263.290        1263.123          47.000  
R04  18499534.189    99064207.996       -3561.300          53.000    18499534.005    77049942.060       -2769.874          50.000  
R03  22297020.666                3      -5318.557          21.000    22297050.219                3      -4131.877          26.000  
R15  18529033.518    99013738.740        -705.177          52.000    18529032.863    77010987.357        -548.514          48.000  
R05  18338968.063    98032356.635         554.576          53.000    18338967.399    76247290.661         431.328          49.000  
G19  20293026.178   106640985.801        1005.261          50.000                                                                  
S31  37357033.063   196312486.135        -802.007          44.000  
S33  38306725.384   201303231.157        -803.188          43.000  
G14  21292428.893   111892701.843       -3862.487          41.000    21292429.176    87189245.419       -3009.721          45.000  
R24  21903260.382   117126713.407        1348.784          39.000    21903265.503    91098636.707        1048.998          37.000  
R14  19715736.425   105096229.030       -3267.927          51.000    19715740.252    81741690.598       -2541.714          51.000  
G12  22652455.422                1       2191.642          30.000    22652458.769    92758093.541        1707.884          34.000  
G13  18636203.529    97934002.296       -1188.544          49.000                                                                  
G17  20246624.342   106397131.346        -120.837          50.000    20246624.358    82907056.154         -94.169          46.000  
G15  19523246.150   102595394.720         554.339          49.000    19523244.937    79944495.654         432.103          45.000  
G22  19396134.109   101927673.554       -2725.757          47.000                                                                  
G30  22769671.981   119655436.902       -3244.280          41.000    22769676.089    93238032.453       -2527.812          41.000  
E21  22030868.378   115773334.975        -746.943          47.000    22030873.165    88709622.007        -572.326          51.000  
> 2024 04 15 21 46 30.4950000  0 23                     
G05  22222704.533   116780928.168       -3713.672          35.000    22222716.624    90998082.685       -2893.829          38.000  
E19  22174427.816   116527483.872          95.774          43.000    22174430.977    89287377.568          73.543          46.000  
G24  21681380.797   113936520.225        1297.270          43.000    21681385.003    88781729.336        1010.824          44.000  
E27  23912778.934   125662718.637       -2953.282          47.000    23912783.101    96287169.053       -2262.914          48.000  
R16  21386457.774   114242545.332        1615.291          50.000    21386466.440    88855472.121        1256.357          47.000  
R04  18519546.946    99171371.572       -3582.841          52.000    18519545.690    77133291.387       -2786.705          50.000  
R03  22326819.990                3      -5313.846          21.000    22326832.332                1      -4134.369          26.000  
R15  18533024.582    99035067.824        -716.642          52.000    18533024.902    77027576.694        -557.299          49.000  
R05  18335927.218    98016106.312         528.884          52.000    18335928.000    76234651.541         411.237          49.000  
G23  22961033.747                         195.112          27.000                                                                  
G19  20287331.407   106611063.543         989.568          49.000                                                                  
S31  37361611.013   196336545.274        -801.646          42.000  
S33  38311311.566   201327330.499        -803.590          43.000  
G14  21314491.183   112008636.123       -3866.680          41.000    21314490.898    87279583.842       -3012.885          46.000  
R24  21895739.815   117086483.089        1333.187          44.000    21895739.819    91067346.816        1037.250          39.000  
R14  19734136.305   105194312.572       -3270.933          52.000    19734140.437    81817977.819       -2544.095          51.000  
G12  22639962.212   118973812.1773       2184.161          36.000    22639968.917    92706948.529        1701.851          37.000  
G13  18643036.698    97969912.503       -1205.570          48.000                                                                  
G17  20247371.412   106401054.600        -140.570          51.000    20247370.836    82910113.371        -109.576          46.000  
G15  19520125.362   102578995.040         538.875          49.000    19520124.252    79931716.709         419.977          46.000  
G22  19411731.761   102009642.180       -2738.727          47.000                                                                  
G30  22788198.357   119752795.478       -3246.417          41.000    22788203.222    93313896.248       -2529.672          40.000  
E21  22035160.729   115795892.045        -756.884          47.000    22035165.775    88726906.068        -579.924          51.000  
> 2024 04 15 21 47 00.4950000  0 22                     
G05  22243916.058   116892386.763       -3716.882          38.000    22243926.297    91084933.074       -2896.082          36.000  
E19  22173911.793   116524773.062          84.983          43.000    22173915.127    89285300.494          65.076          47.000  
G24  21673977.493   113897614.806        1296.570          44.000    21673980.613    88751413.578        1010.346          43.000  
E27  23929649.421   125751378.772       -2957.104          47.000    23929654.467    96355103.496       -2265.808          48.000  
R16  21377411.600   114194219.994        1606.560          51.000    21377419.743    88817886.226        1249.505          48.000  
R04  18539680.109    99279184.168       -3604.496          52.000    18539680.458    77217145.532       -2803.393          51.000  
R03  22356573.460                3      -5314.568          20.000    22356624.865                3      -4137.321          23.000  
R15  18537080.381    99056743.194        -728.217          51.000    18537081.284    77044435.405        -566.402          49.000  
R05  18333032.543    98000630.271         503.113          52.000    18333033.341    76222614.635         391.270          50.000  
G19  20281727.280   106581615.998         973.696          49.000                                                                  
S31  37366191.136   196360613.612        -802.487          44.000  
S33  38315898.643   201351438.559        -803.658          42.000  
G14  21336577.210   112124701.751       -3870.909          41.000    21336576.561    87370024.601       -3016.360          45.000  
R24  21888303.065   117046721.002        1317.798          45.000    21888305.890    91036421.185        1024.643          37.000  
R14  19752553.852   105292488.200       -3273.945          50.000    19752557.720    81894336.678       -2546.414          50.000  
G12  22627518.157   118908355.1471       2177.009          31.000    22627520.782    92655980.264        1695.797          36.000  
G13  18649966.533    98006334.652       -1222.609          47.000                                                                  
G17  20248232.039   106405579.799        -160.816          50.000    20248231.526    82913639.624        -125.331          45.000  
G15  19517093.983   102563062.555         523.374          49.000    19517092.600    79919301.803         407.833          46.000  
G22  19427404.293   102092001.542       -2751.605          47.000                                                                  
G30  22806738.415   119850225.205       -3248.749          41.000    22806743.501    93389815.501       -2531.720          40.000  
E21  22039510.472   115818751.992        -766.928          47.000    22039516.242    88744422.215        -587.679          52.000  
> 2024 04 15 21 47 30.4950000  0 23                     
G05  22265144.517   117003941.096       -3720.324          38.000    22265155.043    91171858.088       -2898.865          36.000  
E19  22173457.837   116522387.178          73.965          43.000    22173461.489    89283472.393          56.633          47.000  
G24  21666577.975   113858729.894        1295.662          44.000    21666581.423    88721113.764        1009.541          44.000  
E27  23946541.586   125840149.038       -2960.996          47.000    23946546.709    96423122.290       -2268.797          48.000  
R16  21368413.190   114146155.491        1597.670          51.000    21368420.492    88780503.215        1242.660          47.000  
R04  18559933.659    99387639.832       -3625.949          52.000    18559933.428    77301499.833       -2820.195          50.000  
R03  22387181.368                3      -5314.680          12.000    22386429.008                3      -4136.672          23.000  
R15  18541201.287    99078760.725        -739.639          52.000    18541201.181    77061560.219        -575.296          49.000  
R05  18330282.672    97985928.246         477.083          53.000    18330282.816    76211179.752         371.010          50.000  
G23  22958984.887                3        159.669          27.000    22959011.041                3        124.167          25.000  
G19  20276214.103   106552643.120         957.771          50.000                                                                  
S31  37370772.706   196384689.796        -802.647          44.000  
S33  38320487.889   201375554.087        -804.054          43.000  
G14  21358686.425   112240894.041       -3875.322          38.000    21358688.304    87460564.011       -3019.559          46.000  
R24  21880955.744   117007428.378        1301.792          44.000    21880957.002    91005860.722        1012.479          37.000  
R14  19770989.223   105390751.385       -3277.020          51.000    19770990.545    81970763.650       -2548.805          49.000  
G12  22615110.972   118843170.337        2169.628          32.000    22615117.026    92605187.510        1689.835          37.000  
G13  18656995.300    98043266.653       -1239.742          48.000                                                                  
G17  20249207.335   106410705.351        -181.032          50.000    20249207.007    82917633.705        -141.070          46.000  
G15  19514151.341   102547596.277         507.609          50.000    19514149.639    79907250.195         395.573          46.000  
G22  19443150.209   102174746.892       -2764.594          47.000                                                                  
G30  22825290.844   119947723.478       -3251.149          40.000    22825296.722    93465788.163       -2533.312          40.000  
E21  22043918.439   115841911.414        -777.046          48.000    22043923.044    88762167.814        -595.450          51.000  
> 2024 04 15 21 48 00.4950000  0 23                     
G05  22286388.177   117115581.838       -3722.979          38.000    22286400.465    91258850.347       -2901.044          38.000  
E19  22173064.824   116520320.923          63.340          43.000    22173067.598    89281889.168          48.689          46.000  
G24  21659181.062   113819859.202        1295.092          44.000    21659184.816    88690825.046        1009.170          44.000  
E27  23963454.209   125929021.362       -2964.298          46.000    23963458.711    96491219.264       -2271.361          49.000  
R16  21359462.815   114098345.285        1589.116          52.000    21359470.940    88743317.971        1236.031          49.000  
R04  18580305.082    99496728.530       -3647.136          52.000    18580305.340    77386346.520       -2836.569          50.000  
R15  18545384.415    99101111.857        -750.837          52.000    18545384.876    77078944.511        -583.947          50.000  
R05  18327675.463    97971995.491         451.340          51.000    18327676.307    76200343.207         351.074          50.000  
G23  22958113.791                3        140.222          26.000    22958140.965                         112.460          26.000  
G19  20270789.548   106524140.399         941.949          49.000                                                                  
S31  37375354.280   196408765.606        -802.893          42.000  
S33  38325077.251   201399670.494        -804.138          43.000  
G14  21380820.220   112357204.181       -3879.020          42.000    21380820.306    87551195.323       -3022.835          44.000  
R24  21873694.883   116968602.340        1286.072          44.000    21873696.608    90975663.178        1000.289          38.000  
R14  19789436.705   105489093.519       -3279.605          51.000    19789439.340    82047251.944       -2550.918          50.000  
G12  22602746.049   118778205.488        2161.194          38.000    22602754.855    92554566.088        1684.215          39.000  
G13  18664118.739    98080702.700       -1256.666          47.000                                                                  
G17  20250295.567   106416426.435        -200.894          50.000    20250295.441    82922091.834        -156.583          46.000  
G15  19511295.930   102532591.103         492.207          50.000    19511294.120    79895557.878         383.460          46.000  
G22  19458968.281   102257869.234       -2777.264          48.000                                                                  
G30  22843856.450   120045283.787       -3253.160          41.000    22843861.659    93541809.138       -2535.034          38.000  
E21  22048381.370   115865362.756        -786.686          48.000    22048385.051    88780137.117        -602.874          50.000  
R03                                                                  22416236.083                3      -4134.662          16.000  
> 2024 04 15 21 48 30.4950000  0 23                     
G05  22307649.404   117227312.144       -3725.806          40.000    22307661.745    91345912.351       -2902.838          33.000  
E19  22172733.360   116518580.750          52.607          43.000    22172736.583    89280555.858          40.230          47.000  
G24  21651788.458   113781008.712        1294.589          46.000    21651791.507    88660552.090        1008.642          44.000  
E27  23980386.720   126017999.973       -2967.848          47.000    23980390.984    96559397.740       -2274.013          49.000  
R16  21350560.981   114050795.054        1580.689          51.000    21350568.490    88706334.928        1229.445          48.000  
R04  18600795.669    99606452.643       -3668.074          53.000    18600795.851    77471687.391       -2852.913          51.000  
R15  18549629.098    99123800.744        -761.989          52.000    18549630.846    77096591.507        -592.672          49.000  
R05  18325213.907    97958840.413         425.509          51.000    18325215.876    76190111.475         331.005          50.000  
G19  20265457.253   106496116.423         926.045          50.000                                                                  
S31  37379936.849   196432847.315        -803.068          44.000  
S33  38329667.099   201423792.734        -804.240          42.000  
G14  21402977.604   112473635.670       -3882.956          44.000    21402977.131    87641921.179       -3026.043          44.000  
R24  21866523.524   116930252.611        1270.214          45.000    21866524.349    90945835.919         987.880          38.000  
R14  19807899.760   105587518.827       -3282.255          49.000    19807903.877    82123804.957       -2552.898          49.000  
G12  22590423.525   118713467.125        2154.280          38.000    22590432.869    92504121.220        1678.461          35.000  
G13  18671339.221    98118649.032       -1273.494          47.000                                                                  
G17  20251499.007   106422749.664        -220.819          49.000    20251498.429    82927019.139        -172.117          46.000  
G15  19508528.739   102518054.754         476.652          49.000    19508527.014    79884230.886         371.265          45.000  
G22  19474858.698   102341371.867       -2789.605          48.000                                                                  
G30  22862434.595   120142911.759       -3255.240          42.000    22862439.997    93617882.867       -2536.472          40.000  
E21  22052900.958   115889110.817        -796.533          49.000    22052904.334    88798333.729        -610.269          51.000  
G23                                                                  22957373.803                3         95.547          24.000  
R03                                                                  22446089.539                3      -4150.103          16.000  
> 2024 04 15 21 49 00.4950000  0 23                     
G05  22328928.476   117339128.949       -3728.406          39.000    22328940.268    91433041.853       -2905.139          34.000  
E19  22172465.563   116517169.157          41.860          43.000    22172468.057    89279474.274          32.054          47.000  
G24  21644399.458   113742179.859        1294.008          45.000    21644402.234    88630295.992        1008.423          44.000  
E27  23997337.637   126107084.491       -2971.135          46.000    23997342.727    96627657.356       -2276.527          48.000  
R16  21341707.694   114003505.240        1572.183          52.000    21341715.695    88669554.429        1222.755          49.000  
R04  18621403.465    99716810.318       -3688.945          52.000    18621404.355    77557521.045       -2869.169          50.000  
R15  18553937.961    99146826.758        -772.922          52.000    18553938.838    77114500.710        -601.107          49.000  
R05  18322899.500    97946465.825         399.630          52.000    18322900.633    76180486.835         310.741          50.000  
G23  22956685.085   120638233.2541        107.854          29.000    22956689.280                3         76.274          16.000  
G19  20260215.742   106468574.626         910.154          50.000                                                                  
S31  37384520.692   196456936.124        -802.812          44.000  
S33  38334258.761   201447921.339        -804.034          42.000  
G14  21425154.906   112590187.421       -3886.851          41.000    21425156.862    87732740.740       -3028.912          45.000  
R24  21859441.232   116892383.880        1254.317          44.000    21859442.826    90916382.759         975.660          38.000  
R14  19826380.497   105686026.321       -3284.688          51.000    19826383.494    82200421.910       -2554.799          50.000  
G12  22578142.172   118648958.007        2146.528          36.000    22578156.305    92453854.989        1672.755          36.000  
G13  18678657.947    98157107.428       -1290.521          47.000                                                                  
G17  20252817.158   106429677.286        -240.909          48.000    20252816.820    82932417.404        -187.630          46.000  
G15  19505852.556   102503990.082         461.046          49.000    19505850.695    79873271.432         359.250          45.000  
G22  19490821.421   102425253.484       -2802.334          48.000                                                                  
G30  22881025.435   120240608.574       -3257.476          43.000    22881032.166    93694010.134       -2538.358          40.000  
E21  22057476.299   115913155.672        -806.304          49.000    22057480.017    88816757.795        -617.836          51.000  
R03                                                                  22475944.234                3      -4142.942          14.000  
> 2024 04 15 21 49 30.4950000  0 22                     
G05  22350222.807   117451023.383       -3731.049          40.000    22350233.952    91520231.832       -2907.416          33.000  
E19  22172258.094   116516081.217          30.955          43.000    22172261.140    89278640.714          23.536          47.000  
G24  21637013.396   113703366.731        1293.586          46.000    21637016.500    88600052.182        1007.860          44.000  
E27  24014308.468   126196267.286       -2974.386          47.000    24014313.767    96695992.270       -2279.011          48.000  
R16  21332901.998   113956469.542        1563.740          51.000    21332910.182    88632971.545        1216.091          48.000  
R04  18642129.575    99827791.496       -3709.682          53.000    18642129.086    77643839.624       -2885.342          50.000  
R15  18558308.500    99170181.972        -783.912          52.000    18558309.512    77132665.952        -609.760          49.000  
R05  18320730.362    97934868.364         373.668          51.000    18320730.283    76171466.634         290.591          49.000  
G23  22956124.267                          89.884          29.000    22956159.643                3         76.396          24.000  
G19  20255065.770   106441510.923         894.093          49.000                                                                  
S31  37389104.649   196481025.426        -802.827          44.000  
S33  38338850.600   201472051.520        -804.179          43.000  
G14  21447354.847   112706850.993       -3890.644          42.000    21447356.262    87823647.452       -3031.691          43.000  
R24  21852448.936   116854993.729        1238.227          45.000    21852451.822    90887301.936         963.169          44.000  
R14  19844873.586   105784608.366       -3287.195          51.000    19844877.238    82277096.880       -2556.730          50.000  
G12  22565910.875   118584672.628        2139.148          37.000    22565923.934    92403763.044        1666.532          37.000  
G13  18686072.541    98196072.365       -1307.208          47.000                                                                  
G17  20254248.810   106437204.211        -260.830          48.000    20254249.071    82938282.683        -203.271          46.000  
G15  19503265.276   102490392.233         445.591          49.000    19503263.163    79862675.763         346.851          45.000  
G22  19506853.830   102509505.509       -2814.538          48.000                                                                  
G30  22899629.649   120338367.849       -3259.757          44.000    22899634.491    93770186.158       -2540.040          39.000  
E21  22062106.665   115937490.192        -815.849          49.000    22062110.850    88835403.800        -625.211          51.000  
> 2024 04 15 21 50 00.4950000  0 22                     
G05  22371527.519   117562981.946       -3732.660          40.000    22371538.869                       -2908.435          31.000  
E19  22172110.273   116515307.412          20.776          43.000    22172113.575    89278047.844          15.850          47.000  
G24  21629628.897   113664559.275        1293.649          46.000    21629631.356    88569812.776        1007.952          44.000  
E27  24031296.543   126285536.488       -2976.987          48.000    24031300.858    96764393.402       -2281.121          48.000  
R16  21324141.776   113909677.027        1555.918          50.000    21324149.911    88596577.766        1210.103          48.000  
R04  18662968.857    99939382.474       -3729.704          53.000    18662967.754    77730632.506       -2900.915          50.000  
R15  18562738.834    99193853.507        -794.124          52.000    18562739.252    77151077.241        -617.731          49.000  
R05  18318704.483    97924038.744         348.367          51.000    18318704.122    76163043.612         270.942          49.000  
G19  20250005.151   106414917.528         878.682          49.000                                                                  
S31  37393687.196   196505105.335        -802.293          43.000  
S33  38343440.176   201496171.487        -803.821          42.000  
G14  21469574.696   112823613.875       -3893.589          43.000    21469575.289    87914631.542       -3033.733          42.000  
R24  21845543.044   116818075.257        1222.848          45.000    21845546.361    90858587.975         951.067          40.000  
R14  19863380.775   105883252.399       -3289.019          51.000    19863382.492    82353820.072       -2558.112          50.000  
G12  22553717.526   118520601.499        2132.286          37.000    22553731.264    92353838.087        1661.474          36.000  
G13  18693582.907    98235533.661       -1323.471          48.000                                                                  
G17  20255793.511   106445321.453        -280.184          48.000    20255793.764    82944607.935        -218.453          46.000  
G15  19500764.531   102477252.511         430.457          49.000    19500763.137    79852437.049         335.446          46.000  
G22  19522954.452   102594115.260       -2826.106          48.000                                                                  
G30  22918242.321   120436179.222       -3260.875          42.000    22918246.914    93846402.810       -2541.392          40.000  
E21  22066789.843   115962103.008        -824.962          48.000    22066794.523    88854263.042        -632.088          51.000  
G23                                                                  22955715.880                3         42.833          22.000  
> 2024 04 15 21 50 30.4950000  0 23                     
G05  22392840.861   117674983.257       -3734.448          38.000    22392852.084    91694744.922       -2910.132          32.000  
E19  22172019.460   116514830.734          10.891          42.000    22172022.755    89277682.644           8.350          47.000  
G24  21622240.925   113625739.464        1294.140          46.000    21622243.703    88539563.749        1008.398          45.000  
E27  24048296.172   126374872.379       -2978.966          46.000    24048300.783    96832845.608       -2282.653          48.000  
R16  21315424.023   113863108.978        1548.597          51.000    21315431.773    88560358.567        1204.431          47.000  
R04  18683916.363   100051561.061       -3749.017          53.000    18683916.480    77817882.429       -2915.957          50.000  
R03  22565485.772                3      -5328.661          16.000                                                                  
R15  18567224.638    99217821.761        -803.826          53.000    18567224.490    77169719.297        -625.278          49.000  
R05  18316819.120    97913960.941         323.464          51.000    18316818.815    76155205.360         251.404          49.000  
G23  22955277.044   120630792.6993         57.185          33.000    22955293.406    93997944.6321         44.436          32.000  
G19  20245030.160   106388778.218         863.745          49.000                                                                  
S31  37398263.892   196529157.154        -801.378          45.000  
S33  38348024.528   201520263.169        -802.548          42.000  
G14  21491809.470   112940455.641       -3896.046          46.000    21491809.212    88005677.118       -3035.897          41.000  
R24  21838724.805   116781613.663        1207.672          43.000    21838727.132    90830229.303         939.299          40.000  
R14  19881893.163   105981937.824       -3290.190          51.000    19881896.967    82430575.377       -2559.058          50.000  
G12  22541564.135   118456727.902        2125.888          39.000    22541575.360    92304067.096        1656.003          34.000  
G13  18701182.431    98275473.421       -1339.431          47.000                                                                  
G17  20257447.279   106454011.433        -299.235          49.000    20257447.313    82951379.477        -233.053          47.000  
G15  19498347.904   102464554.266         415.952          49.000    19498346.611    79842542.344         324.099          45.000  
G22  19539119.597   102679062.334       -2837.151          48.000                                                                  
G30  22936861.387   120534024.493       -3262.206          42.000    22936865.363    93922645.765       -2541.720          38.000  
E21  22071523.053   115986974.857        -833.350          48.000    22071527.635    88873320.777        -638.564          52.000  
> 2024 04 15 21 51 00.4950000  0 22                     
G05  22414161.234   117787025.225       -3734.338          37.000    22414171.898                       -2910.126          30.000  
E19  22171985.463   116514653.497           2.024          42.000    22171988.773    89277546.882           1.474          46.000  
G24  21614851.588   113586908.952        1295.392          46.000    21614854.362    88509306.400        1009.604          44.000  
E27  24065309.106   126464274.765       -2980.179          47.000    24065313.379    96901348.792       -2283.631          48.000  
R16  21306748.786   113816766.176        1541.968          51.000    21306756.255    88524314.516        1199.329          47.000  
R04  18704974.387   100164325.222       -3767.512          53.000    18704974.900    77905587.765       -2930.244          51.000  
R15  18571764.353    99242085.795        -812.664          52.000    18571765.092    77188591.401        -632.118          49.000  
R05  18315075.038    97904638.193         299.126          51.000    18315074.493    76147954.373         232.595          49.000  
G23  22954997.736   120629323.9481         41.926          28.000    22955010.223    93996795.844          32.933          33.000  
G19  20240143.065   106363096.851         849.313          48.000                                                                  
S31  37402835.593   196553181.342        -799.326          44.000  
S33  38352604.199   201544328.105        -800.465          42.000  
G14  21514059.041   113057375.369       -3897.510          45.000    21514058.560    88096783.421       -3037.147          42.000  
R24  21831992.977   116745614.040        1193.025          44.000    21831994.992    90802229.949         927.815          42.000  
R14  19900414.121   106080664.382       -3290.588          51.000    19900418.861    82507362.785       -2559.403          52.000  
G12  22529448.095   118393053.517        2119.984          38.000    22529458.249    92254451.234        1651.668          33.000  
G13  18708874.567    98315893.890       -1354.493          47.000                                                                  
G17  20259211.423   106463276.400        -317.382          50.000    20259209.622    82958599.061        -247.511          46.000  
G15  19496016.269   102452300.489         401.965          49.000    19496015.416    79832993.986         313.251          46.000  
G22  19555348.074   102764345.253       -2847.416          48.000                                                                  
G30  22955487.518   120631904.844       -3262.297          43.000    22955491.588    93998916.129       -2542.346          39.000  
E21  22076305.355   116012106.036        -841.021          49.000    22076309.527    88892577.198        -644.454          51.000  
> 2024 04 15 21 51 30.4950000  0 23                     
G05  22435485.830   117899078.331       -3735.327          37.000    22435496.066    91869363.433       -2910.791          33.000  
E19  22172004.864   116514750.919          -8.069          42.000    22172007.071    89277621.566          -6.151          46.000  
G24  21607455.810   113548042.134        1296.041          47.000    21607457.906    88479020.737        1009.844          45.000  
E27  24082329.114   126553716.278       -2982.266          47.000    24082333.049    96969881.954       -2285.036          48.000  
R16  21298110.472   113770622.070        1534.630          51.000    21298117.544    88488425.050        1193.567          48.000  
R04  18726136.787   100277644.836       -3786.783          53.000    18726135.758    77993725.147       -2945.235          50.000  
R15  18576355.818    99266617.765        -822.391          52.000    18576355.905    77207671.879        -639.588          49.000  
R05  18313468.083    97896046.083         274.021          51.000    18313467.853    76141271.662         213.140          50.000  
G19  20235338.069   106337849.654         834.132          48.000                                                                  
S31  37407396.821   196577152.428        -798.396          44.000  
S33  38357173.000   201568339.908        -799.505          42.000  
G14  21536317.941   113174345.030       -3900.109          44.000    21536317.748    88187928.628       -3039.111          43.000  
R24  21825344.648   116710053.274        1178.025          41.000    21825344.235    90774571.879         916.165          42.000  
R14  19918938.465   106179403.829       -3291.770          51.000    19918940.999    82584160.137       -2560.267          50.000  
G12  22517363.049   118329553.909        2113.501          38.000    22517375.415    92204971.652        1647.016          33.000  
G13  18716652.093    98356769.377       -1370.383          47.000                                                                  
G17  20261078.744   106473091.498        -336.622          49.000    20261077.327    82966247.316        -262.267          46.000  
G15  19493764.406   102440466.973         387.290          49.000    19493763.173    79823773.116         301.754          46.000  
G22  19571635.587   102849935.939       -2858.324          48.000                                                                  
G30  22974115.100   120729794.335       -3263.472          42.000    22974120.217    94075193.604       -2542.909          41.000  
E21  22081131.465   116037469.645        -849.607          48.000    22081135.888    88912011.730        -650.988          51.000  
E04                                                                  26273191.049                3       1469.544          24.000  
G23                                                                  22954815.495                1         19.526          30.000  
> 2024 04 15 21 52 00.4950000  0 23                     
G05  22456815.194   118011167.425       -3736.780          37.000    22456827.472    91956705.079       -2911.530          35.000  
E19  22172080.545   116515071.3841        -18.539          43.000    22172083.872    89277928.457         -14.124          47.000  
G24  21600057.649   113509166.595        1296.058          46.000    21600059.431    88448728.295        1010.013          43.000  
E27  24099362.238   126642999.7351      -2984.490          47.000    24099365.933    97038464.880       -2286.913          49.000  
R16  21289513.295   113724704.320        1526.913          50.000    21289521.164    88452711.654        1187.438          47.000  
R04  18747406.731   100391544.436       -3806.158          53.000    18747405.904    78082313.616       -2960.415          50.000  
R15  18581000.935    99291443.484        -832.347          52.000    18581001.330    77226980.834        -647.336          50.000  
R05  18312002.595    97888214.207         248.387          51.000    18312002.859    76135180.242         193.093          49.000  
G23  22954710.272   120627815.7583          8.760          29.000    22954727.236                3          9.043          20.000  
G19  20230622.214   106313066.345         818.404          49.000                                                                  
S31  37411953.463   196601141.4011       -797.422          45.000  
S33  38361737.558   201592290.5831       -799.307          42.000  
G14  21558589.991   113291389.666       -3902.618          44.000    21558589.757    88279132.308       -3041.093          42.000  
R24  21818782.657   116674963.230        1161.585          41.000    21818782.665    90747279.943         903.718          43.000  
R14  19937468.306   106278182.704       -3293.335          51.000    19937471.333    82660988.140       -2561.434          50.000  
G12  22505318.806   118266257.543        2106.232          37.000    22505329.954    92155650.423        1640.818          34.000  
G13  18724522.742    98398127.556       -1386.720          48.000                                                                  
G17  20263055.893   106483485.293        -356.135          47.000    20263054.791    82974346.475        -277.258          46.000  
G15  19491598.073   102429082.571         372.007          49.000    19491597.010    79814902.196         289.845          46.000  
G22  19587985.738   102935859.207       -2869.561          48.000                                                                  
G30  22992749.094   120827720.213       -3264.774          40.000    22992755.421    94151499.440       -2544.027          42.000  
E21  22086007.003   116062748.9231       -858.300          48.000    22086011.450    88931644.443        -657.709          51.000  
E04                                                                  26262232.485                3       1459.943          21.000  
> 2024 04 15 21 52 30.4950000  0 23                     
G05  22478154.208   118123301.801       -3738.763          38.000    22478167.415    92044081.993       -2912.921          36.000  
E19  22172217.427   116515788.980         -29.347          44.000    22172220.415    89278478.344         -22.495          46.000  
G24  21592660.285   113470295.657        1295.481          46.000    21592663.038    88418439.424        1009.495          44.000  
E27  24116409.495   126732582.655       -2987.479          47.000    24116413.158    97107106.367       -2289.072          49.000  
R16  21280962.032   113679025.433        1518.595          51.000    21280970.236    88417183.997        1181.012          48.000  
R04  18768786.683   100506033.687       -3826.194          53.000    18768785.696    78171360.704       -2975.969          50.000  
R15  18585703.314    99316574.365        -842.838          51.000    18585704.501    77246527.173        -655.570          49.000  
R05  18310682.118    97881157.691         222.088          51.000    18310682.681    76129691.850         172.793          50.000  
G23  22954710.085                          -8.334          28.000    22954711.510                          -6.785          28.000  
G19  20225997.068   106288762.002         802.089          49.000                                                                  
S31  37416507.648   196625073.422        -797.753          45.000  
S33  38366299.648   201616263.868        -799.012          43.000  
G14  21580878.787   113408520.060       -3905.825          44.000    21580879.716    88370402.781       -3043.369          42.000  
R24  21812309.101   116640360.268        1145.303          33.000    21812312.007    90720366.826         890.449          40.000  
R14  19956008.603   106377011.709       -3295.126          51.000    19956012.146    82737855.187       -2562.966          50.000  
G12  22493315.551   118203178.001        2098.934          39.000    22493324.285    92106498.092        1635.309          32.000  
G13  18732487.039    98439981.953       -1403.573          48.000                                                                  
G17  20265146.046   106494471.420        -376.137          47.000    20265145.549    82982907.233        -293.178          46.000  
G15  19489519.530   102418161.587         356.187          50.000    19489518.098    79806392.389         277.574          46.000  
G22  19604401.212   103022125.493       -2881.380          49.000                                                                  
G30  23011393.509   120925695.361       -3266.902          42.000    23011399.530    94227843.697       -2545.417          42.000  
E21  22090934.248   116088641.768        -867.707          49.000    22090938.507    88951484.512        -664.924          51.000  
E04                                                                  26251288.926                        1469.334          28.000  
> 2024 04 15 21 53 00.4950000  0 23                     
G05  22499499.572   118235472.535       -3739.186          38.000    22499513.621    92131487.216       -2913.705          38.000  
E19  22172413.858   116516818.758         -39.401          44.000    22172416.129    89279267.419         -30.052          46.000  
G24  21585263.111   113431423.635        1295.983          46.000    21585265.754    88388149.702        1009.932          45.000  
E27  24133468.875   126822234.543       -2989.270          47.000    24133473.623    97175800.731       -2290.404          49.000  
R16  21272453.396   113633579.271        1511.281          50.000    21272462.188    88381837.323        1175.433          48.000  
R04  18790274.364   100621102.792       -3844.947          52.000    18790274.618    78260858.782       -2990.529          50.000  
R15  18590462.239    99342002.467        -852.238          52.000    18590462.761    77266304.650        -662.859          49.000  
R05  18309506.410    97874872.190         196.916          52.000    18309506.836    76124803.162         153.148          49.000  
G23  22954802.060                         -25.027          27.000    22954808.001                         -19.653          29.000  
G19  20221462.691   106264932.828         786.686          50.000                                                                  
S31  37421058.265   196648987.690        -796.573          44.000  
S33  38370857.791   201640218.612        -797.777          43.000  
G14  21603183.142   113525728.148       -3907.859          45.000    21603184.154    88461733.829       -3045.010          43.000  
R14  19974555.968   106475883.373       -3296.112          50.000    19974559.863    82814755.403       -2563.586          49.000  
G12  22481349.435   118140310.216        2092.444          37.000    22481358.593    92057510.810        1630.847          33.000  
G13  18740545.199    98482326.801       -1419.426          47.000                                                                  
G17  20267348.966   106506044.957        -395.394          47.000    20267347.766    82991925.689        -308.093          46.000  
G15  19487529.123   102407699.743         341.216          50.000    19487527.734    79798240.326         265.994          46.000  
G22  19620880.873   103108726.527       -2892.068          48.000                                                                  
G30  23030045.826   121023713.812       -3267.786          42.000    23030051.195    94304221.714       -2546.034          40.000  
E21  22095911.289   116114798.253        -875.985          48.000    22095915.945    88971526.547        -671.197          52.000  
E04                                                                  26240345.541                        1469.207          28.000  
R24                                                                  21805931.156    90693831.151         878.367          41.000  
> 2024 04 15 21 53 30.4950000  0 23                     
G05  22520849.918   118347663.778       -3740.256          39.000    22520863.914    92218908.314       -2914.535          38.000  
E19  22172666.854   116518148.927         -49.578          44.000    22172669.492    89280286.674         -38.047          47.000  
G24  21577863.960   113392538.267        1296.218          47.000    21577866.726    88357849.582        1010.011          45.000  
E27  24150539.640   126911941.359       -2991.296          47.000    24150543.509    97244537.168       -2292.040          49.000  
R16  21263987.918   113588352.323        1503.717          51.000    21263994.574    88346661.173        1169.550          47.000  
R04  18811867.926   100736735.167       -3864.016          52.000    18811868.159    78350794.941       -3005.391          51.000  
R15  18595273.774    99367713.411        -862.008          52.000    18595273.967    77286302.139        -670.492          49.000  
R05  18308473.046    97869346.719         171.217          52.000    18308473.364    76120505.608         133.175          50.000  
G23  22954984.964                1        -41.476          27.000    22955007.098                3        -28.037          20.000  
G19  20217016.578   106241568.482         770.828          50.000                                                                  
S31  37425602.456   196672869.600        -795.898          44.000  
S33  38375410.019   201664141.321        -797.187          42.000  
G14  21625498.279   113642999.107       -3910.393          45.000    21625498.442    88553113.825       -3046.831          41.000  
R24  21799638.565   116572621.3151       1113.662          37.000    21799639.426    90667665.337         865.801          41.000  
R14  19993109.798   106574783.149       -3297.328          51.000    19993112.643    82891677.463       -2564.615          48.000  
G12  22469425.352   118077642.807        2085.205          38.000    22469433.694    92008679.620        1624.384          35.000  
G13  18748694.352    98525149.876       -1435.726          48.000                                                                  
G17  20269660.425   106518194.124        -414.870          47.000    20269659.504    83001392.721        -323.233          45.000  
G15  19485623.241   102397685.865         326.056          49.000    19485622.564    79790437.366         254.126          46.000  
G22  19637422.040   103195647.405       -2902.873          48.000                                                                  
G30  23048703.125   121121762.887       -3269.160          40.000    23048709.185    94380623.570       -2547.188          41.000  
E21  22100936.728   116141204.652        -884.660          48.000    22100940.868    88991760.078        -677.845          52.000  
E04                                                                  26229404.278                1       1468.191          26.000  
> 2024 04 15 21 54 00.4950000  0 24                     
G05  22542205.512   118459879.826       -3741.311          40.000    22542218.837    92306348.817       -2914.911          39.000  
E19  22172979.239   116519788.017         -60.000          44.000    22172981.039    89281542.634         -46.094          46.000  
G24  21570463.067   113353647.266        1296.207          46.000    21570465.451    88327545.071        1009.938          44.000  
E27  24167622.555   127001708.973       -2993.401          47.000    24167626.069    97313320.204       -2293.762          49.000  
R16  21255564.132   113543351.951        1495.970          52.000    21255570.640    88311661.225        1163.521          48.000  
R04  18833567.742   100852934.854       -3882.969          52.000    18833567.175    78441172.345       -3020.022          50.000  
R15  18600138.776    99393712.695        -871.656          51.000    18600140.048    77306523.890        -677.924          50.000  
R05  18307582.562    97864590.454         145.427          51.000    18307583.735    76116806.315         113.099          49.000  
G23  22955264.490                         -57.934          27.000    22955319.538                3        -46.168          23.000  
G19  20212660.686   106218678.433         754.777          50.000                                                                  
S31  37430142.405   196696726.708        -795.106          43.000  
S33  38379957.569   201688039.325        -796.399          42.000  
G14  21647827.915   113760338.202       -3912.468          44.000    21647828.284    88644546.973       -3048.760          42.000  
R24  21793438.986   116539465.936        1097.057          38.000    21793439.651    90641878.001         852.912          42.000  
R14  20011669.835   106673716.747       -3298.596          51.000    20011673.638    82968625.860       -2565.592          49.000  
G12  22457539.770   118015184.050        2078.412          39.000    22457547.129    91960011.017        1619.360          33.000  
G13  18756935.914    98568459.067       -1452.087          47.000                                                                  
G17  20272083.177   106530927.197        -434.384          47.000    20272081.983    83011314.713        -338.465          45.000  
G15  19483804.520   102388128.828         310.767          49.000    19483803.389    79782990.352         242.059          46.000  
G22  19654023.851   103282892.693       -2913.808          48.000                                                                  
G30  23067369.413   121219849.874       -3270.520          40.000    23067374.302    94457054.957       -2548.554          41.000  
E21  22106010.816   116167867.277        -893.317          48.000    22106015.308    89012189.929        -684.396          53.000  
E04                                                                  26218470.474                1       1467.153          30.000  
R17                                                                  22683889.130                1       2103.496          25.000  
> 2024 04 15 21 54 30.4950000  0 24                     
G05  22563567.265   118572132.799       -3742.128          37.000    22563581.021    92393818.051       -2916.564          39.000  
E19  22173352.514   116521752.433         -70.894          44.000    22173354.826    89283047.870         -54.308          47.000  
G24  21563063.934   113314766.081        1295.941          46.000    21563065.802    88297248.205        1009.750          43.000  
E27  24184717.625   127091551.146       -2995.809          46.000    24184722.900    97382160.377       -2295.678          50.000  
R16  21247184.816   113498592.882        1488.029          52.000    21247191.087    88276848.976        1157.365          48.000  
R04  18855374.831   100969713.738       -3902.094          51.000    18855374.707    78532000.253       -3034.970          49.000  
R15  18605060.438    99420013.931        -881.637          51.000    18605061.706    77326980.500        -685.714          49.000  
R05  18306839.415    97860620.770         119.326          51.000    18306840.830    76113718.810          92.770          49.000  
G23  22955645.547   120632736.6881        -74.778          31.000    22955654.093                3        -59.310          24.000  
G19  20208398.884   106196280.014         738.468          51.000                                                                  
S31  37434680.583   196720574.698        -794.752          44.000  
S33  38384503.410   201711928.298        -796.073          42.000  
G14  21670172.845   113877758.456       -3915.256          45.000    21670172.035    88736043.300       -3050.793          42.000  
R24  21787331.170                        1080.702          31.000    21787333.559    90616483.951         840.033          43.000  
R14  20030237.370   106772697.980       -3300.164          48.000    20030240.789    83045611.313       -2566.678          48.000  
E04  26207543.946                        1912.844          26.000    26207543.278   105526916.1691       1466.078          29.000  
G12  22445697.952   117952949.860        2070.581          40.000    22445703.583    91911517.385        1613.709          35.000  
G13  18765271.951    98612269.510       -1468.649          47.000                                                                  
G17  20274620.580   106544260.206        -454.511          48.000    20274618.699    83021704.187        -354.058          45.000  
G15  19482075.088   102379045.009         294.977          48.000    19482074.096    79775912.085         229.822          45.000  
G22  19670690.643   103370475.357       -2924.908          49.000                                                                  
G30  23086044.499   121317989.825       -3272.229          39.000    23086050.046    94533527.615       -2549.642          41.000  
E21  22111135.658   116194800.287        -902.146          48.000    22111140.379    89032826.975        -691.330          53.000  
R17                                                                  22668724.980                3       2103.120          23.000  
> 2024 04 15 21 55 00.4950000  0 24                     
G05  22584934.146   118684415.838       -3743.376          37.000    22584948.021    92481310.701       -2917.188          39.000  
E19  22173787.446   116524039.463         -81.701          44.000    22173790.068    89284800.314         -62.522          47.000  
G24  21555665.509   113275891.542        1295.469          46.000    21555667.336    88266956.498        1009.505          43.000  
E27  24201826.181   127181462.800       -2998.333          46.000    24201832.130    97451053.774       -2297.413          49.000  
R16  21238849.713   113454071.380        1479.960          50.000    21238856.137    88242221.484        1151.099          47.000  
R04  18877289.344   101087064.501       -3921.219          52.000    18877289.204    78623272.931       -3049.913          49.000  
R15  18610037.861    99446611.903        -891.605          51.000    18610038.619    77347667.896        -693.608          49.000  
R05  18306243.600    97857435.655          93.019          52.000    18306244.242    76111241.529          72.443          49.000  
G23  22956124.301   120635236.535         -92.067          33.000    22956126.302                         -70.784          29.000  
G19  20204228.892   106174371.694         722.006          49.000                                                                  
S31  37439216.175   196744408.817        -794.562          44.000  
S33  38389046.994   201735803.609        -795.287          43.000  
G14  21692531.183   113995254.110       -3917.861          45.000    21692532.293    88827598.350       -3052.889          45.000  
R24  21781321.521   116474671.749        1063.094          41.000    21781322.815    90591483.073         826.769          43.000  
R14  20048813.799   106871721.615       -3301.625          50.000    20048817.094    83122629.708       -2567.745          47.000  
E04  26196631.007                        1911.644          28.000    26196626.230                        1464.983          30.000  
G12  22433896.549   117890937.660        2063.135          40.000    22433902.435    91863196.786        1607.538          36.000  
G13  18773703.670    98656578.004       -1485.317          46.000                                                                  
G17  20277271.648   106558190.490        -474.366          48.000    20277269.158    83032559.100        -369.627          44.000  
G15  19480436.492   102370432.830         279.126          48.000    19480435.322    79769201.314         217.560          46.000  
G22  19687419.629   103458389.307       -2936.007          49.000                                                                  
G30  23104730.354   121416179.067       -3273.961          41.000    23104735.113    94610038.725       -2550.966          42.000  
E21  22116310.830   116221998.957        -911.207          48.000    22116315.846    89053667.580        -698.127          53.000  
R17                                                                  22653461.956                3       2104.620          19.000  
> 2024 04 15 21 55 30.4960000  0 24                     
G05  22606303.433                       -3744.324          34.000    22606320.181    92568823.341       -2917.487          39.000  
E19  22174283.718   116526645.486         -92.401          44.000    22174286.211    89286797.164         -70.874          47.000  
G24  21548267.948   113237018.049        1295.300          45.000    21548270.026    88236665.607        1009.354          43.000  
E27  24218949.169   127271440.801       -3000.396          47.000    24218954.690    97519998.031       -2298.959          50.000  
R16  21230557.636   113409780.794        1472.029          50.000    21230565.217    88207773.631        1144.937          49.000  
R04  18899310.903   101204982.627       -3940.136          52.000    18899310.283    78714986.914       -3064.568          50.000  
R15  18615069.203    99473500.678        -901.436          51.000    18615070.246    77368581.485        -701.148          49.000  
R05  18305794.219    97855031.831          66.736          52.000    18305794.910    76109371.907          52.015          50.000  
G23  22956693.509   120638240.057        -108.475          31.000    22956693.418                         -85.026          28.000  
G19  20200152.193   106152950.307         705.441          49.000                                                                  
S31  37443747.641   196768226.565        -793.772          44.000  
S33  38393586.881   201759662.248        -794.988          42.000  
G14  21714903.169   114112822.308       -3920.108          44.000    21714902.834    88919210.024       -3054.691          42.000  
R24  21775399.372   116443030.795        1046.117          38.000    21775404.921    90566873.761         813.325          41.000  
R14  20067397.742   106970784.292       -3302.724          49.000    20067400.886    83199678.526       -2568.925          47.000  
E04  26185712.063                        1910.371          27.000    26185715.886   105439025.439        1463.499          32.000  
G12  22422135.419   117829141.693        2056.130          40.000    22422141.897    91815044.592        1601.933          34.000  
G13  18782229.859    98701382.043       -1501.927          47.000                                                                  
G17  20280035.102   106572714.325        -494.292          47.000    20280033.237    83043876.495        -385.216          45.000  
G15  19478887.125   102362288.552         263.401          49.000    19478885.496    79762855.178         205.155          46.000  
G22  19704211.219   103546630.628       -2946.869          49.000                                                                  
G30  23123424.039   121514416.354       -3275.721          41.000    23123428.672    94686587.274       -2552.258          42.000  
E21  22121536.214   116249458.520        -919.891          48.000    22121541.222    89074708.081        -704.868          53.000  
R17                                                                  22638345.020                3       2094.099          14.000  
> 2024 04 15 21 56 00.4960000  0 25                     
G05  22627679.547                       -3746.564          34.000    22627696.922    92656356.668       -2919.080          39.000  
E19  22174842.109   116529582.469        -104.691          43.000    22174845.213    89289047.615         -80.117          47.000  
G24  21540873.348   113198159.778        1293.863          46.000    21540875.721    88206386.578        1008.116          44.000  
E27  24236087.083   127361489.029       -3003.986          48.000    24236089.792    97588996.073       -2301.709          50.000  
R16  21222312.036   113365734.641        1462.981          50.000    21222318.845    88173515.833        1137.920          48.000  
R04  18921437.475   101323468.047       -3960.189          52.000    18921438.002    78807142.117       -3080.117          50.000  
R15  18620157.968    99500688.336        -912.443          50.000    18620158.220    77389727.549        -709.708          49.000  
R05  18305494.275    97853422.587          39.209          53.000    18305494.304    76108120.282          30.524          50.000  
G23  22957370.610                3       -127.364          27.000    22957367.127    94006607.5701        -99.238          33.000  
G19  20196171.458   106132030.809         687.759          49.000                                                                  
S31  37448278.747   196792036.081        -794.753          44.000  
S33  38398125.156   201783512.668        -796.008          42.000  
G14  21737289.441   114230464.382       -3923.900          44.000    21737291.188    89010879.226       -3057.530          44.000  
R24  21769581.184   116411910.076        1027.399          39.000    21769583.145    90542669.012         799.215          41.000  
R14  20085989.748   107069889.063       -3305.399          50.000    20085992.876    83276760.036       -2570.803          49.000  
E04  26174825.104                1       1908.992          27.000    26174814.237                        1461.623          31.000  
G12  22410418.872   117767578.518        2046.969          41.000    22410426.763    91767073.846        1595.134          35.000  
G13  18790851.313    98746689.904       -1520.064          46.000                                                                  
G17  20282913.901   106587842.895        -515.403          47.000    20282912.414    83055665.141        -401.664          45.000  
G15  19477429.091   102354625.378         246.158          49.000    19477427.875    79756883.912         191.949          46.000  
G22  19721066.372   103635202.237       -2959.076          49.000                                                                  
G30  23142127.215   121612706.191       -3278.582          40.000    23142131.899    94763176.773       -2554.893          41.000  
E21  22126813.449   116277187.299        -929.878          48.000    22126817.870    89095954.871        -712.493          53.000  
R03                                                                  21997410.707                3      -4574.012          12.000  
R17                                                                  22623177.985                3       2109.582          20.000  
> 2024 04 15 21 56 30.4960000  0 24                     
G05  22649071.138   119021460.117       -3747.186          39.000    22649086.382    92743940.679       -2919.855          38.000  
E19  22175471.202   116532889.320        -115.683          43.000    22175474.181    89291581.469         -88.636          47.000  
G24  21533488.315   113159353.450        1293.363          45.000    21533490.943    88176148.002        1007.788          43.000  
E27  24253242.184   127451646.594       -3006.603          46.000    24253247.013    97658077.866       -2303.564          50.000  
R16  21214118.574   113321969.675        1454.893          50.000    21214125.512    88139476.768        1131.617          47.000  
R17  22607950.624                3       2709.468          24.000    22607996.612                3       2107.804          22.000  
R04  18943676.416   101442559.211       -3979.119          52.000    18943677.210    78899768.453       -3094.779          50.000  
R15  18625308.739    99528212.135        -922.358          51.000    18625308.765    77411135.033        -717.406          49.000  
R05  18305349.804    97852647.450          12.510          53.000    18305348.889    76107517.407           9.871          49.000  
G19  20192292.204   106111651.840         670.973          49.000                                                                  
S31  37452815.653   196815876.023        -794.711          44.000  
S33  38402669.784   201807394.086        -795.824          43.000  
G14  21759697.044   114348219.728       -3926.441          45.000    21759698.119    89102636.674       -3059.269          43.000  
R24  21763865.547   116381350.188        1009.947          42.000    21763869.061    90518900.450         785.405          43.000  
R14  20104598.208   107169076.011       -3307.016          51.000    20104600.140    83353905.459       -2572.028          47.000  
E04  26163937.236                3       1904.805          25.000    26163931.716   105351313.528        1459.443          33.000  
G12  22398754.218   117706284.396        2039.119          43.000    22398762.259    91719312.641        1589.103          35.000  
G13  18799576.409    98792540.498       -1536.841          47.000                                                                  
G17  20285914.082   106603614.774        -535.737          47.000    20285913.717    83067955.054        -417.518          44.000  
G15  19476069.571   102347482.312         230.094          49.000    19476069.055    79751317.905         179.232          46.000  
G22  19737990.997   103724142.027       -2970.184          49.000                                                                  
G30  23160849.488   121711089.359       -3280.603          40.000    23160854.360    94839838.965       -2555.867          42.000  
E21  22132147.785   116305222.695        -939.007          48.000    22132152.599    89117436.598        -719.411          53.000  
G23                                                                  22958144.027    94009779.772        -112.211          35.000  
> 2024 04 15 21 57 00.4960000  0 24                     
G05  22670463.333   119133866.592       -3747.083          40.000    22670477.412    92831529.494       -2919.733          39.000  
E19  22176160.809   116536511.777        -126.067          43.000    22176163.550    89294357.142         -96.576          47.000  
G24  21526103.272   113120544.327        1293.626          45.000    21526105.974    88145907.232        1007.957          44.000  
E27  24270407.299   127541856.954       -3008.104          46.000    24270412.895    97727200.167       -2304.860          50.000  
R16  21205967.936   113278429.291        1447.453          51.000    21205974.347    88105612.377        1125.861          48.000  
R17  22592772.959                        2710.297          26.000    22592784.977                3       2108.734          26.000  
R04  18966018.117   101562196.316       -3997.084          53.000    18966018.549    78992819.414       -3108.904          50.000  
R15  18630511.149    99556014.037        -931.458          51.000    18630511.033    77432758.849        -724.539          49.000  
R05  18305351.022    97852652.068         -13.273          53.000    18305349.714    76107521.016         -10.413          49.000  
G19  20188507.407   106091760.482         654.821          49.000                                                                  
S31  37457347.306   196839691.891        -793.617          44.000  
S33  38407209.239   201831250.943        -795.051          42.000  
G14  21782115.394   114466031.144       -3927.979          45.000    21782116.906    89194437.841       -3060.884          43.000  
R24  21758245.822   116351298.539         993.268          40.000    21758249.515    90495527.303         772.344          40.000  
R14  20123209.535   107268287.551       -3307.631          51.000    20123212.777    83431070.010       -2572.515          47.000  
E04  26153062.322                        1903.896          26.000    26153054.171   105307520.071        1459.694          32.000  
G12  22387131.733   117645205.273        2032.120          45.000    22387139.503    91671718.976        1583.853          35.000  
G13  18808394.893    98838879.422       -1553.010          47.000                                                                  
G17  20289027.253   106619975.729        -555.493          46.000    20289027.498    83080703.968        -432.670          45.000  
G15  19474799.043   102340805.272         214.604          49.000    19474798.133    79746115.041         167.211          45.000  
G22  19754974.426   103813392.664       -2980.298          48.000                                                                  
G30  23179578.422   121809510.789       -3281.553          41.000    23179584.237    94916530.979       -2556.984          43.000  
E21  22137530.902   116333508.562        -947.142          48.000    22137535.007    89139110.239        -725.773          52.000  
G23                                                                  22959013.303    94013339.645        -125.794          35.000  
> 2024 04 15 21 57 30.4960000  0 24                     
G05  22691853.515   119246267.131       -3746.844          42.000    22691867.616    92919113.595       -2919.452          39.000  
E19  22176908.583   116540441.348        -136.316          43.000    22176911.504    89297368.157        -104.394          48.000  
G24  21518715.925   113081723.393        1293.945          45.000    21518717.985    88115657.271        1008.292          44.000  
E27  24287581.800   127632109.225       -3009.085          46.000    24287587.593    97796354.570       -2305.692          50.000  
R16  21197856.992   113235103.413        1440.475          52.000    21197862.272    88071914.795        1120.389          47.000  
R04  18988458.833   101682365.571       -4014.654          51.000    18988459.201    79086284.278       -3122.477          50.000  
R15  18635763.117    99584082.890        -940.328          50.000    18635764.167    77454590.255        -731.374          49.000  
R05  18305495.537    97853428.086         -38.959          52.000    18305495.236    76108124.622         -30.306          50.000  
G23  22959980.483                1       -177.188          23.000    22959971.091    94017279.666        -137.667          33.000  
G19  20184814.184   106072349.480         638.794          50.000                                                                  
S31  37461872.769   196863473.085        -792.387          43.000  
S33  38411742.588   201855073.649        -793.773          42.000  
G14  21804543.868   114583887.133       -3929.280          46.000    21804542.359    89286273.749       -3062.013          42.000  
R24  21752723.079   116321749.000         976.124          43.000    21752723.819    90472544.571         759.250          42.000  
R14  20141824.541   107367512.368       -3307.834          51.000    20141825.895    83508244.989       -2572.889          47.000  
E04  26142178.798                3       1907.296          25.000    26142184.206   105263748.443        1458.270          34.000  
G12  22375547.842   117584332.585        2025.510          46.000    22375555.594    91624286.182        1577.688          37.000  
G13  18817303.819    98885697.438       -1568.769          47.000                                                                  
G17  20292251.627   106636917.325        -574.553          47.000    20292250.839    83093905.355        -447.684          44.000  
G15  19473616.181   102334586.508         199.479          48.000    19473615.013    79741269.266         155.349          46.000  
G22  19772015.283   103902941.957       -2990.143          48.000                                                                  
G30  23198313.691   121907960.857       -3282.065          40.000    23198318.466    94993245.323       -2557.585          43.000  
E21  22142958.873   116362034.281        -954.941          48.000    22142963.072    89160967.675        -731.722          52.000  
R17                                                                  22577593.785                        2109.143          31.000  
> 2024 04 15 21 58 00.4960000  0 24                     
G05  22713244.505   119358674.629       -3747.375          43.000    22713259.048    93006703.171       -2920.050          39.000  
E19  22177717.953   116544695.509        -147.732          43.000    22177720.863    89300627.866        -113.107          47.000  
G24  21511329.935   113042907.307        1293.306          46.000    21511331.499    88085411.072        1007.712          43.000  
E27  24304767.416   127722418.284       -3011.687          46.000    24304772.281    97865552.487       -2307.657          50.000  
R16  21189789.120   113192008.033        1432.153          51.000    21189794.876    88038396.497        1113.974          47.000  
R17  22562365.369   120735789.4711       2711.688          33.000    22562389.465    93905683.7551       2109.210          34.000  
R04  19011001.816   101803080.283       -4033.410          51.000    19011002.297    79180173.340       -3137.046          50.000  
R15  18641068.723    99612433.121        -950.190          51.000    18641068.982    77476640.546        -739.044          49.000  
R05  18305787.811    97854993.687         -65.925          53.000    18305787.635    76109342.331         -51.312          49.000  
G19  20181214.852   106053436.633         621.593          50.000                                                                  
S31  37466394.396   196887235.771        -792.349          44.000  
S33  38416272.411   201878878.519        -793.627          42.000  
G14  21826982.662   114701801.898       -3932.026          46.000    21826981.852    89378155.357       -3063.764          43.000  
R24  21747293.377   116292721.564         958.387          44.000    21747295.153    90449967.908         745.334          39.000  
R14  20160442.975   107466765.623       -3309.417          51.000    20160445.789    83585441.969       -2574.170          46.000  
E04  26131294.460                3       1902.510          25.000    26131321.348   105220012.022        1457.106          34.000  
G12  22364006.100   117523682.952        2017.442          46.000    22364012.777    91577027.134        1571.594          37.000  
G13  18826307.331    98933010.671       -1585.952          47.000                                                                  
G17  20295589.798   106654455.903        -595.144          46.000    20295588.212    83107571.897        -463.785          44.000  
G15  19472523.483   102328843.275         182.919          49.000    19472522.555    79736794.052         142.594          46.000  
G22  19789114.797   103992803.794       -3001.296          47.000                                                                  
G30  23217056.158   122006455.930       -3284.318          40.000    23217061.510    95069994.712       -2559.541          42.000  
E21  22148435.319   116390815.096        -964.210          48.000    22148439.789    89183020.571        -738.721          52.000  
G23                                                                  22961036.691    94021612.565        -151.515          34.000  
> 2024 04 15 21 58 30.4960000  0 24                     
G05  22734637.508   119471094.276       -3747.546          42.000    22734652.119    93094302.178       -2920.325          38.000  
E19  22178591.440   116549283.058        -158.697          44.000    22178593.371    89304143.022        -121.535          47.000  
G24  21503945.854   113004104.612        1293.007          45.000    21503948.199    88055175.368        1007.455          44.000  
E27  24321963.031   127812790.838       -3013.581          45.000    24321969.812    97934799.049       -2309.249          49.000  
R16  21181765.421   113149151.272        1424.524          50.000    21181772.353    88005063.837        1107.957          49.000  
R17  22547156.389   120654418.859        2712.488          37.000    22547183.092    93842397.526        2109.473          37.000  
R04  19033647.072   101924344.644       -4051.319          52.000    19033646.689    79274489.914       -3151.194          49.000  
R15  18646428.258    99641071.582        -959.480          51.000    18646428.025    77498914.996        -746.303          49.000  
R05  18306230.119    97857358.401         -92.253          53.000    18306229.973    76111181.584         -71.719          49.000  
G23  22962211.966                3       -211.494          25.000    22962184.792                1       -164.932          26.000  
G19  20177712.539   106035032.436         604.795          49.000                                                                  
S31  37470914.519   196910989.264        -791.634          42.000  
S33  38420800.175   201902673.105        -793.007          43.000  
G14  21849432.851   114819781.455       -3933.795          45.000    21849431.149    89470087.563       -3065.373          42.000  
R24  21741962.624   116264227.878         940.678          44.000    21741965.547    90427806.386         731.528          39.000  
R14  20179069.046   107566053.748       -3310.288          51.000    20179071.424    83662666.107       -2574.744          47.000  
E04  26120442.620                        1899.524          24.000    26120471.108   105176318.291        1455.691          34.000  
G12  22352509.284   117463265.842        2009.973          45.000    22352513.970    91529949.268        1566.083          37.000  
G13  18835406.634    98980827.646       -1602.457          47.000                                                                  
G17  20299041.789   106672600.434        -615.038          44.000    20299040.559    83121710.661        -479.225          43.000  
G15  19471522.195   102323585.441         167.077          48.000    19471521.534    79732697.087         130.181          47.000  
G22  19806275.963   104082983.997       -3011.503          48.000                                                                  
G30  23235809.338   122105003.962       -3285.913          41.000    23235815.115    95146785.376       -2560.341          42.000  
E21  22153962.797   116419858.040        -972.604          49.000    22153966.397    89205274.326        -745.257          52.000  
> 2024 04 15 21 59 00.4960000  0 24                     
G05  22756032.245   119583520.825       -3747.461          42.000    22756046.590    93181906.518       -2920.178          37.000  
E19  22179527.321   116554203.028        -169.284          43.000    22179529.773    89307912.912        -129.729          47.000  
G24  21496564.149   112965313.785        1293.078          45.000    21496566.800    88024948.854        1007.623          44.000  
E27  24339172.025   127903223.458       -3015.156          45.000    24339178.454    98004091.682       -2310.321          51.000  
R16  21173787.183   113106530.311        1416.964          51.000    21173794.028    87971914.561        1102.020          50.000  
R17  22531945.765   120573039.797        2712.970          42.000    22531973.008    93779104.796        2110.156          41.000  
R04  19056394.807   102046152.750       -4069.040          53.000    19056392.801    79369229.406       -3164.848          47.000  
R15  18651841.468    99669994.195        -968.552          52.000    18651840.825    77521410.460        -753.356          50.000  
R05  18306822.165    97860521.495        -118.578          53.000    18306821.376    76113641.810         -92.158          49.000  
G19  20174306.499   106017136.755         588.173          49.000                                                                  
S31  37475432.280   196934729.668        -790.635          44.000  
S33  38425325.760   201926456.017        -792.256          43.000  
G14  21871896.014   114937821.830       -3935.674          46.000    21871894.249    89562067.125       -3066.721          43.000  
R24  21736734.608   116236269.117         923.159          45.000    21736737.614    90406060.988         717.824          42.000  
R14  20197701.228   107665373.196       -3310.862          51.000    20197702.843    83739914.664       -2575.062          45.000  
G12  22341056.238   117403079.931        2002.402          46.000    22341060.550    91483051.568        1560.818          38.000  
G13  18844601.869    99029146.561       -1618.829          47.000                                                                  
G17  20302609.855   106691349.308        -634.918          46.000    20302607.542    83136320.284        -494.691          41.000  
G15  19470614.041   102318812.350         151.305          48.000    19470612.935    79728977.816         117.741          46.000  
G22  19823496.176   104173478.168       -3021.368          47.000                                                                  
G30  23254571.525   122203602.875       -3287.056          40.000    23254576.890    95223615.744       -2561.553          42.000  
E21  22159538.919   116449159.990        -980.744          48.000    22159542.342    89227726.522        -751.518          52.000  
E04                                                                  26109629.035   105132666.485        1454.364          35.000  
G23                                                                  22963438.728                        -177.074          28.000  
> 2024 04 15 21 59 30.4960000  0 24                     
G05  22777426.336   119695943.651       -3747.296          43.000    22777439.411    93269507.987       -2920.404          34.000  
E19  22180526.011   116559449.118        -180.310          44.000    22180528.385    89311932.677        -138.311          48.000  
G24  21489183.180   112926527.673        1292.533          45.000    21489185.873    87994726.055        1007.177          45.000  
E27  24356391.736   127993707.226       -3017.097          46.000    24356397.257    98073423.448       -2311.752          51.000  
R16  21165851.153   113064137.126        1409.237          50.000    21165856.935    87938942.466        1096.160          48.000  
R17  22516733.553   120491648.872        2713.104          48.000    22516759.749    93715802.852        2110.107          47.000  
R04  19079239.306   102168493.196       -4086.935          52.000    19079239.273    79464382.953       -3178.682          47.000  
R15  18657304.882    99699191.434        -977.821          52.000    18657304.495    77544119.500        -760.553          50.000  
R05  18307562.407    97864476.792        -145.184          53.000    18307561.107    76116718.191        -112.843          49.000  
G19  20170996.734   105999744.030         571.265          49.000                                                                  
S31  37479946.281   196958450.845        -790.366          44.000  
S33  38429847.682   201950219.253        -791.819          43.000  
G14  21894367.608   115055913.412       -3937.249          45.000    21894365.431    89654086.629       -3068.243          43.000  
R24  21731605.601   116208841.177         905.235          45.000    21731609.220    90384728.434         704.002          43.000  
R14  20216338.884   107764714.610       -3311.766          52.000    20216338.105    83817180.266       -2575.980          46.000  
G12  22329645.941   117343118.812        1994.755          45.000    22329650.101    91436329.055        1554.443          39.000  
G13  18853890.467    99077959.803       -1635.615          48.000                                                                  
G17  20306291.608   106710696.180        -654.883          45.000    20306288.835    83151395.915        -510.612          42.000  
G15  19469797.024   102314517.715         134.995          49.000    19469795.329    79725631.364         105.297          46.000  
G22  19840774.542   104264276.479       -3031.721          46.000                                                                  
G30  23273342.062   122302245.223       -3289.053          40.000    23273347.346    95300479.894       -2562.842          41.000  
E21  22165162.484   116478712.319        -989.281          48.000    22165165.940    89250370.590        -758.087          52.000  
E04                                                                  26098796.024   105089052.136        1453.281          33.000  
G23                                                                  22964789.470                        -191.471          31.000  
