     3.00           OBSERVATION DATA    M: Mixed            RINEX VERSION / TYPE
CONVBIN 2.4.3                           20240415 201442 UTC PGM / RUN BY / DATE 
format: u-blox UBX                                          COMMENT             
log: /home/regis/git/gnsspwv/obsdata/VERT00CHL/2024-04-15/VECOMMENT             
{self.marker}                                               MARKER NAME         
                                                            MARKER NUMBER       
GEODETIC                                                    MARKER TYPE         
{self.observer}     {self.institution}                      OBSERVER / AGENCY   
UNKNOWN             UBLOX-ZED-F9P                           REC # / TYPE / VERS 
UNKNOWN             TWIVSP6037L                             ANT # / TYPE        
  1713381.0000 -5047934.0000 -3490983.0000                  APPROX POSITION XYZ 
        0.0000        0.0000        0.0000                  ANTENNA: DELTA H/E/N
G    8 C1C L1C D1C S1C C2L L2L D2L S2L                      SYS / # / OBS TYPES 
R    8 C1C L1C D1C S1C C2C L2C D2C S2C                      SYS / # / OBS TYPES 
E    8 C1C L1C D1C S1C C7Q L7Q D7Q S7Q                      SYS / # / OBS TYPES 
S    4 C1C L1C D1C S1C                                      SYS / # / OBS TYPES 
  2024    04    15    20    00   00.4920000     GPS         TIME OF FIRST OBS   
  2024    04    15    20    14   30.4920000     GPS         TIME OF LAST OBS    
                                                            END OF HEADER       
> 2024 04 15 20 00 00.4920000  0 24                     
G05  19039590.130   100053692.4641       -924.319          48.000    19039593.436    77963909.5281       -720.186          47.000  
E19  23256932.039   122216028.9061       1317.346          40.000    23256938.792    93646118.5681       1009.199          43.000  
G09  22659116.169   119074079.0831      -3732.046          40.000    22659142.192    92784897.7611      -2908.232          40.000  
E27  21254081.466   111691145.2961      -1084.136          49.000    21254086.330    85581671.3551       -830.688          49.000  
R13  19346904.103   103311510.2501      -4273.859          41.000    19346908.899    80353486.6101      -3324.051          43.000  
R02  21190170.310   113074395.4121      -4648.024          50.000    21190196.516    87946654.7241      -3615.059          47.000  
R04  17361834.640    92971885.2181       1439.529          52.000    17361833.702    72311471.8601       1119.621          51.000  
R03  17293000.173    92570880.4201      -2421.774          53.000    17292995.927    71999611.1051      -1883.817          43.000  
R15  19469819.815   104040694.0581       2345.618          41.000    19469827.264    80920947.6851       1824.742          39.000  
G07  21504346.863                3      -3763.116          29.000    21504340.644    88056643.1541      -2932.275          34.000  
S31  36412857.622   191350780.1571       -778.070          44.000  
S33  37361481.968   196335820.9371       -777.942          42.000  
G14  17890048.529    94013059.6551      -1210.511          47.000    17890050.168    73257052.4451       -943.387          49.000  
G20  19546247.287   102716214.0511      -3265.648          47.000                                                                  
R14  16900019.383    90086846.2721       -822.067          53.000    16900022.907    70067720.7051       -639.404          49.000  
E07  22933872.232   120518214.0011      -2384.039          46.000    22933882.936    92345114.0721      -1826.771          51.000  
G13  18938947.571    99524908.4841       1223.213          47.000                                                                  
G17  21936575.590   115277558.5451       2155.135          43.000    21936595.657    89826787.7701       1679.250          40.000  
G15  21521417.024   113095810.6141       2190.186          34.000    21521420.113                        1708.069          31.000  
G22  18261192.495    95963461.4691       1010.369          49.000                                                                  
G30  19159777.290   100685348.7241      -2657.021          48.000    19159780.651    78456153.4651      -2070.480          47.000  
E21  22530463.730   118398627.7441       1522.131          47.000    22530473.597    90721185.0861       1166.258          50.000  
E30  24393318.050   128187810.9951      -3267.391          42.000    24393327.641    98221895.1391      -2503.581          47.000  
E18  20399083.613   107198065.5151      -2735.525          35.000                                                                  
> 2024 04 15 20 00 30.4920000  0 24                     
G05  19044922.375   100081711.991        -943.645          48.000    19044925.533    77985742.880        -735.341          46.000  
E19  23249414.034   122176525.109        1316.097          39.000    23249421.565    93615849.514        1008.739          44.000  
G09  22680435.698   119186102.692       -3736.372          42.000    22680459.351    92872188.149       -2911.451          38.000  
E27  21260306.654   111723861.573       -1096.939          49.000    21260312.018    85606739.688        -840.494          50.000  
R13  19370927.656   103439795.204       -4278.280          41.000    19370932.587    80453263.709       -3327.526          43.000  
R02  21216322.689   113213947.534       -4655.426          49.000    21216349.383    88055193.872       -3620.831          46.000  
R04  17353814.764    92928947.532        1422.929          51.000    17353814.318    72278075.911        1106.667          50.000  
R03  17306631.629    92643851.199       -2442.861          53.000    17306630.849    72056366.116       -1900.150          47.000  
R15  19456687.072   103970513.353        2332.853          39.000    19456692.892    80866363.102        1814.268          39.000  
G07  21525808.946                3      -3761.560          29.000    21525818.676    88144596.347       -2931.641          34.000  
S31  36417297.258   191374110.276        -777.326          43.000  
S33  37365923.353   196359161.257        -777.876          42.000  
G14  17897015.248    94049667.277       -1229.768          49.000    17897016.440    73285577.882        -958.278          50.000  
G20  19564921.490   102814347.253       -3276.519          47.000                                                                  
R14  16904701.903    90111805.275        -841.903          53.000    16904705.132    70087133.304        -654.780          50.000  
E07  22947499.413   120589834.506       -2390.570          46.000    22947511.937    92399991.967       -1831.710          51.000  
G13  18931976.714    99488276.158        1218.601          47.000                                                                  
G17  21924269.487   115212893.340        2155.804          42.000    21924289.336    89776400.175        1679.938          38.000  
G15  21508914.708   113030100.492        2190.216          34.000    21508911.969    88075418.525        1706.897          32.000  
G22  18255473.944    95933410.215         993.084          48.000                                                                  
G30  19174957.632   100765122.767       -2661.245          49.000    19174961.384    78518315.016       -2073.528          46.000  
E21  22521798.575   118353094.572        1513.354          47.000    22521808.911    90686296.226        1159.598          51.000  
E30  24411987.800   128285915.770       -3272.882          42.000    24411994.793    98297066.285       -2507.795          44.000  
E18  20414762.493   107280457.322       -2757.716          34.000                                                                  
> 2024 04 15 20 01 00.4920000  0 25                     
G05  19050363.679   100110304.674        -961.360          48.000    19050366.250    78008022.859        -749.237          46.000  
E19  23241900.171   122137040.998        1317.194          40.000    23241907.729    93585595.529        1009.355          43.000  
G09  22701778.688   119298256.813       -3739.287          42.000    22701804.084    92959580.131       -2914.049          40.000  
E27  21266603.776   111756954.966       -1108.075          49.000    21266609.410    85632097.035        -849.154          49.000  
R13  19394975.592   103568210.346       -4281.544          41.000    19394980.503    80553142.092       -3329.931          42.000  
R02  21242514.422   113353713.096       -4661.245          48.000    21242543.476    88163899.011       -3625.368          47.000  
R04  17345888.776    92886502.588        1407.865          52.000    17345888.874    72245063.212        1094.928          51.000  
R03  17320380.089    92717446.174       -2462.393          53.000    17320379.347    72113606.544       -1915.121          47.000  
R15  19443624.827   103900715.173        2321.540          40.000    19443631.155    80812075.753        1805.678          41.000  
R05  21153106.704                3       3268.942          26.000    21153070.925                1       2541.271          28.000  
G07  21547287.512                2      -3759.619          30.000    21547292.520    88232526.488       -2929.895          35.000  
S31  36421734.066   191397425.405        -775.759          44.000  
S33  37370362.185   196382487.775        -776.087          43.000  
G14  17904089.883    94086840.728       -1247.323          49.000    17904090.549    73314544.224        -971.970          49.000  
G20  19583657.790   102912811.599       -3286.427          46.000                                                                  
R14  16909493.742    90137353.092        -860.252          52.000    16909497.065    70107003.914        -669.127          49.000  
E07  22961165.468   120661641.542       -2395.448          46.000    22961176.779    92455012.789       -1835.457          51.000  
G13  18925031.273    99451776.613        1215.594          47.000                                                                  
G17  21911960.439   115148209.001        2157.708          44.000    21911979.368    89725997.597        1681.167          41.000  
G15  21496412.239   112964393.711        2191.174          36.000    21496406.859                        1707.959          29.000  
G22  18249852.718    95903868.658         977.261          49.000                                                                  
G30  19190161.734   100845020.317       -2664.085          50.000    19190165.234    78580572.804       -2076.065          46.000  
E21  22513182.086   118307815.726        1506.298          47.000    22513192.493    90651602.232        1154.107          51.000  
E30  24430684.004   128384169.538       -3276.339          42.000    24430693.131    98372351.621       -2510.456          46.000  
E18  20430565.291   107363503.216       -2777.831          35.000                                                                  
> 2024 04 15 20 01 30.4920000  0 25                     
G05  19055912.040   100139462.226        -981.877          48.000    19055914.924    78030742.980        -765.062          46.000  
E19  23234389.106   122097569.342        1314.781          39.000    23234396.663    93555351.088        1007.751          43.000  
G09  22723144.468   119410532.858       -3745.163          40.000    22723169.734    93047067.175       -2918.243          40.000  
E27  21272971.700   111790416.973       -1122.005          49.000    21272976.863    85657736.796        -859.736          49.000  
R13  19419046.143   103696744.503       -4286.914          40.000    19419050.675    80653113.025       -3334.275          42.000  
R02  21268746.432   113493682.083       -4669.545          47.000    21268775.153    88272762.407       -3631.739          44.000  
R04  17338054.523    92844546.194        1389.857          53.000    17338053.483    72212430.488        1081.008          50.000  
R03  17334243.226    92791656.734       -2484.372          54.000    17334244.026    72171325.731       -1932.363          48.000  
R15  19430627.918   103831384.0933       2307.738          35.000    19430640.463    80758080.814        1794.630          42.000  
R05  21134734.054                        3267.229          29.000    21134721.847                1       2541.159          32.000  
G07  21568753.401                1      -3759.937          31.000    21568759.198    88320427.001       -2930.420          34.000  
S31  36426166.676   191420719.753        -776.472          44.000  
S33  37374796.748   196405792.499        -776.985          41.000  
G14  17911269.907    94124571.228       -1267.378          49.000    17911270.102    73343944.653        -987.530          49.000  
G20  19602457.038   103011596.278       -3298.553          47.000                                                                  
R14  16914395.238    90163480.137        -881.046          52.000    16914398.367    70127325.002        -685.302          48.000  
E07  22974863.824   120733627.399       -2403.008          47.000    22974875.096    92510170.649       -1841.237          51.000  
G13  18918109.432    99415403.568        1209.657          47.000                                                                  
G17  21899645.563   115083500.839        2156.805          44.000    21899665.644    89675576.499        1680.457          41.000  
G15  21483907.458                        2190.057          32.000    21483905.681                        1706.287          31.000  
G22  18244326.672    95874830.345         959.001          48.000                                                                  
G30  19205387.408   100925032.522       -2669.506          49.000    19205391.273    78642919.933       -2080.137          47.000  
E21  22504612.459   118262784.525        1496.330          46.000    22504623.014    90617097.969        1146.641          51.000  
E30  24449407.133   128482562.849       -3282.535          42.000    24449416.645    98447743.816       -2515.199          46.000  
E18  20446492.725   107447194.069       -2800.550          37.000                                                                  
> 2024 04 15 20 02 00.4920000  0 25                     
G05  19061567.280   100169177.478        -999.510          49.000    19061569.185    78053897.661        -778.719          46.000  
E19  23226878.972   122058104.618        1315.853          40.000    23226886.863    93525112.002        1008.321          43.000  
G09  22744532.009   119522923.075       -3747.995          42.000    22744556.563    93134643.119       -2920.528          39.000  
E27  21279407.988   111824239.996       -1133.026          49.000    21279413.513    85683653.162        -868.121          50.000  
R13  19443137.301   103825387.765       -4289.206          39.000    19443141.745    80753168.823       -3336.084          42.000  
R02  21295014.064   113633845.236       -4674.988          43.000    21295042.971    88381776.795       -3635.943          40.000  
R04  17330310.399    92803075.074        1374.687          52.000    17330309.098    72180175.234        1069.072          50.000  
R03  17348220.341    92866475.150       -2503.640          54.000    17348219.160    72229517.757       -1947.249          46.000  
R15  19417711.347   103762423.522        2296.068          38.000    19417719.157    80704373.999        1785.727          44.000  
R05  21116392.228                1       3269.017          31.000    21116382.401    87794904.8221       2541.916          36.000  
G07  21590212.879   113457330.2861      -3757.558          36.000    21590216.482    88408291.946       -2927.931          36.000  
S31  36430594.127   191443985.822        -774.689          44.000  
S33  37379226.461   196429158.9591       -774.765          42.000  
G14  17918553.465    94162850.885       -1284.681          48.000    17918554.335    73373772.979       -1001.181          49.000  
G20  19621313.566   103110691.605       -3307.911          46.000                                                                  
R14  16919403.085    90190178.053        -898.995          52.000    16919406.620    70148090.088        -699.140          49.000  
E07  22988594.466   120805785.408       -2407.763          46.000    22988606.493    92565460.405       -1844.836          51.000  
G13  18911211.225    99379152.073        1206.637          48.000                                                                  
G17  21887326.034   115018764.833        2158.468          43.000    21887345.141    89625133.657        1682.013          41.000  
G15  21471397.865   112832955.4533       2191.217          33.000    21471401.850                        1707.288          31.000  
G22  18238895.438    95846289.953         943.346          48.000                                                                  
G30  19220633.318   101005151.464       -2671.894          49.000    19220636.974    78705350.260       -2082.020          46.000  
E21  22496089.466   118217995.246        1489.387          46.000    22496099.968    90582779.066        1141.203          51.000  
E30  24468156.706   128581087.104       -3285.942          44.000    24468165.045    98523236.420       -2517.699          45.000  
E18  20462537.952   107531521.243       -2821.076          34.000                                                                  
> 2024 04 15 20 02 30.4920000  0 25                     
G05  19067328.317   100199454.203       -1018.895          48.000    19067330.982    78077489.871        -793.907          46.000  
E19  23219372.493   122018651.746        1314.536          40.000    23219379.231    93494881.964        1007.250          44.000  
G09  22765942.889   119635430.849       -3753.182          39.000    22765966.530    93222310.666       -2923.711          36.000  
E27  21285913.752   111858427.458       -1146.031          49.000    21285918.794    85709848.773        -878.129          49.000  
R13  19467248.910   103954141.348       -4294.094          39.000    19467252.833    80853310.416       -3339.572          43.000  
R02  21321318.698   113774204.457       -4681.885          39.000    21321346.938    88490943.744       -3641.852          35.000  
R04  17322657.570    92762096.892        1357.391          52.000    17322656.227    72148303.345        1055.755          50.000  
R03  17362310.849    92941905.186       -2524.797          54.000    17362309.789    72288185.480       -1963.750          47.000  
R15  19404857.767   103693747.952        2282.475          42.000    19404867.463    80650960.000        1775.167          45.000  
R05  21098050.097   112781108.3201       3268.352          31.000    21098038.500    87718644.587        2541.814          38.000  
G07  21611661.815   113570048.526       -3756.442          37.000    21611667.690    88496124.206       -2927.261          36.000  
S31  36435017.000   191467228.136        -774.589          44.000  
S33  37383651.578   196452412.316        -774.765          42.000  
G14  17925942.623    94201682.880       -1303.907          48.000    17925943.730    73404031.694       -1016.067          49.000  
G20  19640231.287   103210099.036       -3319.046          47.000                                                                  
R14  16924519.316    90217448.984        -918.897          53.000    16924523.818    70169300.877        -714.752          50.000  
E07  23002358.897   120878119.876       -2414.374          46.000    23002371.576    92620885.359       -1849.995          51.000  
G13  18904336.775    99343027.875        1201.603          48.000                                                                  
G17  21875002.554   114954008.409        2158.667          42.000    21875021.691    89574674.934        1681.800          41.000  
G15  21458893.510                        2189.691          30.000    21458893.835    87870582.8331       1706.775          33.000  
G22  18233559.867    95818253.201         925.817          48.000                                                                  
G30  19235900.894   101085380.343       -2676.478          50.000    19235904.556    78767866.200       -2085.487          46.000  
E21  22487613.198   118173453.189        1480.405          47.000    22487623.770    90548649.605        1134.240          51.000  
E30  24486929.741   128679744.798       -3290.911          43.000    24486939.146    98598831.257       -2521.676          45.000  
E18  20478707.052   107616487.226       -2842.734          37.000                                                                  
> 2024 04 15 20 03 00.4920000  0 25                     
G05  19073203.173   100230322.461       -1038.687          48.000    19073204.726    78101542.992        -809.275          46.000  
E19  23211874.014   121979242.534        1312.835          40.000    23211879.762    93464685.350        1006.152          44.000  
G09  22787380.231   119748086.170       -3757.444          34.000    22787406.040    93310093.165       -2927.264          34.000  
E27  21292493.820   111893009.388       -1159.154          49.000    21292499.688    85736346.626        -888.097          50.000  
R13  19491386.112   104083033.413       -4299.078          37.000    19491390.143    80953559.711       -3343.323          42.000  
R02  21347665.415                       -4690.252          32.000    21347691.974                3      -3648.037          26.000  
R04  17315102.960    92721646.688        1339.651          52.000    17315101.906    72116842.097        1041.953          50.000  
R03  17376521.381    93017977.476       -2546.306          53.000    17376520.590    72347352.721       -1980.479          46.000  
R15  19392084.640   103625481.685        2268.795          47.000    19392091.222    80597864.399        1764.526          43.000  
R05  21079697.806   112683114.1601       3267.749          34.000    21079698.397    87642396.891        2541.591          38.000  
G07  21633108.760   113682754.867       -3756.745          38.000    21633113.484    88583947.223       -2926.692          35.000  
S31  36439441.399   191490476.526        -774.814          44.000  
S33  37388077.391   196475671.797        -775.211          42.000  
G14  17933443.264    94241096.930       -1323.404          49.000    17933444.372    73434743.986       -1031.197          49.000  
G20  19659212.807   103309846.233       -3330.398          47.000                                                                  
R14  16929749.493    90245322.496        -939.043          53.000    16929752.238    70190980.346        -730.443          49.000  
E07  23016163.486   120950661.769       -2421.312          45.000    23016176.075    92676469.252       -1855.280          51.000  
G13  18897492.824    99307063.536        1196.125          48.000                                                                  
G17  21862681.843   114889265.354        2157.837          44.000    21862700.930    89524226.578        1681.505          41.000  
G15  21446394.961   112701544.8941       2189.160          31.000    21446396.461    87819396.070        1706.134          35.000  
G22  18228326.217    95790752.370         907.786          47.000                                                                  
G30  19251194.366   101165748.964       -2681.246          49.000    19251197.971    78830491.066       -2089.214          46.000  
E21  22479190.388   118129190.301        1470.921          47.000    22479200.733    90514734.047        1127.043          52.000  
E30  24505735.391   128778565.109       -3296.600          44.000    24505743.818    98674550.647       -2525.866          44.000  
E18  20495002.246   107702121.408       -2865.530          36.000                                                                  
> 2024 04 15 20 03 30.4920000  0 25                     
G05  19079188.186   100261778.553       -1058.236          48.000    19079190.575    78126054.235        -824.666          46.000  
E19  23204382.084   121939874.379        1311.631          40.000    23204388.092    93434520.240        1004.852          44.000  
G09  22808843.915                       -3760.986          31.000    22808872.397                       -2931.578          31.000  
E27  21299148.917   111927981.600       -1172.094          49.000    21299154.550    85763143.547        -898.152          50.000  
R13  19515548.906   104212057.007       -4302.513          38.000    19515552.627    81053911.316       -3346.609          42.000  
R02  21374053.800                1      -4696.802          27.000    21374090.043                3      -3653.434          25.000  
R04  17307647.863    92681724.620        1322.032          52.000    17307647.549    72085791.649        1028.118          51.000  
R03  17390852.277    93094688.108       -2567.475          53.000    17390851.117    72407016.456       -1996.956          47.000  
R15  19379384.818   103557622.553        2255.256          46.000    19379393.207    80545085.352        1754.183          44.000  
R05  21061354.708   112584979.6481       3266.948          33.000    21061363.325    87566161.051        2540.820          35.000  
G07  21654553.659   113795444.832       -3755.985          41.000    21654557.265    88671757.496       -2926.369          36.000  
S31  36443865.665   191513729.075        -774.866          43.000  
S33  37392504.343   196498935.613        -775.759          42.000  
G14  17941052.949    94281088.544       -1342.561          49.000    17941054.458    73465906.318       -1046.181          49.000  
G20  19678256.744   103409927.038       -3341.400          47.000                                                                  
R14  16935089.440    90273793.022        -958.789          52.000    16935093.323    70213124.140        -745.793          49.000  
E07  23030007.362   121023407.768       -2428.139          46.000    23030020.018    92732209.516       -1860.583          52.000  
G13  18890679.026    99271257.086        1190.858          48.000                                                                  
G17  21850364.188   114824535.145        2157.511          44.000    21850382.446    89473788.214        1681.096          42.000  
G22  18223194.843    95763785.357         890.149          48.000                                                                  
G30  19266513.752   101246252.859       -2685.571          49.000    19266517.220    78893221.336       -2092.753          46.000  
E21  22470820.764   118085204.214        1461.672          48.000    22470830.498    90481030.571        1119.961          52.000  
E30  24524569.969   128877542.812       -3301.846          45.000    24524578.415    98750390.692       -2529.998          43.000  
E18  20511425.397   107788418.364       -2887.664          38.000                                                                  
G15                                                                  21433901.541    87768231.422        1705.035          34.000  
> 2024 04 15 20 04 00.4920000  0 25                     
G05  19085285.314   100293820.326       -1077.698          47.000    19085287.643    78151021.800        -839.779          45.000  
E19  23196898.620   121900547.245        1310.442          40.000    23196904.299    93404386.559        1003.946          44.000  
G09  22830340.596                3      -3766.349          29.000    22830365.582                       -2935.281          26.000  
E27  21305877.846   111963341.773       -1185.037          48.000    21305883.152    85790237.730        -908.010          49.000  
R13  19539734.683   104341207.839       -4307.064          37.000    19539738.355    81154361.857       -3349.977          43.000  
R02  21400481.556                       -4704.303          30.000    21400525.735                1      -3658.349          26.000  
R04  17300292.260    92642332.524        1304.388          52.000    17300291.364    72055153.383        1014.514          50.000  
R03  17405301.391    93172034.270       -2588.598          53.000    17405300.808    72467174.486       -2013.360          47.000  
R15  19366762.458   103490170.506        2241.742          48.000    19366770.920    80492622.985        1743.573          44.000  
R05  21043023.808   112486979.529        3266.410          39.000    21043028.685    87489938.840        2540.398          36.000  
G07  21675994.003   113908116.716       -3755.718          40.000    21675998.145    88759553.678       -2926.421          37.000  
S31  36448291.159   191536982.277        -774.897          44.000  
S33  37396931.655   196522200.447        -775.293          43.000  
G14  17948772.658    94321655.077       -1361.570          49.000    17948773.834    73497516.637       -1060.915          48.000  
G20  19697364.414   103510336.776       -3352.375          47.000                                                                  
R14  16940542.148    90302857.603        -978.545          53.000    16940545.598    70235729.959        -761.072          49.000  
E07  23043888.761   121096356.372       -2434.829          46.000    23043901.703    92788105.046       -1865.543          52.000  
G13  18883895.668    99235608.882        1185.707          48.000                                                                  
G17  21838048.652   114759819.341        2156.981          45.000    21838066.959    89423361.069        1680.650          43.000  
G15  21421407.151   112570243.415        2187.567          34.000    21421412.098    87717088.894        1704.602          34.000  
G22  18218163.792    95737352.044         872.269          47.000                                                                  
G30  19281858.453   101326889.521       -2689.913          49.000    19281861.487    78956055.043       -2096.029          46.000  
E21  22462503.164   118041494.484        1452.570          48.000    22462512.717    90447538.841        1112.953          52.000  
E30  24543434.678   128976674.796       -3306.854          45.000    24543442.704    98826348.944       -2533.979          43.000  
E18  20527970.605   107875374.872       -2909.378          37.000                                                                  
> 2024 04 15 20 04 30.4920000  0 25                     
G05  19091491.945   100326435.699       -1096.685          47.000    19091494.183    78176436.318        -854.615          45.000  
E19  23189419.238   121861250.502        1309.276          39.000    23189426.148    93374276.137        1003.241          44.000  
G09  22851850.780                       -3770.709          27.000    22851878.976                3      -2939.692          22.000  
E27  21312677.676   111999077.571       -1197.385          48.000    21312683.459    85817619.743        -917.581          49.000  
R13  19563941.283   104470470.612       -4310.376          39.000    19563944.993    81254899.476       -3352.723          42.000  
R02  21426945.415   114338272.1301      -4711.011          34.000    21426981.834                       -3663.525          26.000  
R04  17293033.377    92603462.365        1287.003          53.000    17293032.877    72024921.065        1001.011          50.000  
R03  17419866.780    93250003.513       -2609.323          54.000    17419865.683    72527817.098       -2029.545          46.000  
R15  19354213.434   103423115.363        2228.531          47.000    19354222.477    80440469.334        1733.204          43.000  
R05  21024691.773   112388987.617        3266.278          41.000    21024696.640    87413722.895        2540.423          33.000  
G07  21697429.235   114020758.704       -3754.254          41.000    21697433.881    88847326.533       -2925.506          37.000  
S31  36452714.331   191560226.802        -774.746          43.000  
S33  37401356.926   196545456.289        -774.848          42.000  
G14  17956599.812    94362783.940       -1380.231          49.000    17956600.002    73529565.134       -1075.526          48.000  
G20  19716532.785   103611061.231       -3362.728          47.000                                                                  
R14  16946103.152    90332502.667        -997.770          53.000    16946106.890    70258787.276        -776.103          49.000  
E07  23057806.920   121169496.345       -2441.133          45.000    23057819.332    92844147.195       -1870.498          51.000  
G13  18877140.608    99200108.997        1180.757          48.000                                                                  
G17  21825734.221   114695109.597        2157.083          45.000    21825752.485    89372938.661        1680.701          42.000  
G15  21408922.778   112504628.618        2187.079          34.000    21408925.019    87665960.632        1703.693          35.000  
G22  18213233.924    95711442.640         854.974          47.000                                                                  
G30  19297226.176   101407646.466       -2693.794          49.000    19297228.791    79018982.511       -2099.053          45.000  
E21  22454235.394   117998050.775        1443.808          48.000    22454245.341    90414250.929        1106.258          52.000  
E30  24562325.530   129075947.813       -3311.320          45.000    24562333.657    98902415.258       -2537.180          43.000  
E18  20544640.806   107962977.819       -2930.815          38.000                                                                  
> 2024 04 15 20 05 00.4920000  0 25                     
G05  19097808.773   100359630.107       -1115.712          48.000    19097811.022    78202302.045        -869.647          46.000  
E19  23181947.252   121821990.970        1307.832          37.000    23181955.235    93344194.259        1002.361          44.000  
E27  21319550.432   112035194.146       -1209.886          48.000    21319555.875    85845293.513        -927.197          49.000  
R13  19588169.578   104599848.874       -4314.379          40.000    19588173.940    81355526.921       -3355.316          43.000  
R02  21453443.806                3      -4716.847          25.000    21453495.386                3      -3665.816          20.000  
R04  17285874.528    92565123.762        1269.374          53.000    17285873.438    71995102.189         987.293          51.000  
R03  17434550.139    93328601.292       -2630.132          54.000    17434548.180    72588948.617       -2045.681          47.000  
R15  19341741.430   103356464.640        2215.209          48.000    19341750.019    80388630.159        1723.031          44.000  
R05  21006362.614   112291012.975        3266.056          37.000    21006365.213                        2540.115          27.000  
G07  21718859.022   114133375.140       -3752.938          41.000    21718864.886    88935079.452       -2924.278          39.000  
S31  36457136.314   191583466.313        -774.200          43.000  
S33  37405781.641   196568707.870        -774.677          42.000  
G14  17964534.044    94404479.847       -1399.004          49.000    17964533.876    73562055.479       -1090.130          47.000  
G20  19735760.517   103712103.563       -3373.068          48.000                                                                  
R14  16951774.626    90362732.142       -1017.039          53.000    16951777.629    70282299.131        -791.091          49.000  
E07  23071761.479   121242833.578       -2447.629          44.000    23071774.931    92900340.527       -1875.442          51.000  
G13  18870414.206    99164764.824        1175.670          48.000                                                                  
G17  21813421.786   114630414.842        2156.481          44.000    21813440.499    89322527.904        1680.244          42.000  
G15  21396439.906                        2186.194          33.000    21396443.623    87614852.445        1703.772          35.000  
G22  18208404.657    95686064.728         837.533          46.000                                                                  
G30  19312617.408   101488528.633       -2697.851          50.000    19312619.897    79082007.547       -2102.234          45.000  
E21  22446020.243   117954880.003        1434.770          48.000    22446030.087    90381172.163        1099.376          52.000  
E30  24581243.409   129175366.108       -3316.087          44.000    24581251.879    98978592.921       -2540.839          42.000  
E18  20561433.912   108051231.245       -2952.182          38.000                                                                  
G09                                                                  22873426.924                3      -2936.305          21.000  
> 2024 04 15 20 05 30.4920000  0 25                     
G05  19104236.780   100393406.849       -1135.515          49.000    19104239.104    78228621.529        -884.702          46.000  
E19  23174486.082   121782773.821        1306.624          39.000    23174491.877    93314144.842        1001.138          43.000  
E27  21326496.525   112071694.837       -1223.004          48.000    21326502.159    85873261.613        -937.129          50.000  
R13  19612419.851   104729343.413       -4318.325          41.000    19612424.541    81456244.796       -3358.588          42.000  
R02  21479990.449                       -4724.250          30.000    21480024.037                3      -3666.576          18.000  
R04  17278815.447    92527324.151        1251.041          53.000    17278814.123    71965702.573         973.090          50.000  
R03  17449350.797    93407831.391       -2651.417          54.000    17449350.495    72650571.924       -2062.252          47.000  
R15  19329343.003   103290224.057        2201.250          47.000    19329352.492    80337110.015        1712.090          44.000  
R05  20988039.343   112193063.084        3264.672          39.000    20988043.152    87261337.506        2538.924          34.000  
G07  21740285.590   114245970.096       -3752.740          41.000    21740291.361    89022815.643       -2924.132          40.000  
S31  36461559.122   191606706.168        -774.454          43.000  
S33  37410206.014   196591960.519        -775.038          41.000  
G14  17972577.010    94446745.856       -1418.243          49.000    17972577.012    73594990.082       -1105.108          48.000  
G20  19755048.494   103813465.062       -3383.788          46.000                                                                  
R14  16957554.861    90393548.498       -1036.975          52.000    16957558.749    70306267.412        -806.461          49.000  
E07  23085757.952   121316372.406       -2454.554          45.000    23085769.441    92956688.299       -1880.728          51.000  
G13  18863719.331    99129582.410        1169.951          48.000                                                                  
G17  21801114.606   114565742.368        2155.491          43.000    21801132.634    89272134.526        1679.346          42.000  
G15  21383965.926   112373482.384        2184.930          35.000    21383968.397    87563768.910        1702.100          35.000  
G22  18203677.315    95661223.433         819.251          46.000                                                                  
G30  19328033.016   101569539.187       -2702.387          49.000    19328036.291    79145132.633       -2105.782          45.000  
E21  22437857.385   117911987.476        1425.059          47.000    22437867.812    90348306.605        1091.987          51.000  
E30  24600190.907   129274932.142       -3321.284          45.000    24600200.290    99054883.774       -2544.962          44.000  
E18  20578352.431   108140137.448       -2974.395          37.000                                                                  
G09                                                                  22894990.394                3      -2940.844          21.000  
> 2024 04 15 20 06 00.4920000  0 25                     
G05  19110774.928   100427766.975       -1155.122          48.000    19110778.064    78255395.598        -900.116          47.000  
E19  23167031.326   121743601.306        1305.005          39.000    23167037.858    93284129.668         999.817          44.000  
E27  21333516.408   112108579.895       -1235.989          49.000    21333521.043    85901524.203        -946.957          50.000  
R13  19636691.390   104858952.325       -4322.220          41.000    19636695.754    81557051.719       -3361.855          42.000  
R02  21506572.761                3      -4729.623          20.000    21506607.622                3      -3680.271          23.000  
R04  17271858.054    92490068.495        1232.755          53.000    17271856.455    71936726.004         958.760          50.000  
R03  17464270.385    93487693.344       -2672.578          54.000    17464268.719    72712686.660       -2078.734          47.000  
R15  19317024.133   103224396.170        2187.296          48.000    19317034.030    80285910.875        1701.290          46.000  
R05  20969720.307   112095141.925        3263.143          35.000    20969725.063    87185176.676        2538.274          34.000  
G07  21761708.255   114358543.896       -3752.268          41.000    21761712.939    89110535.277       -2923.909          39.000  
S31  36465981.998   191629948.466        -774.673          44.000  
S33  37414631.523   196615214.355        -775.267          42.000  
G14  17980728.030    94489581.832       -1437.318          49.000    17980728.630    73628368.805       -1120.027          48.000  
G20  19774397.584   103915143.874       -3394.565          47.000                                                                  
R14  16963446.914    90424950.758       -1056.516          54.000    16963449.938    70330691.436        -821.803          49.000  
E07  23099789.252   121390113.997       -2461.409          44.000    23099801.833    93013191.441       -1886.036          51.000  
G13  18857055.107    99094564.503        1164.331          48.000                                                                  
G17  21788812.091   114501096.223        2154.527          45.000    21788830.732    89221761.682        1678.450          42.000  
G15  21371498.381   112307959.513        2183.240          37.000    21371500.120    87512712.272        1701.825          35.000  
G22  18199052.350    95636921.093         801.055          46.000                                                                  
G30  19343473.395   101650678.276       -2706.819          50.000    19343476.597    79208357.847       -2109.177          45.000  
E21  22429748.975   117869375.340        1415.646          47.000    22429758.779    90315655.873        1084.766          51.000  
E30  24619164.980   129374645.293       -3326.263          45.000    24619174.875    99131287.314       -2548.694          44.000  
E18  20595394.710   108229695.742       -2996.230          37.000                                                                  
G09                                                                  22916582.495                3      -2935.731          15.000  
> 2024 04 15 20 06 30.4920000  0 25                     
G05  19117424.609   100462711.980       -1174.542          48.000    19117427.756    78282625.409        -915.238          45.000  
E19  23159585.402   121704477.268        1303.161          39.000    23159592.535    93254151.588         998.492          44.000  
E27  21340608.816   112145851.128       -1248.887          50.000    21340613.342    85930082.719        -956.865          50.000  
R13  19660985.073   104988675.184       -4325.813          41.000    19660988.901    81657947.163       -3364.326          42.000  
R02  21533190.328                       -4738.135          25.000    21533167.335                3      -3673.190          22.000  
R04  17265003.488    92453362.582        1214.258          53.000    17265001.951    71908176.970         944.470          50.000  
R03  17479307.313    93568189.554       -2693.706          54.000    17479306.754    72775294.725       -2095.073          47.000  
R15  19304783.170   103158985.145        2173.384          48.000    19304791.836    80235035.901        1690.476          44.000  
R05  20951406.237   111997272.6893       3262.361          36.000    20951407.745                        2537.237          32.000  
G07  21783126.659   114471098.887       -3751.596          41.000    21783131.505    89198240.252       -2923.161          39.000  
S31  36470405.652   191653194.259        -774.692          44.000  
S33  37419057.214   196638472.300        -775.093          42.000  
G14  17988987.839    94532989.221       -1456.445          48.000    17988988.739    73662192.745       -1134.851          49.000  
G20  19793806.822   104017139.855       -3405.135          47.000                                                                  
R14  16969447.586    90456939.579       -1076.080          53.000    16969451.550    70355571.657        -836.896          50.000  
E07  23113860.669   121464061.148       -2468.566          44.000    23113873.637    93069852.048       -1891.322          51.000  
G13  18850423.124    99059715.697        1158.622          47.000                                                                  
G17  21776516.061   114436482.223        2153.362          45.000    21776533.565    89171413.818        1677.741          40.000  
G15  21359036.734   112242475.387        2182.031          39.000    21359038.437    87461685.798        1700.238          36.000  
G22  18194531.271    95613161.758         782.923          46.000                                                                  
G30  19358938.468   101731947.609       -2711.135          50.000    19358942.765    79271684.567       -2112.555          46.000  
E21  22421693.212   117827047.298        1406.148          46.000    22421703.881    90283222.824        1077.480          51.000  
E30  24638168.488   129474506.628       -3331.191          46.000    24638177.341    99207804.447       -2552.343          43.000  
E18  20612561.225   108319906.854       -3017.631          35.000                                                                  
G09                                                                  22938202.586                3      -2963.940          14.000  
> 2024 04 15 20 07 00.4920000  0 24                     
G05  19124186.890   100498244.370       -1194.047          48.000    19124188.343    78310312.930        -930.454          44.000  
E19  23152151.283   121665405.346        1301.815          40.000    23152157.391    93224213.437         997.444          44.000  
E27  21347775.159   112183510.537       -1261.507          50.000    21347780.086    85958938.690        -966.632          50.000  
R13  19685298.698   105118512.075       -4329.609          41.000    19685303.265    81758931.323       -3367.599          42.000  
R02  21559794.393                3      -4743.264          21.000    21559855.309                3      -3689.396          25.000  
R04  17258252.728    92417213.465        1195.863          53.000    17258251.914    71880061.042         930.093          51.000  
R03  17494463.740    93649321.750       -2714.800          54.000    17494463.085    72838397.413       -2111.534          47.000  
R15  19292621.170   103093994.950        2159.543          48.000    19292628.793    80184488.293        1679.499          44.000  
R05  20933090.384   111899355.8981       3261.341          35.000    20933105.727                1       2537.005          31.000  
G07  21804541.267   114583637.001       -3750.555          40.000    21804546.706    89285932.144       -2922.823          38.000  
S31  36474830.199   191676446.544        -775.290          44.000  
S33  37423484.380   196661737.629        -775.427          43.000  
G14  17997357.201    94576969.664       -1475.386          49.000    17997357.876    73696463.245       -1149.617          49.000  
G20  19813276.076   104119452.811       -3415.507          46.000                                                                  
R14  16975558.532    90489516.265       -1095.590          53.000    16975563.197    70380909.114        -852.093          51.000  
E07  23127971.923   121538216.697       -2475.209          44.000    23127985.218    93126672.384       -1896.543          51.000  
G13  18843824.462    99025040.105        1153.051          47.000                                                                  
G17  21764228.670   114371906.260        2151.994          47.000    21764244.317    89121095.538        1676.658          39.000  
G15  21346584.203   112177034.824        2180.817          37.000    21346585.706    87410693.212        1699.658          37.000  
G22  18190114.271    95589949.675         764.683          46.000                                                                  
G30  19374428.699   101813349.052       -2715.426          50.000    19374432.572    79335114.213       -2115.836          45.000  
E21  22413692.504   117785007.213        1396.761          46.000    22413703.880    90251010.455        1070.235          51.000  
E30  24657199.981   129574517.198       -3335.984          46.000    24657209.227    99284435.923       -2556.156          45.000  
E18  20629850.699   108410771.816       -3039.144          35.000                                                                  
> 2024 04 15 20 07 30.4920000  0 24                     
G05  19131058.838   100534357.090       -1213.860          47.000    19131059.621    78338452.682        -946.007          44.000  
E19  23144725.784   121626381.100        1299.522          40.000    23144730.828    93194311.830         995.868          44.000  
E27  21355014.001   112221551.760       -1274.731          50.000    21355019.321    85988087.215        -976.758          50.000  
R13  19709633.404   105248454.386       -4333.474          41.000    19709636.702    81859997.525       -3370.675          41.000  
R02  21586529.396                3      -4751.237          18.000    21586477.480                3      -3696.836          19.000  
R04  17251605.341    92381618.457        1176.868          52.000    17251604.355    71852376.051         915.359          50.000  
R03  17509737.170    93731083.349       -2736.201          54.000    17509736.465    72901989.641       -2128.137          47.000  
R15  19280536.104   103029421.702        2145.124          47.000    19280543.223    80134264.954        1668.282          44.000  
R05  20914800.414   111801584.021        3259.008          36.000    20914807.338    86956806.1161       2535.155          33.000  
G07  21825952.217   114696151.781       -3750.485          40.000    21825957.281    89373605.847       -2922.369          37.000  
S31  36479255.434   191699701.386        -775.518          44.000  
S33  37427911.840   196685003.612        -775.906          42.000  
G14  18005834.861    94621516.371       -1494.539          49.000    18005835.432    73731175.019       -1164.700          49.000  
G20  19832804.990   104222074.248       -3426.157          47.000                                                                  
R14  16981778.452    90522672.817       -1115.267          53.000    16981782.947    70406697.558        -867.324          50.000  
E07  23142122.320   121612575.275       -2482.475          44.000    23142135.028    93183648.259       -1901.962          51.000  
G13  18837257.991    98990534.238        1146.727          47.000                                                                  
G17  21751946.282   114307365.814        2150.561          45.000    21751962.440    89070804.991        1675.336          40.000  
G15  21334139.514   112111633.367        2179.047          39.000    21334140.709    87359731.164        1698.077          38.000  
G22  18185800.311    95567280.698         746.269          47.000                                                                  
G30  19389943.129   101894876.217       -2720.014          49.000    19389947.078    79398641.851       -2119.518          45.000  
E21  22405746.445   117743250.654        1386.916          45.000    22405757.790    90219015.310        1062.659          51.000  
E30  24676257.310   129674669.856       -3340.932          45.000    24676267.619    99361176.236       -2559.927          45.000  
E18  20647266.629   108502283.152       -3061.701          36.000                                                                  
> 2024 04 15 20 08 00.4920000  0 24                     
G05  19138041.777   100571055.124       -1232.769          47.000    19138044.480    78367048.451        -960.803          45.000  
E19  23137308.885   121587410.520        1298.177          40.000    23137315.289    93164451.350         994.931          45.000  
E27  21362326.103   112259978.870       -1287.039          49.000    21362331.167    86017531.394        -986.202          50.000  
R13  19733987.399   105378503.837       -4336.537          41.000    19733991.144    81961146.979       -3372.701          41.000  
R02  21613225.874                3      -4792.150          16.000                                                                  
R04  17245063.403    92346586.344        1158.643          53.000    17245062.412    71825128.892         901.245          50.000  
R03  17525129.151    93813478.338       -2756.759          54.000    17525128.586    72966074.495       -2144.168          47.000  
R15  19268531.301   102965271.709        2131.412          46.000    19268539.652    80084370.788        1657.862          47.000  
R05  20896514.528   111703822.340        3258.086          37.000    20896518.525    86880769.334        2533.539          37.000  
G07  21847359.419   114808648.648       -3749.217          41.000    21847364.939    89461265.608       -2921.800          39.000  
S31  36483681.298   191722961.244        -775.183          44.000  
S33  37432340.104   196708276.527        -775.548          42.000  
G14  18014420.170    94666633.029       -1513.105          49.000    18014420.947    73766330.886       -1179.084          49.000  
G20  19852391.935   104325006.091       -3435.964          46.000                                                                  
R14  16988108.198    90556412.712       -1134.116          54.000    16988111.425    70432939.718        -881.930          50.000  
E07  23156311.047   121687141.866       -2488.670          43.000    23156324.734    93240783.558       -1907.037          51.000  
G13  18830725.775    98956205.007        1141.467          47.000                                                                  
G17  21739671.965   114242869.067        2149.703          45.000    21739689.019    89020548.525        1674.706          41.000  
G15  21321702.292   112046277.914        2177.838          40.000    21321703.678    87308804.949        1696.851          38.000  
G22  18181591.153    95545161.072         728.423          47.000                                                                  
G30  19405481.267   101976533.036       -2723.669          48.000    19405485.814    79462270.490       -2122.365          46.000  
E21  22397856.385   117701783.587        1377.616          47.000    22397867.233    90187241.991        1055.548          52.000  
E30  24695343.354   129774967.839       -3345.353          46.000    24695353.790    99438027.958       -2563.358          46.000  
E18  20664802.998                       -3082.905          31.000                                                                  
> 2024 04 15 20 08 30.4920000  0 24                     
G05  19145133.927   100608323.296       -1251.727          48.000    19145136.741    78396088.525        -975.394          46.000  
E19  23129900.917   121548480.399        1297.105          40.000    23129906.928    93134621.901         993.866          45.000  
E27  21369708.940   112298776.553       -1299.480          49.000    21369714.028    86047259.543        -995.704          50.000  
R13  19758357.812   105508643.101       -4339.220          41.000    19758361.939    82062366.342       -3374.596          39.000  
R02  21639997.398                3      -4766.694          15.000                                                                  
R04  17238624.423    92312105.840        1140.255          53.000    17238623.066    71798310.752         886.740          50.000  
R03  17540637.151    93896491.366       -2777.312          54.000    17540635.079    73030640.070       -2160.301          46.000  
R15  19256604.026   102901531.510        2117.766          49.000    19256611.474    80034795.376        1647.147          45.000  
R05  20878214.406                1       3258.027          32.000    20878236.984    86804759.267        2533.195          37.000  
G07  21868761.261   114921111.682       -3748.027          39.000    21868767.025    89548898.971       -2920.500          39.000  
S31  36488106.278   191746213.401        -774.832          44.000  
S33  37436767.439   196731540.988        -774.974          43.000  
G14  18023111.286    94712303.909       -1531.469          49.000    18023111.653    73801918.603       -1193.470          49.000  
G20  19872035.283   104428230.906       -3445.536          45.000                                                                  
R14  16994544.499    90590718.937       -1152.885          53.000    16994546.847    70459622.389        -896.751          50.000  
E07  23170538.699   121761902.119       -2495.059          44.000    23170551.569    93298067.257       -1911.926          51.000  
G13  18824224.511    98922039.195        1136.149          48.000                                                                  
G17  21727403.982   114178404.986        2148.307          45.000    21727420.211    88970317.445        1673.833          40.000  
G15  21309271.890   111980955.911        2176.898          40.000    21309272.824    87257904.778        1696.417          38.000  
G22  18177484.197    95523577.632         710.621          47.000                                                                  
G30  19421042.686   102058304.261       -2727.577          49.000    19421046.050    79525988.289       -2125.415          44.000  
E21  22390017.626   117660592.636        1368.433          47.000    22390028.413    90155680.241        1048.486          51.000  
E30  24714454.251   129875395.153       -3349.668          45.000    24714464.337    99514978.707       -2566.618          46.000  
E18  20682464.428   108687237.348       -3103.841          37.000                                                                  
> 2024 04 15 20 09 00.4920000  0 23                     
G05  19152335.300   100646166.823       -1271.161          48.000    19152337.466    78425576.902        -990.784          45.000  
E19  23122502.191   121509597.717        1294.901          40.000    23122507.276    93104828.760         992.306          44.000  
E27  21377163.512   112337949.883       -1312.192          49.000    21377168.662    86077275.507       -1005.509          50.000  
R13  19782746.215   105638874.989       -4342.751          41.000    19782750.965    82163657.763       -3377.712          41.000  
R04  17232290.226    92278186.453        1121.106          52.000    17232288.927    71771929.048         871.892          50.000  
R03  17556260.116    93980127.455       -2798.349          54.000    17556259.990    73095690.267       -2176.497          47.000  
R15  19244754.145   102838208.792        2103.658          49.000    19244760.041    79985544.649        1636.299          45.000  
R05  20859946.172                        3255.384          26.000    20859964.910    86728783.530        2531.791          33.000  
G07  21890156.321   115033546.490       -3747.213          39.000    21890162.363    89636510.433       -2920.280          37.000  
S31  36492530.231   191769463.435        -775.119          44.000  
S33  37441194.351   196754804.462        -775.573          42.000  
G14  18031907.912    94758533.637       -1550.516          49.000    18031908.909    73837941.822       -1208.162          49.000  
G20  19891736.066   104531752.482       -3455.762          47.000                                                                  
R14  17001086.210    90625595.560       -1172.240          53.000    17001090.683    70486748.677        -911.700          50.000  
E07  23184804.424   121836862.137       -2502.153          46.000    23184816.291    93355503.985       -1917.250          51.000  
G13  18817755.802    98888044.751        1130.021          48.000                                                                  
G17  21715145.147   114113982.450        2146.553          45.000    21715160.704    88920118.742        1672.679          41.000  
G15  21296848.148   111915674.781        2175.525          40.000    21296850.607    87207036.498        1695.032          37.000  
G22  18173480.138    95502537.488         692.143          47.000                                                                  
G30  19436625.196   102140194.846       -2731.885          48.000    19436629.644    79589799.087       -2128.503          44.000  
E21  22382233.319   117619684.785        1358.711          47.000    22382243.902    90124335.428        1041.038          52.000  
E30  24733589.857   129975956.012       -3354.416          45.000    24733600.500    99592031.817       -2570.216          46.000  
E18  20700240.402   108780667.821       -3125.477          34.000                                                                  
> 2024 04 15 20 09 30.4920000  0 24                     
G05  19159646.078   100684587.766       -1290.475          47.000    19159648.827    78455515.222       -1005.465          45.000  
E19  23115112.602   121470766.855        1293.386          39.000    23115118.013    93075075.354         991.045          44.000  
E27  21384690.912   112377501.404       -1324.799          49.000    21384695.122    86107581.254       -1015.021          50.000  
R13  19807152.168   105769200.398       -4345.669          41.000    19807156.457    82265021.911       -3379.638          38.000  
R02  21693643.616                3      -4772.066          18.000                                                                  
R04  17226062.382    92244835.016        1102.137          52.000    17226060.795    71745989.066         857.242          50.000  
R03  17572001.106    94064388.532       -2819.167          53.000    17571999.938    73161226.561       -2192.647          46.000  
R15  19232983.242   102775308.162        2089.519          47.000    19232989.333    79936622.210        1625.198          46.000  
R05  20841673.015   111410723.4011       3253.464          37.000    20841702.223    86652847.077        2530.383          38.000  
G07  21911546.876   115145956.374       -3746.638          37.000    21911553.048    89724102.343       -2919.644          37.000  
S31  36496954.773   191792715.008        -775.216          44.000  
S33  37445621.691   196778068.974        -775.604          42.000  
G14  18040811.753    94805324.400       -1569.106          49.000    18040812.784    73874402.218       -1222.715          49.000  
G20  19911491.891   104635570.804       -3465.553          46.000                                                                  
R14  17007735.966    90661044.102       -1191.220          53.000    17007740.230    70514319.810        -926.547          50.000  
E07  23199107.733   121912025.329       -2508.783          46.000    23199119.677    93413096.423       -1922.437          51.000  
G13  18811320.695    98854226.765        1124.068          49.000                                                                  
G17  21702894.270   114049607.755        2144.980          46.000    21702910.179    88869957.340        1671.404          42.000  
G15  21284433.100   111850439.617        2173.754          39.000    21284436.571    87156204.006        1693.624          38.000  
G22  18169580.735    95482045.302         673.905          48.000                                                                  
G30  19452231.839   102222207.382       -2735.893          48.000    19452235.568    79653704.948       -2132.053          43.000  
E21  22374503.767   117579064.462        1349.171          48.000    22374514.081    90093210.925        1033.772          52.000  
E30  24752752.416   130076652.250       -3358.959          46.000    24752761.836    99669188.624       -2573.760          46.000  
E18  20718145.055   108874736.575       -3146.798          34.000                                                                  
> 2024 04 15 20 10 00.4920000  0 24                     
G05  19167065.788   100723578.628       -1309.293          47.000    19167068.808    78485897.670       -1020.485          45.000  
E19  23107731.990   121431982.208        1291.823          40.000    23107737.585    93045357.322         989.953          44.000  
E27  21392286.764   112417423.412       -1337.084          49.000    21392292.181    86138170.903       -1024.586          50.000  
R13  19831573.620   105899609.155       -4348.393          41.000    19831578.265    82366450.861       -3382.178          39.000  
R02  21720477.864                3      -4788.366          16.000                                                                  
R04  17219938.888    92212048.117        1083.311          53.000    17219938.092    71720488.156         842.516          50.000  
R03  17587856.629    94149267.123       -2839.654          54.000    17587857.388    73227243.129       -2208.605          47.000  
R15  19221289.484   102712824.000        2075.562          48.000    19221296.645    79888023.652        1614.346          46.000  
R05  20823431.280                1       3251.435          30.000    20823444.615    86576947.179        2528.908          39.000  
G07  21932932.338   115258333.705       -3745.426          36.000    21932938.528    89811668.989       -2918.658          37.000  
S31  36501378.903   191815960.723        -774.891          43.000  
S33  37450047.579   196801326.794        -775.481          43.000  
G14  18049821.244    94852668.017       -1587.453          49.000    18049822.027    73911293.355       -1236.915          48.000  
G20  19931302.842   104739675.917       -3475.150          46.000                                                                  
R14  17014492.249    90697055.385       -1209.869          53.000    17014496.239    70542328.652        -941.062          50.000  
E07  23213446.287   121987385.034       -2515.653          44.000    23213460.244    93470839.394       -1927.476          52.000  
G13  18804918.087    98820580.544        1118.394          50.000                                                                  
G17  21690651.899   113985277.524        2143.228          46.000    21690668.509    88819830.590        1670.352          43.000  
G15  21272027.370   111785245.505        2172.386          41.000    21272029.854    87105403.537        1692.616          38.000  
G22  18165784.688    95462095.606         655.691          47.000                                                                  
G30  19467860.037   102304334.136       -2739.534          48.000    19467863.458    79717699.763       -2134.786          43.000  
E21  22366827.181   117538725.875        1339.667          47.000    22366837.633    90062302.312        1026.579          52.000  
E30  24771938.070   130177475.333       -3362.879          45.000    24771948.097    99746442.657       -2576.791          47.000  
E18  20736157.020                1      -3167.411          28.000                                                                  
> 2024 04 15 20 10 30.4920000  0 23                     
G05  19174593.034   100763135.612       -1328.145          48.000    19174596.257    78516721.197       -1034.987          45.000  
E19  23100359.244   121393241.282        1290.695          39.000    23100365.805    93015672.816         988.727          45.000  
E27  21399952.386   112457711.401       -1349.140          48.000    21399958.895    86169040.970       -1033.820          50.000  
R13  19856010.208   106030094.923       -4351.022          43.000    19856014.302    82467939.754       -3384.174          39.000  
R04  17213922.034    92179825.518        1064.471          52.000    17213920.852    71695426.132         827.884          50.000  
R03  17603828.081    94234758.168       -2860.052          54.000    17603827.301    73293736.042       -2224.575          45.000  
R15  19209673.373   102650753.843        2062.020          49.000    19209681.503    79839747.141        1603.721          46.000  
R05  20805196.139   111215692.3361       3250.276          38.000    20805197.189    86501083.305        2528.347          35.000  
G07  21954309.256   115370674.284       -3744.370          36.000    21954315.016    89899206.936       -2917.484          37.000  
S31  36505800.680   191839197.695        -774.558          44.000  
S33  37454471.956   196824576.793        -775.198          42.000  
G14  18058935.281    94900559.511       -1605.734          49.000    18058935.023    73948611.439       -1251.230          48.000  
G20  19951166.842   104844061.808       -3484.251          46.000                                                                  
R14  17021352.116    90733624.006       -1228.378          53.000    17021355.995    70570770.949        -955.510          50.000  
E07  23227824.729   122062937.664       -2521.661          45.000    23227837.679    93528730.224       -1932.204          52.000  
G13  18798547.690    98787103.913        1112.860          50.000                                                                  
G17  21678417.741   113920991.337        2141.800          43.000    21678434.089    88769738.168        1668.933          43.000  
G15  21259628.674   111720090.677        2170.932          38.000    21259631.536    87054633.718        1691.224          39.000  
G22  18162090.338    95442685.993         637.895          46.000                                                                  
G30  19483509.205   102386570.660       -2743.135          49.000    19483513.275    79781780.159       -2137.671          44.000  
E21  22359204.470   117498666.457        1330.496          48.000    22359214.119    90031607.579        1019.479          51.000  
E30  24791147.879   130278420.076       -3366.914          45.000    24791157.411    99823789.904       -2579.833          48.000  
E18  20754291.476   109064570.8981      -3187.394          30.000                                                                  
> 2024 04 15 20 11 00.4920000  0 23                     
G05  19182230.813   100803265.972       -1347.228          48.000    19182232.953    78547991.530       -1049.817          45.000  
E19  23092997.781   121354554.149        1288.709          40.000    23093003.765    92986029.509         987.432          45.000  
E27  21407690.988   112498373.244       -1361.602          49.000    21407696.612    86200197.470       -1043.288          51.000  
R13  19880461.486   106160663.683       -4353.408          42.000    19880465.485    82569493.174       -3386.174          39.000  
R04  17208012.157    92148179.664        1045.300          53.000    17208010.523    71670812.720         812.995          49.000  
R03  17619914.725    94320869.638       -2880.724          54.000    17619913.747    73360711.511       -2240.416          46.000  
R15  19198137.472   102589108.131        2047.520          50.000    19198144.828    79791800.696        1592.508          45.000  
R05  20786958.923   111118211.509        3248.205          41.000    20786959.400    86425265.038        2526.436          38.000  
G07  21975680.187   115482986.082       -3743.285          34.000    21975689.002    89986722.491       -2916.698          37.000  
S31  36510222.576   191862433.611        -774.800          44.000  
S33  37458896.125   196847826.862        -774.788          44.000  
G14  18068153.770    94949006.236       -1624.019          49.000    18068154.423    73986362.174       -1265.621          48.000  
G20  19971085.441   104948733.884       -3493.820          46.000                                                                  
R14  17028317.665    90770756.441       -1247.142          53.000    17028321.851    70599651.784        -969.883          50.000  
E07  23242240.005   122138691.995       -2528.418          45.000    23242253.577    93586775.596       -1937.316          52.000  
G13  18792211.073    98753807.413        1106.834          49.000                                                                  
G17  21666193.849   113856761.055        2140.037          42.000    21666210.432    88719689.288        1667.349          42.000  
G15  21247239.773   111654985.496        2169.422          41.000    21247242.522    87003902.454        1690.608          39.000  
G22  18158502.044    95423826.334         619.450          47.000                                                                  
G30  19499181.082   102468924.825       -2746.956          49.000    19499183.878    79845952.179       -2140.277          43.000  
E21  22351636.105   117458895.991        1320.780          48.000    22351646.318    90001134.285        1012.041          52.000  
E30  24810381.341   130379493.515       -3370.997          43.000    24810390.999    99901235.749       -2582.903          48.000  
E18  20772556.674   109160523.307       -3208.644          34.000                                                                  
> 2024 04 15 20 11 30.4920000  0 23                     
G05  19189974.902   100843962.256       -1366.263          48.000    19189977.644    78579702.821       -1064.680          46.000  
E19  23085644.512   121315914.966        1286.912          39.000    23085651.043    92956422.938         986.157          45.000  
E27  21415498.794   112539401.151       -1373.973          50.000    21415503.497    86231634.491       -1052.711          51.000  
R13  19904926.656   106291305.903       -4356.140          43.000    19904930.713    82671103.698       -3388.271          40.000  
R04  17202209.046    92117106.856        1025.873          52.000    17202208.606    71646645.002         797.896          49.000  
R03  17636114.422    94407593.147       -2901.236          53.000    17636115.416    73428163.034       -2256.566          48.000  
R15  19186678.288   102527880.912        2033.887          45.000    19186685.653    79744179.745        1581.702          44.000  
R05  20768731.703   111020785.562        3246.435          41.000    20768735.371    86349489.389        2524.857          40.000  
G07  21997046.618   115595262.397       -3742.424          37.000    21997053.770    90074210.363       -2915.931          37.000  
S31  36514642.938   191885663.135        -774.731          41.000  
S33  37463319.248   196871068.822        -775.119          44.000  
G14  18077476.855    94998000.003       -1642.471          49.000    18077477.421    74024539.190       -1279.928          48.000  
G20  19991056.702   105053682.251       -3503.182          45.000                                                                  
R14  17035388.192    90808443.772       -1265.710          53.000    17035392.125    70628964.204        -984.498          50.000  
E07  23256693.066   122214641.303       -2535.005          46.000    23256706.028    93644970.357       -1942.448          52.000  
G13  18785908.163    98720686.062        1100.688          48.000                                                                  
G17  21653981.446   113792582.809        2138.085          43.000    21653995.829    88669681.010        1666.042          41.000  
G15  21234859.160   111589924.788        2167.710          39.000    21234861.827    86953205.926        1689.130          40.000  
G22  18155017.007    95405510.792         601.194          46.000                                                                  
G30  19514873.507   102551389.044       -2750.790          49.000    19514876.106    79910210.006       -2143.569          43.000  
E21  22344120.860   117419408.450        1311.304          48.000    22344131.531    89970877.786        1004.749          51.000  
E30  24829638.557   130480687.387       -3375.353          43.000    24829647.976    99978773.958       -2586.297          49.000  
E18  20790935.693   109257110.2381      -3230.132          34.000                                                                  
> 2024 04 15 20 12 00.4920000  0 23                     
G05  19197828.079   100885229.483       -1385.154          49.000    19197830.748    78611859.014       -1079.344          46.000  
E19  23078300.991   121277330.948        1285.005          38.000    23078308.589    92926858.661         984.600          45.000  
E27  21423376.579   112580800.287       -1386.153          49.000    21423381.808    86263355.973       -1062.254          51.000  
R13  19929405.326   106422024.393       -4358.590          44.000    19929409.716    82772773.544       -3389.991          38.000  
R04  17196516.175    92086616.783        1006.594          53.000    17196514.263    71622930.514         782.855          50.000  
R03  17652431.425    94494934.233       -2921.691          53.000    17652432.057    73496094.855       -2272.423          48.000  
R15  19175301.003   102467079.886        2019.454          49.000    19175307.292    79696890.258        1570.633          44.000  
R05  20750518.452   110923423.765        3244.385          38.000    20750521.750                        2522.928          31.000  
G07  22018408.488   115707508.293       -3741.082          37.000    22018414.033    90161674.585       -2914.989          36.000  
S31  36519063.306   191908891.095        -774.195          43.000  
S33  37467741.907   196894310.877        -774.918          44.000  
G14  18086904.930    95047545.485       -1660.773          48.000    18086905.562    74063146.109       -1294.061          48.000  
G20  20011080.790   105158910.347       -3512.237          46.000                                                                  
R14  17042562.769    90846690.026       -1284.255          53.000    17042567.244    70658711.338        -998.852          50.000  
E07  23271184.254   122290791.752       -2541.788          45.000    23271197.035    93703319.243       -1947.575          51.000  
G13  18779640.155    98687747.880        1094.687          49.000                                                                  
G17  21641779.955   113728466.250        2135.919          45.000    21641793.444    88619720.683        1664.647          40.000  
G15  21222488.108   111524916.401        2165.836          40.000    21222491.069    86902550.220        1687.473          39.000  
G22  18151636.470    95387746.856         582.861          47.000                                                                  
G30  19530587.640   102633968.455       -2754.506          49.000    19530590.629    79974557.558       -2146.397          44.000  
E21  22336662.577   117380211.205        1301.720          48.000    22336672.316    89940843.687         997.360          51.000  
E30  24848918.747   130582006.057       -3379.377          43.000    24848928.512   100056407.654       -2589.455          49.000  
E18  20809431.701   109354309.627       -3251.317          32.000                                                                  
> 2024 04 15 20 12 30.4920000  0 23                     
G05  19205790.299   100927070.820       -1404.263          49.000    19205792.302    78644462.578       -1094.182          45.000  
E19  23070969.124   121238807.118        1282.829          37.000    23070977.567    92897340.483         983.141          45.000  
E27  21431326.241   112622573.667       -1398.677          49.000    21431331.308    86295364.183       -1071.621          51.000  
R13  19953899.252   106552820.702       -4361.371          43.000    19953903.850    82874503.929       -3391.781          37.000  
R04  17190932.548    92056716.727         986.695          52.000    17190930.132    71599674.929         767.421          49.000  
R03  17668863.342    94582895.409       -2942.365          54.000    17668863.333    73564508.979       -2288.410          48.000  
R15  19164003.278   102406710.295        2005.200          48.000    19164010.702    79649936.390        1559.613          44.000  
R05  20732318.621   110826133.448        3241.822          42.000    20732325.548    86198093.464        2521.202          33.000  
G07  22039761.439   115819727.671       -3739.219          36.000    22039768.523    90249118.097       -2914.583          36.000  
S31  36523483.999   191932122.609        -774.398          44.000  
S33  37472164.910   196917555.104        -774.944          42.000  
G14  18096438.315    95097645.144       -1679.152          48.000    18096438.533    74102184.847       -1308.480          48.000  
G20  20031158.569   105264419.251       -3521.570          47.000                                                                  
R14  17049843.021    90885497.301       -1302.905          52.000    17049846.875    70688894.819       -1013.379          50.000  
E07  23285713.768   122367147.247       -2548.419          44.000    23285727.060    93761825.257       -1952.697          51.000  
G13  18773407.888    98654998.561        1088.466          48.000                                                                  
G17  21629592.126   113664418.383        2133.824          46.000    21629605.468    88569813.976        1662.735          41.000  
G15  21210128.220   111459965.939        2163.999          41.000    21210130.888    86851939.607        1686.514          39.000  
G22  18148361.098    95370539.529         564.237          46.000                                                                  
G30  19546324.369   102716666.172       -2758.474          49.000    19546328.319    80038997.351       -2149.708          45.000  
E21  22329259.794   117341309.007        1291.846          48.000    22329269.253    89911035.662         989.823          51.000  
E30  24868222.679   130683451.681       -3383.280          40.000    24868232.769   100134138.716       -2592.599          49.000  
E18  20828047.553   109452136.074       -3271.228          35.000                                                                  
> 2024 04 15 20 13 00.4920000  0 23                     
G05  19213860.139   100969478.711       -1423.205          48.000    19213862.856    78677507.600       -1108.839          45.000  
E19  23063650.857   121200338.494        1281.555          40.000    23063657.286    92867864.639         981.744          45.000  
E27  21439344.712   112664714.039       -1410.938          49.000    21439350.507    86327653.562       -1081.099          53.000  
R13  19978405.979   106683685.162       -4363.699          44.000    19978410.973    82976287.383       -3394.042          39.000  
R04  17185457.682    92027403.780         966.929          51.000    17185456.413    71576876.001         752.199          49.000  
R03  17685410.122    94671469.232       -2962.857          54.000    17685409.821    73633399.607       -2304.375          48.000  
R15  19152784.618   102346767.204        1990.781          44.000    19152792.682    79603314.212        1548.509          43.000  
R05  20714131.440   110728912.131        3238.517          39.000    20714136.551    86122476.933        2520.091          35.000  
G07  22061110.788   115931913.426       -3738.951          41.000    22061116.798    90336535.460       -2913.903          38.000  
S31  36527904.845   191955350.461        -774.255          44.000  
S33  37476587.653   196940797.447        -774.634          43.000  
G14  18106075.172    95148291.275       -1697.474          48.000    18106075.525    74141649.374       -1322.866          48.000  
G20  20051287.972   105370199.846       -3530.831          46.000                                                                  
R14  17057226.384    90924856.390       -1321.354          53.000    17057230.485    70719507.521       -1027.699          51.000  
E07  23300280.839   122443701.618       -2555.538          43.000    23300295.189    93820483.659       -1958.014          52.000  
G13  18767211.287    98622433.720        1082.051          49.000                                                                  
G17  21617415.185   113600436.021        2131.334          45.000    21617429.081    88519958.251        1660.922          41.000  
G15  21197778.208   111395069.342        2162.811          41.000    21197781.427    86801370.943        1685.136          39.000  
G22  18145191.656    95353883.522         545.836          47.000                                                                  
G30  19562082.621   102799475.088       -2762.322          48.000    19562086.094    80103523.661       -2152.517          45.000  
E21  22321912.309   117302696.659        1282.186          49.000    22321921.537    89881449.750         982.393          52.000  
E30  24887549.692   130785016.357       -3387.504          40.000    24887559.822   100211960.967       -2595.807          49.000  
E18  20846781.613   109550581.158       -3292.066          38.000                                                                  
> 2024 04 15 20 13 30.4920000  0 23                     
G05  19222036.364   101012445.515       -1441.580          48.000    19222039.425    78710988.125       -1123.138          46.000  
E19  23056340.590   121161919.277        1279.848          40.000    23056346.156    92838426.642         980.657          45.000  
E27  21447431.509   112707213.651       -1422.640          49.000    21447437.753    86360218.239       -1090.086          51.000  
R13  20002924.427   106814608.620       -4365.290          45.000    20002928.149    83078116.691       -3395.300          36.000  
R04  17180092.089    91998674.154         947.888          50.000    17180090.822    71554530.796         737.181          49.000  
R03  17702069.555    94760647.084       -2982.688          54.000    17702069.567    73702760.077       -2319.851          48.000  
R15  19141645.673   102287244.115        1977.026          49.000    19141652.408    79557018.739        1537.703          43.000  
R05  20695954.852   110631755.243        3236.977          40.000    20695955.495                        2517.146          29.000  
G07  22082450.947   116044058.622       -3737.643          35.000    22082457.655    90423921.193       -2912.416          37.000  
S31  36532322.599   191978568.537        -773.616          46.000  
S33  37481008.674   196964028.401        -774.432          44.000  
G14  18115815.620    95199475.619       -1715.144          48.000    18115815.040    74181533.312       -1336.452          47.000  
G20  20071467.926   105476241.861       -3539.136          47.000                                                                  
R14  17064712.066    90964758.579       -1339.108          54.000    17064716.457    70750542.576       -1041.544          51.000  
E07  23314886.598   122520448.106       -2561.439          44.000    23314899.546    93879289.241       -1962.627          51.000  
G13  18761048.894    98590048.346        1076.396          48.000                                                                  
G17  21605251.827   113536515.280        2129.714          44.000    21605265.710    88470150.542        1659.620          42.000  
G15  21185438.328   111330221.364        2161.048          43.000    21185441.091    86750840.158        1683.813          39.000  
G22  18142126.094    95337773.001         528.076          47.000                                                                  
G30  19577860.599   102882387.649       -2765.460          49.000    19577863.499    80168130.852       -2154.664          44.000  
E21  22314617.922   117264368.009        1272.720          48.000    22314627.526    89852081.216         975.282          52.000  
E30  24906898.764   130886692.145       -3391.165          41.000    24906907.810   100289868.299       -2598.313          48.000  
E18  20865630.590   109649636.134       -3311.978          35.000                                                                  
> 2024 04 15 20 14 00.4920000  0 23                     
G05  19230320.273   101055976.373       -1460.294          48.000    19230323.252    78744908.177       -1138.096          45.000  
E19  23049039.671   121123556.766        1277.906          39.000    23049045.617    92809032.053         979.195          44.000  
E27  21455588.286   112750077.664       -1434.794          49.000    21455594.515    86393062.115       -1099.350          52.000  
R13  20027453.965   106945594.047       -4367.230          45.000    20027455.997    83179994.126       -3396.730          39.000  
R04  17174838.052    91970537.498         928.005          51.000    17174836.766    71532646.741         721.773          50.000  
R03  17718841.912    94850434.205       -3002.987          53.000    17718843.288    73772594.359       -2335.578          48.000  
R15  19130587.870   102228149.026        1962.887          47.000    19130593.661    79511056.141        1526.599          44.000  
R05  20677793.927   110534672.616        3234.974          43.000    20677786.279    85971401.9541       2516.628          33.000  
G07  22103785.186   116156168.637       -3736.484          36.000    22103791.504    90511279.480       -2911.183          37.000  
S31  36536740.028   192001782.128        -773.352          44.000  
S33  37485428.896   196987256.262        -774.169          43.000  
G14  18125658.853    95251202.744       -1733.198          47.000    18125658.576    74221840.189       -1350.489          47.000  
G20  20091697.943   105582548.906       -3547.789          47.000                                                                  
R14  17072300.389    91005207.918       -1357.409          53.000    17072304.185    70782003.196       -1055.779          51.000  
E07  23329528.954   122597392.760       -2568.049          45.000    23329541.795    93938246.679       -1967.733          51.000  
G13  18754921.205    98557850.320        1070.038          47.000                                                                  
G17  21593100.759   113472665.747        2127.150          43.000    21593115.772    88420398.362        1657.795          41.000  
G15  21173108.352   111265429.867        2158.899          41.000    21173112.138    86700353.475        1682.110          40.000  
G22  18139164.948    95322215.260         509.528          47.000                                                                  
G30  19593659.306   102965409.081       -2769.173          50.000    19593661.110    80232822.865       -2157.611          43.000  
E21  22307379.157   117226330.471        1263.043          48.000    22307389.210    89822935.752         967.915          52.000  
E30  24926268.090   130988482.941       -3394.944          34.000    24926278.643   100367863.816       -2601.340          50.000  
E18  20884598.488   109749304.719       -3332.268          38.000                                                                  
> 2024 04 15 20 14 30.4920000  0 23                     
G05  19238710.245   101100067.017       -1478.692          48.000    19238713.353    78779264.440       -1152.371          45.000  
E19  23041749.682   121085249.138        1276.089          39.000    23041755.799    92779679.564         977.861          44.000  
E27  21463813.343   112793302.139       -1446.452          49.000    21463820.006    86426182.184       -1108.493          53.000  
R13  20051993.972   107076636.095       -4368.632          44.000    20051996.775    83281915.679       -3397.933          40.000  
R04  17169695.030    91942994.249         908.507          52.000    17169694.031    71511224.238         706.642          50.000  
R03  17735728.658    94940826.402       -3022.785          54.000    17735728.709    73842899.280       -2351.100          48.000  
R15  19119607.351   102169479.888        1948.924          46.000    19119614.803    79465424.880        1515.750          45.000  
R05  20659646.456   110437665.150        3232.627          43.000    20659648.211                        2514.427          34.000  
G07  22125110.805   116268238.1591      -3735.083          37.000    22125118.246    90598607.777       -2909.995          38.000  
S31  36541156.154   192024988.831        -772.929          42.000  
S33  37489847.521   197010476.672        -773.758          43.000  
G14  18135604.703    95303468.261       -1750.874          47.000    18135604.484    74262566.579       -1364.388          48.000  
G20  20111976.451   105689114.875       -3556.133          47.000                                                                  
R14  17079990.628    91046199.091       -1375.121          53.000    17079994.556    70813885.285       -1069.522          51.000  
E07  23344208.177   122674532.688       -2574.251          45.000    23344221.175    93997353.761       -1972.422          52.000  
G13  18748829.477    98525838.608        1064.241          47.000                                                                  
G17  21580962.838   113408887.684        2124.994          43.000    21580977.774    88370701.890        1655.627          42.000  
G15  21160789.884   111200693.700        2157.577          42.000    21160793.598    86649909.796        1681.026          41.000  
G22  18136309.757    95307208.493         491.425          47.000                                                                  
G30  19609477.557   103048535.621       -2772.350          50.000    19609480.795    80297596.774       -2160.483          44.000  
E21  22300195.683   117188581.928        1253.818          48.000    22300205.426    89794011.735         960.612          51.000  
E30  24945660.324   131090384.431       -3398.196          35.000    24945669.924   100445944.170       -2604.008          49.000  
E18  20903677.255   109849581.552       -3352.469          37.000                                                                  
