     3.00           OBSERVATION DATA    M: Mixed            RINEX VERSION / TYPE
CONVBIN 2.4.3                           20240415 054442 UTC PGM / RUN BY / DATE 
format: u-blox UBX                                          COMMENT             
log: /home/regis/git/gnsspwv/obsdata/VERT00CHL/2024-04-15/VECOMMENT             
{self.marker}                                               MARKER NAME         
                                                            MARKER NUMBER       
GEODETIC                                                    MARKER TYPE         
{self.observer}     {self.institution}                      OBSERVER / AGENCY   
UNKNOWN             UBLOX-ZED-F9P                           REC # / TYPE / VERS 
UNKNOWN             TWIVSP6037L                             ANT # / TYPE        
  1713381.0000 -5047934.0000 -3490983.0000                  APPROX POSITION XYZ 
        0.0000        0.0000        0.0000                  ANTENNA: DELTA H/E/N
G    8 C1C L1C D1C S1C C2L L2L D2L S2L                      SYS / # / OBS TYPES 
R    8 C1C L1C D1C S1C C2C L2C D2C S2C                      SYS / # / OBS TYPES 
E    8 C1C L1C D1C S1C C7Q L7Q D7Q S7Q                      SYS / # / OBS TYPES 
S    4 C1C L1C D1C S1C                                      SYS / # / OBS TYPES 
  2024    04    15    05    30   00.0150000     GPS         TIME OF FIRST OBS   
  2024    04    15    05    44   30.0150000     GPS         TIME OF LAST OBS    
                                                            END OF HEADER       
> 2024 04 15 05 30 00.0150000  0 24                     
S33  44197308.537   232258581.8321       -676.257          42.000  
E02  27863971.337   146426179.0881        159.087          48.000    27863970.898   112196716.1671        121.946          52.000  
G28  27588367.819   144977798.8571      -3517.677          44.000    27588365.188   112969689.8251      -2740.923          42.000  
E36  27796029.281   146069472.8861      -1076.802          47.000    27796030.527   111923575.9381       -825.035          52.000  
G26  25495134.719   133977869.3451       1339.252          48.000    25495132.913   104398298.4381       1043.275          45.000  
R20  24496351.374   130993063.0361       -271.818          41.000    24496348.920   101883581.0731       -211.571          43.000  
R10  24524257.517   130728177.7641       1265.051          47.000                                                                  
R09  23973913.841   128019363.0521      -2507.430          52.000    23973909.609    99570878.2371      -1950.181          51.000  
R16  27524868.645   147033021.4611      -5048.211          49.000    27524867.578   114358917.8881      -3926.289          45.000  
R04  28196556.945   150991321.9001       1965.509          45.000    28196550.108   117437693.9321       1528.766          43.000  
G16  28442114.465                        2591.302          31.000                                                                  
E11  29299462.873   153970116.1861      -3052.342          39.000    29299457.752   117977331.4101      -2338.862          45.000  
G18  24802512.213   130338450.7931      -1310.763          48.000    24802507.887   101562543.5171      -1021.333          50.000  
G29  26842179.528   141057017.1191      -2394.052          47.000    26842174.544   109914830.7551      -1865.122          39.000  
S31  43242982.201   227243530.9031       -676.085          44.000  
E30  31390068.989   164956025.1881       1918.007          35.000    31390077.450                        1469.521          29.000  
R19  25977112.976   138960406.6291      -3562.096          41.000    25977108.020   108079920.6341      -2770.763          46.000  
G05  28659555.146   150606970.0771      -2668.071          46.000    28659547.904   117356030.4451      -2079.051          35.000  
G23  26922542.157   141479033.9981       2445.392          47.000    26922537.692   110243429.6951       1905.598          45.000  
E34  29606206.807   155581854.8101       1299.735          47.000    29606209.374   119212214.9251        995.890          51.000  
G25  27398770.212   143981721.2581      -3780.031          45.000    27398769.333   112193616.6841      -2945.636          43.000  
E25  28810465.072   151400324.1391      -2370.502          44.000    28810467.660   116008194.8971      -1816.380          53.000  
G31  26682651.940   140218217.2501      -1969.582          47.000    26682648.999   109261021.2281      -1534.604          45.000  
E14  34612786.464   181891572.8361      -1578.604          33.000    34612788.150   139371520.6111      -1210.008          44.000  
> 2024 04 15 05 30 30.0150000  0 25                     
S33  44201168.832   232278868.660        -676.545          42.000  
E02  27863090.038   146421548.579         148.861          48.000    27863089.713   112193168.110         114.174          52.000  
G28  27608466.112   145083415.890       -3523.883          45.000    27608464.019   113051988.695       -2745.792          43.000  
E36  27802204.795   146101927.480       -1087.442          47.000    27802206.494   111948443.769        -833.253          52.000  
G26  25487526.367   133937885.709        1325.728          48.000    25487524.241   104367142.345        1033.086          45.000  
R20  24497915.465   131001426.510        -286.084          41.000    24497912.951   101890086.034        -222.594          44.000  
R10  24517202.207   130690563.792        1241.979          49.000                                                                  
R09  23988066.627   128094937.743       -2531.409          51.000    23988062.948    99629658.536       -1968.926          51.000  
R16  27553235.296   147184545.277       -5053.894          50.000    27553232.956   114476769.513       -3930.767          45.000  
R04  28185572.346   150932503.898        1954.883          43.000    28185566.423   117391946.599        1520.661          45.000  
G16  28427321.484                1       2589.001          32.000                                                                  
E11  29316893.336   154061725.785       -3055.598          38.000    29316890.222   118047525.794       -2341.362          45.000  
G18  24810038.893   130378006.034       -1326.777          49.000    24810034.501   101593365.806       -1033.913          50.000  
G29  26855855.742   141128879.791       -2397.299          48.000    26855850.359   109970827.673       -1868.264          41.000  
S31  43246841.190   227263808.097        -676.419          44.000  
E30  31379121.874   164898499.136        1916.592          35.000    31379136.775                        1468.580          26.000  
R21  27972523.649                3       2100.832          25.000                                                                  
R19  25997096.146   139067302.784       -3564.795          41.000    25997090.772   108163062.106       -2772.636          46.000  
G05  28674826.434   150687224.413       -2682.853          45.000    28674820.426   117418566.330       -2090.459          36.000  
G23  26908603.197   141405788.832        2436.983          46.000    26908599.136   110186355.645        1899.017          44.000  
E34  29598809.858   155542987.258        1290.792          47.000    29598812.758   119182433.362         989.040          51.000  
G25  27420374.754   144095252.316       -3789.262          46.000    27420373.668   112282082.383       -2952.541          44.000  
E25  28824023.342   151471578.285       -2380.319          44.000    28824026.523   116062792.235       -1823.890          53.000  
G31  26693940.810   140277538.984       -1985.777          48.000    26693937.663   109307245.942       -1547.376          45.000  
E14  34621777.017   181938802.679       -1570.496          36.000    34621775.476   139407709.706       -1203.190          43.000  
> 2024 04 15 05 31 00.0150000  0 24                     
S33  44205031.055   232299161.403        -676.709          42.000  
E02  27862267.043   146417224.610         139.136          48.000    27862267.014   112189854.945         106.518          52.000  
G28  27628600.615   145189221.009       -3529.902          45.000    27628598.473   113134434.113       -2750.493          43.000  
E36  27808440.860   146134699.484       -1097.702          46.000    27808442.921   111973554.801        -841.077          52.000  
G26  25479995.356   133898308.836        1312.500          48.000    25479992.403   104336303.243        1022.644          45.000  
R20  24499559.402   131010218.365        -299.905          40.000    24499556.654   101896924.152        -233.398          43.000  
R10  24510277.632   130653649.810        1218.791          48.000                                                                  
R09  24002355.765   128171235.364       -2555.263          52.000    24002351.822    99689001.115       -1987.441          52.000  
R16  27581633.930   147336242.703       -5059.452          51.000    27581631.457   114594756.161       -3934.917          45.000  
R04  28174651.467   150874011.266        1944.336          47.000    28174644.509   117346452.351        1512.090          45.000  
G16  28412541.453                        2588.855          30.000                                                                  
E11  29334346.945   154153434.285       -3058.259          39.000    29334341.916   118117795.943       -2343.442          45.000  
G18  24817658.715   130418045.825       -1342.582          48.000    24817654.200   101624565.647       -1046.333          50.000  
G29  26869550.039   141200844.345       -2400.491          47.000    26869545.034   110026903.938       -1870.641          42.000  
S31  43250701.609   227284094.353        -676.250          43.000  
E30  31368185.076   164841031.832        1914.818          34.000    31368185.491                3       1461.767          22.000  
R19  26017094.872   139174279.702       -3567.649          41.000    26017089.356   108246266.372       -2774.394          47.000  
G05  28690183.119   150767924.887       -2697.340          45.000    28690176.475   117481449.872       -2102.025          36.000  
G23  26894712.959   141332798.500        2428.767          46.000    26894708.954   110129480.154        1892.415          44.000  
E34  29591464.261   155504386.437        1282.299          47.000    29591466.964   119152856.177         982.449          50.000  
G25  27442032.097   144209059.660       -3798.151          46.000    27442030.488   112370763.364       -2959.637          43.000  
E25  28837639.277   151543128.279       -2389.997          44.000    28837642.051   116117616.243       -1831.355          53.000  
G31  26705322.561   140337350.303       -2001.840          48.000    26705319.154   109353852.142       -1559.818          44.000  
E14  34630712.212   181985762.862       -1560.397          35.000    34630711.080   139443692.233       -1195.977          43.000  
> 2024 04 15 05 31 30.0150000  0 25                     
S33  44208892.934   232319457.185        -676.474          42.000  
E02  27861501.560   146413200.398         129.189          48.000    27861501.202   112186771.455          98.999          52.000  
G28  27648768.064   145295202.978       -3535.453          44.000    27648765.879   113217017.347       -2754.895          42.000  
E36  27814735.218   146167779.694       -1107.779          46.000    27814737.887   111998901.993        -848.729          53.000  
G26  25472540.216   133859133.069        1299.298          48.000    25472537.795   104305776.701        1012.433          45.000  
R20  24501281.304   131019429.689        -314.211          39.000    24501279.221   101904088.533        -244.359          43.000  
R10  24503482.344   130617429.993        1195.713          48.000                                                                  
R09  24016777.134   128248246.135       -2578.698          52.000    24016773.648    99748898.353       -2005.648          51.000  
R16  27610062.053   147488101.863       -5064.589          49.000    27610060.540   114712868.629       -3939.188          45.000  
R04  28163787.807   150815840.141        1933.671          45.000    28163781.197   117301208.211        1504.060          44.000  
G16  28397774.460   149231308.9251       2586.090          32.000                                                                  
E11  29351815.360   154245232.312       -3061.086          39.000    29351810.113   118188134.685       -2345.505          45.000  
G18  24825368.802   130458560.488       -1358.229          49.000    24825363.525   101656135.513       -1058.394          50.000  
G29  26883262.229   141272902.984       -2403.442          48.000    26883257.120   110083053.551       -1872.902          42.000  
S31  43254561.751   227304381.028        -676.328          44.000  
E30  31357259.329   164783616.622        1912.911          34.000    31357253.084                        1465.566          27.000  
R19  26037106.043   139281326.546       -3569.264          41.000    26037102.004   108329525.033       -2775.995          49.000  
G05  28705623.295   150849061.916       -2711.763          46.000    28705617.681   117544673.524       -2112.581          37.000  
G23  26880871.274   141260058.288        2420.660          46.000    26880867.473   110072799.514        1886.091          45.000  
E34  29584167.948   155466044.707        1273.963          47.000    29584170.061   119123477.513         976.079          50.000  
G25  27463739.441   144323133.548       -3806.802          45.000    27463737.663   112459652.028       -2966.297          43.000  
E25  28851309.921   151614965.691       -2399.298          44.000    28851312.329   116172660.486       -1838.366          53.000  
G31  26716795.400   140397640.856       -2017.545          47.000    26716791.675   109400831.746       -1572.203          44.000  
E14  34639594.190   182032446.000       -1551.895          35.000    34639594.954   139479462.457       -1188.736          43.000  
R03                                                                  28420395.074                2       -292.749          27.000  
> 2024 04 15 05 32 00.0150000  0 26                     
S33  44212755.285   232339754.780        -676.925          42.000  
E02  27860793.600   146409479.462         118.776          48.000    27860793.161   112183920.349          91.060          53.000  
G28  27668969.404   145401361.020       -3541.760          45.000    27668967.273   113299737.754       -2759.678          42.000  
E36  27821089.967   146201169.294       -1118.262          46.000    27821091.651   112024486.233        -856.731          52.000  
G26  25465162.181   133820363.040        1285.352          48.000    25465160.029   104275566.306        1001.520          45.000  
R20  24503082.529   131029061.464        -328.269          40.000    24503080.485   101911579.933        -255.110          43.000  
R10  24496819.128   130581910.591        1172.198          47.000                                                                  
R09  24031332.214   128325970.179       -2602.781          52.000    24031328.928    99809350.348       -2024.315          51.000  
R03  28422584.787                        -398.535          29.000                                                                  
R16  27638519.880   147640121.522       -5070.010          49.000    27638519.546   114831105.888       -3943.375          46.000  
R04  28152986.621   150757997.497        1922.502          45.000    28152979.749   117256219.451        1495.287          43.000  
G16  28383017.724   149153761.230        2583.936          34.000                                                                  
E11  29369300.066   154337120.581       -3064.437          38.000    29369295.674   118258542.535       -2348.181          44.000  
G18  24833169.201   130499550.595       -1374.283          49.000    24833164.153   101688075.875       -1070.964          51.000  
G29  26896992.732   141345057.716       -2406.847          47.000    26896987.348   110139278.009       -1875.855          42.000  
S31  43258422.735   227324670.842        -676.235          44.000  
E30  31346342.246   164726257.147        1911.053          33.000    31346344.154   126218713.2231       1463.997          29.000  
R21  27937359.376                3       2077.073          23.000                                                                  
R19  26057131.051   139388443.796       -3571.680          41.000    26057126.711   108412838.456       -2778.120          49.000  
G05  28721145.756   150930635.787       -2726.435          46.000    28721140.597   117608237.677       -2124.344          37.000  
G23  26867077.230   141187573.661        2411.711          46.000    26867074.522   110016318.064        1879.183          45.000  
E34  29576920.978   155427964.765        1264.902          46.000    29576923.576   119094299.417         969.197          50.000  
G25  27485497.738   144437474.589       -3815.869          44.000    27485495.925   112548748.883       -2973.445          43.000  
E25  28865035.085   151687092.496       -2409.064          44.000    28865037.804   116227926.452       -1845.938          53.000  
G31  26728359.742   140458410.817       -2033.745          48.000    26728354.882   109448184.935       -1584.807          43.000  
E14  34648426.574   182078855.076       -1542.559          35.000    34648426.422   139515022.667       -1181.868          43.000  
> 2024 04 15 05 32 30.0150000  0 26                     
S33  44216618.950   232360059.103        -677.204          42.000  
E02  27860143.804   146406067.148         108.815          48.000    27860143.820   112181305.732          83.314          52.000  
G28  27689204.795   145507696.076       -3547.239          45.000    27689202.246   113382596.139       -2764.011          41.000  
E36  27827503.484   146234871.221       -1128.526          47.000    27827504.818   112050309.798        -864.686          52.000  
G26  25457862.826   133782005.252        1271.704          48.000    25457861.026   104245677.124         991.125          46.000  
R20  24504963.362   131039115.342        -342.190          41.000    24504960.978   101919399.646        -265.957          44.000  
R10  24490288.784   130547098.031        1148.737          48.000                                                                  
R09  24046021.325   128404409.319       -2626.422          51.000    24046017.528    99870358.561       -2042.716          51.000  
R03  28424861.116                3       -421.143          27.000    28424867.671                1       -327.600          27.000  
R16  27667008.336   147792302.375       -5075.307          49.000    27667008.887   114949468.524       -3947.419          46.000  
R04  28142247.670   150700491.316        1911.273          48.000    28142240.710   117211492.429        1486.535          44.000  
G16  28368272.760   149076274.960        2582.373          35.000                                                                  
E11  29386801.496   154429101.559       -3067.297          37.000    29386800.082   118329021.515       -2350.495          44.000  
G18  24841059.603   130541018.588       -1390.038          49.000    24841055.402   101720388.607       -1083.179          50.000  
G29  26910742.361   141417312.947       -2410.116          47.000    26910736.580   110195580.761       -1877.700          41.000  
S31  43262284.925   227344966.295        -676.519          44.000  
E30  31335434.618                        1908.990          31.000    31335440.205   126174809.450        1462.620          31.000  
R21  27925740.898                3       2068.044          24.000    27925786.794                3       1608.830          24.000  
R19  26077167.782   139495632.720       -3573.882          41.000    26077164.556   108496207.616       -2779.750          49.000  
G05  28736752.396   151012649.003       -2740.938          46.000    28736746.895   117672144.134       -2135.812          37.000  
G23  26853334.153   141115352.029        2403.083          47.000    26853331.340   109960041.514        1872.611          45.000  
E34  29569725.120   155390151.042        1256.123          46.000    29569727.713   119065325.329         962.494          50.000  
G25  27507307.239   144552085.193       -3824.657          45.000    27507305.943   112638055.802       -2980.373          44.000  
E25  28878817.044   151759512.412       -2418.939          45.000    28878818.757   116283417.022       -1853.279          53.000  
G31  26740015.846   140519662.176       -2049.571          47.000    26740010.588   109495913.209       -1597.104          43.000  
E14  34657206.655   182124994.894       -1533.471          35.000    34657206.095   139550376.503       -1174.886          43.000  
> 2024 04 15 05 33 00.0150000  0 26                     
S33  44220484.353   232380371.402        -677.407          42.000  
E02  27859553.625   146402965.349          98.208          48.000    27859553.578   112178929.021          75.358          52.000  
G28  27709473.087   145614205.665       -3553.026          45.000    27709470.373   113465590.504       -2768.541          41.000  
E36  27833976.764   146268884.969       -1138.871          48.000    27833977.374   112076372.298        -872.648          52.000  
G26  25450642.359   133744062.699        1257.886          48.000    25450641.165   104216111.511         980.219          46.000  
R20  24506922.539   131049590.683        -355.920          41.000    24506919.915   101927547.161        -276.992          44.000  
R10  24483891.766   130512996.629        1124.900          47.000                                                                  
R09  24060843.986   128483561.902       -2650.134          52.000    24060839.581    99931921.688       -2061.282          51.000  
R16  27695526.154   147944641.522       -5080.482          47.000    27695527.112   115067954.297       -3951.564          45.000  
R04  28131572.054   150643327.072        1899.736          48.000    28131565.611   117167031.312        1477.625          43.000  
G16  28353541.147   148998852.695        2579.608          36.000                                                                  
E11  29404324.958   154521174.555       -3070.609          39.000    29404319.952   118399570.949       -2352.693          43.000  
G18  24849041.616   130582963.457       -1406.082          49.000    24849037.060   101753072.941       -1095.682          50.000  
G29  26924511.110   141489669.278       -2413.503          46.000    26924505.852   110251962.323       -1880.742          41.000  
S31  43266148.540   227365270.164        -676.929          44.000  
E30  31324543.271                        1906.809          30.000    31324549.415   126130954.083        1460.992          34.000  
R21  27914183.135                3       2059.613          25.000                                                                  
R19  26097219.237   139602892.806       -3576.523          42.000    26097214.716   108579632.139       -2781.619          48.000  
G05  28752442.221   151095100.492       -2755.546          46.000    28752436.636   117736392.039       -2147.001          37.000  
G23  26839642.931   141043397.315        2394.104          48.000    26839638.362   109903972.941        1865.379          45.000  
E34  29562580.586   155352604.561        1247.317          46.000    29562582.808   119036556.002         955.646          50.000  
G25  27529167.431   144666964.317       -3833.778          45.000    27529167.189   112727571.933       -2987.287          44.000  
E25  28892653.577   151832225.715       -2428.508          44.000    28892655.883   116339132.396       -1860.776          53.000  
G31  26751762.034   140581393.296       -2065.551          47.000    26751757.577   109544015.330       -1609.377          43.000  
E14  34665936.395   182170866.719       -1524.573          36.000    34665935.273   139585524.993       -1168.060          43.000  
R03                                                                  28427290.832                3       -345.346          24.000  
> 2024 04 15 05 33 30.0150000  0 26                     
S33  44224350.666   232400690.257        -677.404          42.000  
E02  27859022.679   146400175.069          87.683          48.000    27859022.462   112176791.018          67.230          52.000  
G28  27729774.258   145720886.496       -3558.875          46.000    27729771.053   113548718.322       -2773.070          42.000  
E36  27840508.030   146303209.233       -1149.396          48.000    27840509.224   112102672.731        -880.676          52.000  
G26  25443501.739   133706537.577        1243.774          47.000    25443500.334   104186871.173         969.177          45.000  
R20  24508959.959   131060485.965        -370.114          40.000    24508957.020   101936021.343        -287.877          43.000  
R10  24477628.381   130479609.161        1100.876          47.000                                                                  
R09  24075800.704   128563426.516       -2673.979          53.000    24075796.463    99994038.571       -2079.770          51.000  
R03  28429838.055                3       -472.280          15.000    28429843.190                3       -363.982          25.000  
R16  27724073.554   148097135.316       -5085.751          45.000    27724073.773   115186560.377       -3955.418          44.000  
R04  28120962.096   150586508.449        1888.104          47.000    28120955.673   117122839.065        1468.444          43.000  
G16  28338820.264   148921496.796        2577.112          37.000                                                                  
E11  29421863.190   154613337.939       -3073.402          39.000    29421859.296   118470189.646       -2355.050          45.000  
G18  24857113.690   130625383.318       -1421.968          48.000    24857109.258   101786127.403       -1108.033          50.000  
G29  26938299.689   141562126.449       -2417.039          47.000    26938294.081   110308422.399       -1883.238          41.000  
S31  43270013.328   227385580.922        -677.308          44.000  
E30  31313666.980                        1904.341          29.000    31313670.927   126087148.220        1459.238          35.000  
R21  27902666.172                3       2048.444          20.000                                                                  
R19  26117283.075   139710220.508       -3578.806          41.000    26117278.525   108663109.219       -2783.437          47.000  
G05  28768215.336   151177988.165       -2770.236          45.000    28768209.940   117800979.898       -2158.827          39.000  
G23  26826001.797   140971712.563        2384.769          48.000    26825996.251   109848114.736        1858.249          44.000  
E34  29555485.474   155315325.523        1238.069          45.000    29555489.263   119007991.606         948.660          50.000  
G25  27551078.828   144782110.080       -3842.734          45.000    27551078.591   112817295.844       -2994.237          43.000  
E25  28906546.001   151905231.890       -2438.553          44.000    28906548.642   116395072.185       -1868.487          53.000  
G31  26763600.619   140643601.768       -2081.581          47.000    26763595.161   109592489.421       -1622.139          42.000  
E14  34674615.948   182216470.911       -1515.438          38.000    34674613.816   139620468.474       -1161.366          43.000  
> 2024 04 15 05 34 00.0150000  0 25                     
S33  44228218.258   232421012.721        -677.644          42.000  
E02  27858550.325   146397693.708          77.801          47.000    27858550.172   112174889.732          59.510          52.000  
G28  27750106.040   145827731.588       -3564.066          44.000    27750103.488   113631974.147       -2777.162          43.000  
E36  27847097.990   146337839.029       -1159.269          48.000    27847099.042   112129207.264        -888.302          52.000  
G26  25436439.917   133669428.352        1230.121          48.000    25436438.205   104157954.912         958.582          45.000  
R20  24511074.457   131071795.087        -383.827          40.000    24511072.185   101944817.351        -298.442          44.000  
R10  24471498.476   130446934.554        1077.374          47.000                                                                  
R09  24090888.744   128643996.090       -2697.296          52.000    24090884.480   100056703.784       -2097.833          52.000  
R16  27752648.737   148249776.510       -5090.255          46.000    27752648.867   115305281.019       -3958.879          44.000  
R04  28110415.585   150530036.217        1876.738          46.000    28110410.166   117078916.297        1459.562          43.000  
G16  28324111.775   148844205.556        2575.378          38.000                                                                  
E11  29439415.596   154705586.313       -3076.571          37.000    29439412.556   118540873.443       -2357.145          44.000  
G18  24865275.612   130668272.610       -1437.265          49.000    24865270.957   101819547.629       -1120.017          50.000  
G29  26952105.643   141634680.515       -2420.057          45.000    26952100.680   110364958.028       -1885.725          42.000  
S31  43273879.176   227405894.878        -677.157          44.000  
E30  31302804.828                        1902.531          30.000    31302803.439   126043389.901        1457.684          36.000  
R21  27891191.234                3       2041.349          21.000                                                                  
R19  26137359.018   139817610.577       -3580.308          43.000    26137354.031   108746634.845       -2784.910          47.000  
G05  28784070.827   151261306.594       -2784.348          45.000    28784065.735   117865903.358       -2169.735          39.000  
G23  26812411.460   140900297.230        2376.198          47.000    26812405.932   109792466.472        1851.491          43.000  
E34  29548442.323   155278310.424        1229.664          45.000    29548445.379   118979629.442         942.126          50.000  
G25  27573040.688   144897516.930       -3851.216          45.000    27573039.197   112907223.215       -3000.977          42.000  
E25  28920493.852   151978526.703       -2447.765          45.000    28920496.157   116451233.125       -1875.582          53.000  
G31  26775528.242   140706281.607       -2096.891          47.000    26775522.002   109641330.815       -1634.012          40.000  
E14  34683241.255   182261804.472       -1506.653          36.000    34683240.551   139655204.545       -1154.440          43.000  
> 2024 04 15 05 34 30.0150000  0 25                     
S33  44232085.912   232441336.574        -677.706          42.000  
E02  27858136.681   146395520.316          67.235          47.000    27858136.441   112173224.410          51.524          52.000  
G28  27770467.376   145934735.689       -3569.490          43.000    27770465.322   113715353.857       -2781.428          42.000  
E36  27853745.322   146372770.992       -1169.417          47.000    27853746.284   112155973.331        -896.041          52.000  
G26  25429458.129   133632735.201        1216.022          49.000    25429455.709   104129362.849         947.620          45.000  
R20  24513265.748   131083514.494        -397.576          40.000    24513263.707   101953932.453        -309.233          45.000  
R10  24465503.080   130414973.473        1053.233          48.000                                                                  
R09  24106107.574   128725266.762       -2720.734          52.000    24106103.540   100119914.278       -2116.121          51.000  
R16  27781251.328   148402559.264       -5095.175          47.000    27781250.662   115424111.800       -3962.893          44.000  
R04  28099935.245   150473912.393        1864.768          47.000    28099929.032   117035264.435        1450.426          45.000  
G16  28309415.655   148766978.260        2573.090          39.000                                                                  
E11  29456985.810   154797915.996       -3079.407          38.000    29456983.210   118611619.592       -2359.339          45.000  
G18  24873525.908   130711627.394       -1453.094          49.000    24873521.172   101853330.587       -1132.193          50.000  
G29  26965930.821   141707329.450       -2423.271          47.000    26965924.900   110421567.574       -1888.198          42.000  
S31  43277745.194   227426211.012        -677.518          44.000  
E30  31291950.748                        1900.442          30.000    31291947.653   125999678.556        1456.226          37.000  
R21  27879751.057                3       2034.092          25.000                                                                  
R19  26157446.444   139925058.492       -3582.802          43.000    26157440.353   108830205.448       -2786.466          47.000  
G05  28800007.036   151345051.029       -2798.603          45.000    28800001.332   117931158.783       -2180.776          39.000  
G23  26798873.325   140829152.376        2366.952          47.000    26798868.062   109737028.970        1844.283          44.000  
E34  29541448.611   155241557.421        1220.515          46.000    29541451.238   118951468.102         935.327          50.000  
G25  27595050.094   145013180.936       -3859.843          44.000    27595049.659   112997350.963       -3007.478          42.000  
E25  28934496.966   152052107.585       -2457.612          46.000    28934498.402   116507613.259       -1883.096          54.000  
G31  26787543.753   140769428.317       -2112.796          47.000    26787538.801   109690536.013       -1646.294          41.000  
E14  34691816.160   182306865.802       -1497.480          36.000    34691815.694   139689732.031       -1147.511          43.000  
> 2024 04 15 05 35 00.0150000  0 26                     
S33  44235953.407   232461662.645        -677.627          42.000  
E02  27857781.880   146393657.120          56.961          47.000    27857781.732   112171796.782          43.670          51.000  
G28  27790858.938   146041896.712       -3574.599          44.000    27790857.827   113798855.799       -2785.346          43.000  
E36  27860449.757   146408005.025       -1179.526          47.000    27860450.866   112182970.860        -903.718          51.000  
G26  25422555.833   133596461.493        1202.258          49.000    25422553.078   104101097.627         936.902          45.000  
R20  24515534.042   131095643.544        -411.000          39.000    24515532.536   101963366.216        -319.755          45.000  
R10  24459642.333   130383729.872        1029.474          48.000                                                                  
R09  24121457.678   128807237.446       -2744.045          51.000    24121454.297   100183669.244       -2134.177          51.000  
R03  28438285.660                3       -535.093          24.000                                                                  
R16  27809879.116   148555480.859       -5099.643          47.000    27809877.875   115543050.518       -3966.313          44.000  
R04  28089520.588   150418142.176        1853.013          46.000    28089514.444   116991887.645        1441.432          43.000  
G16  28294732.973   148689818.490        2570.862          39.000                                                                  
E11  29474571.214   154890326.665       -3081.689          39.000    29474567.225   118682427.747       -2361.332          44.000  
G18  24881863.928   130755447.015       -1468.337          49.000    24881859.496   101887475.786       -1144.192          50.000  
G29  26979773.626   141780074.507       -2426.267          47.000    26979768.763   110478252.011       -1891.013          42.000  
S31  43281611.450   227446528.307        -677.122          44.000  
E30  31281096.089                        1898.636          28.000    31281104.121   125956016.158        1454.692          38.000  
R21  27868435.197                2       2023.645          28.000    27868417.315                3       1573.610          26.000  
R19  26177541.340   140032562.712       -3584.456          42.000    26177536.717   108913819.839       -2787.987          46.000  
G05  28816023.986   151429220.784       -2812.660          44.000    28816018.379   117996745.614       -2191.436          40.000  
G23  26785386.985   140758282.306        2357.720          47.000    26785381.937   109681805.599        1837.122          44.000  
E34  29534504.780   155205067.878        1211.880          46.000    29534507.277   118923508.638         928.723          50.000  
G25  27617109.217   145129101.469       -3868.390          45.000    27617108.692   113087678.623       -3014.260          42.000  
E25  28948553.553   152125975.186       -2466.901          46.000    28948554.878   116564213.085       -1890.312          54.000  
G31  26799649.138   140833040.728       -2128.285          47.000    26799644.269   109740104.054       -1658.263          42.000  
E14  34700341.662   182351656.587       -1488.414          36.000    34700338.881   139724052.265       -1140.688          42.000  
> 2024 04 15 05 35 30.0150000  0 25                     
S33  44239821.509   232481990.295        -677.501          42.000  
E02  27857486.736   146392104.604          46.568          47.000    27857486.108   112170607.187          35.822          51.000  
G28  27811281.458   146149210.735       -3579.543          46.000    27811278.591   113882477.013       -2789.291          43.000  
E36  27867211.953   146443539.172       -1189.417          47.000    27867212.727   112210198.338        -911.317          51.000  
G26  25415732.832   133560608.783        1188.043          49.000    25415730.639   104073160.468         925.781          45.000  
R20  24517878.641   131108179.770        -424.684          38.000    24517876.931   101973116.609        -330.092          45.000  
R10  24453915.167   130353206.336        1005.518          48.000                                                                  
R09  24136938.838   128889904.852       -2767.035          51.000    24136935.689   100247966.101       -2152.166          52.000  
R16  27838531.851   148708537.330       -5104.071          47.000    27838530.893   115662094.158       -3969.709          45.000  
R04  28079172.882   150362729.418        1841.358          44.000    28079166.075   116948788.881        1432.043          43.000  
G16  28280062.651   148612727.554        2568.683          39.000                                                                  
E11  29492170.332   154982816.061       -3084.199          38.000    29492168.159   118753296.254       -2363.239          45.000  
G18  24890290.857   130799728.979       -1483.589          49.000    24890285.922   101921981.246       -1156.074          50.000  
G29  26993635.801   141852914.933       -2429.591          48.000    26993629.544   110535010.774       -1893.157          42.000  
S31  43285478.075   227466848.183        -677.427          44.000  
E30  31270253.765                        1896.289          27.000    31270272.978   125912403.157        1453.153          39.000  
R21  27857071.535                        2014.137          29.000    27857064.296                3       1566.958          25.000  
R19  26197648.177   140140120.501       -3586.250          42.000    26197643.560   108997475.903       -2789.226          47.000  
G05  28832121.807   151513813.013       -2826.809          43.000    28832116.513   118062661.624       -2202.588          41.000  
G23  26771953.880   140687689.513        2348.610          47.000    26771947.976   109626798.297        1829.979          43.000  
E34  29527611.313   155168841.430        1203.204          46.000    29527613.844   118895750.765         921.940          50.000  
G25  27639216.404   145245276.003       -3876.658          44.000    27639215.976   113178204.171       -3020.879          42.000  
E25  28962663.947   152200128.369       -2476.488          46.000    28962665.781   116621031.717       -1897.494          54.000  
G31  26811841.834   140897115.779       -2143.532          46.000    26811837.654   109790032.631       -1670.177          42.000  
E14  34708812.702   182396176.826       -1479.337          35.000    34708810.149   139758165.150       -1133.673          41.000  
> 2024 04 15 05 36 00.0150000  0 26                     
S33  44243690.175   232502319.008        -677.571          42.000  
E02  27857250.948   146390864.103          36.355          48.000    27857250.058   112169656.684          27.807          51.000  
G28  27831731.510   146256674.858       -3584.366          45.000    27831728.637   113966215.176       -2792.886          43.000  
E36  27874031.078   146479372.428       -1199.219          47.000    27874031.338   112237654.998        -918.833          51.000  
G26  25408990.486   133525179.544        1174.078          49.000    25408988.700   104045553.281         914.856          45.000  
R20  24520298.184   131121121.225        -437.642          37.000    24520297.293   101983182.250        -340.569          45.000  
R10  24448324.713   130323405.231         981.399          48.000                                                                  
R09  24152550.424   128973266.850       -2790.172          52.000    24152546.630   100312803.207       -2170.114          51.000  
R03  28444518.971                1       -579.419          27.000                                                                  
R16  27867208.554   148861725.045       -5108.240          46.000    27867208.051   115781239.865       -3973.035          43.000  
R04  28068892.814   150307678.373        1829.174          44.000    28068884.062   116905971.407        1422.470          41.000  
G16  28265405.987   148535707.860        2565.863          38.000                                                                  
E11  29509787.249   155075382.863       -3086.584          40.000    29509782.148   118824224.069       -2365.098          44.000  
G18  24898805.583   130844471.704       -1498.927          50.000    24898800.074   101956845.709       -1167.994          50.000  
G29  27007514.410   141925851.028       -2432.540          48.000    27007508.055   110591844.111       -1895.721          41.000  
S31  43289345.053   227487169.359        -677.329          44.000  
E30  31259439.907                        1894.536          25.000    31259454.273   125868840.836        1451.352          39.000  
R21  27845800.015   149008738.2041       2006.304          33.000    27845803.370                        1560.480          28.000  
R19  26217765.064   140247730.179       -3587.650          42.000    26217760.138   109081172.336       -2790.334          47.000  
G05  28848299.057   151598826.947       -2840.730          40.000    28848294.005   118128906.243       -2213.354          42.000  
G23  26758573.872   140617377.408        2339.281          47.000    26758568.475   109572009.719        1822.764          44.000  
E34  29520766.677   155132878.506        1194.496          46.000    29520770.452   118868194.807         915.255          51.000  
G25  27661372.101   145361702.992       -3885.042          43.000    27661370.578   113268926.428       -3026.993          41.000  
E25  28976829.695   152274566.839       -2485.898          46.000    28976830.462   116678068.956       -1904.738          53.000  
G31  26824122.863   140961651.153       -2158.514          46.000    26824118.559   109840319.913       -1682.065          42.000  
E14  34717232.159   182440427.290       -1470.046          33.000    34717231.031   139792071.345       -1126.535          42.000  
> 2024 04 15 05 36 30.0150000  0 26                     
S33  44247558.744   232522649.307        -677.628          42.000  
E02  27857075.275   146389936.285          25.855          48.000    27857073.315   112168945.762          19.764          51.000  
G28  27852208.762   146364285.438       -3589.420          44.000    27852206.339   114050067.433       -2796.752          43.000  
E36  27880906.073   146515503.096       -1209.229          47.000    27880906.823   112265339.550        -926.490          51.000  
G26  25402329.552   133490175.576        1159.827          49.000    25402327.867   104018277.470         903.668          45.000  
R20  24522793.192   131134466.343        -451.478          37.000    24522792.154   101993561.791        -351.052          45.000  
R10  24442870.428   130294328.845         957.180          49.000                                                                  
R09  24168291.624   129057320.645       -2813.097          53.000    24168286.980   100378178.371       -2187.941          51.000  
R03  28447833.722                3       -590.624          12.000                                                                  
R16  27895908.720   149015040.021       -5112.446          44.000    27895908.471   115900484.577       -3976.351          42.000  
R04  28058679.165   150252992.353        1816.807          43.000    28058671.875   116863437.822        1413.035          42.000  
G16  28250763.068   148458761.006        2564.185          39.000                                                                  
E11  29527417.139   155168025.197       -3089.230          40.000    29527412.389   118895209.726       -2367.063          46.000  
G18  24907406.636   130889672.842       -1514.248          49.000    24907401.685   101992067.391       -1179.804          50.000  
G29  27021411.606   141998882.084       -2435.781          47.000    27021406.752   110648751.387       -1898.154          42.000  
S31  43293212.323   227507491.426        -677.279          44.000  
E30  31248641.700   164212858.429        1891.840          30.000    31248648.043   125825329.859        1449.817          40.000  
R21  27834579.975                        1997.957          31.000    27834582.798                        1553.095          29.000  
R19  26237890.844   140355388.903       -3589.357          42.000    26237885.520   109164906.865       -2791.586          47.000  
G05  28864555.516   151684259.875       -2854.565          38.000    28864550.943   118195477.376       -2224.282          41.000  
G23  26745247.267   140547348.680        2329.645          47.000    26745242.434   109517441.955        1815.228          45.000  
E34  29513974.033   155097178.882        1185.830          47.000    29513977.062   118840840.609         908.561          51.000  
G25  27683575.264   145478380.108       -3893.215          45.000    27683573.361   113359843.603       -3033.637          41.000  
E25  28991048.834   152349289.618       -2495.354          46.000    28991049.231   116735324.078       -1912.010          52.000  
G31  26836490.975   141026644.174       -2173.965          47.000    26836486.685   109890963.797       -1694.088          42.000  
E14  34725601.565   182484408.246       -1461.778          34.000    34725600.075   139825770.983       -1119.707          41.000  
> 2024 04 15 05 37 00.0150000  0 25                     
S33  44251427.175   232542978.505        -677.894          42.000  
E02  27856958.236   146389319.522          15.469          48.000    27856956.064   112168473.176          11.862          51.000  
G28  27872712.465   146472036.532       -3594.087          42.000    27872710.622   114134029.213       -2800.485          43.000  
E36  27887837.097   146551927.182       -1218.838          47.000    27887837.947   112293248.929        -933.992          50.000  
G26  25395749.365   133455596.417        1145.422          49.000    25395747.909   103991332.642         892.584          45.000  
R20  24525363.830   131148210.382        -464.886          37.000    24525362.632   102004251.616        -361.406          45.000  
R10  24437551.991   130265977.948         932.926          48.000                                                                  
R09  24184160.427   129142061.078       -2836.165          53.000    24184155.257   100444087.564       -2205.864          50.000  
R16  27924632.197   149168475.925       -5116.470          44.000    27924633.070   116019823.364       -3979.390          43.000  
R04  28048536.174   150198673.399        1804.532          43.000    28048529.943   116821189.701        1403.415          43.000  
G16  28236134.134   148381886.252        2561.444          40.000                                                                  
E11  29545057.334   155260738.759       -3092.015          39.000    29545054.368   118966249.973       -2368.831          45.000  
G18  24916094.352   130935327.845       -1529.404          49.000    24916089.027   102027642.739       -1191.763          49.000  
G29  27035326.513   142072005.560       -2439.143          47.000    27035320.967   110705730.735       -1900.537          42.000  
S31  43297079.172   227527812.791        -677.432          44.000  
E30  31237849.153   164156138.568        1889.402          32.000    31237854.599   125781869.224        1448.067          40.000  
R21  27823403.739                        1989.051          30.000    27823410.149   115802290.8201       1547.349          33.000  
R19  26258025.032   140463092.109       -3590.723          42.000    26258019.548   109248676.032       -2792.810          47.000  
G05  28880890.354   151770106.647       -2868.485          36.000    28880886.905   118262370.987       -2235.277          41.000  
G23  26731974.938   140477603.865        2320.083          47.000    26731971.124   109463095.419        1807.961          45.000  
E34  29507230.377   155061740.123        1176.906          47.000    29507233.185   118813686.267         901.890          51.000  
G25  27705825.372   145595302.840       -3901.562          45.000    27705823.416   113450952.164       -3040.254          41.000  
E25  29005320.696   152424293.563       -2504.795          45.000    29005322.148   116792794.610       -1919.177          52.000  
G31  26848944.492   141092089.532       -2189.098          47.000    26848940.396   109941960.151       -1705.770          41.000  
E14  34733918.873   182528117.400       -1451.574          34.000    34733916.808   139859262.430       -1112.703          40.000  
> 2024 04 15 05 37 30.0150000  0 26                     
S33  44255295.361   232563306.201        -677.408          42.000  
E02  27856899.994   146389015.190           5.280          48.000    27856897.991   112168239.987           3.979          51.000  
G28  27893242.078   146579925.198       -3598.343          41.000    27893242.559   114218098.170       -2803.785          44.000  
E36  27894824.625   146588643.664       -1228.401          47.000    27894824.840   112321382.357        -941.258          50.000  
G26  25389250.642   133421444.457        1131.549          49.000    25389248.966   103964720.715         881.714          45.000  
R20  24528009.128   131162352.080        -477.534          38.000    24528007.312   102015250.763        -371.504          45.000  
R10  24432369.883   130238354.922         908.989          49.000                                                                  
R09  24200157.087   129227485.691       -2858.562          52.000    24200152.506   100510528.907       -2223.356          50.000  
R03  28454821.743                3       -646.889          26.000                                                                  
R16  27953377.529   149322029.571       -5120.094          43.000    27953378.899   116139253.687       -3982.103          44.000  
R04  28038461.496   150144725.678        1792.309          45.000    28038455.906   116779230.351        1393.777          41.000  
G16  28221518.986   148305086.054        2558.948          40.000                                                                  
E11  29562714.079   155353522.186       -3093.735          40.000    29562711.283   119037343.775       -2370.459          46.000  
G18  24924868.226   130981435.105       -1544.166          50.000    24924862.543   102063570.468       -1203.199          49.000  
G29  27049258.899   142145221.497       -2441.653          47.000    27049253.229   110762782.105       -1902.672          40.000  
S31  43300946.002   227548132.261        -676.818          43.000  
E30  31227077.564   164099485.973        1887.984          34.000    31227073.871   125738460.124        1446.386          40.000  
R21  27812277.289                        1980.097          31.000    27812284.555   115755987.393        1539.876          33.000  
R19  26278165.725   140570837.082       -3591.909          41.000    26278162.038   109332477.693       -2793.623          48.000  
G05  28897305.641   151856365.612       -2881.660          38.000    28897301.133   118329585.797       -2245.718          41.000  
G23  26718758.032   140408146.321        2310.728          47.000    26718752.646   109408972.682        1800.661          44.000  
E34  29500536.416   155026562.626        1168.495          47.000    29500539.276   118786732.125         895.333          52.000  
G25  27728122.112   145712469.536       -3909.392          44.000    27728119.673   113542250.815       -3046.530          42.000  
E25  29019646.859   152499578.337       -2513.841          44.000    29019648.571   116850480.338       -1926.222          53.000  
G31  26861483.970   141157985.198       -2203.703          48.000    26861479.394   109993307.399       -1717.171          41.000  
E14  34742185.272   182571555.806       -1442.704          33.000    34742182.301   139892546.367       -1105.575          39.000  
> 2024 04 15 05 38 00.0150000  0 26                     
S33  44259161.314   232583620.649        -677.129          42.000  
E02  27856898.734   146389013.492          -4.831          48.000    27856897.757   112168238.696          -3.771          51.000  
G28  27913796.825   146687937.445       -3602.653          42.000    27913796.300   114302263.433       -2807.138          44.000  
E36  27901865.197   146625640.390       -1237.868          48.000    27901865.196   112349730.513        -948.426          50.000  
G26  25382831.389   133387711.097        1117.590          49.000    25382829.342   103938434.989         870.624          45.000  
R20  24530725.923   131176878.443        -490.573          39.000    24530724.116   102026549.062        -381.359          45.000  
R10  24427323.447   130211451.698         884.858          50.000                                                                  
R09  24216279.263   129313580.943       -2880.873          52.000    24216274.620   100577491.852       -2240.652          49.000  
R03  28458518.977                3       -664.419          22.000                                                                  
R16  27982142.692   149475686.073       -5123.360          44.000    27982143.780   116258763.968       -3984.814          43.000  
R04  28028454.196   150091142.215        1780.113          45.000    28028449.580   116737554.404        1384.619          42.000  
G16  28206916.903   148228351.363        2556.567          40.000                                                                  
E11  29580382.514   155446363.221       -3095.146          41.000    29580377.744   119108481.705       -2371.829          45.000  
G18  24933725.952   131027981.825       -1558.803          49.000    24933720.530   102099840.662       -1214.656          50.000  
G29  27063207.563   142218519.187       -2444.442          48.000    27063202.087   110819897.180       -1904.839          42.000  
S31  43304810.235   227568439.371        -676.447          44.000  
E30  31216303.936   164042891.168        1885.860          35.000    31216304.199   125695095.327        1444.909          41.000  
R21  27801201.025   148770075.261        1972.236          35.000    27801202.753   115709877.014        1533.982          31.000  
R19  26298312.743   140678611.261       -3592.644          41.000    26298308.813   109416302.058       -2794.398          47.000  
G05  28913796.264   151943024.164       -2895.052          38.000    28913790.805   118397111.925       -2255.841          41.000  
G23  26705593.680   140338968.341        2301.240          46.000    26705589.067   109355067.814        1793.231          44.000  
E34  29493890.549   154991635.749        1160.181          48.000    29493892.969   118759970.018         888.928          52.000  
G25  27750461.382   145829867.482       -3917.018          44.000    27750460.184   113633729.669       -3052.299          43.000  
E25  29034023.150   152575132.565       -2522.740          43.000    29034026.514   116908372.533       -1933.137          53.000  
G31  26874107.001   141224317.681       -2218.340          47.000    26874101.928   110044995.004       -1728.594          42.000  
E14  34750398.129   182614713.102       -1434.122          34.000    34750395.794   139925614.921       -1098.555          40.000  
> 2024 04 15 05 38 30.0150000  0 26                     
S33  44263025.469   232603926.603        -676.649          42.000  
E02  27856956.122   146389318.211         -15.223          47.000    27856955.612   112168472.194         -11.689          51.000  
G28  27934375.365   146796072.723       -3606.415          43.000    27934373.862   114386524.556       -2810.255          44.000  
E36  27908958.556   146662918.758       -1247.153          48.000    27908958.942   112378294.485        -955.578          50.000  
G26  25376492.659   133354401.226        1103.271          49.000    25376490.364   103912479.219         859.875          45.000  
R20  24533513.804   131191789.902        -503.279          38.000    24533512.080   102038146.899        -391.299          44.000  
R10  24422412.725   130185273.407         860.540          50.000                                                                  
R09  24232527.965   129400347.620       -2903.261          51.000    24232523.381   100644977.042       -2258.107          50.000  
R03  28462329.400                3       -694.234          21.000                                                                  
R16  28010927.596   149629444.706       -5126.732          46.000    28010927.749   116378353.677       -3987.438          43.000  
R04  28018518.079   150037930.017        1767.522          45.000    28018513.878   116696167.187        1375.013          43.000  
G16  28192328.492   148151687.249        2554.449          40.000                                                                  
E11  29598060.321   155539263.066       -3097.237          41.000    29598056.474   119179664.698       -2373.376          46.000  
G18  24942666.951   131074968.824       -1573.554          49.000    24942662.111   102136453.908       -1226.074          50.000  
G29  27077171.815   142291901.040       -2447.439          48.000    27077165.820   110877077.860       -1907.181          41.000  
S31  43308672.531   227588737.027        -676.493          44.000  
E30  31205548.234   163986358.248        1883.860          35.000    31205546.516   125651777.943        1443.335          41.000  
R21  27790167.464   148711041.643        1963.501          37.000    27790169.409   115663962.130        1527.219          33.000  
R19  26318465.948   140786415.328       -3593.593          42.000    26318461.694   109500149.675       -2795.424          46.000  
G05  28930364.006   152030082.329       -2908.526          40.000    28930356.912   118464949.464       -2266.474          41.000  
G23  26692482.837   140270075.733        2291.813          46.000    26692479.525   109301385.338        1785.728          45.000  
E34  29487291.827   154956962.376        1151.604          47.000    29487294.864   118733402.153         882.404          52.000  
G25  27772844.835   145947497.516       -3924.843          43.000    27772844.934   113725389.389       -3058.327          43.000  
E25  29048452.788   152650958.417       -2531.957          43.000    29048455.545   116966472.834       -1940.049          53.000  
G31  26886813.095   141291087.297       -2232.926          47.000    26886808.262   110097023.237       -1739.843          42.000  
E14  34758556.569   182657592.494       -1424.389          33.000    34758556.055   139958470.620       -1091.401          41.000  
> 2024 04 15 05 39 00.0150000  0 25                     
S33  44266887.920   232624224.615        -676.599          42.000  
E02  27857072.636   146389933.411         -25.604          47.000    27857072.847   112168943.590         -19.639          51.000  
G28  27954975.798   146904330.847       -3610.510          42.000    27954974.727   114470881.411       -2813.391          44.000  
E36  27916106.177   146700480.466       -1256.806          48.000    27916106.788   112407075.555        -963.023          50.000  
G26  25370236.038   133321519.952        1088.928          49.000    25370233.176   103886857.442         848.596          45.000  
R20  24536374.177   131207087.961        -516.678          37.000    24536373.165   102050045.429        -401.625          44.000  
R10  24417637.859   130159825.619         836.142          49.000                                                                  
R09  24248902.651   129487785.445       -2925.618          52.000    24248898.413   100712984.224       -2275.522          51.000  
R16  28039731.704   149783304.790       -5130.206          46.000    28039731.023   116498022.317       -3990.267          43.000  
R04  28008652.585   149985096.241        1754.833          45.000    28008646.283   116655074.229        1364.984          39.000  
G16  28177754.462   148075098.663        2551.716          41.000                                                                  
E11  29615749.972   155632223.111       -3099.678          42.000    29615745.897   119250893.807       -2374.935          46.000  
G18  24951692.405   131122397.149       -1588.246          49.000    24951688.021   102173411.073       -1237.747          50.000  
G29  27091152.751   142365370.441       -2450.391          48.000    27091147.419   110934326.711       -1909.329          42.000  
S31  43312533.826   227609027.573        -676.455          44.000  
E30  31194802.699   163929891.568        1881.074          36.000    31194801.213   125608511.289        1441.556          42.000  
R21  27779183.801   148652262.269        1955.260          41.000    27779185.473   115618245.087        1520.731          34.000  
R19  26338625.681   140894249.771       -3594.932          41.000    26338619.557   109584020.925       -2796.003          47.000  
G05  28947007.386   152117540.705       -2922.201          39.000    28947000.399   118533098.832       -2276.772          41.000  
G23  26679429.110   140201474.698        2281.881          46.000    26679424.978   109247930.004        1777.959          45.000  
E34  29480742.988   154922545.664        1142.963          47.000    29480745.327   118707030.952         875.737          51.000  
G25  27795273.852   146065360.708       -3932.522          44.000    27795273.892   113817230.781       -3064.414          43.000  
E25  29062934.000   152727058.269       -2541.221          44.000    29062937.283   117024783.106       -1947.156          53.000  
G31  26899601.724   141358294.478       -2247.551          46.000    26899598.185   110149392.429       -1751.338          44.000  
E14  34766663.767   182700197.778       -1415.501          33.000    34766663.850   139991116.210       -1084.846          41.000  
> 2024 04 15 05 39 30.0150000  0 25                     
S33  44270750.086   232644521.568        -676.732          42.000  
E02  27857250.027   146390865.467         -36.250          46.000    27857250.313   112169657.764         -27.774          51.000  
G28  27975601.138   147012713.977       -3614.697          43.000    27975600.765   114555335.625       -2816.737          45.000  
E36  27923309.071   146738329.515       -1266.306          48.000    27923309.105   112436076.786        -970.236          50.000  
G26  25364062.072   133289074.772        1074.335          49.000    25364058.871   103861575.487         837.164          44.000  
R20  24539308.075   131222775.981        -529.403          37.000    24539306.604   102062247.244        -411.886          44.000  
R10  24413002.418   130135116.324         811.404          49.000                                                                  
R09  24265403.608   129575897.247       -2948.245          52.000    24265399.586   100781515.603       -2293.104          51.000  
R16  28068554.157   149937268.389       -5133.630          47.000    28068553.716   116617771.462       -3992.761          43.000  
R04  27998858.731   149932650.624        1741.772          44.000    27998851.446   116614283.222        1354.354          36.000  
G16  28163196.391   147998593.048        2548.868          42.000                                                                  
E11  29633450.785   155725247.220       -3101.857          41.000    29633447.535   119322172.048       -2376.954          46.000  
G18  24960802.444   131170270.263       -1603.151          49.000    24960797.747   102210714.799       -1249.158          49.000  
G29  27105150.563   142438932.582       -2453.586          48.000    27105146.175   110991647.874       -1911.843          41.000  
S31  43316394.642   227629316.727        -676.451          44.000  
E30  31184071.170   163873497.810        1878.564          37.000    31184070.020   125565300.543        1439.523          43.000  
R21  27768248.322   148593743.015        1946.710          42.000    27768248.857   115572730.407        1513.673          36.000  
R19  26358790.035   141002117.713       -3596.112          41.000    26358784.742   109667918.196       -2797.168          47.000  
G05  28963727.197   152205403.556       -2935.470          38.000    28963720.627   118601563.309       -2287.130          41.000  
G23  26666432.070   140133173.609        2271.760          47.000    26666428.685   109194708.445        1769.958          45.000  
E34  29474243.454   154888391.083        1134.247          47.000    29474245.350   118680860.613         868.959          51.000  
G25  27817747.565   146183460.506       -3940.312          43.000    27817747.076   113909256.570       -3070.540          42.000  
E25  29077468.434   152803436.897       -2550.623          44.000    29077471.388   117083306.980       -1954.340          53.000  
G31  26912474.423   141425941.891       -2262.145          45.000    26912471.176   110202104.661       -1762.887          43.000  
E14  34774715.438   182742534.736       -1406.758          31.000    34774720.051   140023556.260       -1077.944          41.000  
> 2024 04 15 05 40 00.0150000  0 26                     
S33  44274611.375   232664813.183        -676.344          42.000  
E02  27857487.471   146392112.030         -46.672          47.000    27857487.603   112170612.921         -35.769          52.000  
G28  27996248.606   147121215.413       -3618.437          42.000    27996247.682   114639882.057       -2819.753          44.000  
E36  27930565.583   146776461.227       -1275.483          48.000    27930565.423   112465294.591        -977.373          51.000  
G26  25357970.544   133257064.465        1059.845          49.000    25357967.741   103836632.385         825.916          45.000  
R20  24542313.611   131238849.177        -541.829          38.000    24542312.431   102074748.653        -421.792          44.000  
R10  24408504.906   130111144.517         786.806          49.000                                                                  
R09  24282029.207   129664677.248       -2970.334          52.000    24282025.370   100850566.690       -2310.268          52.000  
R16  28097394.883   150091328.125       -5136.823          46.000    28097394.372   116737595.371       -3995.325          42.000  
R04  27989136.392   149880593.306        1728.900          44.000    27989129.142   116573794.327        1344.872          34.000  
G16  28148653.410   147922169.254        2546.265          42.000                                                                  
E11  29651164.305   155818330.440       -3103.574          41.000    29651160.517   119393495.538       -2378.140          45.000  
G18  24969995.731   131218582.726       -1617.659          49.000    24969991.287   102248360.907       -1260.487          49.000  
G29  27119165.582   142512583.775       -2456.433          48.000    27119161.363   111049038.425       -1914.151          41.000  
S31  43320254.587   227649600.705        -676.171          44.000  
E30  31173352.013   163817174.971        1876.408          36.000    31173352.213   125522144.131        1437.819          43.000  
R11  28256526.674                3       3425.226          14.000                                                                  
R21  27757361.151   148535480.278        1937.913          45.000    27757360.100   115527415.058        1507.480          37.000  
R19  26378960.154   141110014.349       -3596.732          41.000    26378954.679   109751837.799       -2797.626          46.000  
G05  28980524.037   152293665.348       -2948.943          40.000    28980516.548   118670338.730       -2297.947          41.000  
G23  26653491.534   140065172.216        2261.770          46.000    26653488.340   109141720.386        1762.388          46.000  
E34  29467793.568   154854495.414        1125.706          47.000    29467795.014   118654888.647         862.499          51.000  
G25  27840265.075   146301791.651       -3948.097          42.000    27840264.100   114001462.586       -3076.553          41.000  
E25  29092055.954   152880090.360       -2559.523          44.000    29092058.023   117142041.437       -1961.263          53.000  
G31  26925429.680   141494023.729       -2276.499          45.000    26925427.263   110255155.385       -1773.806          44.000  
E14  34782726.241   182784600.689       -1397.569          35.000    34782724.906   140055788.545       -1070.746          40.000  
> 2024 04 15 05 40 30.0150000  0 25                     
S33  44278473.378   232685105.752        -676.500          42.000  
E02  27857787.005   146393679.996         -57.525          47.000    27857786.061   112171814.351         -44.144          52.000  
G28  28016918.481   147229837.921       -3622.668          41.000    28016918.033   114724522.808       -2822.779          43.000  
E36  27937876.072   146814880.110       -1285.426          48.000    27937876.421   112494732.442        -984.896          51.000  
G26  25351963.517   133225496.987        1044.922          49.000    25351960.866   103812034.382         814.075          45.000  
R20  24545392.838   131255311.015        -555.128          40.000    24545390.711   102087552.338        -431.850          44.000  
R10  24404148.205   130087918.543         761.568          49.000                                                                  
R09  24298780.894   129754128.907       -2992.926          53.000    24298776.888   100920140.157       -2327.807          51.000  
R16  28126254.002   150245486.583       -5140.371          42.000    28126253.853   116857496.045       -3997.895          39.000  
R04  27979490.584   149828934.821        1715.417          45.000    27979479.823   116533615.431        1334.074          37.000  
G16  28134127.274   147845835.356        2542.771          42.000                                                                  
E11  29668890.013   155911477.162       -3105.698          42.000    29668885.821   119464867.700       -2379.741          46.000  
G18  24979272.993   131267338.496       -1632.576          48.000    24979268.897   102286352.426       -1272.170          49.000  
G29  27133198.320   142586330.105       -2459.870          46.000    27133194.007   111106503.093       -1916.892          41.000  
S31  43324114.785   227669885.498        -676.234          44.000  
E30  31162648.415   163760930.256        1873.781          37.000    31162649.205   125479047.588        1435.575          44.000  
R21  27746521.953   148477479.921        1928.736          44.000    27746520.403   115482303.906        1500.252          39.000  
R19  26399136.458   141217942.907       -3598.079          41.000    26399131.245   109835782.242       -2798.554          47.000  
G05  28997395.925   152382329.390       -2962.328          41.000    28997389.287   118739427.576       -2308.347          41.000  
G23  26640609.500   139997479.476        2251.178          46.000    26640606.842   109088972.846        1754.286          46.000  
E34  29461393.911   154820864.643        1116.465          47.000    29461395.507   118629119.654         855.579          51.000  
G25  27862827.885   146420358.022       -3956.005          43.000    27862825.796   114093851.930       -3082.749          40.000  
E25  29106695.796   152957023.859       -2569.021          45.000    29106697.673   117200990.462       -1968.490          53.000  
G31  26938468.859   141562543.015       -2291.358          46.000    26938465.916   110308546.987       -1785.255          43.000  
E14  34790682.525   182826401.968       -1389.027          37.000    34790679.395   140087818.154       -1064.251          40.000  
> 2024 04 15 05 41 00.0150000  0 25                     
S33  44282333.852   232705394.018        -676.270          42.000  
E02  27858146.095   146395565.451         -68.171          48.000    27858144.862   112173259.058         -52.268          52.000  
G28  28037610.630   147338573.294       -3626.645          40.000    28037609.261   114809251.507       -2825.869          43.000  
E36  27945239.523   146853579.870       -1294.739          47.000    27945240.912   112524385.523        -992.070          51.000  
G26  25346039.926   133194369.574        1030.231          49.000    25346037.570   103787779.252         802.814          45.000  
R20  24548543.227   131272155.054        -568.037          41.000    24548540.522   102100653.330        -441.891          43.000  
R10  24399930.943   130065435.664         737.060          49.000                                                                  
R09  24315656.351   129844244.192       -3014.896          52.000    24315652.255   100990229.813       -2344.900          51.000  
R16  28155130.135   150399735.105       -5143.338          38.000    28155129.739   116977466.814       -3999.844          36.000  
R04  27969917.790   149777674.166        1701.768          44.000    27969909.764   116493746.042        1323.705          39.000  
G16  28119617.673   147769588.192        2540.050          43.000                                                                  
E11  29686624.334   156004680.924       -3108.053          40.000    29686621.919   119536283.558       -2381.280          46.000  
G18  24988633.979   131316530.659       -1647.041          49.000    24988629.915   102324683.992       -1283.349          49.000  
G29  27147249.158   142660166.825       -2462.666          46.000    27147244.533   111164038.210       -1919.013          41.000  
S31  43327973.893   227690165.915        -676.017          44.000  
E30  31151959.140   163704760.176        1871.107          38.000    31151960.428   125436008.209        1433.659          44.000  
R21  27735730.651   148419737.444        1920.564          46.000    27735730.075   115437393.333        1493.484          42.000  
R19  26419317.445   141325896.518       -3598.845          41.000    26419312.162   109919746.161       -2799.057          46.000  
G05  29014342.887   152471388.501       -2975.139          41.000    29014336.001   118808824.273       -2318.104          39.000  
G23  26627786.765   139930093.564        2241.043          47.000    26627784.044   109036464.410        1746.210          47.000  
E34  29455042.799   154787493.954        1108.016          46.000    29455045.306   118603549.955         848.944          51.000  
G25  27885434.593   146539152.750       -3963.698          45.000    27885432.679   114186419.179       -3088.773          41.000  
E25  29121389.024   153034231.903       -2578.227          46.000    29121389.726   117260149.837       -1975.486          52.000  
G31  26951589.647   141631492.857       -2305.566          46.000    26951585.925   110362274.120       -1796.408          42.000  
E14  34798584.729   182867934.293       -1379.424          36.000    34798582.794   140119641.659       -1057.464          41.000  
> 2024 04 15 05 41 30.0150000  0 25                     
S33  44286193.679   232725678.766        -675.727          42.000  
E02  27858566.067   146397771.228         -78.994          48.000    27858564.765   112174949.195         -60.465          52.000  
G28  28058324.628   147447419.985       -3629.908          40.000    28058322.056   114894066.888       -2828.646          42.000  
E36  27952657.428   146892560.969       -1304.000          47.000    27952658.800   112554254.175        -999.263          51.000  
G26  25340200.807   133163686.062        1015.369          49.000    25340198.339   103763870.028         791.235          45.000  
R20  24551764.850   131289381.167        -580.700          41.000    24551761.568   102114051.466        -451.807          43.000  
R10  24395853.127   130043700.472         711.961          49.000                                                                  
R09  24332655.928   129935022.117       -3036.996          52.000    24332652.456   101060834.837       -2362.004          51.000  
R16  28184022.814   150554072.229       -5146.326          35.000    28184021.916   117097506.389       -4002.197          32.000  
R04  27960419.182   149726817.007        1688.499          41.000    27960411.507   116454190.486        1313.022          37.000  
G16  28105125.174   147693431.819        2536.908          43.000                                                                  
E11  29704371.825   156097941.988       -3109.688          41.000    29704369.243   119607743.358       -2382.765          46.000  
G18  24998079.042   131366159.004       -1661.624          49.000    24998073.807   102363355.419       -1294.741          49.000  
G29  27161317.582   142734095.569       -2465.865          46.000    27161312.491   111221645.012       -1921.235          41.000  
S31  43331832.521   227710443.406        -675.925          44.000  
E30  31141284.405   163648667.843        1868.600          38.000    31141286.483   125393028.394        1431.819          45.000  
R21  27724988.640   148362254.219        1911.888          49.000    27724988.127   115392684.341        1486.892          44.000  
R19  26439503.168   141433875.034       -3599.970          40.000    26439496.966   110003729.479       -2799.789          46.000  
G05  29031364.550   152560842.519       -2988.291          39.000    29031358.703   118878528.707       -2328.783          40.000  
G23  26615022.913   139863019.374        2230.510          47.000    26615020.785   108984198.883        1738.130          47.000  
E34  29448741.634   154754385.246        1099.290          46.000    29448744.862   118578180.994         842.293          51.000  
G25  27908084.081   146658175.694       -3971.206          45.000    27908082.315   114279164.236       -3094.621          41.000  
E25  29136134.025   153111715.580       -2587.388          46.000    29136134.516   117319520.444       -1982.578          52.000  
G31  26964792.281   141700871.887       -2319.958          46.000    26964788.657   110416335.676       -1807.854          43.000  
E14  34806434.777   182909200.141       -1371.084          33.000    34806435.038   140151260.893       -1050.520          40.000  
> 2024 04 15 05 42 00.0150000  0 25                     
S33  44290054.170   232745965.050        -676.161          42.000  
E02  27859047.998   146400301.677         -89.847          48.000    27859046.450   112176888.100         -68.746          52.000  
G28  28079058.433   147556378.290       -3633.796          38.000    28079055.119   114978969.254       -2831.272          40.000  
E36  27960129.172   146931825.438       -1313.573          47.000    27960130.356   112584339.945       -1006.528          51.000  
G26  25334447.554   133133451.933        1000.275          49.000    25334444.578   103740310.967         779.395          45.000  
R20  24555057.356   131306990.773        -593.456          41.000    24555054.694   102127747.827        -461.595          43.000  
R10  24391917.352   130022719.072         686.782          49.000                                                                  
R09  24349780.388   130026463.257       -3059.212          52.000    24349776.262   101131955.713       -2379.225          51.000  
R16  28212931.000   150708497.260       -5149.005          34.000    28212931.462                       -4005.493          31.000  
R04  27950997.803   149676370.933        1674.597          43.000    27950990.700   116414954.750        1302.305          39.000  
G16  28090651.449   147617371.638        2533.576          43.000                                                                  
E11  29722130.910   156191262.241       -3111.730          41.000    29722127.070   119679248.468       -2384.324          46.000  
G18  25007606.528   131416224.851       -1676.155          49.000    25007600.935   102402367.788       -1306.092          49.000  
G29  27175404.191   142808119.347       -2469.056          47.000    27175399.845   111279325.868       -1924.031          41.000  
S31  43335691.180   227730721.898        -676.086          44.000  
E30  31130625.962   163592658.011        1865.846          38.000    31130628.245   125350111.835        1429.344          45.000  
R21  27714294.954   148305033.952        1902.940          49.000    27714294.317   115348179.889        1480.026          44.000  
R19  26459692.997   141541879.550       -3600.850          40.000    26459687.724   110087732.993       -2800.516          47.000  
G05  29048461.801   152650692.798       -3001.723          40.000    29048456.323   118948541.844       -2338.862          39.000  
G23  26602319.967   139796263.351        2219.786          48.000    26602316.863   108932181.243        1729.761          47.000  
E34  29442492.287   154721541.981        1090.296          46.000    29442495.290   118553015.424         835.451          51.000  
G25  27930777.006   146777428.261       -3978.938          44.000    27930774.559   114372088.270       -3100.544          40.000  
E25  29150930.999   153189477.683       -2596.743          45.000    29150932.387   117379104.375       -1989.796          52.000  
G31  26978076.216   141770680.935       -2334.229          46.000    26978072.993   110470732.298       -1818.823          43.000  
E14  34814240.035   182950203.372       -1362.635          36.000    34814237.899   140182678.948       -1043.820          42.000  
> 2024 04 15 05 42 30.0150000  0 25                     
S33  44293914.081   232766248.387        -676.229          42.000  
E02  27859590.573   146403154.433        -100.505          48.000    27859589.244   112179073.974         -77.061          52.000  
G28  28099812.405   147665441.687       -3636.953          39.000    28099810.963   115063953.479       -2834.180          42.000  
E36  27967653.655   146971368.539       -1322.772          47.000    27967654.983   112614639.210       -1013.612          50.000  
G26  25328778.944   133103665.908         985.352          49.000    25328776.781   103717101.105         767.590          45.000  
R20  24558420.578   131324978.021        -605.657          41.000    24558418.178   102141737.920        -471.379          43.000  
R10  24388121.983   130002489.910         661.700          49.000                                                                  
R09  24367027.520   130118561.293       -3080.941          52.000    24367022.382   101203587.547       -2396.391          50.000  
R16  28241854.795   150863003.457       -5151.331          33.000    28241840.895                3      -4007.693          23.000  
R04  27941655.827   149626336.725        1660.809          45.000    27941647.263   116376039.218        1291.840          41.000  
G16  28076195.546   147541406.685        2530.554          43.000                                                                  
E11  29739898.508   156284636.813       -3113.359          41.000    29739895.821   119750795.227       -2385.576          46.000  
G18  25017215.717   131466722.835       -1690.553          49.000    25017210.320   102441716.893       -1317.378          49.000  
G29  27189508.627   142882235.256       -2472.053          47.000    27189503.141   111337078.527       -1926.352          42.000  
S31  43339549.697   227750997.404        -675.823          44.000  
E30  31119982.228   163536728.716        1863.168          39.000    31119985.047   125307256.929        1427.364          45.000  
R21  27703650.670   148248073.221        1894.385          49.000    27703649.251   115303877.341        1473.346          45.000  
R19  26479886.778   141649905.003       -3601.320          40.000    26479881.837   110171752.790       -2801.046          46.000  
G05  29065633.631   152740933.272       -3014.547          39.000    29065628.864   119018859.064       -2349.250          39.000  
G23  26589677.030   139729825.187        2209.224          48.000    26589673.703   108880411.316        1721.316          46.000  
E34  29436292.554   154688960.923        1081.701          46.000    29436295.191   118528050.757         828.692          51.000  
G25  27953512.747   146896905.114       -3986.359          44.000    27953510.546   114465187.056       -3106.467          42.000  
E25  29165780.702   153267514.175       -2605.844          45.000    29165782.365   117438898.543       -1996.715          52.000  
G31  26991441.404   141840914.243       -2348.250          46.000    26991437.845   110525459.501       -1829.774          43.000  
E14  34821993.502   182990941.249       -1353.600          36.000    34821989.881   140213893.677       -1037.188          42.000  
> 2024 04 15 05 43 00.0150000  0 26                     
S33  44297772.624   232786525.479        -675.503          42.000  
E02  27860194.738   146406328.284        -110.941          48.000    27860193.171   112181505.874         -84.981          52.000  
G28  28120586.248   147774604.772       -3639.994          40.000    28120585.703   115149015.457       -2836.518          42.000  
E36  27975231.480   147011186.704       -1331.640          47.000    27975231.986   112645149.233       -1020.310          50.000  
G26  25323196.046   133074327.858         970.758          48.000    25323194.370   103694240.278         756.470          46.000  
R20  24561854.782   131343339.541        -618.193          40.000    24561852.102   102156019.116        -480.741          43.000  
R10  24384468.524   129983013.049         636.883          49.000                                                                  
R09  24384395.893   130211311.497       -3102.177          51.000    24384391.579   101275726.542       -2412.804          50.000  
R16  28270792.707                       -5153.943          32.000    28270786.563                1      -4008.777          25.000  
R04  27932392.201   149576715.989        1647.359          43.000    27932382.766   116337445.291        1281.282          41.000  
G16  28061757.679   147465536.736        2527.545          42.000                                                                  
E11  29757678.405   156378062.014       -3114.518          43.000    29757673.820   119822380.762       -2386.458          46.000  
G18  25026906.672   131517648.775       -1704.413          49.000    25026900.887   102481399.464       -1328.120          49.000  
G29  27203628.604   142956440.902       -2474.709          47.000    27203624.658   111394901.076       -1928.605          41.000  
S31  43343407.075   227771267.779        -675.382          44.000  
E30  31109355.012   163480879.136        1860.358          39.000    31109357.131   125264463.097        1425.626          45.000  
R21  27693053.403   148191369.852        1886.147          50.000    27693052.581   115259774.959        1467.026          45.000  
R19  26500085.040   141757947.276       -3601.361          41.000    26500078.685   110255785.696       -2801.177          46.000  
G05  29082879.325   152831560.199       -3027.130          39.000    29082873.913   119089477.447       -2358.782          38.000  
G23  26577094.599   139663705.772        2198.829          47.000    26577091.178   108828889.729        1713.442          46.000  
E34  29430142.208   154656639.917        1073.231          47.000    29430144.547   118503285.341         822.442          51.000  
G25  27976290.054   147016602.076       -3993.057          42.000    27976288.995   114558457.354       -3111.757          42.000  
E25  29180681.258   153345822.192       -2614.635          45.000    29180684.052   117498900.781       -2003.383          53.000  
G31  27004886.982   141911566.784       -2361.785          47.000    27004882.801   110580513.371       -1840.396          43.000  
E14  34829693.492   183031412.156       -1344.591          36.000    34829692.120   140244903.780       -1029.880          43.000  
R11                                                                  28141935.327                3       2631.189          26.000  
> 2024 04 15 05 43 30.0150000  0 26                     
S33  44301629.430   232806793.524        -675.709          42.000  
E02  27860858.790   146409819.788        -121.752          48.000    27860857.616   112184181.178         -93.242          51.000  
G28  28141377.030   147883859.998       -3643.466          37.000    28141375.699   115234149.198       -2839.187          41.000  
E36  27982860.750   147051274.161       -1340.746          48.000    27982860.228   112675865.603       -1027.332          50.000  
G26  25317697.858   133045435.427         955.573          48.000    25317696.089   103671726.709         744.513          45.000  
R20  24565357.043   131362069.310        -630.562          40.000    24565355.188   102170586.745        -490.429          43.000  
R10  24380955.784   129964285.954         611.670          50.000                                                                  
R09  24401885.990   130304706.178       -3123.770          52.000    24401881.609   101348366.817       -2429.572          50.000  
R16  28299744.088   151172234.145       -5156.378          31.000    28299770.562                3      -4010.364          25.000  
R04  27923203.656   149527508.199        1633.120          39.000    27923194.087   116299172.526        1270.539          43.000  
G16  28047337.742   147389759.199        2524.247          42.000                                                                  
E11  29775464.174   156471531.932       -3116.470          42.000    29775460.874   119894000.541       -2387.879          47.000  
G18  25036677.673   131568996.227       -1718.568          49.000    25036672.033   102521410.461       -1339.149          49.000  
G29  27217766.026   143030732.033       -2477.703          47.000    27217761.003   111452790.286       -1930.443          41.000  
S31  43347262.425   227791528.238        -675.194          44.000  
E30  31098741.918   163425106.218        1857.627          39.000    31098743.758   125221728.029        1423.465          45.000  
R11  28122970.020                3       3376.664          26.000    28122985.270                        2626.245          30.000  
R21  27682503.757   148134919.203        1877.570          50.000    27682503.184   115215869.120        1460.196          46.000  
R19  26520284.237   141865999.260       -3601.904          38.000    26520278.333   110339826.093       -2801.430          46.000  
G05  29100196.337   152922566.424       -3039.641          42.000    29100191.116   119160391.374       -2368.684          36.000  
G23  26564572.936   139597903.705        2188.132          47.000    26564569.248   108777615.432        1705.055          46.000  
E34  29424041.153   154624574.617        1064.517          48.000    29424042.750   118478715.863         815.643          51.000  
G25  27999108.287   147136512.822       -4000.513          41.000    27999107.533   114651894.189       -3117.428          41.000  
E25  29195633.995   153424396.684       -2623.608          45.000    29195636.206   117559107.188       -2010.354          53.000  
G31  27018410.067   141982631.476       -2375.662          47.000    27018405.451   110635888.403       -1851.229          43.000  
E14  34837341.088   183071612.298       -1335.556          34.000    34837341.690   140275706.476       -1023.358          43.000  
> 2024 04 15 05 44 00.0150000  0 27                     
S33  44305485.319   232827058.720        -675.202          42.000  
E02  27861584.260   146413636.077        -132.485          47.000    27861583.802   112187105.344        -101.509          52.000  
G28  28162185.620   147993210.178       -3646.083          35.000    28162184.831   115319356.882       -2841.507          41.000  
E36  27990540.612   147091635.695       -1349.601          48.000    27990540.503   112706791.992       -1034.252          50.000  
G26  25312286.630   133016996.814         940.460          49.000    25312284.230   103649566.743         732.977          45.000  
R20  24568928.111   131381170.356        -642.610          40.000    24568926.313   102185443.150        -499.465          43.000  
R10  24377585.126   129946317.246         586.540          49.000                                                                  
R09  24419497.305   130398748.733       -3145.321          52.000    24419493.269   101421510.986       -2446.320          50.000  
R16  28328708.924   151326952.812       -5158.252          29.000    28328715.382                3      -4016.663          22.000  
R04  27914092.363   149478723.862        1619.242          37.000    27914084.703   116261229.148        1259.350          45.000  
G16  28032936.724   147314082.818        2520.755          43.000                                                                  
E11  29793261.187   156565051.206       -3118.143          43.000    29793256.697   119965658.192       -2389.122          46.000  
G18  25046528.635   131620769.241       -1732.617          48.000    25046524.502   102561753.088       -1350.135          49.000  
G29  27231920.775   143105114.618       -2480.710          47.000    27231915.705   111510750.748       -1933.097          41.000  
S31  43351116.992   227811785.385        -675.061          44.000  
E30  31088145.384   163369417.546        1855.361          40.000    31088146.437   125179057.523        1421.550          46.000  
R11  28104061.614   150179460.0271       3368.760          32.000    28104049.801   116806223.1001       2620.356          33.000  
R21  27672002.655   148078727.374        1868.938          50.000    27672002.147   115172164.609        1453.643          46.000  
R19  26540485.895   141974065.509       -3602.008          38.000    26540481.001   110423877.642       -2801.820          47.000  
G05  29117587.647   153013956.390       -3052.549          43.000    29117581.416   119231604.286       -2378.146          35.000  
G23  26552113.458   139532428.250        2177.257          47.000    26552109.628   108726595.646        1696.516          46.000  
E34  29417988.585   154592771.249        1056.021          47.000    29417990.969   118454347.091         809.072          52.000  
G25  28021967.332   147256641.338       -4007.610          40.000    28021967.305   114745500.797       -3123.005          41.000  
E25  29210639.082   153503243.117       -2632.527          46.000    29210640.160   117619521.970       -2017.208          53.000  
G31  27032012.774   142054111.751       -2389.375          47.000    27032007.351   110691587.272       -1861.796          42.000  
E14  34844942.023   183111548.393       -1326.511          37.000    34844941.115   140306306.872       -1016.396          43.000  
G10                                                                  28919116.375                1       2466.242          29.000  
> 2024 04 15 05 44 30.0150000  0 27                     
S33  44309339.631   232847310.644        -674.968          42.000  
E02  27862370.599   146417769.924        -143.201          47.000    27862370.338   112190272.836        -109.740          51.000  
G28  28183006.266   148102643.693       -3648.639          31.000    28183010.094   115404629.458       -2843.604          41.000  
E36  27998271.493   147132261.738       -1358.616          48.000    27998271.340   112737921.047       -1041.115          49.000  
G26  25306960.146   132989005.867         925.476          48.000    25306957.943   103627755.636         721.210          45.000  
R20  24572568.553   131400632.995        -654.659          42.000    24572566.124   102200580.781        -509.342          43.000  
R10  24374354.940   129929101.254         561.245          49.000                                                                  
R09  24437228.116   130493428.005       -3166.668          52.000    24437222.823   101495150.389       -2462.943          50.000  
R16  28357684.013                       -5160.028          28.000                                                                  
R04  27905059.798   149430358.479        1605.122          39.000    27905053.148   116223611.554        1248.388          43.000  
G16  28018554.178   147238501.529        2517.575          42.000                                                                  
E11  29811065.856   156658610.215       -3119.450          44.000    29811060.594   120037346.245       -2390.144          47.000  
G18  25056459.914   131672957.657       -1746.645          48.000    25056455.757   102602419.396       -1360.963          50.000  
G29  27246090.868   143179580.383       -2483.637          47.000    27246087.422   111568775.997       -1935.328          42.000  
S31  43354969.372   227832030.462        -674.650          44.000  
E30  31077563.423   163313806.315        1852.277          41.000    31077563.917   125136446.346        1419.209          46.000  
R11  28085160.477   150078497.870        3361.749          37.000    28085154.406   116727697.027        2614.674          35.000  
R21  27661548.911   148022786.247        1860.414          50.000    27661547.764   115128655.043        1446.962          46.000  
R19  26560686.302   142082135.619       -3602.430          36.000    26560682.847   110507932.153       -2801.864          47.000  
G05  29135049.954   153105719.282       -3064.917          43.000    29135043.873   119303107.851       -2388.699          35.000  
G23  26539715.366   139467274.302        2166.179          47.000    26539711.380   108675826.376        1688.058          46.000  
E34  29411984.774   154561221.676        1047.438          47.000    29411987.068   118430172.784         802.571          51.000  
G25  28044865.316   147376977.643       -4014.833          39.000    28044865.435   114839269.279       -3128.610          39.000  
E25  29225694.170   153582352.613       -2641.401          47.000    29225693.959   117680138.313       -2023.920          52.000  
G31  27045691.345   142125996.731       -2402.972          46.000    27045687.485   110747601.516       -1872.478          43.000  
E14  34852489.048   183151212.921       -1317.744          36.000    34852489.049   140336699.196       -1009.542          43.000  
G10                                                                  28901040.618   118344943.7991       2468.065          33.000  
