     3.00           OBSERVATION DATA    M: Mixed            RINEX VERSION / TYPE
CONVBIN 2.4.3                           20240415 112942 UTC PGM / RUN BY / DATE 
format: u-blox UBX                                          COMMENT             
log: /home/regis/git/gnsspwv/obsdata/VERT00CHL/2024-04-15/VECOMMENT             
{self.marker}                                               MARKER NAME         
                                                            MARKER NUMBER       
GEODETIC                                                    MARKER TYPE         
{self.observer}     {self.institution}                      OBSERVER / AGENCY   
UNKNOWN             UBLOX-ZED-F9P                           REC # / TYPE / VERS 
UNKNOWN             TWIVSP6037L                             ANT # / TYPE        
  1713381.0000 -5047934.0000 -3490983.0000                  APPROX POSITION XYZ 
        0.0000        0.0000        0.0000                  ANTENNA: DELTA H/E/N
G    8 C1C L1C D1C S1C C2L L2L D2L S2L                      SYS / # / OBS TYPES 
R    8 C1C L1C D1C S1C C2C L2C D2C S2C                      SYS / # / OBS TYPES 
E    8 C1C L1C D1C S1C C7Q L7Q D7Q S7Q                      SYS / # / OBS TYPES 
S    4 C1C L1C D1C S1C                                      SYS / # / OBS TYPES 
  2024    04    15    11    15   00.0020000     GPS         TIME OF FIRST OBS   
  2024    04    15    11    29   30.0030000     GPS         TIME OF LAST OBS    
                                                            END OF HEADER       
> 2024 04 15 11 15 00.0020000  0 25                     
S33  40484223.288   212746239.8091       -648.322          42.000  
E05  25311215.663   133011354.0871      -2626.993          38.000    25311218.817   101917802.6571      -2012.929          49.000  
G04  25046436.193   131619879.9421       3171.756          43.000    25046433.855   102560973.0141       2471.708          43.000  
G02  21507164.434   113020944.7451       1194.720          47.000                                                                  
R08  20583803.317   110225354.5671       1444.539          51.000    20583796.223    85730974.5201       1123.552          49.000  
R06  23847483.534   127254712.3321      -4672.192          36.000                                                                  
R22  20126697.470   107437647.5481       -485.144          51.000    20126693.668    83562690.3311       -377.312          50.000  
G28  25206946.084   132463400.2211       1297.071          43.000    25206944.279   103218207.8981       1010.842          43.000  
G08  21552315.398   113258333.5601      -2727.942          50.000    21552313.277    88253184.8121      -2125.464          46.000  
E08  26310216.180   138261100.4021       2100.242          44.000    26310216.129   105940314.2611       1609.257          47.000  
S31  39531033.421   207737137.4791       -649.365          44.000  
R21  22632574.931   121111773.0911      -3510.927          49.000    22632571.544    94197877.0931      -2730.651          46.000  
R23  22068684.011   118052489.8021       2563.344          47.000                                                                  
E15  24508886.313   128795143.5011         84.712          47.000    24508886.679    98687239.0221         65.023          50.000  
G03  22879029.865   120230108.2161       1060.124          46.000    22879027.882    93685797.8281        826.107          43.000  
E34  25841097.358   135796087.7911      -1826.659          49.000    25841097.980   104051696.2901      -1399.707          51.000  
G27  23558533.528   123800874.5671      -4184.851          46.000    23558531.978    96468302.2461      -3260.714          44.000  
G31  25886734.866   136035717.3331       1593.472          34.000    25886736.851   106001837.2321       1241.516          32.000  
E03  24470910.257   128595524.4571        -82.669          49.000    24470910.332    98534252.6551        -63.330          54.000  
G21  20729321.049   108933336.8041        683.925          47.000                                                                  
E27  28231670.897   148358312.9321      -2739.585          38.000    28231671.620   113677261.7251      -2098.935          37.000  
E18  27379955.378   143882672.1221      -1352.591          46.000                                                                  
G32  23292103.607   122400845.1821      -3158.583          43.000    23292100.497    95377286.6911      -2461.032          42.000  
E13  27358354.169   143769168.5711       1410.000          38.000    27358354.473   110160760.2601       1080.415          43.000  
G10                                                                  25600787.513                       -2899.567          27.000  
> 2024 04 15 11 15 30.0020000  0 25                     
S33  40487924.567   212765689.868        -648.267          42.000  
E05  25326239.979   133090306.226       -2636.323          38.000    25326243.377   101978298.328       -2020.097          50.000  
G04  25028332.231   131524742.673        3170.600          44.000    25028329.967   102486839.958        2470.609          44.000  
G02  21500370.369   112985241.324        1185.468          48.000                                                                  
R08  20575769.686   110182337.150        1423.266          51.000    20575762.777    85697516.515        1106.945          49.000  
R06  23873759.185   127394923.791       -4675.042          35.000                                                                  
R22  20129473.966   107452465.751        -502.900          51.000    20129469.615    83574215.535        -391.184          50.000  
G28  25199563.382   132424597.687        1289.680          44.000    25199560.456   103187972.132        1004.881          43.000  
G08  21567936.271   113340421.675       -2744.684          50.000    21567934.444    88317149.510       -2138.757          46.000  
E08  26298244.759   138198186.413        2094.019          45.000    26298243.826   105892107.373        1604.500          47.000  
S31  39534739.912   207756614.858        -649.199          44.000  
R21  22652296.574   121217300.447       -3524.188          50.000    22652293.041    94279953.809       -2741.131          47.000  
R23  22054324.603   117975667.436        2558.240          47.000                                                                  
E15  24508412.574   128792654.480          81.146          47.000    24508412.990    98685331.809          62.117          50.000  
G03  22873001.464   120198426.377        1052.061          46.000    22872998.336    93661110.627         819.683          41.000  
E34  25851539.987   135850966.006       -1831.880          49.000    25851541.329   104093745.756       -1403.647          51.000  
G27  23582444.898   123926526.359       -4192.065          46.000    23582443.375    96566212.611       -3266.627          44.000  
G31  25877633.852   135987895.394        1594.887          36.000    25877635.180   105964573.361        1243.089          35.000  
E03  24471420.810   128598209.653         -96.269          48.000    24471421.188    98536310.085         -73.752          54.000  
G21  20725452.471   108913004.254         671.539          47.000                                                                  
E27  28247321.347   148440551.747       -2743.044          38.000    28247320.980   113740275.833       -2101.828          36.000  
E18  27387672.803   143923229.130       -1351.135          46.000                                                                  
G32  23310177.880   122495821.662       -3172.981          42.000    23310175.837    95451294.255       -2472.681          45.000  
E13  27350299.056   143726843.793        1411.490          37.000    27350300.218   110128329.582        1081.435          43.000  
G10                                                                  25622025.314                1      -2897.080          25.000  
> 2024 04 15 11 16 00.0020000  0 25                     
S33  40491625.243   212785136.958        -648.473          42.000  
E05  25341319.363   133169539.151       -2645.909          40.000    25341321.005   102039009.139       -2027.418          49.000  
G04  25010236.582   131429650.200        3168.710          44.000    25010234.817   102412741.821        2468.981          45.000  
G02  21493629.830   112949816.502        1175.861          47.000                                                                  
R08  20567857.146   110139961.413        1401.571          52.000    20567850.241    85664557.558        1090.097          49.000  
R06  23900046.729   127535203.948       -4677.195          33.000                                                                  
R22  20132350.787   107467822.757        -521.226          52.000    20132345.941    83586159.819        -405.288          50.000  
G28  25192222.146   132386017.669        1281.935          45.000    25192218.750   103157909.769         999.104          43.000  
G08  21583653.476   113423015.416       -2761.658          49.000    21583650.976    88381508.215       -2152.002          46.000  
E08  26286307.935   138135456.832        2087.758          46.000    26286307.227   105844041.775        1599.799          47.000  
S31  39538445.666   207776088.695        -649.241          44.000  
R21  22672092.332   121323227.185       -3537.794          51.000    22672087.045    94362341.195       -2751.497          46.000  
R23  22039994.058   117899005.807        2552.376          48.000                                                                  
E15  24507960.124   128790278.121          77.139          47.000    24507960.944    98683510.917          59.116          50.000  
G03  22867018.538   120166983.615        1043.929          47.000    22867014.833    93636609.738         813.636          41.000  
E34  25862012.693   135906002.424       -1837.435          48.000    25862014.463   104135916.429       -1407.835          51.000  
G27  23606396.823   124052398.908       -4199.836          44.000    23606396.487    96664294.923       -3272.318          44.000  
G31  25868524.922   135940028.851        1596.316          39.000    25868525.499   105927274.760        1243.753          37.000  
G10  25643236.730                2      -3715.048          30.000    25643250.859                3      -2892.282          20.000  
E03  24472009.619   128601303.496        -110.075          48.000    24472010.067    98538680.645         -84.371          54.000  
G21  20721654.292   108893046.372         658.759          47.000                                                                  
E27  28262994.128   148522906.499       -2747.245          37.000    28262992.893   113803378.847       -2105.386          37.000  
E18  27395382.155   143963743.986       -1349.909          45.000                                                                  
G32  23328334.286   122591235.976       -3187.678          42.000    23328332.256    95525642.983       -2484.117          44.000  
E13  27342236.602   143684475.940        1412.711          37.000    27342238.244   110095865.863        1082.623          44.000  
> 2024 04 15 11 16 30.0030000  0 25                     
S33  40495325.522   212804582.642        -647.484          42.000  
E05  25356451.959   133249055.301       -2654.903          41.000    25356451.853   102099936.977       -2034.120          48.000  
G04  24992149.754   131334603.248        3167.591          44.000    24992148.585   102338679.139        2468.382          45.000  
G02  21486941.782   112914672.528        1167.103          48.000                                                                  
R08  20560063.769   110098229.039        1380.725          52.000    20560057.540    85632099.002        1073.921          50.000  
R06  23926349.461   127675555.719       -4678.857          34.000                                                                  
R22  20135329.095   107483722.349        -538.615          51.000    20135324.728    83598526.085        -418.919          50.000  
G28  25184923.298   132347663.259        1275.160          46.000    25184920.836   103128023.194         993.680          44.000  
G08  21599466.809   113506116.796       -2777.899          49.000    21599465.123    88446262.477       -2164.673          46.000  
E08  26274406.691   138072912.595        2081.958          46.000    26274405.709   105796118.214        1595.367          48.000  
S31  39542151.288   207795562.398        -648.771          44.000  
R21  22691962.341   121429557.304       -3550.438          49.000    22691957.939    94445042.273       -2761.435          47.000  
R23  22025692.995   117822506.758        2547.586          49.000                                                                  
E15  24507529.834   128788016.719          73.833          47.000    24507530.739    98681778.101          56.599          50.000  
G03  22861080.470   120135779.884        1036.436          47.000    22861076.407    93612295.102         807.635          42.000  
E34  25872516.459   135961200.825       -1842.123          48.000    25872518.322   104178211.212       -1411.511          51.000  
G27  23630393.129   124178494.885       -4206.348          45.000    23630392.051    96762551.355       -3277.702          44.000  
G31  25859409.150   135892120.185        1598.001          44.000    25859408.512   105889943.340        1245.047          41.000  
G10  25664436.422                       -3711.810          27.000    25664447.110                3      -2893.987          21.000  
E03  24472676.204   128604807.699        -123.145          48.000    24472676.652    98541365.642         -94.409          54.000  
G21  20717928.098   108873466.149         646.703          46.000                                                                  
E27  28278687.477   148605379.300       -2750.404          34.000    28278686.505   113866572.256       -2107.381          34.000  
E18  27403084.407   144004219.250       -1348.045          44.000                                                                  
G32  23346573.494   122687090.059       -3201.938          41.000    23346572.765    95600334.357       -2495.068          44.000  
E13  27334166.639   143642065.448        1414.735          38.000    27334168.432   110063369.468        1084.053          45.000  
> 2024 04 15 11 17 00.0030000  0 25                     
S33  40499025.375   212824024.343        -647.695          42.000  
E05  25371635.983   133328845.201       -2663.872          42.000    25371636.124   102161074.581       -2041.247          48.000  
G04  24974072.433   131239608.182        3165.807          44.000    24974071.451   102264656.894        2467.112          45.000  
G02  21480307.536   112879811.198        1157.391          47.000                                                                  
R08  20552390.378   110057141.279        1359.025          51.000    20552384.714    85600141.827        1057.018          50.000  
R06  23952663.856   127815963.802       -4681.337          34.000                                                                  
R22  20138409.308   107500162.820        -556.921          52.000    20138404.152    83611313.078        -433.185          49.000  
G28  25177667.775   132309537.380        1267.185          45.000    25177666.394   103098314.693         987.272          44.000  
G08  21615375.014   113589715.584       -2794.867          49.000    21615373.059    88511404.296       -2177.655          46.000  
E08  26262540.503   138010556.948        2075.469          46.000    26262539.702   105748339.159        1590.293          48.000  
S31  39545856.108   207815031.174        -648.802          44.000  
R21  22711905.447   121536280.127       -3563.905          49.000    22711902.658    94528048.717       -2771.839          48.000  
R23  22011424.117   117746176.112        2541.812          50.000                                                                  
E15  24507121.145   128785868.858          69.735          46.000    24507122.023    98680132.282          53.559          50.000  
G03  22855187.558   120104814.411        1028.228          46.000    22855184.595    93588166.148         801.323          43.000  
E34  25883050.552   136016555.514       -1847.566          49.000    25883051.962   104220625.764       -1415.740          51.000  
G27  23654428.641   124304800.534       -4213.560          45.000    23654427.404    96860971.196       -3283.274          43.000  
G31  25850284.720   135844172.663        1598.926          44.000    25850284.541   105852581.632        1246.048          42.000  
G10  25685634.724                3      -3710.188          27.000    25685640.286                3      -2897.451          21.000  
E03  24473421.473   128608719.662        -136.931          49.000    24473421.091    98544363.068        -104.910          54.000  
G21  20714274.147   108854264.717         633.843          46.000                                                                  
E27  28294402.996   148687959.973       -2754.186          34.000    28294401.302   113929848.307       -2110.428          32.000  
E18  27410778.064   144044649.545       -1346.758          44.000                                                                  
G32  23364895.268   122783372.339       -3216.302          41.000    23364894.379    95675359.396       -2506.271          44.000  
E13  27326087.121   143599613.108        1415.843          37.000    27326090.504   110030841.025        1085.013          46.000  
> 2024 04 15 11 17 30.0030000  0 24                     
S33  40502725.558   212843468.126        -648.196          42.000  
E05  25386872.196   133408916.459       -2673.492          40.000    25386872.569   102222427.739       -2048.636          47.000  
G04  24956006.027   131144670.864        3163.437          43.000    24956005.420   102190679.653        2465.106          45.000  
G02  21473728.861   112845239.897        1147.577          47.000                                                                  
R08  20544838.903   110016704.073        1337.084          51.000    20544833.418    85568690.633        1039.968          50.000  
R06  23978989.518   127956436.303       -4682.358          33.000                                                                  
R22  20141592.635   107517153.134        -575.506          52.000    20141587.510    83624527.717        -447.617          50.000  
G28  25170457.595   132271648.122        1258.913          45.000    25170456.707   103068790.586         980.993          45.000  
G08  21631379.884   113673818.889       -2811.786          50.000    21631377.558    88576939.271       -2190.973          46.000  
E08  26250711.860   137948395.875        2068.664          46.000    26250710.973   105700709.183        1585.124          48.000  
S31  39549561.446   207834502.081        -648.953          44.000  
R21  22731924.384   121643404.394       -3577.396          50.000    22731921.528    94611367.419       -2782.491          47.000  
R23  21997187.876   117670021.438        2535.522          50.000                                                                  
E15  24506735.956   128783841.891          65.672          47.000    24506736.594    98678579.108          50.255          50.000  
G03  22849341.845   120074092.292        1019.990          47.000    22849338.556    93564226.786         794.875          43.000  
E34  25893615.198   136072075.427       -1853.360          48.000    25893617.263   104263166.882       -1420.087          51.000  
G27  23678504.635   124431323.797       -4220.902          44.000    23678503.266    96959560.587       -3288.927          43.000  
G31  25841153.992   135796193.745        1599.934          39.000    25841154.111   105815195.480        1246.539          40.000  
E03  24474244.700   128613046.109        -150.988          48.000    24474244.458    98547678.094        -115.713          54.000  
G21  20710694.218   108835450.258         620.726          46.000                                                                  
E27  28310137.218                       -2759.097          30.000    28310138.317   113993212.499       -2113.381          33.000  
E18  27418463.930   144085042.565       -1345.904          44.000                                                                  
G32  23383299.950   122880089.821       -3231.174          44.000    23383299.006    95750723.543       -2517.825          44.000  
E13  27318001.879   143557124.399        1417.095          37.000    27318005.020   109998284.686        1085.653          46.000  
> 2024 04 15 11 18 00.0030000  0 25                     
S33  40506425.697   212862913.105        -648.180          42.000  
E05  25402160.833   133489266.485       -2682.979          40.000    25402163.728   102283994.577       -2055.702          47.000  
G04  24937951.337   131049792.939        3161.632          43.000    24937950.694   102116748.693        2463.549          45.000  
G02  21467206.105   112810959.668        1137.809          48.000                                                                  
R07  20295084.736                3      -2179.016          11.000                                                                  
R08  20537409.614   109976918.292        1315.402          51.000    20537404.017    85537746.123        1023.010          49.000  
R06  24005324.603                       -4686.201          31.000                                                                  
R22  20144879.122   107534694.401        -593.942          52.000    20144873.616    83638170.839        -461.917          49.000  
G28  25163293.269   132233997.485        1251.056          44.000    25163292.947   103039452.409         974.822          46.000  
G08  21647480.026   113758423.642       -2828.497          50.000    21647477.547    88642864.980       -2204.114          46.000  
E08  26238919.867   137886430.063        2062.277          46.000    26238919.452   105653228.842        1580.204          48.000  
S31  39553267.117   207853975.279        -649.174          44.000  
R21  22752019.146   121750927.949       -3590.692          52.000    22752014.876    94694996.705       -2792.751          46.000  
R23  21982985.156   117594045.051        2529.507          50.000                                                                  
E15  24506373.041   128781935.954          61.552          47.000    24506374.260    98677118.662          47.140          51.000  
G03  22843541.436   120043612.238        1012.136          47.000    22843538.698    93540476.072         788.920          42.000  
E34  25904213.232   136127760.194       -1858.862          49.000    25904214.070   104305834.322       -1424.329          51.000  
G27  23702621.947   124558060.954       -4228.101          44.000    23702620.347    97058316.641       -3294.668          43.000  
G31  25832018.213   135748185.205        1600.703          43.000    25832018.618   105777786.211        1247.466          41.000  
E03  24475146.107   128617786.311        -164.689          48.000    24475146.717    98551310.163        -126.336          54.000  
G21  20707187.968   108817023.812         607.661          46.000                                                                  
E27  28325895.498                       -2761.947          28.000    28325896.725   114056662.625       -2116.708          33.000  
E18  27426143.075   144125397.282       -1344.375          44.000                                                                  
G32  23401788.190   122977238.991       -3245.465          46.000    23401785.143    95826424.073       -2529.072          44.000  
E13  27309910.186   143514598.876        1418.132          37.000    27309912.945   109965700.112        1086.792          46.000  
> 2024 04 15 11 18 30.0030000  0 24                     
S33  40510125.173   212882352.913        -647.950          42.000  
E05  25417502.088   133569887.562       -2691.821          41.000    25417504.423   102345769.046       -2062.621          46.000  
G04  24919907.259   130954970.699        3160.221          43.000    24919906.491   102042861.134        2462.267          45.000  
G02  21460737.455   112776965.925        1128.505          48.000                                                                  
R08  20530100.594   109937778.679        1293.896          51.000    20530095.042    85507304.173        1006.345          49.000  
R06  24031669.347   128237553.395       -4687.331          33.000                                                                  
R22  20148267.607   107552781.884        -611.993          52.000    20148262.040    83652238.823        -475.913          50.000  
G28  25156172.736   132196582.041        1243.234          43.000    25156172.429   103010297.507         968.909          45.000  
G08  21663673.478   113843521.381       -2844.714          50.000    21663670.906    88709174.830       -2216.779          46.000  
E08  26227164.045   137824654.877        2055.998          46.000    26227163.917   105605894.565        1575.485          48.000  
S31  39556971.830   207873443.378        -648.743          44.000  
R21  22772186.105   121858843.413       -3603.547          51.000    22772181.298    94778930.822       -2802.651          46.000  
R23  21968814.349   117518243.263        2523.905          49.000                                                                  
E15  24506032.629   128780145.730          57.916          47.000    24506033.746    98675746.885          44.273          51.000  
G03  22837785.522   120013367.645        1004.377          47.000    22837783.342    93516908.833         782.489          43.000  
E34  25914839.484   136183604.073       -1863.914          48.000    25914840.701   104348623.704       -1428.271          51.000  
G27  23726779.044   124685002.892       -4234.805          44.000    23726777.572    97157232.286       -3299.761          44.000  
G31  25822877.194   135700143.479        1601.824          44.000    25822876.902   105740351.085        1248.296          41.000  
E03  24476126.111   128622934.154        -178.207          48.000    24476126.085    98555254.567        -136.608          54.000  
G21  20703754.648   108798981.151         595.158          47.000                                                                  
E27  28341676.095                       -2765.625          28.000    28341674.353                       -2118.354          31.000  
E18  27433813.575   144165707.291       -1342.772          44.000                                                                  
G32  23420356.079   123074810.856       -3259.310          47.000    23420353.217    95902453.979       -2539.791          44.000  
E13  27301809.417   143472030.688        1419.848          37.000    27301812.053   109933082.901        1087.757          45.000  
> 2024 04 15 11 19 00.0030000  0 24                     
S33  40513824.873   212901795.127        -647.546          42.000  
E05  25432897.630   133650784.722       -2700.878          43.000    25432899.820   102407755.087       -2069.405          47.000  
G04  24901875.562   130860213.491        3157.971          43.000    24901874.448   101969024.217        2460.769          44.000  
G02  21454325.125   112743268.115        1118.665          49.000                                                                  
R08  20522913.749   109899293.341        1272.219          51.000    20522907.846    85477371.076         989.601          49.000  
R06  24058024.244   128378191.615       -4688.860          34.000                                                                  
R22  20151759.366   107571424.265        -630.277          52.000    20151755.164    83666738.389        -490.233          51.000  
G28  25149099.511   132159411.453        1235.182          43.000    25149098.862   102981333.420         962.484          45.000  
G08  21679961.638   113929116.646       -2861.120          49.000    21679959.157    88775872.359       -2229.303          45.000  
E08  26215447.076   137763078.628        2049.522          46.000    26215446.412   105558712.698        1570.521          48.000  
S31  39560676.650   207892913.286        -648.744          44.000  
R21  22792426.127   121967156.383       -3616.672          51.000    22792421.271    94863174.046       -2813.022          45.000  
R23  21954677.776   117442626.733        2517.856          49.000                                                                  
E15  24505715.414   128778479.003          53.840          47.000    24505716.880    98674469.718          41.283          51.000  
G03  22832076.331   119983364.867         996.374          47.000    22832074.679    93493530.019         776.119          43.000  
E34  25925497.584   136239614.396       -1869.445          48.000    25925499.280   104391540.614       -1432.388          51.000  
G27  23750974.486   124812153.547       -4241.460          44.000    23750973.895    97256310.533       -3305.035          44.000  
G31  25813730.930   135652077.629        1602.802          44.000    25813729.794   105702897.183        1249.136          41.000  
E03  24477183.846   128628496.506        -191.907          48.000    24477184.888    98559516.584        -147.052          54.000  
G21  20700396.403   108781331.725         582.231          47.000                                                                  
E27  28357477.493                       -2768.459          27.000    28357472.558                       -2121.240          29.000  
E18  27441477.180   144205979.212       -1341.315          44.000                                                                  
G32  23439004.662   123172809.506       -3273.429          47.000    23439002.380    95978816.459       -2550.430          44.000  
E13  27293703.221   143429427.095        1421.129          38.000    27293704.216   109900438.534        1088.882          45.000  
> 2024 04 15 11 19 30.0030000  0 24                     
S33  40517524.628   212921238.109        -648.279          42.000  
E05  25448345.462   133731955.478       -2710.222          44.000    25448345.707   102469950.734       -2076.723          46.000  
G04  24883857.148   130765522.871        3155.146          43.000    24883855.431   101895239.206        2458.531          44.000  
G02  21447968.745   112709866.777        1108.344          49.000                                                                  
R08  20515849.152   109861461.841        1250.193          51.000    20515842.865    85447946.543         972.289          49.000  
R06  24084387.680   128518880.355       -4690.801          35.000                                                                  
R22  20155355.286   107590622.499        -649.209          51.000    20155351.439    83681670.302        -504.974          51.000  
G28  25142073.096   132122487.622        1226.852          44.000    25142072.323   102952561.622         955.827          43.000  
G08  21696343.649   114015206.255       -2877.789          49.000    21696341.869    88842955.123       -2242.511          46.000  
E08  26203766.889   137701701.968        2042.510          47.000    26203767.260   105511683.786        1564.985          49.000  
S31  39564382.219   207912384.325        -648.933          44.000  
R21  22812741.415   122075864.781       -3630.184          52.000    22812736.731    94947724.893       -2823.418          46.000  
R23  21940577.085   117367197.438        2511.161          49.000                                                                  
E15  24505421.337   128776935.766          49.349          47.000    24505423.309    98673287.197          37.764          51.000  
G03  22826412.474   119953602.574         988.052          45.000    22826411.459    93470338.578         769.904          43.000  
E34  25936187.597   136295790.749       -1875.401          48.000    25936189.749   104434584.743       -1437.021          51.000  
G27  23775209.296   124939509.214       -4248.501          44.000    23775208.537    97355548.534       -3310.698          43.000  
G31  25804579.707   135603989.641        1603.271          44.000    25804578.697   105665426.047        1249.142          41.000  
E03  24478320.802   128634472.523        -205.998          47.000    24478322.367    98564095.560        -157.952          54.000  
G21  20697112.822   108764076.258         568.544          47.000                                                                  
E27  28373295.526                       -2772.768          29.000    28373290.435                       -2124.096          30.000  
E18  27449133.835   144246211.955       -1340.543          44.000                                                                  
G32  23457733.371   123271231.331       -3287.838          47.000    23457731.260    96055508.684       -2562.016          44.000  
E13  27285589.440   143386787.638        1421.787          39.000    27285590.026   109867766.688        1089.422          45.000  
> 2024 04 15 11 20 00.0030000  0 25                     
S33  40521224.803   212940682.375        -647.991          42.000  
E05  25463842.955   133813398.794       -2719.163          44.000    25463843.696   102532355.258       -2083.395          45.000  
G04  24865852.096   130670901.997        3152.728          43.000    24865849.823   101821508.548        2456.879          44.000  
G02  21441669.178   112676764.586        1098.737          48.000                                                                  
R07  20352276.926                3      -2270.275          15.000                                                                  
R08  20508908.199   109824286.347        1228.421          52.000    20508900.536    85419032.233         955.516          49.000  
R06  24110761.363   128659616.615       -4692.198          36.000                                                                  
R22  20159056.808   107610378.971        -667.647          52.000    20159052.384    83697036.393        -519.258          51.000  
G28  25135094.976   132085814.099        1218.321          45.000    25135093.272   102923984.803         949.313          42.000  
G08  21712819.411   114101788.626       -2894.165          49.000    21712818.331    88910421.823       -2255.249          46.000  
E08  26192126.682   137640527.099        2035.905          47.000    26192126.113   105464809.481        1559.944          49.000  
S31  39568087.874   207931857.396        -649.088          44.000  
R21  22833129.854   122184967.725       -3643.146          50.000    22833125.218    95032582.608       -2833.596          47.000  
R23  21926512.399   117291959.221        2504.896          50.000                                                                  
E15  24505152.335   128775517.691          45.482          47.000    24505153.529    98672200.568          34.744          51.000  
G03  22820795.649   119924081.038         980.441          45.000    22820792.821    93447334.702         763.759          42.000  
E34  25946910.218   136352134.288       -1880.729          49.000    25946911.423   104477756.975       -1441.119          50.000  
G27  23799483.522   125067067.655       -4255.103          45.000    23799482.090    97454944.564       -3315.681          43.000  
G31  25795425.528   135555882.758        1604.004          45.000    25795424.313   105627940.171        1249.817          41.000  
E03  24479537.417   128640862.944        -219.755          47.000    24479538.450    98568992.053        -168.341          55.000  
G21  20693904.372   108747217.202         555.541          47.000                                                                  
E27  28389128.298                       -2776.257          27.000    28389128.518                       -2127.174          28.000  
E18  27456783.408   144286405.991       -1339.084          45.000                                                                  
G32  23476542.512   123370074.221       -3301.532          48.000    23476540.940    96132529.049       -2572.635          45.000  
E13  27277468.587   143344113.425        1423.282          39.000    27277469.405   109835068.243        1090.432          44.000  
> 2024 04 15 11 20 30.0030000  0 25                     
S33  40524923.640   212960120.008        -648.081          42.000  
E05  25479391.706   133895104.520       -2728.047          44.000    25479392.870   102594960.840       -2090.474          46.000  
G04  24847858.996   130576344.878        3150.562          43.000    24847856.244   101747827.606        2454.828          43.000  
G02  21435426.315   112643955.091        1088.451          48.000                                                                  
R07  20365089.660                3      -2287.594          13.000                                                                  
R08  20502086.939   109787758.930        1206.475          52.000    20502078.808    85390621.998         938.340          49.000  
R06  24137144.125   128800389.247       -4693.172          37.000                                                                  
R22  20162860.991   107630686.796        -686.447          52.000    20162856.736    83712831.315        -533.836          51.000  
G28  25128162.416   132049385.137        1209.876          45.000    25128160.934   102895598.554         942.846          42.000  
G08  21729388.129   114188852.876       -2910.382          49.000    21729386.482    88978264.034       -2267.877          46.000  
E08  26180521.666   137579547.041        2029.045          45.000    26180521.850   105418084.445        1554.837          49.000  
S31  39571792.185   207951323.731        -649.209          44.000  
R21  22853589.169   122294455.264       -3656.294          49.000    22853585.947    95117739.421       -2843.886          47.000  
R23  21912482.373   117216906.606        2498.347          50.000                                                                  
E15  24504905.010   128774217.191          41.107          48.000    24504905.970    98671204.026          31.499          51.000  
G03  22815221.654   119894791.261         972.038          45.000    22815218.513    93424511.444         757.681          42.000  
E34  25957661.616   136408637.029       -1886.395          48.000    25957663.267   104521051.185       -1445.401          50.000  
G27  23823793.947   125194817.633       -4261.646          44.000    23823791.994    97554489.815       -3320.748          43.000  
G31  25786267.145   135507751.049        1604.558          45.000    25786265.105   105590434.942        1249.813          41.000  
E03  24480830.440   128647659.237        -233.543          47.000    24480831.899    98574199.565        -178.952          55.000  
G21  20690770.894   108730748.748         542.139          47.000                                                                  
E27  28404987.375                3      -2779.499          26.000    28404984.311                       -2129.290          28.000  
E18  27464423.393   144326552.632       -1337.815          45.000                                                                  
G32  23495430.408   123469326.996       -3315.548          49.000    23495428.375    96209868.764       -2583.486          45.000  
E13  27269339.783   143301396.385        1424.471          40.000    27269340.497   109802336.960        1091.204          44.000  
> 2024 04 15 11 21 00.0030000  0 25                     
S33  40528623.019   212979558.275        -647.934          42.000  
E05  25494988.931   133977078.619       -2736.885          42.000    25494991.727   102657772.044       -2097.264          46.000  
G04  24829879.408   130481861.691        3148.273          43.000    24829877.274   101674204.259        2452.936          43.000  
G02  21429240.664   112611447.750        1078.415          48.000                                                                  
R07  20383998.684                3      -2316.117          13.000                                                                  
R08  20495387.581   109751888.602        1184.683          51.000    20495381.446    85362722.840         921.433          50.000  
R06  24163533.563   128941202.372       -4694.803          35.000                                                                  
R22  20166770.203   107651555.315        -705.045          52.000    20166766.535    83729062.315        -548.380          51.000  
G28  25121278.405   132013211.212        1201.657          44.000    25121277.544   102867411.150         936.008          43.000  
G08  21746048.899   114276404.341       -2926.483          49.000    21746047.005    89046485.878       -2280.450          46.000  
E08  26168956.187   137518770.888        2022.510          45.000    26168956.487   105371515.680        1549.591          49.000  
S31  39575496.573   207970789.920        -648.901          44.000  
R21  22874121.587   122404333.998       -3669.257          48.000    22874120.164    95203200.479       -2853.769          47.000  
R23  21898488.945   117142051.007        2491.846          51.000                                                                  
E15  24504680.876   128773042.858          37.042          47.000    24504682.275    98670304.168          28.369          51.000  
G03  22809693.396   119865740.441         964.297          46.000    22809690.856    93401874.391         751.324          43.000  
E34  25968445.949   136465307.058       -1891.762          48.000    25968446.956   104564473.580       -1449.574          49.000  
G27  23848140.978   125322763.652       -4268.078          44.000    23848139.429    97654187.866       -3325.827          42.000  
G31  25777104.242   135459604.719        1604.960          43.000    25777102.365   105552918.294        1250.780          41.000  
E03  24482202.931   128654869.105        -247.220          47.000    24482204.000    98579723.961        -189.398          55.000  
G21  20687713.791   108714680.543         528.775          47.000                                                                  
E27  28420860.881                       -2781.959          25.000    28420859.993                       -2131.434          30.000  
E18  27472054.902   144366659.302       -1336.160          45.000                                                                  
G32  23514397.344   123568994.495       -3329.316          49.000    23514395.564    96287531.622       -2594.177          45.000  
E13  27261204.237   143258644.607        1425.693          40.000    27261204.998   109769579.041        1092.543          44.000  
> 2024 04 15 11 21 30.0030000  0 25                     
S33  40532320.463   212998989.544        -647.742          42.000  
E05  25510637.467   134059312.616       -2745.470          43.000    25510640.670   102720782.366       -2103.587          46.000  
G04  24811913.257   130387448.167        3145.966          43.000    24811910.865   101600635.165        2451.416          42.000  
G02  21423111.347   112579238.051        1068.608          48.000                                                                  
R07  20400302.438                3      -2335.602          14.000                                                                  
R08  20488810.716   109716669.293        1163.156          51.000    20488804.349    85335330.029         904.546          49.000  
R06  24189926.679   129082046.197       -4695.464          33.000                                                                  
R22  20170783.745   107672979.337        -723.501          52.000    20170779.880    83745725.382        -562.713          51.000  
G28  25114442.416   131977288.308        1193.154          43.000    25114440.747   102839419.288         929.741          41.000  
G08  21762800.224   114364433.905       -2942.383          49.000    21762798.419    89115080.224       -2292.651          46.000  
E08  26157427.947   137458193.385        2015.966          45.000    26157429.120   105325099.111        1544.765          49.000  
S31  39579200.190   207990250.877        -648.735          44.000  
R21  22894729.132   122514595.425       -3681.813          50.000    22894724.249    95288959.230       -2863.534          47.000  
R23  21884532.043   117067388.702        2485.388          51.000                                                                  
E15  24504480.718   128771988.869          33.050          48.000    24504481.666    98669496.504          25.342          51.000  
G03  22804209.474   119836921.295         956.902          47.000    22804207.439    93379417.867         745.669          44.000  
E34  25979260.505   136522138.080       -1897.048          48.000    25979261.639   104608019.325       -1453.638          49.000  
G27  23872524.064   125450896.141       -4274.047          45.000    23872522.930    97754031.214       -3330.515          42.000  
G31  25767938.198   135411439.653        1605.698          41.000    25767937.098   105515387.049        1251.147          41.000  
E03  24483652.948   128662485.720        -260.702          48.000    24483653.312    98585560.012        -199.703          55.000  
G21  20684731.498   108699007.908         515.819          47.000                                                                  
E18  27479677.863   144406719.051       -1334.576          44.000                                                                  
G32  23533440.317   123669067.068       -3342.326          47.000    23533438.154    96365510.163       -2604.536          45.000  
E13  27253061.530   143215851.740        1427.163          40.000    27253062.083   109736789.648        1093.729          44.000  
E27                                                                  28436752.383                       -2134.652          30.000  
> 2024 04 15 11 22 00.0030000  0 25                     
S33  40536017.568   213018416.924        -647.545          42.000  
E05  25526334.525   134141806.424       -2754.082          42.000    25526337.533   102783991.806       -2110.402          45.000  
G04  24793960.989   130293108.416        3143.207          43.000    24793958.495   101527123.578        2449.213          42.000  
G02  21417038.594   112547329.290        1058.432          48.000                                                                  
R07  20411679.229                3      -2350.484          13.000                                                                  
R08  20482355.959   109682103.462        1141.273          51.000    20482349.830    85308445.455         887.636          50.000  
R06  24216325.189                       -4696.094          31.000                                                                  
R22  20174901.618   107694962.098        -742.212          52.000    20174897.923    83762823.019        -577.248          51.000  
G28  25107655.471   131941620.860        1184.667          45.000    25107654.282   102811626.477         922.888          42.000  
G08  21779642.832   114452940.786       -2958.252          49.000    21779640.378    89184046.534       -2305.115          46.000  
E08  26145940.500   137397817.702        2009.091          46.000    26145940.217   105278837.180        1539.449          50.000  
S31  39582902.188   208009706.961        -648.554          44.000  
R21  22915405.286   122625240.056       -3694.581          49.000    22915401.786    95375016.008       -2873.515          48.000  
R23  21870611.945   116992924.368        2478.668          51.000                                                                  
E15  24504303.836   128771057.806          28.920          48.000    24504304.266    98668783.020          22.236          51.000  
G03  22798770.085   119808335.086         948.846          47.000    22798768.386    93357142.859         739.420          45.000  
E34  25990106.739   136579132.169       -1902.533          48.000    25990107.568   104651690.027       -1457.786          49.000  
G27  23896941.953   125579213.904       -4280.256          44.000    23896941.444    97854018.905       -3335.083          42.000  
G31  25758768.509   135363259.982        1606.242          39.000    25758769.334   105477844.447        1251.628          42.000  
E03  24485178.622   128670510.699        -274.405          47.000    24485180.549    98591708.978        -210.199          55.000  
G21  20681824.973   108683734.285         502.346          47.000                                                                  
E18  27487291.309   144446733.271       -1333.019          44.000                                                                  
G32  23552559.315   123769543.642       -3355.925          45.000    23552558.232    96443803.492       -2615.077          45.000  
E13  27244910.840   143173019.884        1428.067          40.000    27244911.748   109703970.364        1094.548          44.000  
E27                                                                  28452660.333                       -2136.397          29.000  
> 2024 04 15 11 22 30.0030000  0 24                     
S33  40539713.504   213037840.043        -647.481          42.000  
E05  25542082.582   134224559.836       -2762.910          44.000    25542085.446   102847400.165       -2117.104          45.000  
G04  24776023.132   130198846.333        3140.369          43.000    24776021.157   101453672.506        2447.015          43.000  
G02  21411024.079   112515725.105        1048.273          47.000                                                                  
R08  20476022.708   109648193.378        1119.186          50.000    20476016.627    85282070.908         870.458          49.000  
R06  24242729.949                       -4696.631          30.000                                                                  
R22  20179126.013   107717506.841        -761.135          52.000    20179121.480    83780357.769        -591.928          50.000  
G28  25100917.625   131906213.043        1175.725          45.000    25100916.422   102784035.993         916.167          43.000  
G08  21796576.181   114541924.028       -2974.213          49.000    21796572.706    89253384.042       -2317.676          45.000  
E08  26134489.848   137337646.727        2002.163          46.000    26134490.181   105232732.098        1534.033          50.000  
S31  39586604.184   208029159.804        -648.663          44.000  
R21  22936152.352   122736268.073       -3707.493          49.000    22936150.134    95461370.985       -2883.618          47.000  
R23  21856729.456   116918663.027        2471.735          51.000                                                                  
E15  24504150.524   128770252.027          24.580          48.000    24504150.835    98668165.563          18.887          50.000  
G03  22793374.846   119779982.719         941.181          47.000    22793372.867    93335050.097         733.344          44.000  
E34  26000982.583   136636291.269       -1908.265          47.000    26000984.503   104695487.165       -1462.242          49.000  
G27  23921394.959   125707715.462       -4286.647          44.000    23921394.919    97954149.832       -3340.268          42.000  
G31  25749599.314   135315069.958        1606.187          41.000    25749599.584   105440293.779        1251.544          41.000  
E03  24486783.580   128678945.450        -288.312          47.000    24486785.662    98598171.930        -220.839          55.000  
G21  20678994.728   108668863.262         488.544          46.000                                                                  
E18  27494897.544   144486703.284       -1331.763          44.000                                                                  
G32  23571756.123   123870422.882       -3369.421          47.000    23571753.946    96522410.621       -2625.746          45.000  
E13  27236752.926   143130150.864        1429.325          41.000    27236754.173   109671122.644        1095.150          44.000  
E27                                                                  28468585.861                       -2139.003          26.000  
> 2024 04 15 11 23 00.0030000  0 24                     
S33  40543410.468   213057266.515        -647.357          42.000  
E05  25557880.477   134307577.034       -2771.583          44.000    25557883.103   102911010.634       -2123.739          45.000  
G04  24758101.749   130104670.349        3137.604          43.000    24758100.135   101380288.526        2444.983          43.000  
G02  21405069.624   112484433.185        1037.896          47.000                                                                  
R08  20469813.000   109614945.735        1097.306          49.000    20469808.078    85256211.593         853.409          49.000  
R06  24269140.006                       -4697.847          27.000                                                                  
R22  20183455.797   107740621.067        -779.870          52.000    20183451.381    83798335.439        -606.567          50.000  
G28  25094230.310   131871073.548        1166.885          45.000    25094230.047   102756654.604         909.273          44.000  
G08  21813600.110   114631387.058       -2989.917          50.000    21813597.155    89323095.423       -2330.072          45.000  
E08  26123079.359   137277687.827        1994.992          45.000    26123080.412   105186789.522        1528.772          50.000  
S31  39590306.542   208048616.015        -648.410          44.000  
R21  22956974.296   122847683.898       -3720.121          50.000    22956971.097    95548027.534       -2893.444          47.000  
R23  21842886.079   116844613.635        2464.789          50.000                                                                  
E15  24504022.072   128769578.402          20.215          48.000    24504022.542    98667649.345          15.562          50.000  
G03  22788025.479   119751869.587         933.359          47.000    22788022.679    93313143.709         727.158          44.000  
E34  26011892.213   136693621.678       -1913.735          47.000    26011894.315   104739415.573       -1466.444          49.000  
G27  23945883.810   125836403.800       -4292.633          43.000    23945884.405    98054426.279       -3344.892          43.000  
G31  25740428.585   135266877.989        1606.551          41.000    25740428.655   105402741.629        1251.756          41.000  
E03  24488467.560   128687795.785        -301.874          46.000    24488469.955    98604953.318        -231.333          55.000  
G21  20676243.026   108654402.994         475.225          47.000                                                                  
E18  27502496.983   144526634.700       -1330.266          44.000                                                                  
G32  23591030.331   123971707.825       -3382.650          46.000    23591027.907    96601333.831       -2636.027          44.000  
E13  27228589.939   143087251.085        1430.673          42.000    27228590.737   109638251.318        1096.082          44.000  
E27                                                                  28484529.113                       -2140.715          26.000  
> 2024 04 15 11 23 30.0030000  0 25                     
S33  40547106.312   213076688.669        -647.171          42.000  
E05  25573727.962   134390849.925       -2779.913          45.000    25573729.750   102974817.017       -2130.066          46.000  
G04  24740196.365   130010576.603        3135.083          43.000    24740194.748   101306968.609        2442.957          43.000  
G02  21399174.021   112453449.166        1027.759          47.000                                                                  
R07  20461011.326                3      -2418.252          13.000                                                                  
R08  20463728.019   109582355.173        1075.409          51.000    20463722.186    85230863.318         836.453          49.000  
R06  24295556.644                       -4698.769          27.000                                                                  
R22  20187891.934   107764299.828        -798.740          52.000    20187887.166    83816752.187        -621.142          50.000  
G28  25087594.981   131836198.817        1158.099          46.000    25087593.654   102729479.432         902.560          45.000  
G08  21830713.313   114721321.165       -3005.676          49.000    21830710.609    89393173.878       -2342.023          44.000  
E08  26111708.840   137217936.121        1988.348          45.000    26111709.976   105141005.712        1523.571          50.000  
S31  39594007.925   208068067.450        -648.256          44.000  
R21  22977866.983   122959479.313       -3732.769          52.000    22977861.833    95634979.342       -2903.121          45.000  
R23  21829082.624   116770773.261        2457.990          50.000                                                                  
E15  24503917.604   128769031.494          16.143          47.000    24503918.499    98667230.236          12.395          50.000  
G03  22782719.277   119723988.800         925.663          46.000    22782717.373    93291418.356         721.397          44.000  
E34  26022833.298   136751117.499       -1919.163          47.000    26022835.409   104783470.727       -1470.615          49.000  
G27  23970406.370   125965269.619       -4298.226          42.000    23970406.785    98154841.026       -3349.648          43.000  
G31  25731257.035   135218680.353        1606.677          42.000    25731257.125   105365185.063        1251.998          41.000  
E03  24490230.214   128697055.289        -315.507          46.000    24490232.140    98612048.224        -241.662          55.000  
G21  20673568.897   108640348.946         461.775          47.000                                                                  
E18  27510087.698   144566520.953       -1328.758          45.000                                                                  
G32  23610379.180   124073389.286       -3396.006          44.000    23610378.147    96680566.034       -2646.136          45.000  
E13  27220418.593   143044314.612        1432.012          41.000    27220420.493   109605351.864        1097.207          45.000  
E27                                                                  28500486.250                3      -2141.294          21.000  
> 2024 04 15 11 24 00.0030000  0 24                     
S33  40550801.508   213096105.187        -647.313          42.000  
E05  25589621.851   134474375.047       -2788.733          44.000    25589624.677   103038816.648       -2136.685          47.000  
G04  24722307.339   129916565.855        3131.854          44.000    24722305.291   101233713.356        2440.582          44.000  
G02  21393336.723   112422773.140        1016.929          48.000                                                                  
R08  20457764.911   109550420.339        1053.278          51.000    20457759.010    85206025.079         819.217          49.000  
R06  24321977.453                3      -4699.438          25.000                                                                  
R22  20192433.674   107788542.879        -817.886          52.000    20192428.707    83835607.848        -636.150          50.000  
G28  25081008.832   131801589.763        1148.916          46.000    25081007.219   102702511.343         895.238          45.000  
G08  21847916.709   114811722.079       -3021.509          49.000    21847913.749    89463616.073       -2354.383          44.000  
E08  26100377.918   137158391.315        1981.144          46.000    26100378.624   105095380.444        1517.894          50.000  
S31  39597708.767   208087513.874        -648.459          44.000  
R21  22998829.420   123071651.202       -3745.690          51.000    22998823.882    95722224.013       -2913.237          45.000  
R23  21815318.397   116697143.223        2450.385          50.000                                                                  
E15  24503837.829   128768610.506          11.568          48.000    24503838.545    98666907.605           8.881          50.000  
G03  22777456.906   119696338.118         917.617          45.000    22777456.149    93269872.335         714.883          44.000  
E34  26033805.905   136808777.449       -1925.076          47.000    26033807.793   104827651.614       -1475.034          49.000  
G27  23994961.533   126094308.335       -4304.620          43.000    23994961.870    98255390.462       -3354.084          43.000  
G31  25722085.248   135170477.971        1606.234          45.000    25722084.580   105327624.794        1251.846          41.000  
E03  24492070.772   128706722.124        -329.373          47.000    24492071.723    98619455.229        -252.368          55.000  
G21  20670972.136   108626701.775         447.772          48.000                                                                  
E18  27517669.217   144606360.088       -1327.448          46.000                                                                  
G32  23629803.137   124175462.694       -3409.464          43.000    23629801.869    96760103.648       -2656.723          45.000  
E13  27212240.990   143001340.222        1432.592          40.000    27212243.022   109572423.349        1097.858          45.000  
E27                                                                  28516461.989                3      -2146.440          23.000  
> 2024 04 15 11 24 30.0030000  0 24                     
S33  40554496.380   213115522.725        -647.310          42.000  
E05  25605565.300   134558157.473       -2797.096          43.000    25605567.921   103103013.453       -2143.126          47.000  
G04  24704435.385   129822647.369        3128.943          44.000    24704433.245   101160529.996        2438.385          44.000  
G02  21387560.118   112392413.834        1006.565          48.000                                                                  
R08  20451925.035   109519148.900        1031.261          51.000    20451918.671    85181702.825         802.100          49.000  
R06  24348405.128                3      -4696.694          21.000                                                                  
R22  20197081.714   107813358.716        -836.855          52.000    20197077.699    83854908.990        -650.785          50.000  
G28  25074475.171   131767255.990        1139.735          45.000    25074474.471   102675757.767         887.942          46.000  
G08  21865208.729   114902594.137       -3037.000          49.000    21865206.307    89534425.404       -2366.364          45.000  
E08  26089088.534   137099061.702        1974.034          46.000    26089088.427   105049920.013        1512.536          49.000  
S31  39601409.512   208106961.293        -648.333          44.000  
R21  23019862.094   123184205.337       -3758.235          50.000    23019856.964    95809765.988       -2923.035          44.000  
R23  21801594.882   116623733.794        2443.177          50.000                                                                  
E15  24503783.306   128768323.185           7.258          48.000    24503783.938    98666687.407           5.617          50.000  
G03  22772239.923   119668923.909         909.862          45.000    22772239.018    93248510.549         708.827          45.000  
E34  26044810.835   136866608.731       -1930.597          47.000    26044812.970   104871963.782       -1479.268          49.000  
G27  24019550.422   126223523.803       -4310.096          42.000    24019551.138    98356077.623       -3358.628          43.000  
G31  25712912.898   135122280.289        1606.407          44.000    25712912.767   105290068.193        1251.610          41.000  
E03  24493988.391   128716802.985        -343.100          47.000    24493989.939    98627179.469        -262.774          55.000  
G21  20668454.423   108613470.049         434.034          48.000                                                                  
E18  27525242.636   144646158.713       -1325.869          46.000                                                                  
G32  23649302.622   124277932.071       -3422.219          43.000    23649302.040    96839949.762       -2666.641          45.000  
E13  27204057.453   142958335.073        1434.089          41.000    27204059.786   109539471.317        1098.892          45.000  
E27                                                                  28532450.787                3      -2146.421          20.000  
> 2024 04 15 11 25 00.0030000  0 23                     
S33  40558190.761   213134935.654        -646.912          42.000  
E05  25621556.544   134642189.978       -2805.109          44.000    25621559.204   103167401.862       -2149.299          48.000  
G04  24686579.967   129728818.049        3126.233          44.000    24686578.538   101087416.180        2436.090          44.000  
G02  21381842.788   112362367.997         996.386          47.000                                                                  
R08  20446208.419   109488536.103        1009.536          52.000    20446201.655    85157892.838         785.267          48.000  
R22  20201837.771   107838743.252        -855.558          53.000    20201832.911    83874652.482        -665.344          50.000  
G28  25067992.908   131733194.632        1130.907          44.000    25067992.758   102649216.439         881.232          46.000  
G08  21882589.466   114993929.344       -3052.020          49.000    21882586.599    89605595.614       -2378.198          44.000  
E08  26077838.683   137039943.142        1967.198          46.000    26077838.526   105004621.327        1507.291          49.000  
S31  39605109.478   208126403.842        -647.686          44.000  
R21  23040963.938   123297134.245       -3770.383          47.000    23040961.463    95897599.411       -2932.685          45.000  
R23  21787913.006   116550542.570        2436.188          50.000                                                                  
E15  24503753.027   128768164.966           3.264          47.000    24503753.824    98666566.126           2.456          50.000  
G03  22767068.160   119641740.086         902.462          47.000    22767066.226    93227328.287         703.240          46.000  
E34  26055847.058   136924606.248       -1935.874          46.000    26055849.760   104916403.327       -1483.388          50.000  
G27  24044171.805   126352907.589       -4315.597          42.000    24044171.275    98456895.954       -3362.719          42.000  
G31  25703741.014   135074084.175        1606.855          43.000    25703740.593   105252512.801        1251.737          41.000  
E03  24495985.664   128727292.199        -356.416          48.000    24495985.898    98635216.608        -273.018          55.000  
G21  20666014.773   108600650.362         420.605          48.000                                                                  
E18  27532806.911   144685911.104       -1324.266          45.000                                                                  
G32  23668875.707   124380789.018       -3434.796          43.000    23668873.536    96920097.921       -2676.375          44.000  
E13  27195866.332   142915294.238        1435.316          41.000    27195869.287   109506491.920        1099.805          45.000  
E27                                                                  28548457.601                3      -2145.206          22.000  
> 2024 04 15 11 25 30.0030000  0 24                     
S33  40561884.968   213154347.116        -646.849          42.000  
E05  25637595.635   134726473.721       -2813.736          44.000    25637597.631   103231982.779       -2155.991          48.000  
G04  24668743.291   129635083.335        3122.827          45.000    24668741.290   101014376.066        2433.533          44.000  
G02  21376185.425   112332640.238         985.651          47.000                                                                  
R08  20440615.347   109458585.331         987.252          51.000    20440608.288    85134597.785         767.811          48.000  
R06  24401229.631                3      -4700.441          14.000                                                                  
R22  20206700.714   107864700.855        -874.906          53.000    20206696.056    83894841.683        -680.491          51.000  
G28  25061564.487   131699411.375        1121.240          45.000    25061563.672   102622891.812         873.726          45.000  
G08  21900058.403   115085728.068       -3067.595          49.000    21900056.444    89677127.017       -2390.505          46.000  
E08  26066630.229   136981040.027        1959.798          46.000    26066629.636   104959487.714        1501.688          49.000  
S31  39608809.005   208145845.334        -648.120          44.000  
R21  23062139.228   123410439.560       -3783.142          49.000    23062134.980    95985725.590       -2942.451          45.000  
R23  21774272.693   116477575.919        2428.375          50.000                                                                  
E15  24503747.526   128768139.698          -1.302          47.000    24503749.224    98666546.728          -1.107          50.000  
G03  22761939.301   119614789.004         894.418          46.000    22761937.605    93206327.402         697.046          45.000  
E34  26066917.623   136982773.346       -1941.874          48.000    26066918.859   104960972.796       -1487.846          49.000  
G27  24068825.533   126482459.649       -4321.372          43.000    24068823.528    98557845.443       -3367.388          41.000  
G31  25694571.511   135025895.339        1606.043          43.000    25694570.933   105214963.044        1251.327          41.000  
E03  24498059.997   128738192.545        -370.220          47.000    24498060.129    98643568.777        -283.656          55.000  
G21  20663654.518   108588247.519         406.515          48.000                                                                  
E18  27540363.133   144725619.903       -1323.001          45.000                                                                  
G32  23688522.409   124484033.595       -3448.075          42.000    23688521.032    97000548.071       -2686.800          43.000  
E13  27187669.235   142872221.041        1436.276          40.000    27187672.397   109473487.721        1100.401          44.000  
E27                                                                  28564478.208                3      -2150.267          22.000  
> 2024 04 15 11 26 00.0030000  0 23                     
S33  40565577.916   213173754.844        -647.122          42.000  
E05  25653682.615   134811005.948       -2822.045          46.000    25653684.282   103296754.102       -2162.327          49.000  
G04  24650924.541   129541444.759        3119.397          45.000    24650922.882   100941410.852        2430.707          45.000  
G02  21370588.759   112303231.523         974.748          48.000                                                                  
R08  20435146.328   109429296.185         965.001          52.000    20435139.380    85111817.302         750.562          48.000  
R22  20211670.885   107891231.935        -894.179          53.000    20211665.623    83915476.924        -695.535          50.000  
G28  25055188.791   131665907.972        1111.960          44.000    25055187.829   102596785.268         866.467          44.000  
G08  21917614.160   115177986.796       -3083.221          48.000    21917613.450    89749016.819       -2402.493          46.000  
E08  26055462.269   136922352.741        1952.401          47.000    26055461.711   104914519.509        1496.007          49.000  
S31  39612508.186   208165283.476        -648.164          44.000  
R21  23083382.682   123524118.630       -3795.742          49.000    23083379.708    96074142.466       -2952.114          45.000  
R23  21760675.005   116404836.134        2420.673          50.000                                                                  
E15  24503768.331   128768247.343          -5.998          47.000    24503769.935    98666629.158          -4.558          51.000  
G03  22756854.637   119588069.168         886.490          46.000    22756852.478    93185506.682         691.084          44.000  
E34  26078018.242   137041109.400       -1947.584          47.000    26078019.907   105005671.771       -1492.252          50.000  
G27  24093509.648   126612176.106       -4326.666          42.000    24093508.123    98658923.006       -3371.585          42.000  
G31  25685403.834   134977715.535        1605.489          43.000    25685402.481   105177420.330        1250.930          40.000  
E03  24500210.799   128749502.851        -384.025          47.000    24500212.529    98652235.091        -294.312          55.000  
G21  20661374.232   108576262.806         392.192          49.000                                                                  
E18  27547910.710   144765283.908       -1321.564          45.000                                                                  
G32  23708244.334   124587661.915       -3460.920          43.000    23708241.197    97081297.276       -2696.528          44.000  
E13  27179467.971   142829114.952        1436.938          41.000    27179469.412   109440458.278        1101.272          44.000  
E27                                                                  28580509.289                3      -2152.857          16.000  
> 2024 04 15 11 26 30.0030000  0 23                     
S33  40569270.693   213193159.800        -646.933          42.000  
E05  25669815.228   134895784.187       -2830.109          46.000    25669817.081   103361713.912       -2168.689          49.000  
G04  24633124.463   129447904.040        3116.248          45.000    24633122.755   100868521.889        2428.223          45.000  
G02  21365053.581   112274142.966         964.245          46.000                                                                  
R08  20429800.416   109400668.753         943.110          51.000    20429793.517    85089551.476         733.539          48.000  
R22  20216747.982   107918337.190        -913.219          52.000    20216744.166    83936558.723        -710.303          51.000  
G28  25048867.309   131632686.357        1102.492          44.000    25048864.826   102570898.258         858.844          43.000  
G08  21935258.197   115270702.233       -3098.067          49.000    21935256.067    89821262.543       -2414.219          46.000  
E08  26044336.264   136863882.027        1945.328          47.000    26044335.345   104869717.219        1490.566          49.000  
S31  39616206.278   208184717.819        -647.933          44.000  
R21  23104695.740   123638169.021       -3807.976          50.000    23104692.046    96162848.207       -2961.717          44.000  
R23  21747119.706   116332325.879        2413.031          50.000                                                                  
E15  24503814.403   128768488.107         -10.346          47.000    24503815.760    98666813.597          -7.995          51.000  
G03  22751814.006   119561579.287         878.927          46.000    22751811.466    93164865.178         684.995          45.000  
E34  26089151.512   137099614.130       -1953.007          47.000    26089153.671   105050499.966       -1496.511          50.000  
G27  24118225.080   126742053.302       -4332.035          42.000    24118223.986    98760125.806       -3375.719          43.000  
G31  25676238.038   134929546.175        1605.290          44.000    25676235.543   105139885.746        1251.079          40.000  
E03  24502440.961   128761222.259        -397.500          47.000    24502442.711    98661214.866        -304.691          55.000  
G21  20659173.414   108564697.280         378.297          48.000                                                                  
E18  27555450.271   144804902.172       -1319.968          45.000                                                                  
G32  23728037.274   124691670.337       -3473.347          45.000    23728033.434    97162342.655       -2706.465          43.000  
E13  27171259.493   142785975.681        1438.519          42.000    27171260.523   109407403.459        1102.196          44.000  
E27                                                                  28596558.944                3      -2145.345          23.000  
> 2024 04 15 11 27 00.0030000  0 23                     
S33  40572962.665   213212561.345        -646.594          42.000  
E05  25685994.454   134980808.408       -2838.377          46.000    25685995.969   103426862.219       -2174.889          48.000  
G04  24615343.383   129354465.367        3112.683          44.000    24615341.579   100795712.449        2425.507          44.000  
G02  21359580.100   112245378.517         953.173          46.000                                                                  
R07  20570765.168                3      -2575.789          11.000                                                                  
R08  20424577.881   109372705.270         920.917          51.000    20424570.816    85067802.083         716.253          48.000  
R22  20221934.812   107946019.649        -932.581          52.000    20221930.284    83958089.465        -725.379          50.000  
G28  25042599.736   131599750.931        1092.752          44.000    25042598.100   102545234.236         851.613          44.000  
G08  21952987.101   115363873.489       -3113.563          48.000    21952986.519    89893863.464       -2426.208          46.000  
E08  26033251.253   136805630.976        1937.913          46.000    26033250.704   104825083.249        1484.849          50.000  
S31  39619904.328   208204151.058        -647.939          44.000  
R21  23126079.097   123752591.075       -3820.411          50.000    23126073.617    96251842.946       -2971.266          45.000  
R23  21733608.083   116260050.294        2405.133          49.000                                                                  
E15  24503886.296   128768864.653         -15.060          47.000    24503887.305    98667102.065         -11.470          51.000  
G03  22746816.861   119535320.528         871.173          46.000    22746814.825    93144403.801         678.816          45.000  
E34  26100317.968   137158289.646       -1959.036          48.000    26100319.689   105095459.009       -1500.939          51.000  
G27  24142970.647   126872089.963       -4337.524          42.000    24142969.513    98861452.861       -3379.812          43.000  
G31  25667075.238   134881391.935        1604.803          44.000    25667073.177   105102362.974        1250.409          41.000  
E03  24504749.648   128773352.267        -411.399          47.000    24504750.910    98670509.232        -315.209          54.000  
G21  20657052.975   108553554.648         364.271          48.000                                                                  
E18  27562981.369   144844476.168       -1318.647          45.000                                                                  
G32  23747900.826   124796057.735       -3486.095          45.000    23747899.716    97243683.371       -2716.373          45.000  
E13  27163044.120   142742805.490        1439.435          42.000    27163045.315   109374324.968        1102.796          44.000  
> 2024 04 15 11 27 30.0030000  0 23                     
S33  40576654.811   213231964.022        -647.065          42.000  
E05  25702220.866   135066080.098       -2846.785          46.000    25702223.235   103492200.135       -2181.238          49.000  
G04  24597582.938   129261134.474        3109.088          44.000    24597580.809   100722986.999        2422.552          43.000  
G02  21354169.146   112216942.881         942.125          46.000                                                                  
R07  20587620.959                3      -2602.836          13.000                                                                  
R08  20419480.715   109345409.051         898.630          51.000    20419472.772    85046571.672         698.937          47.000  
R22  20227229.247   107974284.113        -952.144          52.000    20227224.886    83980072.891        -740.472          51.000  
G28  25036388.285   131567107.539        1083.013          43.000    25036385.930   102519797.833         843.866          43.000  
G08  21970803.706   115457501.248       -3128.707          48.000    21970802.994    89966820.053       -2437.828          46.000  
E08  26022208.602   136747604.220        1930.274          46.000    26022208.936   104780621.135        1479.042          50.000  
S31  39623602.810   208223585.002        -648.052          44.000  
R21  23147532.172   123867386.448       -3832.909          51.000    23147528.141    96341128.068       -2981.158          46.000  
R23  21720141.723   116188015.929        2396.765          49.000                                                                  
E15  24503984.663   128769381.140         -19.828          48.000    24503985.691    98667497.770         -15.180          51.000  
G03  22741865.140   119509295.582         863.368          46.000    22741862.885    93124124.584         672.847          45.000  
E34  26111515.761   137217139.492       -1964.758          47.000    26111518.393   105140551.659       -1505.473          51.000  
G27  24167745.946   127002286.410       -4342.663          41.000    24167745.415    98962904.454       -3383.880          43.000  
G31  25657914.482   134833258.678        1603.868          44.000    25657914.227   105064856.579        1249.776          42.000  
E03  24507136.279   128785895.867        -425.256          47.000    24507137.814    98680120.523        -325.862          54.000  
G21  20655013.841   108542840.283         349.747          48.000                                                                  
E18  27570504.123   144884008.878       -1317.275          46.000                                                                  
G32  23767836.611   124900824.451       -3498.681          44.000    23767836.205    97325319.689       -2726.390          44.000  
E13  27154824.088   142699608.086        1440.278          41.000    27154825.231   109341225.597        1103.507          44.000  
> 2024 04 15 11 28 00.0030000  0 23                     
S33  40580348.193   213251372.029        -647.023          42.000  
E05  25718494.855   135151600.412       -2854.838          46.000    25718497.132   103557728.561       -2187.489          49.000  
G04  24579844.451   129167916.757        3105.364          43.000    24579841.967   100650349.736        2419.749          44.000  
G02  21348821.257   112188841.359         931.175          47.000                                                                  
R07  20602571.679                3      -2625.188          13.000                                                                  
R08  20414509.028   109318783.916         876.360          52.000    20414500.373    85025863.207         681.482          48.000  
R22  20232633.792   108003134.778        -971.526          52.000    20232629.276    84002512.245        -755.590          50.000  
G28  25030233.025   131534761.894        1073.195          43.000    25030231.430   102494593.423         836.120          43.000  
G08  21988708.044   115551585.799       -3143.795          49.000    21988705.781    90040132.627       -2449.698          44.000  
E08  26011209.844   136689806.063        1922.896          46.000    26011210.810   104736334.220        1473.283          51.000  
S31  39627301.690   208243022.771        -647.898          44.000  
R21  23169054.742   123982556.318       -3845.154          51.000    23169050.131    96430704.476       -2990.760          45.000  
R23  21706721.855   116116229.091        2388.654          49.000                                                                  
E15  24504110.074   128770041.463         -24.293          47.000    24504111.399    98668003.679         -18.725          51.000  
G03  22736958.191   119483506.770         855.742          47.000    22736955.623    93104029.377         666.632          46.000  
E34  26122748.031   137276167.079       -1970.450          46.000    26122750.627   105185780.478       -1509.815          50.000  
G27  24192551.136   127132642.648       -4347.769          40.000    24192551.404    99064480.548       -3387.881          42.000  
G31  25648759.979   134785151.912        1603.147          45.000    25648759.415   105027370.764        1249.211          42.000  
E03  24509602.115   128798855.786        -438.985          47.000    24509604.010    98690050.817        -336.312          54.000  
G21  20653057.133   108532558.816         335.477          47.000                                                                  
E18  27578019.647   144923503.012       -1315.711          46.000                                                                  
G32  23787845.366   125005970.525       -3511.137          45.000    23787844.999    97407251.578       -2736.039          43.000  
E13  27146599.946   142656386.907        1441.021          42.000    27146600.640   109308108.027        1104.261          44.000  
> 2024 04 15 11 28 30.0030000  0 23                     
S33  40584042.620   213270783.724        -647.208          42.000  
E05  25734816.055   135237368.629       -2862.989          46.000    25734818.488   103623446.934       -2193.727          49.000  
G04  24562128.230   129074815.691        3101.330          43.000    24562125.693   100577803.373        2416.538          43.000  
G02  21343537.527   112161076.739         919.706          46.000                                                                  
R08  20409661.781   109292831.144         853.875          51.000    20409654.280    85005677.689         664.027          48.000  
R01  24536609.138                3       3241.052          14.000                                                                  
R22  20238148.938   108032574.080        -991.200          52.000    20238144.747    84025409.422        -770.905          51.000  
G28  25024135.291   131502717.606        1063.048          44.000    25024134.175   102469623.819         828.573          44.000  
G08  22006698.516   115646125.614       -3158.894          49.000    22006696.008    90113799.942       -2461.616          45.000  
E08  26000256.206   136632239.002        1915.006          47.000    26000256.223   104692224.367        1467.306          51.000  
S31  39631001.715   208262466.243        -648.396          44.000  
R21  23190646.172   124098100.284       -3857.619          49.000    23190642.479    96520571.828       -3000.325          46.000  
R23  21693349.511   116044694.439        2380.194          50.000                                                                  
E15  24504263.246   128770847.614         -29.328          47.000    24504264.940    98668621.318         -22.432          51.000  
G03  22732096.076   119457954.634         847.772          47.000    22732093.228    93084118.565         660.662          46.000  
E34  26134014.300   137335373.799       -1976.766          46.000    26134017.089   105231146.554       -1514.511          50.000  
G27  24217386.785   127263156.850       -4353.121          39.000    24217387.566    99166179.715       -3392.094          43.000  
G31  25639611.736   134737075.132        1601.882          43.000    25639610.031   104989908.408        1248.498          43.000  
E03  24512147.780   128812232.857        -452.998          46.000    24512149.649    98700300.741        -347.032          54.000  
G21  20651183.917   108522713.602         320.787          47.000                                                                  
E18  27585527.416   144962959.410       -1314.597          45.000                                                                  
G32  23807925.460   125111494.111       -3523.821          46.000    23807925.236    97489477.655       -2745.752          42.000  
E13  27138369.940   142613143.440        1441.684          41.000    27138372.187   109274973.378        1104.839          45.000  
> 2024 04 15 11 29 00.0030000  0 22                     
S33  40587736.376   213290195.695        -647.450          42.000  
E05  25751183.401   135323378.196       -2871.255          47.000    25751186.252   103689350.241       -2199.979          50.000  
G04  24544433.341   128981829.019        3097.473          43.000    24544430.668   100505346.166        2413.537          43.000  
G02  21338317.616   112133646.195         908.451          47.000                                                                  
R08  20404940.135   109267546.600         831.437          51.000    20404932.936    84986011.891         646.796          48.000  
R22  20243773.200   108062598.432       -1010.718          52.000    20243769.564    84048761.650        -786.164          51.000  
G28  25018094.461   131470972.612        1052.768          44.000    25018093.635   102444887.464         820.169          43.000  
G08  22024773.485   115741113.227       -3173.925          48.000    22024772.184    90187816.168       -2473.448          46.000  
E08  25989344.525   136574899.586        1907.288          47.000    25989344.561   104648288.931        1461.428          51.000  
S31  39634701.376   208281908.924        -648.232          44.000  
R21  23212306.758   124214011.826       -3870.137          49.000    23212303.301    96610725.070       -3010.063          46.000  
R23  21680023.928   115973410.122        2371.594          50.000                                                                  
E15  24504444.035   128771795.739         -34.097          47.000    24504445.379    98669347.763         -26.203          51.000  
G03  22727276.791   119432633.764         840.060          46.000    22727275.033    93064387.987         654.436          46.000  
E34  26145315.014   137394755.250       -1982.596          46.000    26145317.188   105276646.510       -1519.092          50.000  
G27  24242252.161   127393821.192       -4358.019          40.000    24242252.308    99267995.855       -3395.861          43.000  
G31  25630468.078   134689026.629        1600.830          42.000    25630466.573   104952467.992        1247.609          40.000  
E03  24514771.966   128826022.029        -466.912          46.000    24514773.916    98710866.425        -357.589          55.000  
G21  20649393.054   108513301.675         306.185          48.000                                                                  
E18  27593027.779   145002373.032       -1313.506          45.000                                                                  
G32  23828076.039   125217387.528       -3536.149          46.000    23828075.517    97571991.851       -2755.537          41.000  
E13  27130136.189   142569873.422        1442.484          40.000    27130138.264   109241818.370        1105.320          45.000  
> 2024 04 15 11 29 30.0030000  0 22                     
S33  40591429.775   213309604.074        -646.940          42.000  
E05  25767594.878   135409623.369       -2878.729          46.000    25767597.887   103755434.053       -2205.824          49.000  
G04  24526760.069   128888955.226        3093.742          43.000    24526757.474   100432976.924        2410.674          43.000  
G02  21333161.740   112106547.725         897.698          48.000                                                                  
R08  20400342.502   109242926.102         809.523          51.000    20400335.721    84966862.603         629.607          48.000  
R22  20249507.032   108093204.995       -1029.995          52.000    20249503.143    84072566.677        -801.097          51.000  
G28  25012110.730   131439525.512        1043.126          45.000    25012109.758   102420383.195         812.832          44.000  
G08  22042932.583   115836542.000       -3188.101          47.000    22042931.804    90262176.156       -2484.482          46.000  
E08  25978475.522   136517785.202        1899.993          47.000    25978475.798   104604525.928        1455.754          50.000  
S31  39638400.610   208301347.903        -648.004          44.000  
R21  23234035.737   124330285.065       -3881.925          49.000    23234031.892    96701159.620       -3019.142          46.000  
R23  21666745.628   115902375.725        2363.452          51.000                                                                  
E15  24504651.042   128772882.841         -38.706          48.000    24504652.369    98670180.684         -29.587          51.000  
G03  22722501.508   119407539.650         832.468          46.000    22722500.678    93044834.055         648.663          47.000  
E34  26156648.210   137454307.796       -1987.948          47.000    26156649.865   105322277.584       -1523.270          51.000  
G27  24267145.115   127524628.807       -4362.791          41.000    24267144.292    99369923.628       -3399.339          42.000  
G31  25621328.965   134641004.848        1600.398          41.000    25621327.808   104915048.408        1247.068          40.000  
E03  24517473.532   128840219.017        -480.109          46.000    24517475.746    98721744.601        -367.851          55.000  
G21  20647683.922   108504320.979         292.052          48.000                                                                  
E18  27600519.333   145041739.634       -1311.533          45.000                                                                  
G32  23848296.561   125323643.827       -3547.763          46.000    23848295.515    97654788.820       -2764.648          41.000  
E13  27121897.072   142526573.364        1443.662          41.000    27121898.990   109208640.342        1106.232          45.000  
