     3.00           OBSERVATION DATA    M: Mixed            RINEX VERSION / TYPE
CONVBIN 2.4.3                           20240415 211442 UTC PGM / RUN BY / DATE 
format: u-blox UBX                                          COMMENT             
log: /home/regis/git/gnsspwv/obsdata/VERT00CHL/2024-04-15/VECOMMENT             
{self.marker}                                               MARKER NAME         
                                                            MARKER NUMBER       
GEODETIC                                                    MARKER TYPE         
{self.observer}     {self.institution}                      OBSERVER / AGENCY   
UNKNOWN             UBLOX-ZED-F9P                           REC # / TYPE / VERS 
UNKNOWN             TWIVSP6037L                             ANT # / TYPE        
  1713381.0000 -5047934.0000 -3490983.0000                  APPROX POSITION XYZ 
        0.0000        0.0000        0.0000                  ANTENNA: DELTA H/E/N
G    8 C1C L1C D1C S1C C2L L2L D2L S2L                      SYS / # / OBS TYPES 
R    8 C1C L1C D1C S1C C2C L2C D2C S2C                      SYS / # / OBS TYPES 
E    8 C1C L1C D1C S1C C7Q L7Q D7Q S7Q                      SYS / # / OBS TYPES 
S    4 C1C L1C D1C S1C                                      SYS / # / OBS TYPES 
  2024    04    15    21    00   00.4940000     GPS         TIME OF FIRST OBS   
  2024    04    15    21    14   30.4940000     GPS         TIME OF LAST OBS    
                                                            END OF HEADER       
> 2024 04 15 21 00 00.4940000  0 23                     
G05  20419013.599   107302563.8191      -2965.953          46.000    20419019.064    83612369.2421      -2311.193          45.000  
E19  22463499.915   118046553.1811        891.046          43.000    22463504.474    90451335.3421        682.702          47.000  
G24  22388218.973   117650923.7531       1329.980          42.000    22388226.347    91676055.1131       1036.178          40.000  
E27  22480485.216   118135962.7941      -2402.515          45.000    22480491.599    90519912.2191      -1840.852          54.000  
R13  22281009.340                3      -4254.843          14.000                                                                  
R04  17241737.104    92328776.5061      -1280.630          52.000    17241733.282    71811278.2331       -995.957          47.000  
R03  19708564.949   105501500.4431      -4596.853          51.000    19708572.607    82056736.4491      -3575.342          49.000  
R15  18480976.773    98756902.3201        544.766          51.000    18480980.684    76811216.0901        423.777          50.000  
R05  19165449.162   102450353.9551       2443.542          51.000    19165451.386    79683505.4931       1900.598          49.000  
G19  21135142.246   111066188.5451       2023.658          44.000                                                                  
S31  36947935.034   194162636.7941       -789.747          43.000  
S33  37897003.138   199150101.9951       -790.790          43.000  
G14  19432782.863   102120191.9181      -3138.789          48.000    19432783.310    79574301.3711      -2445.726          48.000  
G20  22099733.707   116134702.6501      -3955.865          44.000                                                                  
R14  18153630.640    96769319.7291      -2688.726          54.000    18153633.800    75265204.4481      -2091.341          50.000  
E07  24842190.203   130546390.9791      -3175.026          43.000    24842209.172   100029012.9091      -2432.929          49.000  
G13  18400492.039    96695330.4751        189.693          47.000                                                                  
G17  20624006.642   108380210.6371       1412.674          46.000    20624011.094    84452293.5441       1100.697          44.000  
G15  20142791.367   105851109.7331       1667.808          47.000    20142792.783    82481411.7301       1299.668          44.000  
G22  18336819.366    96360918.5701      -1255.466          48.000                                                                  
G30  21126878.151   111022526.8731      -3043.383          42.000    21126884.260    86511093.2651      -2371.380          43.000  
E21  21904191.799   115107612.4931        253.315          48.000    21904198.236    88199515.3091        194.108          52.000  
E18  23068001.802   121223136.1151      -4837.929          32.000                                                                  
> 2024 04 15 21 00 30.4940000  0 24                     
G05  20435978.810   107391713.604       -2977.818          46.000    20435983.871    83681836.426       -2320.350          45.000  
E19  22458427.858   118019898.781         885.469          43.000    22458432.142    90430911.894         678.579          47.000  
G24  22380625.934   117611019.355        1330.397          43.000    22380632.380    91644960.952        1036.260          41.000  
E27  22494221.851   118208144.483       -2409.958          47.000    22494227.306    90575220.287       -1846.613          54.000  
R13  22304909.854                3      -4234.691          14.000                                                                  
R04  17248980.546    92367568.256       -1306.025          51.000    17248977.885    71841449.577       -1015.770          48.000  
R03  19734361.147   105639583.547       -4609.062          52.000    19734367.126    82164133.989       -3584.885          48.000  
R15  18477956.827    98740770.454         530.263          51.000    18477961.504    76798669.233         412.442          50.000  
R05  19151774.690   102377251.186        2429.510          51.000    19151776.400    79626647.892        1889.697          49.000  
G19  21123603.960   111005559.960        2018.104          45.000                                                                  
S31  36952439.650   194186311.713        -789.304          41.000  
S33  37901514.378   199173807.564        -790.040          43.000  
G14  19450731.087   102214510.590       -3149.513          48.000    19450731.478    79647796.445       -2454.245          48.000  
G20  22122312.430   116253351.836       -3954.742          45.000                                                                  
R14  18168787.828    96850116.126       -2698.120          53.000    18168790.467    75328046.107       -2098.497          50.000  
E07  24860329.643   130641717.796       -3180.343          43.000    24860349.513   100102055.061       -2436.791          48.000  
G13  18399441.001    96689805.757         177.961          47.000                                                                  
G17  20615974.849   108338003.414        1400.748          46.000    20615979.845    84419405.056        1091.427          45.000  
G15  20133291.443   105801187.811        1659.928          47.000    20133292.723    82442511.617        1293.559          45.000  
G22  18344036.166    96398842.852       -1273.180          47.000                                                                  
G30  21144256.921   111113847.418       -3044.718          38.000    21144261.798    86582252.125       -2372.570          43.000  
E21  21902775.292   115100168.800         242.627          48.000    21902781.446    88193811.803         185.895          52.000  
E18  23095647.444                3      -4845.227          26.000                                                                  
R16                                                                  21533577.801                3       1914.078          15.000  
> 2024 04 15 21 01 00.4940000  0 22                     
G05  20453012.104   107481223.457       -2989.478          46.000    20453017.100    83751584.192       -2329.777          45.000  
E19  22453387.668   117993415.582         880.121          42.000    22453392.507    90410619.648         674.337          47.000  
G24  22373031.623   117571108.021        1330.538          43.000    22373037.434    91613861.410        1036.604          41.000  
E27  22508000.415   118280554.606       -2417.399          46.000    22508006.545    90630703.400       -1852.230          54.000  
R04  17256367.134    92407128.165       -1331.334          51.000    17256365.572    71872218.385       -1035.518          48.000  
R03  19760226.094   105778035.711       -4621.104          52.000    19760230.561    82271818.590       -3594.152          47.000  
R15  18475019.479    98725076.239         516.021          50.000    18475023.502    76786462.794         401.267          49.000  
R05  19138177.586   102304573.212        2415.650          50.000    19138180.492    79570120.687        1878.778          49.000  
G19  21112099.220   110945102.368        2012.525          46.000                                                                  
S31  36956942.220   194209971.622        -788.370          43.000  
S33  37906022.663   199197499.187        -789.363          42.000  
G14  19468741.835   102309157.504       -3160.192          49.000    19468742.209    79721547.320       -2462.471          47.000  
G20  22144886.510   116371975.376       -3953.717          45.000                                                                  
R14  18183997.879    96931195.319       -2707.197          53.000    18184001.290    75391107.726       -2105.643          50.000  
E07  24878501.172   130737202.730       -3185.435          44.000    24878520.086   100175218.438       -2440.671          48.000  
G13  18398458.630    96684639.528         166.258          47.000                                                                  
G17  20608011.338   108296159.197        1388.752          45.000    20608016.554    84386799.495        1082.078          45.000  
G15  20123838.482   105751508.661        1651.881          48.000    20123838.440    82403800.676        1287.130          44.000  
G22  18351354.601    96437300.937       -1290.818          48.000                                                                  
G30  21161644.604   111205218.430       -3046.486          42.000    21161650.292    86653450.229       -2373.747          43.000  
E21  21901419.913   115093047.451         232.095          48.000    21901426.060    88188355.288         177.846          52.000  
E18  23123364.240                       -4859.627          30.000                                                                  
> 2024 04 15 21 01 30.4940000  0 22                     
G05  20470110.110   107571076.905       -3000.728          45.000    20470115.815    83821599.681       -2338.142          45.000  
E19  22448378.458   117967091.700         874.877          42.000    22448383.193    90390449.461         670.392          47.000  
G24  22365432.991   117531175.878        1331.363          43.000    22365438.903    91582745.623        1037.672          41.000  
E27  22521820.462   118353177.919       -2424.224          46.000    22521826.263    90686349.867       -1857.560          54.000  
R04  17263896.375    92447442.551       -1356.343          51.000    17263894.185    71903573.973       -1054.905          48.000  
R03  19786156.801   105916839.947       -4632.634          52.000    19786161.015    82379777.036       -3603.098          48.000  
R15  18472162.626    98709804.751         502.059          52.000    18472165.368    76774585.130         390.518          49.000  
R05  19124659.153   102232310.350        2401.788          50.000    19124661.944    79513916.361        1868.097          50.000  
G19  21100625.061   110884805.358        2007.141          47.000                                                                  
S31  36961439.145   194233601.750        -787.087          44.000  
S33  37910525.465   199221161.605        -787.979          42.000  
G14  19486812.181   102404116.535       -3170.446          49.000    19486812.275    79795541.394       -2470.490          48.000  
G20  22167452.630   116490556.992       -3952.026          44.000                                                                  
R14  18199258.082    97012540.698       -2715.874          52.000    18199261.381    75454376.362       -2112.245          50.000  
E07  24896698.675   130832831.539       -3189.983          43.000    24896718.258   100248492.014       -2444.239          49.000  
G13  18397541.170    96679819.684         154.892          47.000                                                                  
G17  20600115.527   108254667.608        1377.224          46.000    20600119.069    84354468.688        1073.186          43.000  
G15  20114428.888   105702060.538        1644.415          49.000    20114428.767    82365269.754        1281.513          44.000  
G22  18358771.734    96476278.021       -1307.723          48.000                                                                  
G30  21179038.842   111296625.808       -3047.789          41.000    21179044.369    86724676.725       -2374.631          43.000  
E21  21900123.514   115086234.757         221.994          48.000    21900129.711    88183135.269         170.098          52.000  
E18  23151133.934   121659982.9941      -4870.303          31.000                                                                  
> 2024 04 15 21 02 00.4940000  0 22                     
G05  20487272.063   107661264.052       -3011.952          46.000    20487277.973    83891875.200       -2346.986          45.000  
E19  22443399.138   117940921.813         869.667          42.000    22443403.006    90370397.273         666.389          47.000  
G24  22357828.605   117491216.139        1332.402          43.000    22357834.492    91551608.416        1038.140          41.000  
E27  22535678.682   118426006.306       -2431.012          45.000    22535685.245    90742153.472       -1862.739          54.000  
R04  17271564.934    92488504.925       -1381.351          52.000    17271562.374    71935511.365       -1074.436          49.000  
R03  19812149.944   106055986.370       -4644.035          51.000    19812155.315    82488001.582       -3611.989          47.000  
R15  18469382.139    98694949.039         488.278          52.000    18469385.899    76763030.812         379.671          49.000  
R05  19111217.549   102160460.100        2387.970          50.000    19111220.364    79458032.936        1857.257          49.000  
G19  21089180.025   110824665.416        2001.880          47.000                                                                  
S31  36965929.398   194257197.499        -786.000          44.000  
S33  37915021.309   199244788.563        -787.224          42.000  
G14  19504939.627   102499378.572       -3180.531          49.000    19504939.872    79869771.585       -2478.303          49.000  
G20  22190007.999   116609087.029       -3950.288          43.000                                                                  
R14  18214566.625    97094142.792       -2724.385          53.000    18214568.953    75517844.671       -2118.945          49.000  
E07  24914923.466   130928597.042       -3194.499          44.000    24914942.859   100321870.264       -2447.687          49.000  
G13  18396688.793    96675341.657         143.460          47.000                                                                  
G17  20592286.457   108213524.933        1365.550          47.000    20592289.137    84322409.731        1063.998          43.000  
G15  20105061.928   105652839.334        1636.812          48.000    20105062.339    82326915.669        1275.251          44.000  
G22  18366285.197    96515765.910       -1324.910          47.000                                                                  
G30  21196438.156   111388062.905       -3048.435          41.000    21196443.180    86795926.364       -2375.383          42.000  
E21  21898883.900   115079724.044         212.044          47.000    21898890.727    88178146.639         162.394          52.000  
E18  23178955.695                       -4878.537          31.000                                                                  
> 2024 04 15 21 02 30.4940000  0 22                     
G05  20504500.257   107751797.183       -3023.573          46.000    20504506.557    83962420.321       -2356.192          45.000  
E19  22438451.164   117914922.538         863.660          42.000    22438455.262    90350475.814         661.763          47.000  
G24  22350221.995   117451243.971        1332.514          43.000    22350227.585    91520461.496        1038.112          41.000  
E27  22549578.248   118499053.586       -2438.759          45.000    22549585.509    90798124.813       -1868.609          54.000  
R04  17279375.217    92530331.077       -1407.078          52.000    17279373.523    71968042.784       -1094.369          49.000  
R03  19838210.355   106195487.141       -4656.028          52.000    19838216.641    82596501.745       -3621.311          48.000  
R15  18466682.533    98680523.539         473.598          52.000    18466685.931    76751811.147         368.230          49.000  
R05  19097857.128   102089041.961        2373.310          50.000    19097860.197    79402485.618        1845.709          49.000  
G19  21077768.630   110764701.491        1995.623          46.000                                                                  
S31  36970415.200   194280772.453        -785.587          44.000  
S33  37919513.581   199268395.805        -786.556          42.000  
G14  19523127.039   102594956.362       -3191.355          49.000    19523127.496    79944247.857       -2486.711          48.000  
G20  22212556.694   116727578.069       -3949.151          43.000                                                                  
R14  18229925.474    97176014.411       -2733.668          53.000    18229928.090    75581522.591       -2126.222          50.000  
E07  24933176.155   131024513.854       -3199.863          44.000    24933195.701   100395364.459       -2451.830          49.000  
G13  18395905.079    96671222.800         131.041          47.000                                                                  
G17  20584527.004   108172749.671        1352.927          47.000    20584530.947    84290637.064        1054.149          44.000  
G15  20095742.008   105603862.800        1628.225          48.000    20095742.201    82288752.190        1268.793          44.000  
G22  18373899.203    96555779.227       -1342.632          47.000                                                                  
G30  21213846.248   111479544.799       -3050.256          40.000    21213852.600    86867210.958       -2376.817          43.000  
E21  21897705.271   115073530.572         201.090          48.000    21897711.811    88173401.092         154.093          52.000  
E18  23206837.280   121952726.561       -4889.412          32.000                                                                  
> 2024 04 15 21 03 00.4940000  0 22                     
G05  20521796.634   107842686.905       -3035.431          47.000    20521800.616    84033243.292       -2365.245          44.000  
E19  22433539.707   117889108.784         857.491          43.000    22433543.100    90330696.498         657.046          47.000  
G24  22342614.643   117411272.351        1332.212          43.000    22342620.901    91489314.975        1038.175          41.000  
E27  22563523.173   118572331.298       -2446.269          46.000    22563530.096    90854272.750       -1874.415          54.000  
R04  17287331.043    92572934.603       -1432.874          52.000    17287329.079    72001178.833       -1114.488          49.000  
R03  19864338.397   106335352.038       -4668.006          51.000    19864345.307    82705285.087       -3630.617          49.000  
R15  18464066.135    98666540.984         458.823          51.000    18464069.118    76740935.983         356.890          49.000  
R05  19084581.426   102018073.348        2358.246          51.000    19084583.912    79347287.948        1834.192          49.000  
G19  21066393.928   110704929.694        1989.412          46.000                                                                  
S31  36974900.615   194304340.940        -785.291          43.000  
S33  37924004.148   199291996.248        -786.625          42.000  
G14  19541377.474   102690860.540       -3202.023          49.000    19541377.725    80018978.429       -2495.236          48.000  
G20  22235100.313   116846040.584       -3948.222          43.000                                                                  
R14  18245336.744    97258166.249       -2742.812          52.000    18245339.518    75645418.521       -2133.284          49.000  
E07  24951460.832   131120594.505       -3205.277          45.000    24951479.370   100468984.177       -2455.931          48.000  
G13  18395192.251    96667478.033         118.630          47.000                                                                  
G17  20576841.050   108132357.904        1340.047          46.000    20576844.806    84259163.231        1044.187          45.000  
G15  20086470.886   105555146.295        1619.605          47.000    20086471.430    82250791.355        1261.892          44.000  
G22  18381616.151    96596329.763       -1360.395          47.000                                                                  
G30  21231266.600   111571084.593       -3052.240          40.000    21231271.274    86938540.575       -2378.251          42.000  
E21  21896589.897   115067667.400         190.099          48.000    21896596.285    88168908.646         145.658          52.000  
E18  23234782.136   122099571.023       -4899.847          35.000                                                                  
> 2024 04 15 21 03 30.4940000  0 22                     
G05  20539159.313   107933926.965       -3047.227          47.000    20539163.365    84104339.263       -2374.297          43.000  
E19  22428662.171   117863478.600         851.228          42.000    22428665.963    90311057.860         652.267          47.000  
G24  22335008.263   117371297.646        1332.419          42.000    22335013.426    91458166.061        1038.300          41.000  
E27  22577510.852   118645834.585       -2453.960          46.000    22577516.987    90910593.477       -1880.240          54.000  
R04  17295431.843    92616311.715       -1458.772          52.000    17295429.102    72034916.547       -1134.645          48.000  
R03  19890532.721   106475574.617       -4680.020          50.000    19890540.046    82814346.606       -3640.092          49.000  
R15  18461531.160    98652997.296         444.142          51.000    18461534.422    76730402.161         345.417          50.000  
R05  19071388.752   101947554.978        2342.963          50.000    19071391.494    79292440.398        1822.375          49.000  
G19  21055055.738   110645349.981        1982.617          46.000                                                                  
S31  36979383.246   194327899.242        -785.092          43.000  
S33  37928493.583   199315587.204        -786.160          42.000  
G14  19559688.707   102787085.164       -3212.876          49.000    19559688.827    80093958.671       -2503.417          48.000  
G20  22257637.274   116964468.394       -3947.076          43.000                                                                  
R14  18260799.490    97340592.150       -2752.099          52.000    18260802.169    75709527.565       -2140.484          50.000  
E07  24969774.994   131216834.932       -3210.739          44.000    24969793.572   100542726.344       -2460.187          47.000  
G13  18394550.622    96664105.766         106.155          48.000                                                                  
G17  20569226.493   108092349.186        1327.284          45.000    20569231.195    84227987.892        1034.135          45.000  
G15  20077250.270   105506688.957        1611.038          47.000    20077249.958    82213032.467        1255.269          44.000  
G22  18389434.672    96637412.720       -1378.282          48.000                                                                  
G30  21248696.806   111662678.411       -3053.890          42.000    21248702.329    87009912.371       -2379.688          43.000  
E21  21895536.137   115062131.091         179.051          49.000    21895542.764    88164666.631         137.224          53.000  
E18  23262783.470   122246727.229       -4910.591          35.000                                                                  
> 2024 04 15 21 04 00.4940000  0 22                     
G05  20556588.445   108025515.093       -3058.796          47.000    20556592.126    84175706.491       -2383.610          43.000  
E19  22423820.735   117838034.286         845.292          43.000    22423823.830    90291561.640         647.440          47.000  
G24  22327400.323   117331320.752        1332.718          42.000    22327406.310    91427015.421        1038.338          41.000  
E27  22591540.422   118719562.793       -2461.309          46.000    22591546.798    90967086.565       -1885.941          53.000  
R04  17303676.674    92660464.115       -1484.677          52.000    17303673.948    72069257.270       -1154.699          48.000  
R03  19916794.802   106616152.869       -4691.859          50.000    19916801.604    82923684.755       -3649.318          48.000  
R15  18459078.608    98639892.812         429.458          51.000    18459082.163    76720209.923         334.069          49.000  
R05  19058282.343   101877491.906        2327.771          50.000    19058284.419    79237947.004        1810.413          48.000  
G19  21043754.567   110585966.585        1976.264          45.000                                                                  
S31  36983864.503   194351448.089        -784.862          43.000  
S33  37932980.624   199339167.543        -785.760          42.000  
G14  19578060.293   102883628.739       -3223.363          49.000    19578060.162    80169187.469       -2511.729          48.000  
G20  22280166.766   117082859.782       -3945.937          43.000                                                                  
R14  18276314.465    97423290.064       -2761.112          54.000    18276316.765    75773848.174       -2147.582          50.000  
E07  24988118.909   131313235.517       -3215.940          44.000    24988138.310   100616591.205       -2464.240          48.000  
G13  18393980.238    96661109.055          93.540          48.000                                                                  
G17  20561685.475   108052727.668        1314.150          46.000    20561691.409    84197114.330        1024.049          45.000  
G15  20068078.949   105458493.737        1601.913          47.000    20068078.986    82175477.809        1248.381          44.000  
G22  18397353.874    96679028.091       -1396.147          49.000                                                                  
G30  21266135.429   111754327.320       -3055.782          36.000    21266142.186    87081327.051       -2381.011          42.000  
E21  21894545.769   115056922.485         168.191          49.000    21894551.598    88160675.727         128.860          53.000  
E18  23290847.481                       -4921.415          27.000                                                                  
> 2024 04 15 21 04 30.4940000  0 21                     
G05  20574081.494   108117439.506       -3069.401          47.000    20574085.853    84247335.738       -2391.964          43.000  
E19  22419012.275   117812767.727         839.359          42.000    22419015.621    90272201.619         643.170          47.000  
G24  22319790.274   117291331.834        1333.285          42.000    22319796.112    91395855.444        1038.728          40.000  
E27  22605612.407   118793504.816       -2468.101          47.000    22605617.651    91023743.442       -1891.100          53.000  
R04  17312064.373    92705381.299       -1509.809          51.000    17312062.855    72104192.871       -1174.355          49.000  
R03  19943120.460   106757073.461       -4702.773          51.000    19943127.292    83033289.170       -3657.649          47.000  
R15  18456706.412    98627216.694         415.618          51.000    18456709.938    76710350.874         323.185          49.000  
R05  19045260.004   101807878.714        2313.141          52.000    19045261.673    79183803.518        1799.091          48.000  
G19  21032489.744   110526772.802        1969.990          45.000                                                                  
S31  36988341.880   194374977.920        -783.847          44.000  
S33  37937464.801   199362730.073        -784.808          42.000  
G14  19596489.971   102980479.013       -3233.163          50.000    19596490.459    80244655.252       -2519.420          48.000  
G20  22302686.857   117201202.244       -3943.646          42.000                                                                  
R14  18291877.237    97506247.652       -2769.385          53.000    18291878.595    75838370.771       -2153.943          49.000  
E07  25006492.227   131409785.929       -3220.701          44.000    25006511.712   100690570.862       -2467.774          47.000  
G13  18393480.227    96658479.788          81.720          48.000                                                                  
G17  20554219.577   108013486.522        1301.923          48.000    20554222.735    84166537.071        1014.544          44.000  
G15  20058956.209   105410553.404        1593.944          48.000    20058956.339    82138121.783        1242.051          44.000  
G22  18405372.028    96721164.948       -1413.088          48.000                                                                  
G30  21283585.736   111846021.312       -3057.016          39.000    21283590.872    87152776.902       -2382.086          42.000  
E21  21893614.967   115052031.828         157.851          49.000    21893620.954    88156928.440         121.018          53.000  
> 2024 04 15 21 05 00.4940000  0 21                     
G05  20591637.016   108209695.521       -3080.700          46.000    20591642.056    84319223.336       -2400.472          44.000  
E19  22414238.527   117787678.715         833.376          43.000    22414241.226    90252977.641         638.691          47.000  
G24  22312177.614   117251328.931        1333.728          43.000    22312183.770    91364684.560        1039.250          41.000  
E27  22619723.583   118867657.218       -2475.241          47.000    22619728.115    91080561.556       -1896.560          53.000  
R04  17320595.315    92751061.848       -1535.315          52.000    17320593.710    72139722.159       -1194.093          50.000  
R03  19969509.029   106898330.724       -4714.146          51.000    19969514.654    83143155.423       -3666.495          47.000  
R15  18454414.603    98614966.445         401.215          52.000    18454417.128    76700823.023         312.149          49.000  
R05  19032322.211   101738717.007        2297.949          51.000    19032323.565    79130011.193        1787.335          49.000  
G19  21021262.066   110467770.537        1963.738          45.000                                                                  
S31  36992815.122   194398486.987        -783.179          43.000  
S33  37941944.170   199386271.576        -784.086          41.000  
G14  19614977.325   103077631.740       -3243.346          49.000    19614978.446    80320358.697       -2527.369          48.000  
G20  22325197.342   117319491.156       -3941.994          43.000                                                                  
R14  18307487.511    97589460.514       -2777.965          53.000    18307489.741    75903091.908       -2160.579          50.000  
E07  25024893.965   131506483.701       -3225.589          44.000    25024913.409   100764663.436       -2471.531          47.000  
G13  18393049.732    96656217.929          69.234          48.000                                                                  
G17  20546825.074   107974627.111        1288.891          47.000    20546827.224    84136257.297        1004.313          44.000  
G15  20049882.180   105362868.480        1585.243          48.000    20049882.476    82100964.766        1235.002          44.000  
G22  18413488.746    96763820.128       -1430.375          48.000                                                                  
G30  21301040.807   111937758.582       -3058.596          38.000    21301047.159    87224260.403       -2383.410          42.000  
E21  21892743.851   115047457.181         147.257          48.000    21892749.992    88153423.305         112.883          53.000  
> 2024 04 15 21 05 30.4940000  0 21                     
G05  20609255.274   108302278.986       -3091.961          47.000    20609259.918    84391366.102       -2409.349          43.000  
E19  22409497.226   117762768.158         826.776          42.000    22409501.038    90233890.405         633.517          47.000  
G24  22304562.890   117211311.550        1333.697          44.000    22304568.799    91333502.358        1039.354          42.000  
E27  22633873.478   118942018.146       -2482.637          48.000    22633878.513    91137539.467       -1902.306          53.000  
R04  17329268.642    92797505.177       -1561.203          52.000    17329266.999    72175844.741       -1214.348          50.000  
R03  19995961.123   107039921.615       -4725.588          51.000    19995965.570    83253281.175       -3675.474          48.000  
R15  18452200.846    98603140.954         386.653          52.000    18452203.256    76691625.535         300.754          48.000  
R05  19019468.708   101670011.551        2282.080          51.000    19019471.182    79076573.688        1774.835          49.000  
G19  21010070.482   110408962.710        1956.594          45.000                                                                  
S31  36997284.442   194421974.466        -783.083          44.000  
S33  37946420.097   199409791.119        -784.244          42.000  
G14  19633521.982   103175084.015       -3253.827          49.000    19633522.036    80396295.543       -2535.494          48.000  
G20  22347696.319   117437723.522       -3940.620          43.000                                                                  
R14  18323145.012    97672925.247       -2786.758          53.000    18323148.161    75968008.913       -2167.607          50.000  
E07  25043322.767   131603327.856       -3231.191          43.000    25043342.580   100838868.141       -2475.675          47.000  
G13  18392688.595    96654325.133          56.444          47.000                                                                  
G17  20539503.133   107936151.798        1275.605          46.000    20539505.094    84106276.807         993.963          43.000  
G15  20040857.601   105315440.999        1576.099          48.000    20040857.301    82064008.327        1228.156          45.000  
G22  18421703.772    96806991.951       -1447.913          48.000                                                                  
G30  21318507.439   112029538.462       -3060.358          39.000    21318511.785    87295777.138       -2384.904          41.000  
E21  21891932.301   115043198.059         136.341          48.000    21891939.126    88150159.959         104.378          52.000  
> 2024 04 15 21 06 00.4940000  0 21                     
G05  20626935.934   108395195.633       -3102.727          47.000    20626941.285    84463768.495       -2417.629          43.000  
E19  22404792.522   117738046.027         820.970          41.000    22404796.510    90214947.530         629.090          47.000  
G24  22296946.725   117171287.872        1334.417          44.000    22296952.930    91302315.282        1039.829          43.000  
E27  22648064.323   119016594.432       -2489.325          47.000    22648069.746    91194682.379       -1907.411          53.000  
R04  17338085.297    92844719.889       -1586.500          52.000    17338083.287    72212567.253       -1233.974          50.000  
R03  20022474.777   107181851.232       -4736.453          51.000    20022479.999    83363670.328       -3683.913          48.000  
R15  18450068.924    98591747.620         372.739          52.000    18450071.347    76682764.210         289.915          49.000  
R05  19006703.197   101601774.045        2266.913          51.000    19006706.041    79023500.162        1763.129          49.000  
G19  20998919.069   110350360.872        1950.077          45.000                                                                  
S31  37001752.225   194445450.307        -782.281          44.000  
S33  37950892.994   199433299.979        -783.169          42.000  
G14  19652124.612   103272841.605       -3263.472          49.000    19652124.370    80472470.318       -2542.921          47.000  
G20  22370186.079   117555904.952       -3938.178          44.000                                                                  
R14  18338850.690    97756648.034       -2794.913          53.000    18338854.279    76033126.649       -2173.856          50.000  
E07  25061781.000   131700325.966       -3235.617          43.000    25061801.443   100913190.824       -2479.259          47.000  
G13  18392400.661    96652811.394          44.118          47.000                                                                  
G17  20532255.161   107898071.996        1262.962          44.000    20532259.474    84076604.494         984.130          45.000  
G15  20031883.453   105268281.423        1567.716          49.000    20031883.087    82027260.694        1221.315          45.000  
G22  18430019.015    96850687.429       -1465.077          48.000                                                                  
G30  21335984.037   112121369.184       -3061.744          41.000    21335987.259    87367333.476       -2385.616          42.000  
E21  21891183.962   115039262.733         125.920          48.000    21891190.478    88147144.678          96.422          52.000  
> 2024 04 15 21 06 30.4940000  0 22                     
G05  20644679.925   108488435.311       -3112.900          48.000    20644685.180    84536422.589       -2425.362          44.000  
E19  22400122.659   117713506.726         815.232          41.000    22400126.764    90196144.737         624.904          47.000  
G24  22289328.176   117131250.730        1335.011          44.000    22289333.461    91271117.666        1040.521          43.000  
E27  22662294.678   119091377.474       -2495.766          47.000    22662300.400    91251983.702       -1912.321          53.000  
R16  22274139.167                3       1859.957          10.000    21375627.989                3       1784.761          14.000  
R04  17347045.368    92892698.288       -1611.511          52.000    17347042.906    72249883.764       -1253.393          50.000  
R03  20049048.376   107324108.761       -4746.901          51.000    20049055.776    83474314.537       -3691.894          48.000  
R15  18448017.182    98580778.839         359.034          53.000    18448019.432    76674233.065         279.130          50.000  
R05  18994025.000   101534001.614        2251.673          52.000    18994027.342    78970788.332        1751.380          49.000  
G19  20987805.574   110291961.210        1943.646          45.000                                                                  
S31  37006215.552   194468905.941        -781.068          44.000  
S33  37955362.483   199456787.405        -782.131          42.000  
G14  19670783.604   103370894.950       -3272.953          50.000    19670783.310    80548875.567       -2550.389          47.000  
G20  22392664.777   117674025.511       -3935.644          43.000                                                                  
R14  18354602.334    97840618.465       -2802.661          53.000    18354606.179    76098437.003       -2179.840          51.000  
E07  25080265.992   131797470.423       -3240.127          41.000    25080287.791   100987625.586       -2482.585          46.000  
G13  18392183.958    96651671.786          32.091          47.000                                                                  
G17  20525082.336   107860383.423        1250.200          45.000    20525087.935    84047237.091         974.093          45.000  
G15  20022959.227   105221385.249        1559.205          48.000    20022958.522    81990718.274        1215.054          44.000  
G22  18438432.222    96894898.412       -1481.799          48.000                                                                  
G30  21353465.711   112213243.532       -3062.943          38.000    21353470.101    87438923.835       -2386.642          41.000  
E21  21890495.335   115035643.933         115.810          48.000    21890501.719    88144371.925          88.749          52.000  
> 2024 04 15 21 07 00.4940000  0 21                     
G05  20662482.826   108581989.908       -3123.934          48.000    20662487.405    84609322.152       -2434.451          43.000  
E19  22395487.348   117689145.768         808.698          41.000    22395491.212    90177478.602         619.695          47.000  
G24  22281705.291   117091193.844        1335.098          44.000    22281711.230    91239904.710        1040.302          44.000  
E27  22676563.587   119166359.626       -2503.038          48.000    22676569.097    91309437.585       -1917.852          53.000  
R04  17356146.434    92941434.140       -1637.481          52.000    17356144.829    72287789.380       -1273.598          51.000  
R03  20075683.573   107466684.905       -4758.143          51.000    20075691.391    83585206.550       -3700.739          49.000  
R15  18446042.226    98570227.256         344.460          52.000    18446044.467    76666026.398         267.880          49.000  
R05  18981433.995   101466692.292        2235.565          52.000    18981435.047    78918436.696        1738.837          48.000  
G19  20976729.274   110233760.942        1936.285          45.000                                                                  
S31  37010673.853   194492335.662        -780.903          44.000  
S33  37959827.338   199480250.485        -781.841          42.000  
G14  19689496.887   103469235.509       -3283.123          49.000    19689497.428    80625504.608       -2558.292          48.000  
G20  22415129.717   117792076.478       -3934.103          44.000                                                                  
R14  18370401.362    97924827.972       -2811.253          53.000    18370403.615    76163933.329       -2186.515          51.000  
E07  25098780.462   131894754.458       -3245.256          42.000    25098801.405   101062167.283       -2486.726          47.000  
G13  18392037.724    96650902.111          19.130          47.000                                                                  
G17  20517985.171   107823082.985        1236.351          46.000    20517990.230    84018172.084         963.433          45.000  
G15  20014084.168   105174748.848        1549.830          48.000    20014083.679    81954378.301        1207.513          44.000  
G22  18446941.672    96939617.158       -1499.482          48.000                                                                  
G30  21370956.039   112305155.347       -3064.795          40.000    21370961.186    87510543.360       -2388.127          42.000  
E21  21889866.712   115032335.495         104.847          49.000    21889872.115    88141836.974          80.371          52.000  
> 2024 04 15 21 07 30.4940000  0 21                     
G05  20680348.290   108675872.989       -3134.771          47.000    20680353.921    84682477.609       -2442.757          44.000  
E19  22390889.898   117664981.493         802.267          42.000    22390892.794    90158963.165         614.762          47.000  
G24  22274081.821   117051134.311        1335.455          44.000    22274087.336    91208689.645        1040.808          43.000  
E27  22690873.435   119241556.535       -2510.036          48.000    22690878.640    91367056.006       -1923.260          53.000  
R04  17365391.187    92990944.672       -1663.187          52.000    17365390.020    72326297.555       -1293.600          50.000  
R03  20102380.361   107609593.682       -4768.984          51.000    20102388.746    83696357.276       -3709.235          49.000  
R15  18444148.441    98560109.525         330.195          51.000    18444150.343    76658157.191         256.812          49.000  
R05  18968932.728   101399867.649        2219.495          52.000    18968934.162    78866462.039        1726.361          49.000  
G19  20965696.015   110175780.431        1928.904          46.000                                                                  
S31  37015130.705   194515756.700        -780.347          43.000  
S33  37964290.570   199503703.582        -781.409          42.000  
G14  19708268.335   103567877.872       -3292.946          49.000    19708268.755    80702368.774       -2565.925          48.000  
G20  22437584.386   117910072.572       -3932.063          44.000                                                                  
R14  18386246.152    98009291.283       -2819.580          52.000    18386248.865    76229626.985       -2192.973          50.000  
E07  25117323.451   131992194.517       -3250.670          43.000    25117344.252   101136828.528       -2490.582          47.000  
G13  18391965.038    96650520.954           6.306          47.000                                                                  
G17  20510965.276   107786190.912        1222.962          46.000    20510969.484    83989425.278         952.817          45.000  
G15  20005262.054   105128391.528        1540.697          47.000    20005262.041    81918255.783        1200.614          44.000  
G22  18455551.089    96984859.761       -1516.755          48.000                                                                  
G30  21388458.169   112397121.531       -3066.142          40.000    21388461.513    87582205.293       -2389.497          41.000  
E21  21889298.833   115029354.392          93.894          49.000    21889304.708    88139552.848          72.001          52.000  
> 2024 04 15 21 08 00.4940000  0 21                     
G05  20698276.559   108770085.673       -3145.582          46.000    20698282.099    84755889.872       -2450.946          44.000  
E19  22386329.724   117641019.684         795.804          42.000    22386332.990    90140602.864         609.739          47.000  
G24  22266458.252   117011075.915        1335.736          43.000    22266464.505    91177475.506        1040.857          43.000  
E27  22705224.131   119316970.584       -2516.950          48.000    22705229.428    91424840.813       -1928.530          52.000  
R04  17374783.243    93041233.590       -1688.875          52.000    17374781.778    72365411.127       -1313.452          51.000  
R03  20129139.346   107752835.590       -4779.797          50.000    20129148.175    83807767.089       -3717.528          48.000  
R15  18442337.082    98550428.869         315.870          52.000    18442338.335    76650627.910         245.679          49.000  
R05  18956524.393   101333535.746        2203.296          53.000    18956525.730    78814870.633        1713.727          50.000  
G19  20954706.315   110118026.946        1921.671          47.000                                                                  
S31  37019586.967   194539173.171        -779.833          43.000  
S33  37968752.603   199527153.238        -781.044          42.000  
G14  19727097.303   103666823.480       -3302.772          50.000    19727097.190    80779469.273       -2573.597          48.000  
G20  22460028.912   118028014.739       -3930.050          44.000                                                                  
R14  18402139.225    98094009.814       -2827.714          52.000    18402141.460    76295519.210       -2199.415          50.000  
E07  25135896.911   132089793.815       -3255.612          45.000    25135917.508   101211611.793       -2494.285          48.000  
G13  18391966.664    96650534.318          -6.695          47.000                                                                  
G17  20504022.669   107749714.035        1209.368          46.000    20504027.066    83961002.023         942.444          45.000  
G15  19996494.594   105082319.476        1531.385          47.000    19996494.396    81882355.551        1193.331          44.000  
G22  18464260.939    97030628.675       -1534.002          48.000                                                                  
G30  21405968.707   112489145.974       -3068.004          39.000    21405973.992    87653912.617       -2390.604          42.000  
E21  21888794.313   115026704.374          83.143          49.000    21888800.262    88137522.411          63.842          52.000  
> 2024 04 15 21 08 30.4940000  0 21                     
G05  20716265.862   108864618.018       -3156.147          47.000    20716270.439    84829551.281       -2459.298          43.000  
E19  22381807.158   117617253.858         789.122          42.000    22381810.416    90122392.707         604.758          47.000  
G24  22258833.336   116971010.656        1336.086          43.000    22258840.271    91146256.022        1040.941          43.000  
E27  22719614.495   119392592.344       -2523.878          47.000    22719619.645    91482784.796       -1933.956          52.000  
R04  17384317.593    93092292.658       -1714.547          51.000    17384317.291    72405123.710       -1333.537          51.000  
R03  20155959.274   107896399.674       -4790.465          51.000    20155967.764    83919427.466       -3725.901          48.000  
R15  18440605.840    98541176.329         301.558          52.000    18440606.679    76643431.610         234.531          49.000  
R05  18944206.947   101267692.135        2186.798          53.000    18944208.919    78763659.038        1700.891          49.000  
G19  20943758.051   110060495.392        1914.025          46.000                                                                  
S31  37024040.315   194562576.312        -779.321          42.000  
S33  37973212.718   199550589.905        -780.721          42.000  
G14  19745981.285   103766061.896       -3312.506          50.000    19745981.668    80856797.931       -2581.196          48.000  
G20  22482460.082   118145892.220       -3927.988          44.000                                                                  
R14  18418077.602    98178972.741       -2835.898          52.000    18418080.431    76361601.529       -2205.647          49.000  
E07  25154498.191   132187543.806       -3260.519          44.000    25154519.722   101286510.528       -2498.313          49.000  
G13  18392043.871    96650936.120         -19.724          47.000                                                                  
G17  20497159.923   107713647.804        1195.729          46.000    20497163.983    83932898.732         931.728          45.000  
G15  19987780.781   105036527.271        1522.193          46.000    19987780.437    81846673.383        1186.033          44.000  
G22  18473068.772    97076914.323       -1551.187          48.000                                                                  
G30  21423490.859   112581220.660       -3069.705          40.000    21423494.348    87725659.066       -2392.235          42.000  
E21  21888350.758   115024377.372          72.519          48.000    21888357.344    88135739.493          55.526          52.000  
> 2024 04 15 21 09 00.4940000  0 21                     
G05  20734310.918   108959446.613       -3165.597          46.000    20734316.141    84903443.519       -2466.584          44.000  
E19  22377318.934   117593666.803         783.503          42.000    22377322.124    90104319.567         600.344          48.000  
G24  22251204.662   116930919.879        1337.092          43.000    22251210.282    91115016.593        1041.884          43.000  
E27  22734040.136   119468401.704       -2529.942          47.000    22734045.903    91540872.510       -1938.448          52.000  
R04  17393993.069    93144102.317       -1739.269          52.000    17393991.993    72445420.072       -1352.745          50.000  
R03  20182834.066   108040262.887       -4800.266          50.000    20182842.917    84031320.493       -3733.466          48.000  
R15  18438949.457    98532332.034         288.163          51.000    18438951.787    76636552.845         224.082          49.000  
R05  18931978.171   101202322.563        2171.253          53.000    18931979.648    78712816.092        1688.837          49.000  
G19  20932848.854   110003170.757        1907.511          45.000                                                                  
S31  37028487.772   194585949.069        -778.308          43.000  
S33  37977666.488   199573994.302        -779.377          42.000  
G14  19764917.557   103865572.047       -3321.306          50.000    19764916.639    80934338.319       -2587.913          46.000  
G20  22504876.445   118263684.009       -3924.630          44.000                                                                  
R14  18434058.192    98264158.653       -2842.905          53.000    18434061.540    76427857.223       -2211.162          50.000  
E07  25173124.732   132285425.184       -3264.696          44.000    25173145.637   101361509.896       -2501.372          48.000  
G13  18392191.338    96651709.397         -31.763          48.000                                                                  
G17  20490371.713   107677975.610        1182.554          45.000    20490374.769    83905102.470         921.529          44.000  
G15  19979116.914   104990998.407        1513.442          47.000    19979116.758    81811196.390        1179.210          44.000  
G22  18481970.555    97123696.887       -1567.519          48.000                                                                  
G30  21441017.646   112673326.807       -3070.721          40.000    21441022.069    87797430.032       -2392.734          42.000  
E21  21887965.575   115022354.628          62.565          48.000    21887972.256    88134189.686          48.029          52.000  
> 2024 04 15 21 09 30.4940000  0 21                     
G05  20752412.784   109054574.035       -3175.950          45.000    20752418.396    84977568.570       -2474.949          43.000  
E19  22372866.084   117570264.383         776.785          42.000    22372868.838    90086387.880         595.192          48.000  
G24  22243571.507   116890807.746        1337.296          43.000    22243577.638    91083760.558        1042.011          44.000  
E27  22748503.222   119544401.460       -2536.707          48.000    22748508.273    91599106.097       -1943.651          52.000  
R04  17403809.303    93196666.491       -1764.987          52.000    17403806.986    72486303.290       -1372.685          50.000  
R03  20209765.849   108184427.036       -4810.780          51.000    20209773.965    84143447.572       -3741.745          47.000  
R15  18437370.387    98523899.633         274.040          51.000    18437373.793    76629994.417         213.139          50.000  
R05  18919838.828   101137435.193        2154.596          52.000    18919840.814    78662348.172        1675.800          50.000  
G19  20921980.689   109946060.836        1899.792          46.000                                                                  
S31  37032930.453   194609294.615        -777.949          44.000  
S33  37982115.515   199597373.753        -779.089          42.000  
G14  19783905.817   103965355.737       -3330.928          50.000    19783904.862    81012091.853       -2595.493          46.000  
G20  22527276.144   118381391.798       -3922.347          44.000                                                                  
R14  18450081.741    98349569.214       -2850.990          53.000    18450084.238    76494287.691       -2217.545          49.000  
E07  25191776.217   132383441.668       -3269.636          43.000    25191797.946   101436612.792       -2505.292          47.000  
G13  18392410.575    96652860.232         -44.998          48.000                                                                  
G17  20483658.996   107642704.746        1168.701          44.000    20483663.383    83877618.963         910.846          44.000  
G15  19970503.878   104945739.730        1503.939          46.000    19970504.248    81775929.953        1171.742          44.000  
G22  18490968.398    97170979.380       -1584.536          48.000                                                                  
G30  21458553.466   112765468.659       -3072.330          42.000    21458555.760    87869228.842       -2394.083          41.000  
E21  21887640.389   115020640.231          51.877          49.000    21887645.958    88132876.156          39.703          52.000  
> 2024 04 15 21 10 00.4940000  0 21                     
G05  20770573.558   109150004.386       -3185.889          47.000    20770578.858    85051929.686       -2482.359          44.000  
E19  22368449.210   117547055.608         770.415          42.000    22368452.056    90068604.583         590.342          48.000  
G24  22235936.442   116850681.783        1337.926          45.000    22235941.766    91052493.759        1042.327          45.000  
E27  22763002.679   119620597.593       -2543.037          49.000    22763007.541    91657490.184       -1948.606          52.000  
R04  17413767.048    93249992.802       -1790.129          52.000    17413765.716    72527779.275       -1392.385          50.000  
R03  20236754.873   108328895.999       -4820.512          51.000    20236762.517    84255811.720       -3749.292          47.000  
R15  18435871.077    98515885.989         260.291          51.000    18435873.756    76623761.708         202.361          50.000  
R05  18907793.604   101073041.801        2138.312          53.000    18907794.933    78612264.481        1663.159          49.000  
G19  20911155.323   109889176.501        1892.524          45.000                                                                  
S31  37037369.315   194632620.958        -777.029          44.000  
S33  37986560.661   199620732.853        -778.359          42.000  
G14  19802946.863   104065418.020       -3339.910          49.000    19802946.745    81090062.499       -2602.608          47.000  
G20  22549660.840   118499020.785       -3919.625          45.000                                                                  
R14  18466147.485    98435209.419       -2858.422          52.000    18466150.070    76560896.723       -2223.093          50.000  
E07  25210455.755   132481600.039       -3274.235          43.000    25210477.509   101511824.387       -2508.850          47.000  
G13  18392702.803    96654398.222         -57.740          48.000                                                                  
G17  20477025.672   107607846.546        1155.192          45.000    20477029.268    83850457.016         900.102          43.000  
G15  19961945.142   104900760.995        1494.691          46.000    19961944.743    81740881.654        1164.487          44.000  
G22  18500062.387    97218768.287       -1601.293          49.000                                                                  
G30  21476095.053   112857653.644       -3073.540          39.000    21476098.723    87941061.219       -2394.998          40.000  
E21  21887373.819   115019241.591          41.417          49.000    21887379.847    88131804.547          31.719          52.000  
> 2024 04 15 21 10 30.4940000  0 21                     
G05  20788789.181   109245730.133       -3195.729          46.000    20788795.217    85126520.961       -2490.110          44.000  
E19  22364068.809   117524037.416         763.867          42.000    22364071.776    90050967.314         585.498          48.000  
G24  22228296.122   116810537.146        1338.265          43.000    22228302.858    91021212.372        1042.916          45.000  
E27  22777537.973   119696983.865       -2549.320          49.000    22777543.326    91716019.957       -1953.373          52.000  
R04  17423866.193    93304075.841       -1815.415          51.000    17423865.311    72569843.833       -1412.027          50.000  
R03  20263798.250   108473661.594       -4830.525          50.000    20263805.996    84368406.553       -3756.984          46.000  
R15  18434449.302    98508285.047         246.417          53.000    18434451.501    76617849.962         191.571          50.000  
R05  18895839.473   101009141.827        2121.698          52.000    18895840.472    78562564.566        1650.183          50.000  
G19  20900373.466   109832516.459        1884.703          46.000                                                                  
S31  37041803.341   194655922.831        -776.273          44.000  
S33  37991001.197   199644069.207        -777.555          42.000  
G14  19822040.117   104165751.620       -3349.023          49.000    19822040.101    81168244.527       -2609.515          47.000  
G20  22572028.739   118616562.931       -3916.481          45.000                                                                  
R14  18482254.327    98521071.702       -2865.794          53.000    18482256.703    76627678.555       -2228.940          49.000  
E07  25229161.405   132579894.814       -3278.661          43.000    25229183.218   101587140.504       -2512.258          47.000  
G13  18393068.557    96656320.115         -70.599          48.000                                                                  
G17  20470470.451   107573398.237        1141.368          46.000    20470472.910    83823614.437         889.292          43.000  
G15  19953438.786   104856059.914        1485.112          46.000    19953437.912    81706049.673        1157.475          43.000  
G22  18509251.700    97267056.812       -1617.939          49.000                                                                  
G30  21493644.427   112949876.887       -3074.981          40.000    21493646.957    88012923.481       -2396.006          39.000  
E21  21887165.931   115018153.725          31.010          48.000    21887172.994    88130971.071          23.854          52.000  
> 2024 04 15 21 11 00.4940000  0 21                     
G05  20807060.303   109341747.055       -3205.238          46.000    20807067.401    85201339.149       -2497.652          45.000  
E19  22359724.140   117501209.696         757.545          42.000    22359727.785    90033476.012         580.613          47.000  
G24  22220653.018   116770372.243        1339.298          44.000    22220659.502    90989915.207        1043.576          45.000  
E27  22792109.271   119773557.283       -2555.518          48.000    22792114.234    91774693.118       -1958.079          51.000  
R04  17434106.082    93358913.514       -1840.410          51.000    17434106.135    72612495.295       -1431.407          50.000  
R03  20290897.268   108618718.822       -4840.073          52.000    20290903.892    84481228.259       -3764.357          46.000  
R15  18433103.847    98501094.352         232.995          53.000    18433106.174    76612257.341         181.150          50.000  
R05  18883978.123   100945737.670        2105.304          52.000    18883979.868    78513250.317        1637.407          50.000  
G19  20889633.234   109776081.725        1877.419          45.000                                                                  
S31  37046232.714   194679199.847        -775.424          43.000  
S33  37995436.830   199667378.210        -776.539          43.000  
G14  19841183.684   104266352.578       -3357.635          48.000    19841184.251    81246634.889       -2616.462          48.000  
G20  22594379.952   118734014.330       -3913.512          45.000                                                                  
R14  18498402.553    98607152.513       -2872.859          53.000    18498405.888    76694630.295       -2234.461          50.000  
E07  25247891.322   132678323.866       -3283.058          42.000    25247914.571   101662559.503       -2515.622          47.000  
G13  18393507.963    96658626.222         -83.347          48.000                                                                  
G17  20463992.746   107539361.359        1127.701          46.000    20463995.681    83797092.441         878.749          43.000  
G15  19944985.368   104811637.434        1476.105          47.000    19944984.372    81671434.839        1150.103          43.000  
G22  18518534.664    97315841.746       -1634.252          48.000                                                                  
G30  21511200.556   113042136.984       -3075.998          41.000    21511204.427    88084814.406       -2396.460          40.000  
E21  21887018.229   115017374.940          20.806          48.000    21887024.513    88130374.416          16.043          52.000  
> 2024 04 15 21 11 30.4940000  0 21                     
G05  20825386.153   109438046.950       -3214.713          46.000    20825391.940    85276377.798       -2504.844          44.000  
E19  22355415.963   117478568.870         751.528          42.000    22355419.730    90016127.902         575.805          48.000  
G24  22213005.137   116730181.947        1340.124          44.000    22213011.160    90958598.274        1044.211          44.000  
E27  22806714.461   119850311.217       -2561.523          48.000    22806720.089    91833504.594       -1962.696          52.000  
R04  17444487.962    93414499.999       -1865.406          51.000    17444486.125    72655729.168       -1450.906          50.000  
R03  20318049.009   108764059.535       -4849.529          52.000    20318057.388    84594270.420       -3771.846          48.000  
R15  18431833.169    98494308.018         219.466          51.000    18431835.554    76606979.190         170.658          50.000  
R05  18872209.065   100882828.398        2088.620          52.000    18872211.144    78464320.945        1624.454          50.000  
G19  20878936.396   109719870.941        1869.871          47.000                                                                  
S31  37050656.583   194702446.337        -774.320          43.000  
S33  37999866.930   199690658.915        -775.417          42.000  
G14  19860376.549   104367213.341       -3366.345          48.000    19860377.315    81325227.695       -2623.074          48.000  
G20  22616712.191   118851367.238       -3910.133          46.000                                                                  
R14  18514590.805    98693443.494       -2879.929          52.000    18514592.646    76761745.551       -2239.914          50.000  
E07  25266647.531   132776881.373       -3287.273          42.000    25266669.992   101738076.909       -2518.865          48.000  
G13  18394019.308    96661313.112         -96.144          48.000                                                                  
G17  20457594.490   107505733.768        1114.026          47.000    20457597.530    83770889.412         867.955          44.000  
G15  19936584.163   104767490.737        1466.815          46.000    19936584.137    81637034.871        1143.002          44.000  
G22  18527911.220    97365117.141       -1650.738          48.000                                                                  
G30  21528761.895   113134428.525       -3076.894          39.000    21528768.103    88156729.884       -2397.521          41.000  
E21  21886927.731   115016899.903          10.869          48.000    21886933.825    88130010.540           8.175          52.000  
> 2024 04 15 21 12 00.4940000  0 21                     
G05  20843765.109   109534628.589       -3224.073          45.000    20843771.422    85351636.015       -2512.275          44.000  
E19  22351143.858   117456117.953         745.301          43.000    22351147.149    89998925.334         570.964          48.000  
G24  22205352.948   116689967.468        1341.047          45.000    22205358.480    90927262.490        1044.738          44.000  
E27  22821355.173   119927245.454       -2567.529          48.000    22821360.151    91892454.249       -1967.351          52.000  
R04  17455008.861    93470836.050       -1890.360          51.000    17455007.557    72699546.078       -1470.318          51.000  
R03  20345252.360   108909680.894       -4858.812          51.000    20345261.387    84707530.801       -3778.841          48.000  
R15  18430639.255    98487926.144         205.912          52.000    18430640.482    76602015.607         160.148          48.000  
R05  18860534.469   100820419.167        2071.813          52.000    18860536.467    78415780.502        1611.345          51.000  
G19  20868282.930   109663888.891        1862.143          45.000                                                                  
S31  37055074.534   194725663.148        -773.226          42.000  
S33  38004291.355   199713909.199        -774.595          43.000  
G14  19879619.483   104468332.703       -3375.054          49.000    19879619.082    81404022.007       -2629.818          48.000  
G20  22639025.535   118968620.478       -3906.765          45.000                                                                  
R14  18530818.638    98779943.758       -2886.921          52.000    18530820.696    76829023.571       -2245.394          49.000  
E07  25285426.647   132875567.959       -3291.689          40.000    25285449.864   101813693.173       -2522.205          48.000  
G13  18394603.445    96664384.223        -108.919          48.000                                                                  
G17  20451274.088   107472519.914        1100.101          47.000    20451277.313    83745008.752         857.261          45.000  
G15  19928236.429   104723623.597        1457.462          47.000    19928236.217    81602852.728        1135.582          44.000  
G22  18537380.625    97414882.782       -1667.197          47.000                                                                  
G30  21546330.454   113226752.927       -3077.915          41.000    21546335.930    88228670.946       -2398.798          40.000  
E21  21886895.579   115016729.758           0.511          49.000    21886901.490    88129880.232           0.327          52.000  
> 2024 04 15 21 12 30.4940000  0 21                     
G05  20862198.117   109631499.617       -3233.521          45.000    20862204.685    85427119.728       -2519.694          43.000  
E19  22346909.903   117433869.861         738.593          43.000    22346913.732    89981878.155         565.891          48.000  
G24  22197697.894   116649740.583        1341.365          44.000    22197703.134    90895917.005        1045.105          44.000  
E27  22836031.987   120004370.238       -2573.728          49.000    22836036.911    91951549.894       -1972.053          52.000  
R04  17465670.791    93527932.951       -1915.466          52.000    17465669.651    72743954.756       -1489.895          50.000  
R03  20372509.965   109055592.317       -4868.257          51.000    20372518.983    84821016.788       -3786.436          49.000  
R15  18429522.782    98481959.718         192.260          50.000    18429524.238    76597375.190         149.504          49.000  
R05  18848956.647   100758525.653        2054.698          53.000    18848957.791    78367641.191        1598.119          50.000  
G19  20857675.969   109608150.053        1854.088          45.000                                                                  
S31  37059489.015   194748862.823        -772.858          43.000  
S33  38008712.237   199737143.048        -773.968          41.000  
G14  19898913.172   104569719.942       -3383.718          49.000    19898912.616    81483025.040       -2636.707          48.000  
G20  22661321.307   119085783.069       -3903.892          45.000                                                                  
R14  18547085.836    98866662.510       -2893.946          53.000    18547089.215    76896471.505       -2250.880          50.000  
E07  25304234.680   132974394.689       -3296.193          42.000    25304256.891   101889416.797       -2525.661          48.000  
G13  18395263.076    96667852.898        -122.059          48.000                                                                  
G17  20445033.794   107439733.995        1086.058          46.000    20445037.001    83719461.543         846.300          44.000  
G15  19919944.864   104680049.682        1447.856          47.000    19919944.884    81568899.074        1127.999          44.000  
G22  18546946.130    97465148.921       -1683.503          48.000                                                                  
G30  21563908.294   113319121.791       -3079.369          42.000    21563913.173    88300646.650       -2399.642          41.000  
E21  21886923.185   115016875.970          -9.816          49.000    21886929.067    88129992.343          -7.552          52.000  
> 2024 04 15 21 13 00.4940000  0 21                     
G05  20880686.764   109728653.524       -3242.923          46.000    20880692.729    85502823.882       -2526.981          43.000  
E19  22342713.157   117411821.725         731.912          42.000    22342718.099    89964984.209         560.783          48.000  
G24  22190039.267   116609496.570        1342.097          44.000    22190044.775    90864558.195        1045.775          44.000  
E27  22850743.228   120081679.496       -2579.729          48.000    22850748.571    92010786.879       -1976.650          53.000  
R04  17476473.945    93585785.434       -1940.652          51.000    17476473.196    72788951.073       -1509.372          50.000  
R03  20399819.976   109201785.243       -4877.579          50.000    20399829.757    84934721.691       -3793.559          49.000  
R15  18428482.609    98476403.419         178.729          52.000    18428484.924    76593053.688         138.981          50.000  
R05  18837474.731   100697147.540        2037.628          52.000    18837476.009    78319902.741        1584.827          51.000  
G19  20847114.403   109552653.407        1846.095          45.000                                                                  
S31  37063899.808   194772040.818        -772.061          43.000  
S33  38013129.165   199760353.689        -773.154          42.000  
G14  19918256.132   104671367.971       -3392.286          49.000    19918255.179    81562231.299       -2643.378          48.000  
G20  22683598.291   119202847.956       -3900.047          43.000                                                                  
R14  18563394.555    98953592.076       -2900.887          53.000    18563397.139    76964083.427       -2256.252          49.000  
E07  25323068.511   133073356.134       -3300.716          44.000    25323089.002   101965243.676       -2529.025          47.000  
G13  18395998.202    96671716.364        -135.271          48.000                                                                  
G17  20438875.970   107407374.123        1071.834          46.000    20438878.622    83694246.333         835.129          44.000  
G15  19911708.701   104636766.837        1438.140          47.000    19911708.353    81535172.195        1120.802          44.000  
G22  18556605.502    97515909.048       -1699.998          48.000                                                                  
G30  21581494.080   113411530.408       -3080.645          41.000    21581497.926    88372653.330       -2400.264          40.000  
E21  21887010.064   115017333.701         -20.043          48.000    21887016.371    88130343.150         -15.391          52.000  
> 2024 04 15 21 13 30.4940000  0 21                     
G05  20899227.119   109826087.420       -3252.374          45.000    20899234.463    85578746.166       -2534.397          43.000  
E19  22338556.154   117389975.042         724.884          43.000    22338560.674    89948244.611         555.314          48.000  
G24  22182377.602   116569235.445        1342.261          45.000    22182382.913    90833186.058        1046.198          43.000  
E27  22865489.606   120159171.701       -2586.153          48.000    22865494.645    92070164.059       -1981.620          53.000  
R04  17487418.701    93644392.743       -1966.188          52.000    17487417.488    72834534.475       -1529.260          51.000  
R03  20427183.629   109348256.107       -4886.989          50.000    20427192.143    85048642.747       -3801.029          47.000  
R15  18427519.965    98471255.946         164.732          50.000    18427521.211    76589050.202         128.205          50.000  
R05  18826089.524   100636288.896        2019.891          51.000    18826090.831    78272568.284        1571.026          50.000  
G19  20836600.399   109497402.223        1837.345          46.000                                                                  
S31  37068306.185   194795196.820        -771.593          43.000  
S33  38017542.681   199783543.683        -772.534          43.000  
G14  19937648.009   104773274.344       -3401.221          49.000    19937646.493    81641638.855       -2650.354          46.000  
G20  22705857.501   119319812.983       -3897.148          42.000                                                                  
R14  18579741.101    99040730.466       -2908.131          53.000    18579744.154    77031857.755       -2261.935          50.000  
E07  25341925.663   133172451.620       -3305.297          45.000    25341946.725   102041173.275       -2532.658          47.000  
G13  18396808.648    96675976.234        -148.619          47.000                                                                  
G17  20432799.669   107375443.164        1057.260          46.000    20432803.795    83669365.327         823.849          46.000  
G15  19903527.735   104593777.794        1428.140          48.000    19903527.294    81501674.341        1112.859          44.000  
G22  18566358.426    97567161.776       -1716.689          48.000                                                                  
G30  21599086.051   113503978.806       -3082.263          42.000    21599090.765    88444691.006       -2401.653          41.000  
E21  21887156.636   115018102.764         -30.879          48.000    21887162.529    88130932.519         -23.658          52.000  
> 2024 04 15 21 14 00.4940000  0 21                     
G05  20917821.272   109923799.141       -3261.738          45.000    20917828.051    85654884.967       -2541.559          43.000  
E19  22334437.735   117368333.061         718.173          43.000    22334442.012    89931661.868         550.245          48.000  
G24  22174713.251   116528958.854        1342.700          44.000    22174717.759    90801801.868        1046.466          43.000  
E27  22880269.908   120236846.966       -2592.198          48.000    22880275.652    92129681.504       -1986.121          52.000  
R04  17498504.539    93703755.843       -1991.323          51.000    17498503.653    72880705.752       -1548.652          51.000  
R03  20454597.221   109495003.679       -4896.194          50.000    20454606.179    85162779.053       -3808.040          48.000  
R15  18426632.606    98466517.738         151.188          51.000    18426634.501    76585365.045         117.620          49.000  
R05  18814803.014   100575955.114        2002.348          53.000    18814804.322    78225642.093        1557.415          51.000  
G19  20826133.489   109442401.362        1829.148          46.000                                                                  
S31  37072709.091   194818332.843        -770.653          44.000  
S33  38021951.182   199806713.494        -772.212          41.000  
G14  19957088.442   104875438.213       -3409.624          49.000    19957088.626    81721247.072       -2656.904          47.000  
G20  22728096.701   119436676.407       -3893.746          41.000                                                                  
R14  18596127.277    99128076.751       -2914.851          53.000    18596130.198    77099793.723       -2267.232          49.000  
E07  25360809.144   133271682.132       -3310.065          45.000    25360830.955   102117206.308       -2536.156          47.000  
G13  18397695.821    96680635.879        -161.916          47.000                                                                  
G17  20426805.056   107343945.763        1042.567          45.000    20426808.822    83644822.117         812.397          45.000  
G15  19895403.547   104551086.298        1418.141          47.000    19895404.010    81468408.282        1104.985          44.000  
G22  18576205.406    97618907.191       -1732.962          48.000                                                                  
G30  21616686.291   113596468.560       -3083.699          43.000    21616690.834    88516760.886       -2402.742          40.000  
E21  21887362.697   115019184.505         -41.102          48.000    21887368.083    88131761.485         -31.544          52.000  
> 2024 04 15 21 14 30.4940000  0 21                     
G05  20936468.074   110021782.777       -3270.365          46.000    20936475.096    85731235.630       -2548.366          45.000  
E19  22330357.596   117346893.786         711.087          43.000    22330361.839    89915234.406         545.017          47.000  
G24  22167045.140   116488663.428        1343.628          44.000    22167050.063    90770403.036        1047.021          44.000  
E27  22895085.251   120314700.486       -2597.996          49.000    22895090.417    92189335.529       -1990.628          52.000  
R04  17509731.112    93763870.641       -2016.177          52.000    17509729.817    72927461.661       -1568.110          51.000  
R03  20482061.811   109642021.075       -4904.811          51.000    20482071.368    85277125.193       -3814.850          48.000  
R15  18425821.578    98462184.819         137.980          51.000    18425823.747    76581995.151         107.190          49.000  
R05  18803614.922   100516147.152        1984.895          52.000    18803615.006    78179124.846        1543.775          50.000  
G19  20815714.842   109387650.893        1821.267          46.000                                                                  
S31  37077107.037   194841444.910        -769.841          44.000  
S33  38026356.148   199829860.225        -771.154          42.000  
G14  19976577.261   104977853.825       -3417.930          49.000    19976577.812    81801051.469       -2663.240          46.000  
G20  22750314.644   119553432.267       -3889.554          40.000                                                                  
R14  18612550.656    99215624.820       -2921.378          52.000    18612553.315    77167886.698       -2272.185          50.000  
E07  25379716.999   133371043.594       -3314.041          45.000    25379739.475   102193339.647       -2539.402          47.000  
G13  18398658.282    96685693.825        -175.189          48.000                                                                  
G17  20420893.233   107312881.276        1028.496          45.000    20420897.278    83620616.290         801.346          45.000  
G15  19887336.409   104508691.331        1408.292          46.000    19887336.272    81435373.322        1097.416          44.000  
G22  18586144.904    97671140.507       -1748.946          48.000                                                                  
G30  21634293.494   113688996.292       -3084.648          43.000    21634297.536    88588860.391       -2403.501          40.000  
E21  21887626.781   115020575.388         -51.302          48.000    21887632.840    88132827.306         -39.349          52.000  
