     3.00           OBSERVATION DATA    M: Mixed            RINEX VERSION / TYPE
CONVBIN 2.4.3                           20240415 205942 UTC PGM / RUN BY / DATE 
format: u-blox UBX                                          COMMENT             
log: /home/regis/git/gnsspwv/obsdata/VERT00CHL/2024-04-15/VECOMMENT             
{self.marker}                                               MARKER NAME         
                                                            MARKER NUMBER       
GEODETIC                                                    MARKER TYPE         
{self.observer}     {self.institution}                      OBSERVER / AGENCY   
UNKNOWN             UBLOX-ZED-F9P                           REC # / TYPE / VERS 
UNKNOWN             TWIVSP6037L                             ANT # / TYPE        
  1713381.0000 -5047934.0000 -3490983.0000                  APPROX POSITION XYZ 
        0.0000        0.0000        0.0000                  ANTENNA: DELTA H/E/N
G    8 C1C L1C D1C S1C C2L L2L D2L S2L                      SYS / # / OBS TYPES 
R    8 C1C L1C D1C S1C C2C L2C D2C S2C                      SYS / # / OBS TYPES 
E    8 C1C L1C D1C S1C C7Q L7Q D7Q S7Q                      SYS / # / OBS TYPES 
S    4 C1C L1C D1C S1C                                      SYS / # / OBS TYPES 
  2024    04    15    20    45   00.4930000     GPS         TIME OF FIRST OBS   
  2024    04    15    20    59   30.4940000     GPS         TIME OF LAST OBS    
                                                            END OF HEADER       
> 2024 04 15 20 45 00.4930000  0 24                     
G05  19945433.000   104813894.0981      -2549.201          48.000    19945436.384    81673150.2601      -1986.405          44.000  
E19  22630406.735   118923642.8821       1052.839          43.000    22630411.389    91123388.7431        806.797          46.000  
G24  22616581.558   118850945.0901       1340.520          42.000    22616590.302    92611129.7071       1044.491          39.000  
E27  22091016.251   116089284.0721      -2136.023          46.000    22091022.774    88951676.8421      -1636.649          54.000  
R13  21554370.856   115099147.1311      -4358.948          33.000    21554376.975    89521713.5811      -3389.738          36.000  
R04  17091524.897    91524398.8701       -509.406          52.000    17091523.453    71185651.2241       -396.202          50.000  
R03  18970655.487   101551446.4851      -4163.633          52.000    18970659.024    78984482.0881      -3238.369          49.000  
R15  18611064.423    99452031.4581       1004.004          52.000    18611068.183    77351866.9691        781.012          48.000  
R05  19609809.383   104825697.9201       2816.652          50.000    19609811.722    81530992.1471       2190.734          48.000  
G19  21494289.414   112953425.5601       2156.224          43.000                                                                  
S31  36812398.875   193450383.0591       -791.035          43.000  
S33  37761302.121   198436981.3331       -791.711          43.000  
G14  18926698.612    99460702.5551      -2756.698          46.000    18926700.257    77501971.4601      -2148.052          50.000  
G20  21423755.822   112582487.5541      -3921.597          39.000                                                                  
R14  17727158.189    94495977.4571      -2346.852          53.000    17727161.009    73497048.4821      -1825.288          49.000  
E07  24313466.294   127767968.9371      -2994.407          46.000    24313482.539    97900103.6061      -2294.354          49.000  
G13  18462894.800    97023253.7681        531.188          48.000                                                                  
G17  20895132.938   109804945.8331       1739.757          49.000    20895139.009    85562466.7091       1355.709          43.000  
G15  20448055.323   107455269.6501       1887.760          45.000    20448056.426    83731403.7221       1470.950          42.000  
G22  18169425.751    95481247.1831       -693.190          48.000                                                                  
G30  20611202.135   108312632.1471      -2975.244          39.000    20611207.136    84399487.7151      -2318.148          42.000  
E21  21976133.120   115485660.0751        588.393          47.000    21976141.932    88489184.4251        450.873          53.000  
E18  22271196.509   117035933.5951      -4448.788          40.000                                                                  
E30                                                                  26160713.319                3      -2724.712          25.000  
> 2024 04 15 20 45 30.4930000  0 24                     
G05  19960028.372   104890593.511       -2564.222          48.000    19960032.572    81732915.919       -1998.272          44.000  
E19  22624407.896   118892120.765        1048.308          43.000    22624413.315    91099235.523         803.319          47.000  
G24  22608930.896   118810739.370        1339.760          40.000    22608938.775    92579800.877        1043.950          39.000  
E27  22103237.466   116153506.140       -2145.559          47.000    22103243.880    89000886.015       -1644.022          54.000  
R13  21578849.104   115229860.463       -4355.794          34.000    21578853.373                       -3387.650          33.000  
R04  17094448.652    91540055.862        -534.610          52.000    17094447.637    71197828.903        -415.843          51.000  
R03  18994033.285   101676590.496       -4179.538          51.000    18994038.125    79081816.072       -3250.812          50.000  
R15  18605470.732    99422137.598         988.544          52.000    18605474.045    77328616.370         768.829          49.000  
R05  19594030.129   104741350.539        2806.263          51.000    19594032.795    81465388.726        2182.599          48.000  
G19  21481986.598   112888775.680        2153.618          43.000                                                                  
S31  36816913.591   193474108.947        -790.532          43.000  
S33  37765822.171   198460732.577        -791.975          41.000  
G14  18942475.737    99543611.128       -2770.649          47.000    18942477.112    77566575.578       -2159.042          50.000  
G20  21446150.310   112700169.054       -3923.977          39.000                                                                  
R14  17740401.251    94566570.224       -2359.518          53.000    17740403.972    73551954.024       -1835.264          50.000  
E07  24330578.602   127857890.454       -3000.561          45.000    24330594.030    97969004.191       -2299.093          49.000  
G13  18459890.882    97007468.417         520.841          48.000                                                                  
G17  20885226.966   109752890.571        1730.360          48.000    20885232.456    85521904.542        1348.258          43.000  
G15  20437295.701   107398725.787        1881.553          46.000    20437296.237    83687343.682        1466.057          43.000  
G22  18173436.328    95502324.623        -712.139          48.000                                                                  
G30  20628192.173   108401911.950       -2977.146          41.000    20628196.576    84469056.370       -2319.954          42.000  
E21  21972805.363   115468171.201         577.458          47.000    21972813.559    88475784.002         442.349          52.000  
E18  22296634.190   117169609.670       -4463.170          41.000                                                                  
E30                                                                  26181010.044                3      -2724.278          23.000  
> 2024 04 15 20 46 00.4930000  0 24                     
G05  19974709.712   104967743.706       -2579.317          49.000    19974712.752    81793032.833       -2009.670          43.000  
E19  22618436.168   118860738.679        1043.820          43.000    22618441.386    91075189.601         799.741          47.000  
G24  22601282.086   118770545.865        1339.553          41.000    22601290.221    92548481.538        1043.867          39.000  
E27  22115511.540   116218013.444       -2155.127          46.000    22115519.150    89050313.729       -1651.274          54.000  
R13  21603312.572   115360490.747       -4353.460          33.000    21603315.539                       -3386.084          31.000  
R04  17097513.367    91556466.668        -559.662          52.000    17097512.120    71210592.867        -435.284          50.000  
R03  19017500.219   101802207.352       -4195.144          52.000    19017504.314    79179517.793       -3262.862          50.000  
R15  18599962.377    99392705.257         973.297          52.000    18599965.742    77305724.738         757.147          49.000  
R05  19578309.690   104657316.853        2795.685          50.000    19578312.114    81400029.279        2174.425          48.000  
G19  21469699.522   112824211.523        2150.512          44.000                                                                  
S31  36821428.050   193497831.521        -790.800          44.000  
S33  37770340.840   198484480.517        -791.535          41.000  
G14  18958331.859    99626933.917       -2784.319          47.000    18958332.900    77631502.440       -2169.653          51.000  
G20  21468558.725   112817923.253       -3926.373          41.000                                                                  
R14  17753715.908    94637542.699       -2372.147          53.000    17753718.469    73607154.855       -1844.966          50.000  
E07  24347725.144   127947997.623       -3006.709          46.000    24347741.128    98038047.038       -2303.942          49.000  
G13  18456946.356    96991995.044         510.320          48.000                                                                  
G17  20875373.944   109701115.861        1721.034          48.000    20875380.069    85481561.012        1340.822          43.000  
G15  20426570.849   107342368.376        1875.368          47.000    20426571.272    83643428.959        1461.201          42.000  
G22  18177555.406    95523972.433        -731.215          48.000                                                                  
G30  20645195.525   108491262.948       -2979.732          41.000    20645200.232    84538680.475       -2321.599          43.000  
E21  21969540.283   115451013.157         566.344          47.000    21969548.198    88462637.065         433.899          52.000  
E18  22322154.708   117303718.232       -4477.350          42.000                                                                  
E30                                                                  26201307.538                3      -2726.182          21.000  
> 2024 04 15 20 46 30.4930000  0 24                     
G05  19989476.422   105045345.034       -2594.452          48.000    19989480.271    81853501.300       -2021.752          44.000  
E19  22612491.765   118829500.865        1038.633          42.000    22612497.069    91051254.220         795.792          47.000  
G24  22593636.271   118730367.327        1338.662          40.000    22593645.005    92517173.856        1043.174          40.000  
E27  22127841.824   116282807.525       -2164.875          46.000    22127848.929    89099961.155       -1658.846          54.000  
R13  21627759.790   115491028.7611      -4350.989          32.000    21627764.566                       -3383.948          29.000  
R04  17100718.895    91573635.461        -585.328          51.000    17100717.947    71223946.396        -455.212          50.000  
R03  19041054.912   101928297.271       -4211.116          52.000    19041058.531    79277587.459       -3275.379          50.000  
R15  18594541.221    99363737.559         957.501          51.000    18594544.916    77283194.514         744.727          50.000  
R05  19562649.893   104573604.199        2784.594          51.000    19562651.922    81334919.514        2165.831          48.000  
G19  21457430.697   112759739.158        2147.111          45.000                                                                  
S31  36825941.923   193521553.580        -791.055          44.000  
S33  37774860.057   198508228.610        -792.146          43.000  
G14  18974266.810    99710671.525       -2798.489          47.000    18974267.743    77696752.541       -2180.662          50.000  
G20  21490981.128   112935750.512       -3929.139          41.000                                                                  
R14  17767100.638    94708894.960       -2385.076          53.000    17767104.359    73662651.083       -1855.037          50.000  
E07  24364909.067   128038293.027       -3013.299          47.000    24364924.338    98107234.098       -2308.884          50.000  
G13  18454062.047    96976838.527         499.529          48.000                                                                  
G17  20865575.306   109649627.930        1711.229          48.000    20865582.666    85441440.933        1333.278          44.000  
G15  20415882.570   107286202.853        1868.646          46.000    20415883.485    83599663.739        1456.174          42.000  
G22  18181783.910    95546192.939        -750.501          47.000                                                                  
G30  20662212.675   108580687.683       -2982.346          41.000    20662215.873    84608362.097       -2324.086          41.000  
E21  21966339.050   115434189.157         554.999          48.000    21966346.925    88449746.062         425.220          53.000  
E18  22347756.769   117438259.219       -4492.355          42.000                                                                  
E30                                                                  26221613.093                3      -2729.749          21.000  
> 2024 04 15 20 47 00.4930000  0 24                     
G05  20004328.584   105123391.994       -2609.273          48.000    20004332.710    81914316.994       -2033.378          45.000  
E19  22606574.431   118798405.623        1033.923          42.000    22606579.474    91027428.104         792.066          47.000  
G24  22585992.532   118690200.162        1338.411          39.000    22586000.781    92485875.034        1042.772          39.000  
E27  22140226.530   116347883.680       -2174.259          47.000    22140232.247    89149824.746       -1665.979          53.000  
R13  21652190.167                       -4346.729          32.000    21652196.394    89927987.824       -3382.324          32.000  
R04  17104067.232    91591560.539        -610.423          52.000    17104065.269    71237888.126        -474.790          50.000  
R03  19064696.980   102054854.296       -4226.651          52.000    19064700.821    79376020.447       -3287.286          50.000  
R15  18589206.901    99335230.764         942.188          53.000    18589209.971    77261022.759         732.794          49.000  
R05  19547050.679   104490213.408        2773.971          51.000    19547051.636    81270060.100        2157.513          47.000  
G19  21445178.777   112695358.540        2144.048          46.000                                                                  
S31  36830455.498   193545272.564        -790.793          44.000  
S33  37779378.011   198531972.984        -791.894          42.000  
G14  18990279.489    99794818.297       -2812.118          47.000    18990280.442    77762321.466       -2191.219          51.000  
G20  21513416.377   113053644.588       -3931.189          40.000                                                                  
R14  17780556.413    94780621.008       -2397.455          53.000    17780559.574    73718438.042       -1864.728          49.000  
E07  24382125.964   128128772.973       -3019.378          46.000    24382142.327    98176562.534       -2313.547          49.000  
G13  18451237.988    96961997.763         488.895          47.000                                                                  
G17  20855831.802   109598426.397        1701.520          47.000    20855838.355    85401544.005        1325.687          43.000  
G15  20405230.665   107230228.033        1862.209          47.000    20405231.937    83556047.098        1451.252          41.000  
G22  18186120.780    95568982.504        -769.543          48.000                                                                  
G30  20679242.796   108670182.612       -2984.996          42.000    20679246.140    84678098.373       -2325.436          41.000  
E21  21963200.970   115417696.241         543.896          48.000    21963207.898    88437108.778         416.718          52.000  
E18  22373440.214   117573226.077       -4506.437          43.000                                                                  
E30                                                                  26241919.504                3      -2722.828          20.000  
> 2024 04 15 20 47 30.4930000  0 24                     
G05  20019267.350   105201895.122       -2624.364          49.000    20019271.164    81975488.127       -2044.735          44.000  
E19  22600687.984   118767467.680        1028.664          43.000    22600691.979    91003722.489         788.013          46.000  
G24  22578352.839   118650057.553        1337.415          38.000    22578361.419    92454595.369        1042.334          40.000  
E27  22152666.005   116413253.922       -2183.910          47.000    22152671.806    89199913.660       -1673.426          54.000  
R13  21676607.189   115751874.898       -4344.861          34.000    21676613.507                       -3379.162          31.000  
R04  17107557.408    91610257.032        -636.127          50.000    17107556.617    71252429.890        -494.814          50.000  
R03  19088427.648   102181888.917       -4242.406          51.000    19088432.533    79474824.870       -3299.603          49.000  
R15  18583959.548    99307198.384         926.404          51.000    18583964.367    77239219.984         720.594          50.000  
R05  19531513.653   104407162.254        2762.580          50.000    19531514.998    81205464.844        2148.661          47.000  
G19  21432947.288   112631086.293        2140.368          43.000                                                                  
S31  36834970.779   193569000.931        -790.972          44.000  
S33  37783898.922   198555728.205        -791.982          42.000  
G14  19006371.916    99879385.271       -2825.898          47.000    19006372.842    77828217.855       -2202.034          50.000  
G20  21535866.906   113171615.897       -3933.685          43.000                                                                  
R14  17794083.920    94852731.376       -2410.107          53.000    17794086.841    73774523.912       -1874.486          49.000  
E07  24399381.453   128219450.487       -3025.980          45.000    24399397.303    98246042.345       -2318.488          48.000  
G13  18448477.598    96947488.185         478.022          48.000                                                                  
G17  20846145.280   109547528.288        1691.464          47.000    20846152.409    85361883.525        1317.883          43.000  
G15  20394617.968   107174459.591        1855.461          46.000    20394619.672    83512591.281        1445.766          41.000  
G22  18190568.360    95592354.072        -788.745          48.000                                                                  
G30  20696289.065   108759760.786       -2987.561          40.000    20696293.358    84747899.551       -2327.767          43.000  
E21  21960128.895   115401548.080         532.403          49.000    21960135.000    88424735.637         408.003          52.000  
E18  22399205.863   117708629.107       -4520.857          41.000                                                                  
E30                                                                  26262232.567                3      -2723.249          18.000  
> 2024 04 15 20 48 00.4930000  0 23                     
G05  20034292.262   105280853.807       -2639.874          49.000    20034296.804    82037014.260       -2057.049          43.000  
E19  22594830.603   118736689.746        1023.062          43.000    22594835.015    90980139.488         783.681          46.000  
G24  22570718.985   118609940.565        1336.593          38.000    22570727.383    92423335.674        1041.421          41.000  
E27  22165161.120   116478918.128       -2194.096          47.000    22165167.220    89250227.856       -1681.171          53.000  
R13  21701009.393                       -4343.689          30.000    21701016.178                       -3377.716          29.000  
R04  17111193.857    91629727.508        -662.304          51.000    17111192.203    71267573.589        -515.043          50.000  
R03  19112248.235   102309399.961       -4258.548          51.000    19112252.555    79573999.855       -3312.251          50.000  
R15  18578803.907    99279641.701         910.185          52.000    18578806.638    77217787.201         708.013          49.000  
R05  19516040.849   104324456.074        2750.722          50.000    19516042.903    81141137.883        2139.402          46.000  
G19  21420738.141   112566927.271        2136.266          44.000                                                                  
S31  36839488.764   193592740.891        -791.823          44.000  
S33  37788421.493   198579494.048        -792.453          43.000  
G14  19022544.233    99964371.461       -2840.387          46.000    19022544.867    77894440.880       -2213.169          51.000  
G20  21558330.492   113289663.096       -3936.506          43.000                                                                  
R14  17807683.753    94925224.681       -2423.251          53.000    17807686.206    73830907.625       -1884.782          49.000  
E07  24416675.198   128310326.419       -3032.764          46.000    24416690.898    98315674.217       -2323.802          49.000  
G13  18445780.444    96933313.260         466.435          49.000                                                                  
G17  20836517.992   109496938.011        1680.921          47.000    20836524.848    85322462.918        1309.562          43.000  
G15  20384045.527   107118900.987        1848.041          46.000    20384046.934    83469298.932        1439.986          43.000  
G22  18195126.490    95616308.374        -808.534          47.000                                                                  
G30  20713349.921   108849423.238       -2990.502          38.000    20713355.485    84817766.352       -2330.341          43.000  
E21  21957121.409   115385746.303         520.601          49.000    21957128.075    88412627.908         398.905          52.000  
E18  22425054.190   117844466.374       -4535.223          41.000                                                                  
> 2024 04 15 20 48 30.4940000  0 23                     
G05  20049404.261   105360265.809       -2654.368          48.000    20049408.481    82098893.640       -2068.390          43.000  
E19  22589004.926   118706070.306        1017.908          44.000    22589008.189    90956677.910         779.978          46.000  
G24  22563088.933   118569845.490        1336.090          40.000    22563097.130    92392093.000        1041.047          41.000  
E27  22177711.369   116544874.922       -2203.293          46.000    22177718.769    89300766.223       -1688.188          54.000  
R13  21725398.662   116012419.504       -4340.217          31.000    21725404.140                       -3375.066          29.000  
R04  17114974.982    91649971.847        -687.615          52.000    17114972.828    71283319.192        -534.830          50.000  
R03  19136156.440   102437386.554       -4273.810          51.000    19136161.425    79673544.692       -3324.073          49.000  
R15  18573734.837    99252557.527         894.914          51.000    18573738.915    77196721.876         695.944          50.000  
R05  19500633.037   104242094.058        2739.491          49.000    19500635.484    81077078.634        2130.625          47.000  
G19  21408549.104   112502880.280        2132.941          45.000                                                                  
S31  36844007.626   193616490.368        -791.477          44.000  
S33  37792945.739   198603269.858        -792.587          43.000  
G14  19038795.053   100049775.050       -2853.583          46.000    19038796.873    77960989.190       -2223.480          50.000  
G20  21580809.147   113407784.788       -3938.205          43.000                                                                  
R14  17821354.752    94998098.573       -2435.200          53.000    17821356.587    73887587.354       -1894.184          49.000  
E07  24434005.949   128401401.272       -3039.073          46.000    24434021.831    98385458.485       -2328.554          48.000  
G13  18443146.495    96919472.011         455.804          49.000                                                                  
G17  20826949.493   109446655.278        1670.904          48.000    20826956.227    85283281.908        1302.006          43.000  
G15  20373513.051   107063550.396        1841.568          47.000    20373514.480    83426168.686        1434.730          42.000  
G22  18199795.179    95640843.387        -827.525          48.000                                                                  
G30  20730429.599   108939170.489       -2992.753          41.000    20730432.998    84887699.258       -2332.016          42.000  
E21  21954179.854   115370288.429         509.608          49.000    21954186.276    88400783.707         390.382          52.000  
E18  22450986.879   117980737.153       -4549.222          42.000                                                                  
> 2024 04 15 20 49 00.4940000  0 23                     
G05  20064601.224   105440123.670       -2669.354          49.000    20064603.276    82161120.425       -2080.069          42.000  
E19  22583208.037   118675612.209        1012.404          43.000    22583212.060    90933339.968         775.877          46.000  
G24  22555463.001   118529774.336        1335.269          37.000    22555471.089    92360869.018        1040.555          40.000  
E27  22190317.693   116611118.068       -2212.878          47.000    22190324.496    89351524.003       -1695.680          54.000  
R13  21749772.837                       -4336.783          28.000    21749777.669                       -3373.584          29.000  
R04  17118899.472    91670989.768        -713.544          51.000    17118897.422    71299666.471        -554.968          49.000  
R03  19160152.771   102565836.823       -4289.502          51.000    19160157.394    79773450.177       -3336.280          49.000  
R15  18568753.818    99225946.967         879.127          51.000    18568758.473    77176024.947         683.721          49.000  
R05  19485292.428   104160085.144        2727.685          50.000    19485293.827    81013294.025        2121.555          47.000  
G19  21396382.989   112438952.163        2128.988          45.000                                                                  
S31  36848528.388   193640247.508        -792.126          44.000  
S33  37797472.230   198627055.291        -793.103          43.000  
G14  19055124.604   100135587.681       -2867.279          45.000    19055126.528    78027856.196       -2234.320          51.000  
G20  21603298.814   113525969.869       -3940.654          41.000                                                                  
R14  17835095.406    95071344.784       -2447.822          53.000    17835098.564    73944556.645       -1903.851          49.000  
E07  24451373.816   128492668.154       -3045.517          46.000    24451389.767    98455389.931       -2333.654          48.000  
G13  18440576.118    96905967.144         444.434          48.000                                                                  
G17  20817441.144   109396685.893        1660.308          48.000    20817446.820    85244345.106        1293.627          42.000  
G15  20363021.010   107008413.747        1834.335          48.000    20363022.175    83383205.114        1429.475          43.000  
G22  18204573.826    95665956.883        -846.909          48.000                                                                  
G30  20747523.575   109028995.696       -2995.863          42.000    20747526.061    84957692.898       -2334.241          42.000  
E21  21951303.224   115355175.382         497.963          48.000    21951310.042    88389203.735         381.495          52.000  
E18  22476997.613   118117428.683       -4563.716          41.000                                                                  
> 2024 04 15 20 49 30.4940000  0 23                     
G05  20079882.310   105520422.821       -2684.268          49.000    20079884.813    82223691.059       -2091.813          43.000  
E19  22577442.196   118645312.137        1007.116          43.000    22577446.077    90910123.100         771.773          46.000  
G24  22547840.884   118489721.706        1334.524          39.000    22547847.922    92329659.443        1039.554          38.000  
E27  22202977.413   116677644.498       -2222.329          47.000    22202983.930    89402498.849       -1702.954          55.000  
R13  21774138.542                1      -4333.756          27.000    21774135.880                       -3370.634          27.000  
R04  17122968.666    91692779.495        -739.474          51.000    17122966.435    71316614.020        -575.146          50.000  
R03  19184234.950   102694748.358       -4304.962          51.000    19184240.074    79873714.411       -3348.310          49.000  
R15  18563861.813    99199805.313         863.333          51.000    18563865.835    77155692.764         671.325          49.000  
R05  19470016.340   104078427.266        2715.765          50.000    19470017.622    80949782.436        2112.301          47.000  
G19  21384239.360   112375140.606        2124.484          45.000                                                                  
S31  36853050.216   193664010.624        -792.696          43.000  
S33  37801999.212   198650845.216        -793.395          43.000  
G14  19071531.976   100221805.868       -2880.865          47.000    19071533.056    78095039.251       -2244.873          50.000  
G20  21625799.922   113644215.551       -3942.936          41.000                                                                  
R14  17848905.755    95144959.026       -2460.194          53.000    17848908.695    74001812.189       -1913.494          50.000  
E07  24468777.521   128584125.841       -3051.927          45.000    24468794.680    98525467.564       -2338.538          49.000  
G13  18438069.955    96892796.601         433.113          48.000                                                                  
G17  20807991.055   109347027.760        1649.772          49.000    20807996.586    85205650.796        1285.673          43.000  
G15  20352568.620   106953487.479        1827.064          48.000    20352569.723    83340405.530        1423.591          42.000  
G22  18209462.028    95691644.795        -865.913          47.000                                                                  
G30  20764631.687   109118897.773       -2998.365          43.000    20764634.161    85027746.488       -2336.125          42.000  
E21  21948492.113   115340403.076         486.566          48.000    21948498.750    88377884.845         372.757          52.000  
E18  22503090.257   118254538.522       -4577.422          41.000                                                                  
> 2024 04 15 20 50 00.4940000  0 23                     
G05  20095246.875   105601166.408       -2698.720          48.000    20095249.663    82286608.011       -2103.059          41.000  
E19  22571707.224   118615177.218        1001.678          43.000    22571711.798    90887032.775         767.704          46.000  
G24  22540223.608   118449692.892        1333.960          38.000    22540230.677    92298468.413        1039.637          38.000  
E27  22215692.690   116744458.281       -2231.832          48.000    22215698.051    89453693.870       -1710.227          54.000  
R13  21798468.261                3      -4332.321          25.000    21798472.374                1      -3368.443          26.000  
R04  17127183.179    91715347.341        -765.089          52.000    17127180.845    71334166.793        -595.220          50.000  
R03  19208403.250   102824123.742       -4320.146          51.000    19208408.608    79974339.390       -3360.148          49.000  
R15  18559059.507    99174137.841         847.684          52.000    18559062.445    77135729.363         659.276          49.000  
R05  19454808.245   103997129.878        2703.840          49.000    19454808.759    80886551.287        2102.956          47.000  
G19  21372119.869   112311454.451        2120.764          46.000                                                                  
S31  36857573.899   193687782.942        -792.449          43.000  
S33  37806528.062   198674645.792        -793.483          43.000  
G14  19088016.123   100308432.805       -2894.312          46.000    19088017.697    78162540.760       -2255.347          50.000  
G20  21648314.099   113762524.577       -3944.592          42.000                                                                  
R14  17862785.016    95218944.121       -2472.427          54.000    17862787.190    74059356.180       -1922.991          49.000  
E07  24486218.337   128675779.473       -3058.538          44.000    24486236.146    98595695.303       -2343.423          49.000  
G13  18435629.095    96879967.609         421.841          49.000                                                                  
G17  20798602.073   109297689.848        1639.200          48.000    20798607.432    85167206.039        1277.391          43.000  
G15  20342158.066   106898779.395        1819.882          49.000    20342159.132    83297775.916        1418.064          43.000  
G22  18214460.290    95717912.157        -885.039          47.000                                                                  
G30  20781754.665   109208882.004       -3000.737          42.000    20781758.125    85097864.041       -2338.176          43.000  
E21  21945746.485   115325977.246         475.142          48.000    21945753.652    88366831.403         364.093          52.000  
E18  22529259.427   118392068.968       -4591.211          39.000                                                                  
> 2024 04 15 20 50 30.4940000  0 23                     
G05  20110694.288   105682344.899       -2713.501          48.000    20110697.768    82349863.838       -2114.288          42.000  
E19  22566002.520   118585202.068         996.214          43.000    22566007.944    90864064.907         763.282          46.000  
G24  22532608.532   118409680.838        1333.129          37.000    22532617.308    92267290.427        1038.613          39.000  
E27  22228459.588   116811551.147       -2241.253          47.000    22228465.191    89505102.739       -1717.319          55.000  
R13  21822788.717                3      -4325.514          23.000    21822798.307                3      -3366.722          26.000  
R04  17131541.363    91738687.743        -791.054          51.000    17131539.203    71352320.457        -615.282          50.000  
R03  19232656.915   102953952.924       -4335.464          51.000    19232662.440    80075317.324       -3371.925          49.000  
R15  18554342.911    99148936.748         831.966          52.000    18554346.898    77116128.684         647.060          50.000  
R05  19439665.714   103916190.216        2691.814          48.000    19439667.496    80823598.315        2093.698          47.000  
G19  21360023.540   112247889.749        2116.631          45.000                                                                  
S31  36862098.937   193711559.643        -792.901          43.000  
S33  37811057.556   198698450.168        -793.878          43.000  
G14  19104576.994   100395459.243       -2907.849          47.000    19104577.567    78230353.574       -2265.674          50.000  
G20  21670839.033   113880887.213       -3946.431          40.000                                                                  
R14  17876732.492    95293290.387       -2484.343          53.000    17876734.042    74117181.110       -1932.264          49.000  
E07  24503696.004   128767621.709       -3064.759          44.000    24503713.517    98666067.560       -2348.328          49.000  
G13  18433251.267    96867475.448         410.620          48.000                                                                  
G17  20789273.827   109248668.409        1628.633          48.000    20789278.772    85129007.874        1269.109          44.000  
G15  20331788.302   106844284.932        1812.739          49.000    20331789.071    83255312.774        1412.453          43.000  
G22  18219567.503    95744751.641        -903.999          47.000                                                                  
G30  20798892.429   109298941.237       -3003.415          42.000    20798896.035    85168040.045       -2340.157          42.000  
E21  21943066.542   115311891.303         463.708          49.000    21943073.413    88356038.396         355.289          52.000  
E18  22555508.489   118530009.948       -4604.858          40.000                                                                  
> 2024 04 15 20 51 00.4940000  0 23                     
G05  20126223.935   105763955.841       -2728.033          46.000    20126227.176    82413456.677       -2125.747          42.000  
E19  22560329.330   118555386.974         990.761          44.000    22560333.761    90841219.646         759.156          46.000  
G24  22524998.860   118369684.251        1332.582          41.000    22525006.188    92236124.481        1038.368          38.000  
E27  22241279.534   116878920.612       -2250.653          48.000    22241284.794    89556723.527       -1724.540          54.000  
R13  21847088.255                3      -4329.700          13.000    21847107.770                       -3364.030          27.000  
R04  17136043.246    91762800.988        -817.114          50.000    17136041.960    71371075.197        -635.509          48.000  
R03  19256995.265   103084232.152       -4350.506          52.000    19256998.993    80176645.309       -3383.766          48.000  
R15  18549713.240    99124201.320         816.253          51.000    18549717.849    77096890.194         634.819          49.000  
R05  19424590.904   103835611.385        2679.544          49.000    19424593.492    80760926.058        2084.030          48.000  
G19  21347950.237   112184448.462        2112.279          43.000                                                                  
S31  36866623.660   193735338.973        -793.167          44.000  
S33  37815588.368   198722258.063        -794.018          42.000  
G14  19121213.101   100482881.677       -2921.191          45.000    19121213.737    78298474.974       -2276.160          51.000  
G20  21693371.504   113999299.319       -3948.438          40.000                                                                  
R14  17890745.281    95367993.881       -2496.456          53.000    17890748.985    74175283.841       -1941.691          49.000  
E07  24521208.949   128859651.040       -3071.314          44.000    24521226.288    98736583.174       -2353.315          49.000  
G13  18430938.158    96855321.321         398.944          48.000                                                                  
G17  20780004.542   109199965.309        1617.781          47.000    20780010.425    85091057.792        1260.487          44.000  
G15  20321459.397   106790005.361        1805.144          49.000    20321459.594    83213017.043        1406.767          43.000  
G22  18224783.447    95772160.982        -923.499          47.000                                                                  
G30  20816044.625   109389074.129       -3006.041          41.000    20816047.079    85238273.426       -2342.477          42.000  
E21  21940450.270   115298144.344         452.059          49.000    21940456.874    88345505.135         346.410          52.000  
E18  22581835.635   118668357.278       -4618.742          41.000                                                                  
> 2024 04 15 20 51 30.4940000  0 23                     
G05  20141835.542   105845997.325       -2742.067          46.000    20141838.404    82477384.949       -2136.515          40.000  
E19  22554686.522   118525735.636         985.687          44.000    22554691.325    90818499.845         755.281          46.000  
G24  22517390.994   118329704.978        1332.444          41.000    22517397.766    92204971.989        1038.251          38.000  
E27  22254151.553   116946567.172       -2259.481          47.000    22254157.594    89608556.655       -1731.273          54.000  
R13  21871386.829                3      -4319.791          23.000    21871390.411                       -3361.218          26.000  
R04  17140690.989    91787689.927        -842.490          50.000    17140689.704    71390433.265        -655.215          49.000  
R03  19281416.129   103214960.524       -4365.001          52.000    19281419.281    80278322.620       -3395.126          48.000  
R15  18545171.012    99099933.173         801.287          50.000    18545176.416    77078015.149         623.173          50.000  
R05  19409586.222   103755399.460        2667.691          49.000    19409587.963    80698539.111        2074.876          47.000  
G19  21335901.783   112121136.600        2108.350          45.000                                                                  
S31  36871149.575   193759122.428        -792.674          44.000  
S33  37820119.672   198746070.597        -793.871          43.000  
G14  19137923.305   100570699.656       -2933.807          45.000    19137925.315    78366904.626       -2286.157          51.000  
G20  21715914.281   114117760.062       -3949.180          41.000                                                                  
R14  17904826.664    95443054.044       -2507.844          53.000    17904829.764    74233664.008       -1950.544          49.000  
E07  24538758.251   128951868.990       -3077.052          45.000    24538775.309    98807243.319       -2357.724          49.000  
G13  18428690.320    96843508.898         388.023          48.000                                                                  
G17  20770798.450   109151586.293        1607.253          47.000    20770804.545    85053360.210        1252.374          44.000  
G15  20311172.002   106735944.980        1798.436          49.000    20311172.072    83170892.125        1401.494          43.000  
G22  18230108.364    95800142.234        -942.090          48.000                                                                  
G30  20833209.773   109479282.280       -3008.092          40.000    20833214.168    85308565.475       -2343.999          43.000  
E21  21937898.430   115284738.592         441.203          48.000    21937905.579    88335233.309         338.134          52.000  
E18  22608237.618   118807109.670       -4631.787          39.000                                                                  
> 2024 04 15 20 52 00.4940000  0 23                     
G05  20157527.133   105928455.042       -2755.519          46.000    20157531.300    82541637.577       -2147.389          44.000  
E19  22549073.643   118496236.673         980.565          44.000    22549077.999    90795896.810         751.297          46.000  
G24  22509783.700   118289730.113        1331.931          39.000    22509791.060    92173822.968        1037.917          38.000  
E27  22267073.492   117014476.766       -2268.047          46.000    22267080.485    89660591.363       -1737.980          54.000  
R04  17145482.581    91813342.829        -867.939          51.000    17145480.801    71410385.529        -675.021          49.000  
R03  19305918.613   103346122.064       -4379.276          52.000    19305922.777    80380336.851       -3406.229          49.000  
R15  18540715.581    99076119.294         786.108          52.000    18540719.393    77059493.429         611.337          49.000  
R05  19394648.344   103675545.744        2655.683          50.000    19394649.931    80636430.787        2065.575          47.000  
G19  21323877.057   112057944.847        2104.285          45.000                                                                  
S31  36875673.430   193782898.644        -792.532          40.000  
S33  37824649.356   198769875.373        -793.545          44.000  
G14  19154707.180   100658898.217       -2946.210          45.000    19154708.777    78435630.797       -2295.929          50.000  
G20  21738463.560   114236254.198       -3950.675          42.000                                                                  
R14  17918971.610    95518455.026       -2519.177          53.000    17918974.963    74292309.258       -1959.468          49.000  
E07  24556340.390   129044262.542       -3082.768          44.000    24556357.397    98878038.011       -2362.251          49.000  
G13  18426505.532    96832027.475         376.963          48.000                                                                  
G17  20761652.153   109103521.677        1596.804          48.000    20761657.192    85015907.563        1244.271          43.000  
G15  20300924.168   106682093.510        1791.326          49.000    20300924.451    83128930.040        1395.619          43.000  
G22  18235538.460    95828681.672        -960.915          47.000                                                                  
G30  20850386.266   109569552.871       -3010.490          36.000    20850392.077    85378906.221       -2345.453          42.000  
E21  21935410.956   115271661.642         430.244          49.000    21935417.555    88325213.429         329.660          52.000  
E18  22634716.817   118946251.313       -4645.019          34.000                                                                  
R13                                                                  21895663.130                3      -3384.963          15.000  
> 2024 04 15 20 52 30.4940000  0 23                     
G05  20173296.818   106011325.092       -2769.404          46.000    20173300.657    82606211.519       -2158.044          42.000  
E19  22543489.052   118466890.897         975.331          44.000    22543493.242    90773411.164         747.289          46.000  
G24  22502176.418   118249758.659        1332.200          40.000    22502184.503    92142676.701        1037.526          38.000  
E27  22280047.212   117082647.334       -2276.941          47.000    22280052.889    89712825.973       -1744.660          54.000  
R13  21919906.086                3      -4316.675          24.000                                                                  
R04  17150415.922    91839760.101        -893.673          51.000    17150413.729    71430932.283        -695.060          49.000  
R03  19330501.569   103477713.309       -4393.874          51.000    19330506.983    80482685.257       -3417.389          50.000  
R15  18536343.583    99052758.526         770.832          52.000    18536347.303    77041324.106         599.582          48.000  
R05  19379777.906   103596053.805        2643.451          49.000    19379778.971    80574603.897        2056.000          46.000  
G19  21311874.468   111994875.283        2099.773          46.000                                                                  
S31  36880196.677   193806666.122        -792.358          44.000  
S33  37829177.595   198793672.225        -793.710          42.000  
G14  19171563.212   100747474.207       -2959.058          47.000    19171564.313    78504651.059       -2305.811          50.000  
G20  21761017.904   114354777.487       -3951.626          42.000                                                                  
R14  17933180.255    95594193.504       -2530.615          53.000    17933182.710    74351216.994       -1968.270          50.000  
E07  24573955.749   129136830.523       -3088.709          44.000    24573972.557    98948966.354       -2366.657          48.000  
G13  18424383.947    96820878.449         365.718          48.000                                                                  
G17  20752565.012   109055774.131        1585.906          45.000    20752571.329    84978702.018        1235.999          44.000  
G15  20290716.334   106628452.511        1784.216          49.000    20290716.811    83087131.924        1390.410          43.000  
G22  18241075.476    95857778.088        -979.433          48.000                                                                  
G30  20867576.879   109659885.088       -3012.236          42.000    20867581.515    85449294.930       -2347.133          43.000  
E21  21932984.930   115258912.960         419.228          49.000    21932991.610    88315445.086         321.273          53.000  
E18  22661266.331   119085778.400       -4657.351          37.000                                                                  
> 2024 04 15 20 53 00.4940000  0 23                     
G05  20189145.848   106094611.118       -2783.068          46.000    20189150.697    82671109.593       -2168.729          44.000  
E19  22537935.311   118437705.658         970.011          44.000    22537939.783    90751048.526         743.281          46.000  
G24  22494571.910   118209796.470        1331.599          40.000    22494579.616    92111537.464        1037.886          37.000  
E27  22293070.126   117151083.111       -2285.630          48.000    22293075.879    89765263.798       -1751.273          55.000  
R13  21944130.546                3      -4322.719          17.000                                                                  
R04  17155493.045    91866948.661        -919.094          52.000    17155491.625    71452078.929        -714.906          50.000  
R03  19355165.038   103609736.982       -4407.901          51.000    19355169.495    80585370.008       -3428.319          49.000  
R15  18532057.145    99029856.449         755.844          51.000    18532061.629    77023511.566         587.726          48.000  
R05  19364976.003   103516933.769        2631.127          47.000    19364977.462    80513066.176        2046.459          46.000  
G19  21299896.746   111931936.710        2095.761          46.000                                                                  
S31  36884719.037   193830431.112        -792.019          43.000  
S33  37833705.344   198817466.299        -793.103          43.000  
G14  19188491.119   100836431.008       -2971.581          47.000    19188491.881    78573968.065       -2315.572          50.000  
G20  21783578.918   114473333.483       -3952.471          42.000                                                                  
R14  17947452.866    95670272.724       -2541.622          53.000    17947455.255    74410389.752       -1976.817          49.000  
E07  24591604.724   129229578.298       -3094.611          43.000    24591622.642    99020032.422       -2371.307          49.000  
G13  18422327.490    96810069.486         354.473          47.000                                                                  
G17  20743539.809   109008352.542        1575.141          46.000    20743546.332    84941750.515        1227.585          44.000  
G15  20280550.258   106575029.830        1777.032          48.000    20280550.671    83045503.932        1384.921          43.000  
G22  18246718.893    95887436.219        -998.005          47.000                                                                  
G30  20884778.657   109750284.318       -3014.625          40.000    20884784.233    85519735.841       -2348.903          43.000  
E21  21930622.502   115246498.534         408.167          49.000    21930628.647    88305932.864         312.648          52.000  
E18  22687891.983   119225693.416       -4670.722          35.000                                                                  
> 2024 04 15 20 53 30.4940000  0 25                     
G05  20205072.902   106178306.003       -2796.587          46.000    20205076.952    82736326.245       -2179.558          42.000  
E19  22532411.211   118408677.365         964.957          44.000    22532415.288    90728806.133         739.363          46.000  
G24  22486968.211   118169838.050        1331.923          40.000    22486975.240    92080401.215        1037.723          36.000  
E27  22306141.749   117219777.582       -2294.185          47.000    22306148.017    89817899.841       -1757.855          55.000  
R13  21968338.174                3      -4300.415          22.000                                                                  
R16  22625886.131                3       2236.140          12.000                                                                  
R04  17160713.786    91894904.366        -944.670          51.000    17160712.142    71473822.248        -734.870          49.000  
R03  19379905.756   103742184.972       -4422.029          51.000    19379911.914    80688384.772       -3439.298          50.000  
R15  18527856.881    99007407.556         740.694          52.000    18527860.385    77006051.472         576.126          49.000  
R05  19350244.080   103438184.530        2618.568          48.000    19350245.805    80451816.879        2036.684          47.000  
G19  21287943.809   111869127.954        2091.305          45.000                                                                  
S31  36889239.699   193854188.256        -792.009          44.000  
S33  37838232.097   198841253.232        -793.024          43.000  
G14  19205490.508   100925761.105       -2983.969          46.000    19205490.803    78643575.913       -2325.185          50.000  
G20  21806144.550   114591914.365       -3953.182          45.000                                                                  
R23  22648827.245                3        899.156          18.000                                                                  
R14  17961787.158    95746684.235       -2552.716          53.000    17961789.944    74469820.972       -1985.450          50.000  
E07  24609287.596   129322500.230       -3100.362          45.000    24609305.868    99091231.925       -2375.553          49.000  
G13  18420334.130    96799597.931         343.238          48.000                                                                  
G17  20734577.803   108961255.198        1564.271          45.000    20734584.532    84905051.619        1219.069          44.000  
G15  20270424.937   106521822.938        1769.787          48.000    20270425.454    83004044.121        1379.221          42.000  
G22  18252468.608    95917650.174       -1016.334          48.000                                                                  
G30  20901994.543   109840745.200       -3016.395          43.000    20901998.393    85590224.823       -2350.346          43.000  
E21  21928321.852   115234413.419         397.279          48.000    21928328.727    88296672.953         304.412          52.000  
E18  22714588.887   119365988.131       -4682.739          36.000                                                                  
> 2024 04 15 20 54 00.4940000  0 23                     
G05  20221076.304   106262400.727       -2810.098          44.000    20221079.351    82801854.448       -2189.778          42.000  
E19  22526916.032   118379801.851         959.893          43.000    22526920.482    90706680.816         735.266          46.000  
G24  22479363.969   118129877.716        1331.593          39.000    22479370.786    92049263.430        1037.771          36.000  
E27  22319261.233   117288723.691       -2302.664          46.000    22319267.810    89870728.712       -1764.331          54.000  
R13  21992522.861                3      -4296.874          17.000                                                                  
R04  17166075.888    91923622.179        -970.144          51.000    17166075.002    71496158.346        -754.659          49.000  
R03  19404727.134   103875048.148       -4435.819          51.000    19404732.512    80791722.444       -3450.124          50.000  
R15  18523739.811    98985405.561         725.674          52.000    18523742.799    76988939.006         564.432          49.000  
R05  19335581.162   103359804.363        2606.223          49.000    19335583.447    80390854.646        2026.996          47.000  
G19  21276015.994   111806446.458        2087.008          46.000                                                                  
S31  36893758.139   193877931.846        -791.396          45.000  
S33  37842755.460   198865026.859        -792.702          42.000  
G14  19222558.992   101015456.486       -2996.063          47.000    19222559.134    78713468.434       -2334.656          49.000  
G20  21828713.327   114710511.408       -3953.767          43.000                                                                  
R14  17976183.161    95823419.925       -2563.556          53.000    17976185.389    74529504.316       -1993.879          49.000  
E07  24627002.731   129415590.287       -3105.932          45.000    24627020.630    99162560.245       -2379.991          49.000  
G13  18418405.297    96789459.867         332.041          48.000                                                                  
G17  20725677.064   108914479.308        1553.523          46.000    20725682.142    84868603.199        1210.589          44.000  
G15  20260340.987   106468828.730        1762.718          49.000    20260341.818    82962750.011        1373.465          44.000  
G22  18258322.646    95948413.859       -1034.806          47.000                                                                  
G30  20919219.022   109931261.947       -3018.407          44.000    20919223.203    85660757.342       -2351.970          44.000  
E21  21926084.617   115222652.211         386.415          49.000    21926090.682    88287661.246         296.031          52.000  
E18  22741358.029   119506653.679       -4695.019          36.000                                                                  
> 2024 04 15 20 54 30.4940000  0 22                     
G05  20237155.086   106346899.287       -2823.431          44.000    20237159.964    82867697.318       -2200.281          43.000  
E19  22521452.508   118351087.480         954.269          44.000    22521456.323    90684678.980         731.158          46.000  
G24  22471760.299   118089921.855        1330.933          38.000    22471766.789    92018129.214        1038.072          35.000  
E27  22332430.781   117357926.722       -2311.193          47.000    22332436.913    89923754.428       -1770.991          55.000  
R04  17171582.799    91953110.081        -996.042          50.000    17171581.919    71519093.363        -774.612          49.000  
R03  19429625.594   104008330.434       -4449.940          51.000    19429630.677    80895386.137       -3461.091          49.000  
R15  18519706.590    98963857.137         710.503          51.000    18519710.043    76972179.273         552.537          48.000  
R05  19320990.408   103281803.952        2593.269          49.000    19320991.968    80330187.766        2017.039          47.000  
G19  21264113.001   111743902.282        2082.117          46.000                                                                  
S31  36898275.181   193901668.822        -791.620          44.000  
S33  37847278.205   198888793.729        -792.625          42.000  
G14  19239697.878   101105521.448       -3008.588          47.000    19239698.087    78783648.931       -2344.266          50.000  
G20  21851286.302   114829128.535       -3954.567          44.000                                                                  
R14  17990638.815    95900483.679       -2574.545          53.000    17990642.294    74589442.825       -2002.427          50.000  
E07  24644750.356   129508854.675       -3112.043          45.000    24644768.397    99234022.158       -2384.511          49.000  
G13  18416541.444    96779664.202         320.513          49.000                                                                  
G17  20716838.998   108868035.173        1542.345          48.000    20716843.800    84832413.310        1201.609          43.000  
G15  20250298.401   106416055.993        1755.177          48.000    20250298.967    82921628.462        1367.664          44.000  
G22  18264282.362    95979733.107       -1053.500          47.000                                                                  
G30  20936455.181   110021840.965       -3020.522          42.000    20936459.510    85731338.357       -2353.734          44.000  
E21  21923908.936   115211221.718         375.172          49.000    21923914.947    88278902.946         287.477          51.000  
E18  22768197.545   119647693.574       -4708.454          36.000                                                                  
> 2024 04 15 20 55 00.4940000  0 22                     
G05  20253312.443   106431806.155       -2837.147          45.000    20253316.993    82933858.359       -2210.840          43.000  
E19  22516020.681   118322542.324         948.569          44.000    22516023.903    90662806.786         726.823          46.000  
G24  22464158.677   118049977.110        1331.306          39.000    22464166.100    91987003.665        1037.324          40.000  
E27  22345648.609   117427391.907       -2319.968          46.000    22345655.476    89976981.017       -1777.630          54.000  
R04  17177235.284    91983375.432       -1021.804          51.000    17177232.752    71542633.088        -794.647          49.000  
R03  19454603.096   104142035.976       -4463.921          52.000    19454608.143    80999378.988       -3471.936          48.000  
R15  18515760.422    98942768.739         695.235          52.000    18515763.244    76955777.324         540.636          49.000  
R05  19306472.382   103204194.919        2580.389          48.000    19306473.551    80269825.285        2006.945          48.000  
G19  21252239.164   111681505.439        2077.366          47.000                                                                  
S31  36902791.895   193925406.848        -791.056          43.000  
S33  37851801.237   198912562.483        -792.450          43.000  
G14  19256907.934   101195960.155       -3020.691          48.000    19256908.002    78854120.685       -2353.978          49.000  
G20  21873863.021   114947769.399       -3954.941          41.000                                                                  
R14  18005157.835    95977879.490       -2585.435          51.000    18005161.614    74649639.600       -2010.818          49.000  
E07  24662533.337   129602299.591       -3118.051          46.000    24662550.171    99305622.428       -2389.056          48.000  
G13  18414744.168    96770219.632         308.751          48.000                                                                  
G17  20708066.239   108821932.479        1531.011          48.000    20708071.055    84796489.402        1192.738          44.000  
G15  20240299.924   106363513.804        1747.407          48.000    20240300.419    82880686.603        1361.760          44.000  
G22  18270349.663    96011613.432       -1072.207          48.000                                                                  
G30  20953705.055   110112488.779       -3023.000          38.000    20953710.016    85801972.973       -2355.359          43.000  
E21  21921797.304   115200128.771         364.124          48.000    21921803.973    88270403.286         279.041          52.000  
E18  22795107.362   119789111.214       -4720.061          39.000                                                                  
> 2024 04 15 20 55 30.4940000  0 23                     
G05  20269547.303   106517115.105       -2850.363          45.000    20269550.801    83000332.687       -2220.982          44.000  
E19  22510620.558   118294164.128         943.172          43.000    22510623.679    90641062.535         722.767          46.000  
G24  22456558.796   118010039.618        1331.269          39.000    22456566.413    91955883.765        1036.865          39.000  
E27  22358917.207   117497114.120       -2328.415          46.000    22358923.220    90030404.554       -1784.033          55.000  
R23  22629665.023                3        825.023          16.000                                                                  
R04  17183031.641    92014415.663       -1047.587          51.000    17183029.087    71566775.505        -814.803          48.000  
R03  19479658.165   104276157.796       -4477.733          52.000    19479663.307    81103695.614       -3482.571          49.000  
R15  18511899.231    98922136.105         680.037          53.000    18511901.525    76939729.889         528.990          48.000  
R05  19292026.275   103126977.334        2567.267          49.000    19292027.708    80209767.285        1996.767          47.000  
G19  21240392.123   111619255.499        2072.539          45.000                                                                  
S31  36907308.493   193949141.008        -791.217          43.000  
S33  37856323.871   198936327.134        -791.955          43.000  
G14  19274187.578   101286766.620       -3033.102          48.000    19274187.993    78924878.983       -2363.467          50.000  
G20  21896443.306   115066427.774       -3955.518          43.000                                                                  
R14  18019739.155    96055601.266       -2596.102          53.000    18019742.336    74710089.898       -2019.281          50.000  
E07  24680349.451   129695920.923       -3123.695          45.000    24680366.418    99377357.870       -2393.341          48.000  
G13  18413012.824    96761124.140         297.150          48.000                                                                  
G17  20699358.281   108776170.860        1519.615          48.000    20699361.896    84760831.322        1184.150          43.000  
G15  20230344.626   106311200.920        1739.901          48.000    20230345.502    82839923.437        1355.689          43.000  
G22  18276522.535    96044050.758       -1090.475          48.000                                                                  
G30  20970967.659   110203201.517       -3024.598          43.000    20970971.499    85872658.197       -2357.137          43.000  
E21  21919751.446   115189369.953         352.999          49.000    21919756.642    88262159.647         270.494          52.000  
E18  22822089.196   119930899.953       -4732.567          38.000                                                                  
> 2024 04 15 20 56 00.4940000  0 22                     
G05  20285858.406   106602828.906       -2863.918          46.000    20285861.562    83067122.502       -2231.718          43.000  
E19  22505252.922   118265960.552         936.908          43.000    22505256.752    90619452.066         718.034          46.000  
G24  22448961.659   117970114.989        1330.591          40.000    22448968.673    91924773.827        1036.731          39.000  
E27  22372234.446   117567097.772       -2337.338          45.000    22372240.711    90084028.413       -1790.973          55.000  
R04  17188973.983    92046237.240       -1073.995          51.000    17188972.104    71591525.612        -835.305          48.000  
R03  19504791.877   104410698.744       -4491.707          51.000    19504796.413    81208338.232       -3493.586          48.000  
R15  18508123.672    98901964.736         664.491          53.000    18508127.055    76924041.200         516.861          49.000  
R05  19277656.369   103050161.360        2553.579          49.000    19277658.043    80150021.604        1986.151          48.000  
G19  21228575.189   111557161.778        2066.951          44.000                                                                  
S31  36911825.639   193972877.872        -791.563          44.000  
S33  37860846.294   198960094.820        -792.545          42.000  
G14  19291538.608   101377944.185       -3045.594          48.000    19291538.657    78995926.448       -2373.231          50.000  
G20  21919027.711   115185106.597       -3956.555          43.000                                                                  
R14  18034380.620    96133651.683       -2607.299          54.000    18034383.167    74770795.838       -2027.922          49.000  
E07  24698198.824   129789724.040       -3129.980          43.000    24698216.454    99449232.562       -2398.257          48.000  
G13  18411350.097    96752385.507         285.092          48.000                                                                  
G17  20690715.604   108730759.354        1507.607          48.000    20690720.230    84725446.035        1174.894          44.000  
G15  20220435.460   106259125.500        1731.601          49.000    20220436.183    82799345.268        1349.281          45.000  
G22  18282801.308    96077049.969       -1109.372          47.000                                                                  
G30  20988243.356   110293984.811       -3027.421          45.000    20988247.220    85943398.386       -2359.245          44.000  
E21  21917767.633   115178951.122         341.483          48.000    21917773.842    88254176.492         261.625          52.000  
E18  22849141.062   120073062.258       -4744.974          37.000                                                                  
> 2024 04 15 20 56 30.4940000  0 22                     
G05  20302244.725   106688940.658       -2877.125          46.000    20302248.288    83134222.421       -2242.028          43.000  
E19  22499918.280   118237928.331         931.584          43.000    22499922.335    90597972.945         713.666          46.000  
G24  22441366.568   117930198.665        1329.920          41.000    22441372.735    91893670.380        1036.638          40.000  
E27  22385600.206   117637336.835       -2345.625          45.000    22385606.676    90137847.970       -1797.302          54.000  
R04  17195061.718    92078836.522       -1099.797          52.000    17195060.449    71616880.583        -855.323          49.000  
R03  19530002.393   104545650.997       -4505.414          51.000    19530007.897    81313300.759       -3504.158          49.000  
R15  18504435.177    98882249.689         649.340          53.000    18504438.395    76908707.444         505.143          49.000  
R05  19263361.692   102973746.771        2540.200          50.000    19263363.132    80090588.150        1975.757          49.000  
G19  21216788.700   111495223.069        2061.772          46.000                                                                  
S31  36916342.157   193996613.186        -791.353          43.000  
S33  37865368.586   198983860.545        -792.523          41.000  
G14  19308958.620   101469485.883       -3057.707          49.000    19308958.674    79067257.658       -2382.607          49.000  
G20  21941615.095   115303798.868       -3956.714          43.000                                                                  
R14  18049083.638    96212023.307       -2617.909          53.000    18049086.199    74831751.579       -2036.151          50.000  
E07  24716083.505   129883703.869       -3135.794          44.000    24716100.723    99521242.674       -2402.640          48.000  
G13  18409754.424    96744001.682         273.323          48.000                                                                  
G17  20682139.912   108685696.763        1496.181          46.000    20682144.467    84690332.623        1165.903          43.000  
G15  20210570.459   106207285.146        1723.931          48.000    20210571.432    82758950.282        1343.294          44.000  
G22  18289186.183    96110605.547       -1127.960          47.000                                                                  
G30  21005531.044   110384833.871       -3029.504          44.000    21005535.544    86014189.837       -2360.466          44.000  
E21  21915849.574   115168867.891         330.407          49.000    21915855.279    88246450.498         253.205          52.000  
E18  22876264.852   120215590.463       -4756.696          34.000                                                                  
> 2024 04 15 20 57 00.4940000  0 22                     
G05  20318706.844   106775450.127       -2890.464          47.000    20318711.213    83201632.237       -2252.312          44.000  
E19  22494616.535   118210071.224         925.453          42.000    22494621.423    90576627.967         709.098          46.000  
G24  22433772.633   117890292.543        1329.933          43.000    22433778.717    91862574.925        1036.189          39.000  
E27  22399015.281   117707832.075       -2354.342          46.000    22399021.210    90191863.808       -1803.920          54.000  
R04  17201294.988    92112216.179       -1125.845          51.000    17201293.345    71642842.528        -875.759          48.000  
R03  19555289.675   104681013.972       -4519.189          51.000    19555296.094    81418582.665       -3514.827          50.000  
R15  18500830.870    98862992.817         633.900          52.000    18500833.382    76893730.000         493.205          48.000  
R05  19249142.087   102897739.943        2526.416          50.000    19249144.240    80031471.791        1965.072          48.000  
G19  21205032.444   111433444.582        2056.452          46.000                                                                  
S31  36920858.755   194020348.869        -791.207          43.000  
S33  37869891.470   199007627.143        -792.477          42.000  
G14  19326447.352   101561391.504       -3069.874          48.000    19326447.085    79138872.420       -2392.034          49.000  
G20  21964204.647   115422503.788       -3957.349          43.000                                                                  
R14  18063846.449    96290716.241       -2628.591          53.000    18063848.342    74892957.208       -2044.504          50.000  
E07  24734002.635   129977862.092       -3141.796          46.000    24734019.493    99593389.461       -2407.351          49.000  
G13  18408227.537    96735976.627         261.165          47.000                                                                  
G17  20673632.537   108640988.241        1484.122          46.000    20673637.037    84655495.090        1156.363          44.000  
G15  20200751.104   106155684.719        1715.760          49.000    20200751.700    82718742.273        1336.865          44.000  
G22  18295677.844    96144718.847       -1146.454          46.000                                                                  
G30  21022832.562   110475750.753       -3031.991          45.000    21022836.037    86085034.141       -2362.494          43.000  
E21  21913994.580   115159122.562         318.942          48.000    21914001.235    88238983.422         244.448          53.000  
E18  22903443.098   120358483.476       -4769.058          29.000                                                                  
> 2024 04 15 20 57 30.4940000  0 22                     
G05  20335243.856   106862352.744       -2903.201          48.000    20335248.343    83269348.403       -2262.195          44.000  
E19  22489349.017   118182389.398         919.839          43.000    22489353.510    90555417.293         704.967          46.000  
G24  22426179.852   117850395.180        1329.881          41.000    22426185.924    91831486.318        1035.917          40.000  
E27  22412479.334   117778580.708       -2362.426          46.000    22412484.052    90246073.804       -1810.150          54.000  
R04  17207674.325    92146375.593       -1151.592          51.000    17207671.867    71669410.946        -895.704          48.000  
R03  19580652.853   104816783.436       -4532.226          51.000    19580658.560    81524180.774       -3525.142          48.000  
R15  18497311.527    98844192.426         619.212          51.000    18497315.761    76879107.642         481.626          49.000  
R05  19235000.643   102822143.610        2512.982          50.000    19235002.411    79972674.729        1954.600          49.000  
G19  21193306.386   111371828.478        2051.094          45.000                                                                  
S31  36925375.275   194044084.265        -791.015          44.000  
S33  37874414.054   199031392.811        -792.432          41.000  
G14  19344004.354   101653657.267       -3081.323          48.000    19344004.278    79210767.842       -2401.128          49.000  
G20  21986795.349   115541217.125       -3957.007          41.000                                                                  
R14  18078667.873    96369725.865       -2638.828          53.000    18078670.391    74954409.142       -2052.464          49.000  
E07  24751953.713   130072196.920       -3147.300          44.000    24751971.142    99665671.580       -2411.635          49.000  
G13  18406768.685    96728310.942         249.495          47.000                                                                  
G17  20665192.085   108596635.566        1472.585          48.000    20665196.120    84620934.898        1147.541          44.000  
G15  20190977.455   106104325.028        1708.083          49.000    20190978.089    82678721.844        1330.763          44.000  
G22  18302276.044    96179387.554       -1164.738          47.000                                                                  
G30  21040144.756   110566733.929       -3033.938          43.000    21040149.359    86155930.095       -2364.375          44.000  
E21  21912203.648   115149713.914         308.132          48.000    21912210.912    88231774.304         236.103          53.000  
E18  22930712.673                       -4781.488          28.000                                                                  
> 2024 04 15 20 58 00.4940000  0 22                     
G05  20351853.453   106949637.097       -2915.758          47.000    20351858.560    83337362.018       -2272.013          45.000  
E19  22484113.098   118154875.071         914.208          42.000    22484118.034    90534334.949         700.568          47.000  
G24  22418587.097   117810496.954        1330.015          41.000    22418593.676    91800397.015        1036.330          40.000  
E27  22425988.347   117849571.772       -2370.478          47.000    22425993.247    90300469.592       -1816.353          55.000  
R04  17214196.899    92181305.891       -1177.311          51.000    17214195.249    71696578.960        -915.500          48.000  
R03  19606090.469   104952946.043       -4545.374          51.000    19606095.709    81630084.642       -3535.182          49.000  
R15  18493877.076    98825837.931         604.321          51.000    18493881.127    76864832.098         469.954          49.000  
R05  19220934.101   102746952.313        2499.441          50.000    19220936.689    79914192.714        1944.068          48.000  
G19  21181610.394   111310368.426        2045.964          45.000                                                                  
S31  36929889.786   194067808.704        -790.491          44.000  
S33  37878934.899   199055148.378        -791.805          42.000  
G14  19361628.063   101746271.243       -3093.053          47.000    19361628.060    79282934.586       -2410.086          48.000  
G20  22009385.027   115659926.771       -3956.879          40.000                                                                  
R14  18093547.529    96449040.006       -2648.915          54.000    18093549.857    75016097.923       -2060.349          50.000  
E07  24769937.589   130166698.388       -3152.917          45.000    24769954.293    99738081.362       -2415.815          48.000  
G13  18405376.979    96720997.103         237.858          47.000                                                                  
G17  20656818.367   108552632.346        1460.723          48.000    20656823.097    84586646.972        1138.225          44.000  
G15  20181248.304   106053199.097        1700.183          48.000    20181249.104    82638883.541        1324.964          45.000  
G22  18308976.280    96214601.220       -1183.024          47.000                                                                  
G30  21057470.756   110657773.688       -3035.710          45.000    21057474.243    86226870.145       -2365.519          44.000  
E21  21910475.834   115140632.503         297.155          48.000    21910482.516    88224815.950         227.746          53.000  
E18  22958033.798                3      -4793.001          26.000                                                                  
> 2024 04 15 20 58 30.4940000  0 22                     
G05  20368536.116   107037304.537       -2928.935          47.000    20368541.670    83405674.158       -2282.291          44.000  
E19  22478910.948   118127534.636         908.243          43.000    22478914.641    90513385.878         695.920          46.000  
G24  22410994.633   117770602.606        1329.516          40.000    22411002.113    91769310.700        1036.237          40.000  
E27  22439543.280   117920808.768       -2378.809          46.000    22439549.141    90355053.809       -1822.798          54.000  
R04  17220865.109    92217012.497       -1203.502          51.000    17220862.546    71724350.748        -935.929          48.000  
R03  19631600.480   105089504.036       -4558.572          52.000    19631606.190    81736296.019       -3545.613          49.000  
R15  18490527.366    98807933.931         589.108          52.000    18490529.983    76850906.909         458.157          47.000  
R05  19206945.454   102672175.571        2485.279          49.000    19206947.580    79856033.143        1933.010          48.000  
G19  21169945.461   111249072.934        2040.057          47.000                                                                  
S31  36934403.957   194091527.733        -790.771          44.000  
S33  37883453.638   199078898.794        -791.709          41.000  
G14  19379317.975   101839235.938       -3104.952          47.000    19379318.648    79355374.641       -2419.494          49.000  
G20  22031974.862   115778634.591       -3957.166          41.000                                                                  
R14  18108484.148    96528661.038       -2659.243          53.000    18108485.958    75078025.428       -2068.313          49.000  
E07  24787952.998   130261370.824       -3158.826          44.000    24787970.486    99810622.154       -2420.321          49.000  
G13  18404053.631    96714041.860         225.501          47.000                                                                  
G17  20648513.370   108508987.058        1448.575          48.000    20648517.054    84552637.946        1128.702          44.000  
G15  20171564.812   106002313.851        1691.940          48.000    20171565.923    82599232.803        1318.362          45.000  
G22  18315781.918    96250364.046       -1201.506          48.000                                                                  
G30  21074804.912   110748874.825       -3037.989          43.000    21074808.585    86297858.046       -2367.339          42.000  
E21  21908810.069   115131883.392         285.752          48.000    21908817.251    88218112.195         219.035          53.000  
E18  22985435.646   120789238.4701      -4804.231          31.000                                                                  
> 2024 04 15 20 59 00.4940000  0 22                     
G05  20385291.688   107125352.681       -2941.461          47.000    20385296.396    83474282.946       -2292.205          44.000  
E19  22473740.918   118100368.873         902.484          43.000    22473745.543    90492570.619         691.435          47.000  
G24  22403402.968   117730711.577        1329.559          39.000    22403410.135    91738226.997        1036.206          41.000  
E27  22453145.227   117992289.797       -2386.989          45.000    22453151.598    90409825.024       -1828.940          54.000  
R04  17227678.334    92253495.270       -1229.047          51.000    17227675.072    71752726.248        -955.953          47.000  
R03  19657183.584   105226453.843       -4571.627          51.000    19657190.247    81842812.149       -3555.719          49.000  
R15  18487260.780    98790479.487         574.086          52.000    18487263.110    76837331.370         446.487          48.000  
R05  19193034.549   102597816.468        2471.478          50.000    19193037.218    79798198.335        1922.426          48.000  
G19  21158312.997   111187944.712        2034.711          45.000                                                                  
S31  36938916.354   194115241.730        -790.491          43.000  
S33  37887972.094   199102644.147        -791.547          42.000  
G14  19397075.567   101932548.445       -3116.383          49.000    19397075.761    79428085.678       -2428.363          49.000  
G20  22054563.264   115897337.567       -3956.750          41.000                                                                  
R14  18123477.876    96608585.528       -2669.308          54.000    18123479.594    75140188.938       -2076.194          50.000  
E07  24805999.964   130356213.284       -3164.399          43.000    24806018.699    99883293.206       -2424.615          49.000  
G13  18402798.885    96707446.999         213.582          47.000                                                                  
G17  20640276.613   108465701.991        1436.689          48.000    20640280.245    84518909.596        1119.321          45.000  
G15  20161927.819   105951671.548        1683.730          47.000    20161929.213    82559771.369        1311.978          45.000  
G22  18322690.469    96286674.380       -1219.471          47.000                                                                  
G30  21092151.947   110840036.755       -3039.932          42.000    21092156.360    86368893.229       -2368.696          42.000  
E21  21907208.843   115123466.161         274.863          48.000    21907215.361    88211662.719         210.624          53.000  
E18  23012889.099   120933534.586       -4816.063          31.000                                                                  
> 2024 04 15 20 59 30.4940000  0 24                     
G05  20402118.005   107213774.499       -2953.340          46.000    20402122.431    83543182.902       -2301.202          44.000  
E19  22468604.275   118073375.729         897.039          43.000    22468608.763    90471887.620         687.321          47.000  
G24  22395811.398   117690819.824        1329.943          41.000    22395818.725    91707142.721        1036.155          40.000  
E27  22466791.699   118064009.388       -2394.513          45.000    22466799.382    90464779.043       -1834.762          54.000  
R13  22257085.960                3      -4257.623          17.000                                                                  
R04  17234635.288    92290750.969       -1254.591          51.000    17234632.721    71781702.869        -975.854          47.000  
R03  19682838.685   105363788.322       -4583.945          50.000    19682846.335    81949627.430       -3565.325          50.000  
R15  18484078.017    98773470.540         559.716          52.000    18484079.782    76824102.310         435.413          49.000  
R05  19179202.422   102523875.811        2457.794          50.000    19179205.231    79740689.047        1911.603          49.000  
G19  21146711.914   111126983.339        2029.156          44.000                                                                  
S31  36943426.594   194138945.669        -789.813          44.000  
S33  37892488.598   199126379.243        -790.837          41.000  
G14  19414897.650   102026202.378       -3127.331          48.000    19414897.445    79501062.784       -2436.885          49.000  
G20  22077150.158   116016028.968       -3955.811          43.000                                                                  
R23  22596008.129                3        684.266          18.000                                                                  
R14  18138526.967    96688807.231       -2678.875          53.000    18138529.104    75202583.598       -2083.612          49.000  
E07  24824080.147   130451221.289       -3169.578          44.000    24824098.526    99956091.143       -2428.660          49.000  
G13  18401612.018    96701210.359         201.958          48.000                                                                  
G17  20632107.480   108422776.583        1425.080          47.000    20632110.996    84485461.522        1110.438          44.000  
G15  20152336.730   105901270.479        1676.218          48.000    20152338.091    82520497.929        1306.083          45.000  
G22  18329703.567    96323527.369       -1237.180          47.000                                                                  
G30  21109510.648   110931255.229       -3041.437          42.000    21109514.488    86439972.549       -2369.690          42.000  
E21  21905669.139   115115376.965         264.376          48.000    21905675.687    88205464.613         202.497          52.000  
E18  23040410.872   121078169.327       -4827.070          33.000                                                                  
