     3.00           OBSERVATION DATA    M: Mixed            RINEX VERSION / TYPE
CONVBIN 2.4.3                           20240415 051442 UTC PGM / RUN BY / DATE 
format: u-blox UBX                                          COMMENT             
log: /home/regis/git/gnsspwv/obsdata/VERT00CHL/2024-04-15/VECOMMENT             
{self.marker}                                               MARKER NAME         
                                                            MARKER NUMBER       
GEODETIC                                                    MARKER TYPE         
{self.observer}     {self.institution}                      OBSERVER / AGENCY   
UNKNOWN             UBLOX-ZED-F9P                           REC # / TYPE / VERS 
UNKNOWN             TWIVSP6037L                             ANT # / TYPE        
  1713381.0000 -5047934.0000 -3490983.0000                  APPROX POSITION XYZ 
        0.0000        0.0000        0.0000                  ANTENNA: DELTA H/E/N
G    8 C1C L1C D1C S1C C2L L2L D2L S2L                      SYS / # / OBS TYPES 
R    8 C1C L1C D1C S1C C2C L2C D2C S2C                      SYS / # / OBS TYPES 
E    8 C1C L1C D1C S1C C7Q L7Q D7Q S7Q                      SYS / # / OBS TYPES 
S    4 C1C L1C D1C S1C                                      SYS / # / OBS TYPES 
  2024    04    15    05    00   00.0140000     GPS         TIME OF FIRST OBS   
  2024    04    15    05    14   30.0140000     GPS         TIME OF LAST OBS    
                                                            END OF HEADER       
> 2024 04 15 05 00 00.0140000  0 25                     
S33  43963862.982   231031809.4411       -686.954          42.000  
E02  28009408.587   147190453.2401        662.650          47.000    28009407.898   112782328.7281        507.674          52.000  
G28  26465556.062   139077402.2501      -2977.360          42.000    26465553.266   108371982.4311      -2320.019          44.000  
E36  27538547.366   144716390.7861       -409.081          46.000    27538548.337   110886797.7881       -313.535          51.000  
G26  26071013.997   137004131.8131       1973.772          48.000    26071011.892   106756424.2201       1537.708          43.000  
R20  24554421.781   131303584.6261        639.885          41.000    24554421.208   102125095.4431        497.554          43.000  
R10  25158500.811   134109033.8391       2416.565          47.000                                                                  
R09  23377788.599   124836095.4011      -1013.792          49.000    23377784.738    97095004.2281       -788.431          50.000  
R16  25902409.912   138366168.7531      -4512.924          52.000    25902408.327   107618040.5321      -3510.107          50.000  
E11  28294470.198   148688853.5531      -2783.731          46.000    28294466.455   113930649.7091      -2133.010          46.000  
G18  24524991.000   128880062.2321       -287.134          48.000    24524986.274   100426135.7761       -223.761          49.000  
G29  26053074.514   136910237.0811      -2209.984          50.000    26053068.319   106683573.7831      -1722.021          44.000  
S31  43009648.917   226017350.7801       -686.695          43.000  
R18  27865487.087   148747941.8931      -4231.602          35.000    27865485.999                1      -3291.182          31.000  
R19  24818662.072   132763471.3671      -3269.132          42.000    24818656.749   103260082.0181      -2542.530          48.000  
G05  27904962.883   146641564.5041      -1712.958          30.000    27904957.866   114266103.8921      -1334.760          39.000  
G23  27819301.243   146191507.7651       2725.622          44.000    27819298.248   113915479.9391       2123.969          43.000  
E34  30134348.681   158357250.0811       1770.665          44.000    30134353.173   121338811.8981       1356.818          47.000  
E24  32301472.086   169745476.1661      -3211.197          41.000    32301472.609   130064768.5051      -2460.486          46.000  
G12  29242982.229   153673176.7301      -3790.772          33.000    29242976.973                       -2954.632          29.000  
E10  31746018.194   166826611.0741      -3425.599          40.000    31746019.792   127828706.6061      -2624.640          46.000  
G25  26204849.034   137707636.4971      -3164.536          46.000    26204847.643   107304721.8431      -2465.724          44.000  
E25  28096574.220   147648793.9461      -1797.021          49.000    28096574.866   113133646.4931      -1376.927          54.000  
G31  26184235.483   137599027.2161       -911.312          47.000    26184230.222   107220095.5261       -710.402          42.000  
E14  33970578.079   178516728.1371      -2181.705          39.000    33970575.212   136785600.9561      -1671.882          40.000  
> 2024 04 15 05 00 30.0140000  0 25                     
S33  43967782.057   231052403.372        -686.598          42.000  
E02  28005644.257   147170670.039         655.730          48.000    28005643.019   112767170.191         502.393          52.000  
G28  26482586.411   139166894.799       -2989.233          44.000    26482583.109   108441716.833       -2329.423          45.000  
E36  27540914.695   144728832.913        -420.927          46.000    27540915.975   110896331.379        -322.486          51.000  
G26  26059767.672   136945032.236        1965.717          48.000    26059765.453   106710372.607        1531.654          44.000  
R20  24550875.750   131284622.840         624.027          41.000    24550875.443   102110347.391         485.317          43.000  
R10  25144942.527   134036761.288        2401.343          47.000                                                                  
R09  23383553.402   124866877.896       -1038.990          49.000    23383549.902    97118946.172        -808.082          50.000  
R16  25927788.532   138501732.464       -4525.108          52.000    25927786.897   107723478.901       -3519.526          50.000  
E11  28310377.119   148772442.974       -2789.459          46.000    28310372.865   113994698.743       -2137.408          46.000  
G18  24526680.379   128888938.573        -305.105          48.000    24526675.345   100433052.424        -237.690          49.000  
G29  26065698.315   136976575.915       -2213.159          51.000    26065692.485   106735266.415       -1724.553          44.000  
S31  43013565.920   226037934.392        -686.271          44.000  
R18  27889256.205   148874826.408       -4228.302          34.000    27889256.504   115791826.0091      -3288.293          33.000  
R19  24837015.203   132861646.297       -3276.422          43.000    24837009.358   103336440.299       -2548.518          49.000  
G05  27914787.412   146693204.458       -1729.480          33.000    27914785.184   114306342.844       -1348.370          40.000  
G23  27803743.580   146109751.251        2724.206          44.000    27803740.441   113851773.737        2122.729          42.000  
E34  30124258.082   158304223.783        1763.811          44.000    30124262.179   121298181.441        1351.448          47.000  
E24  32319813.847   169841862.148       -3214.926          41.000    32319813.832   130138622.637       -2463.484          45.000  
G12  29264638.838   153786980.326       -3796.459          29.000    29264633.171                       -2957.950          25.000  
E10  31765573.177   166929378.060       -3426.067          40.000    31765575.552   127907450.138       -2625.271          46.000  
G25  26222945.076   137802735.292       -3175.737          45.000    26222943.591   107378824.762       -2474.427          42.000  
E25  28106858.105   147702836.987       -1806.440          48.000    28106858.866   113175056.081       -1384.125          54.000  
G31  26189490.505   137626641.412        -930.141          47.000    26189485.229   107241613.021        -724.913          43.000  
E14  33983001.724   178582015.350       -2171.300          39.000    33982998.336   136835626.209       -1663.419          39.000  
> 2024 04 15 05 01 00.0140000  0 26                     
S33  43971700.269   231072994.211        -686.387          42.000  
E02  28001920.331   147151099.515         648.698          48.000    28001918.868   112752174.595         497.169          52.000  
G28  26499684.578   139256745.613       -3001.000          44.000    26499681.327   108511730.384       -2338.530          45.000  
E36  27543350.559   144741633.132        -432.766          46.000    27543351.844   110906139.362        -331.522          51.000  
G26  26048568.771   136886179.392        1957.513          48.000    26048565.994   106664513.261        1525.448          44.000  
R20  24547420.625   131266146.602         607.713          41.000    24547419.610   102095977.027         472.698          43.000  
R10  25131472.008   133964953.514        2385.803          47.000                                                                  
R09  23389460.748   124898420.719       -1064.208          50.000    23389457.397    97143479.448        -827.685          51.000  
R03  28510347.560                3        857.211          11.000                                                                  
R16  25953235.925   138637663.033       -4537.200          52.000    25953233.031   107829202.603       -3528.869          49.000  
E11  28326318.126   148856215.495       -2795.424          46.000    28326314.233   114058888.072       -2141.724          46.000  
G18  24528472.006   128898355.530        -322.988          48.000    24528466.901   100440390.331        -251.543          49.000  
G29  26078340.773   137043015.189       -2216.335          50.000    26078335.497   106787037.284       -1727.035          44.000  
S31  43017481.830   226058513.922        -685.888          44.000  
R18  27913006.622                       -4223.761          31.000    27913004.628   115890432.544       -3285.010          33.000  
R19  24855410.964   132960051.509       -3284.095          44.000    24855405.706   103412977.725       -2554.163          49.000  
G05  27924711.742   146745353.804       -1746.844          35.000    27924708.722   114346978.686       -1361.444          39.000  
G23  27788194.991   146028042.718        2722.803          44.000    27788191.847   113788104.924        2121.841          41.000  
E34  30114208.101   158251412.914        1756.491          44.000    30114212.486   121257716.064        1346.027          47.000  
E24  32338178.812   169938371.351       -3218.950          40.000    32338179.107   130212571.160       -2466.604          45.000  
G12  29286325.506                       -3802.022          26.000    29286319.993                3      -2966.270          22.000  
E10  31785134.706   167032176.510       -3427.178          40.000    31785137.437   127986217.781       -2626.013          45.000  
G25  26241108.256   137898178.531       -3187.147          47.000    26241104.978   107453196.131       -2483.624          41.000  
E25  28117196.067   147757166.935       -1815.845          48.000    28117197.389   113216685.517       -1391.315          54.000  
G31  26194852.751   137654822.331        -948.941          46.000    26194847.806   107263572.157        -739.450          42.000  
E14  33995365.481   178646987.265       -2160.606          39.000    33995362.082   136885409.882       -1655.434          39.000  
> 2024 04 15 05 01 30.0140000  0 25                     
S33  43975616.848   231093577.690        -685.656          42.000  
E02  27998236.516   147131740.576         641.874          48.000    27998234.903   112737341.132         491.706          52.000  
G28  26516850.536   139346949.346       -3012.778          44.000    26516847.207   108582018.926       -2347.496          46.000  
E36  27545852.992   144754788.326        -444.471          46.000    27545855.125   110916219.345        -340.436          51.000  
G26  26037416.300   136827573.196        1949.373          48.000    26037413.672   106618846.128        1518.946          43.000  
R20  24544056.310   131248153.478         591.698          40.000    24544054.973   102081982.390         460.176          44.000  
R10  25118088.638   133893612.035        2370.166          48.000                                                                  
R09  23395509.715   124930721.598       -1089.351          50.000    23395507.088    97168602.340        -847.227          51.000  
R16  25978749.656   138773954.637       -4549.056          52.000    25978745.947   107935207.072       -3538.016          48.000  
E11  28342293.094   148940166.948       -2801.500          46.000    28342289.491   114123214.510       -2146.615          46.000  
G18  24530366.142   128908310.014        -340.848          48.000    24530361.431   100448147.103        -265.473          49.000  
G29  26091002.598   137109551.858       -2219.536          50.000    26090998.122   106838884.026       -1729.467          45.000  
S31  43021396.836   226079086.393        -685.666          44.000  
R18  27936737.992                       -4220.709          30.000    27936733.129                       -3282.941          33.000  
R19  24873848.596   133058681.581       -3291.457          43.000    24873843.607   103489689.980       -2560.005          48.000  
G05  27934734.721   146798009.093       -1763.593          38.000    27934727.777   114388008.745       -1374.493          38.000  
G23  27772655.489   145946382.818        2720.926          45.000    27772652.102   113724474.031        2120.318          42.000  
E34  30104198.973   158198815.894        1749.709          44.000    30104203.364   121217414.554        1340.694          47.000  
E24  32356566.915   170035000.534       -3223.116          40.000    32356567.617   130286611.611       -2469.676          46.000  
E10  31804702.566   167135002.445       -3427.912          42.000    31804704.446   128065006.470       -2626.684          44.000  
G25  26259335.713   137993962.742       -3198.544          47.000    26259333.121   107527833.136       -2492.346          43.000  
E25  28127588.626   147811781.526       -1825.333          47.000    28127590.263   113258533.036       -1398.566          54.000  
G31  26200322.911   137683566.310        -967.502          47.000    26200318.325   107285970.064        -753.895          43.000  
E14  34007668.788   178711641.855       -2149.654          40.000    34007665.833   136934950.416       -1647.437          39.000  
G12                                                                  29308039.366                3      -2965.320          19.000  
> 2024 04 15 05 02 00.0140000  0 25                     
S33  43979531.431   231114147.867        -685.749          42.000  
E02  27994591.550   147112587.679         634.826          48.000    27994590.254   112722665.537         486.486          52.000  
G28  26534080.738   139437496.087       -3024.045          43.000    26534077.635   108652574.793       -2356.594          46.000  
E36  27548422.858   144768290.896        -456.053          46.000    27548424.491   110926565.479        -349.377          51.000  
G26  26026309.918   136769209.117        1941.295          49.000    26026307.107   106573367.659        1512.532          43.000  
R20  24540780.080   131230635.094         575.983          41.000    24540779.774   102068357.049         447.966          45.000  
R10  25104791.471   133822733.887        2354.724          48.000                                                                  
R09  23401699.930   124963773.570       -1114.424          51.000    23401696.320    97194309.427        -866.682          51.000  
R16  26004329.229   138910597.026       -4560.766          51.000    26004325.489   108041484.421       -3547.225          48.000  
E11  28358300.623   149024288.545       -2807.183          45.000    28358296.978   114187671.307       -2150.929          45.000  
G18  24532361.033   128918794.433        -358.479          48.000    24532357.332   100456316.798        -279.329          49.000  
G29  26103681.374   137176178.504       -2222.469          50.000    26103675.731   106890800.898       -1731.894          43.000  
S31  43025308.999   226099645.543        -685.120          44.000  
R18  27960448.006                3      -4214.245          23.000    27960441.452                       -3280.231          31.000  
R19  24892326.291   133157525.908       -3298.407          43.000    24892320.838   103566568.896       -2565.460          48.000  
G05  27944847.242   146851163.822       -1780.621          35.000    27944842.093   114429427.990       -1387.360          36.000  
G23  27757124.188   145864767.711        2719.531          46.000    27757121.072   113660878.032        2119.053          42.000  
E34  30094228.791   158146426.576        1742.459          43.000    30094233.609   121177272.195        1335.381          47.000  
E24  32374974.688   170131742.028       -3226.786          39.000    32374976.812   130360738.137       -2472.411          47.000  
E10  31824274.171   167237847.408       -3428.598          43.000    31824274.928   128143809.749       -2627.116          43.000  
G25  26277626.400   138090079.936       -3209.614          47.000    26277623.758   107602729.616       -2501.022          43.000  
E25  28138034.774   147866673.911       -1834.539          48.000    28138036.099   113300593.425       -1405.685          54.000  
G31  26205897.891   137712865.808        -986.118          47.000    26205895.147   107308800.816        -768.187          44.000  
E14  34019911.239   178775972.591       -2139.042          40.000    34019907.523   136984242.754       -1639.057          40.000  
G12                                                                  29329777.847                3      -2966.465          15.000  
> 2024 04 15 05 02 30.0140000  0 25                     
S33  43983443.784   231134707.619        -685.219          42.000  
E02  27990986.137   147093645.601         627.693          47.000    27990985.551   112708151.484         481.026          52.000  
G28  26551375.929   139528386.402       -3035.491          43.000    26551373.430   108723398.352       -2365.436          46.000  
E36  27551059.302   144782143.601        -467.724          46.000    27551060.666   110937179.895        -358.369          51.000  
G26  26015251.220   136711093.018        1932.854          49.000    26015247.969   106528082.411        1505.947          43.000  
R20  24537593.690   131213594.823         559.954          40.000    24537593.342   102055103.532         435.529          45.000  
R10  25091582.385   133752326.291        2338.818          48.000                                                                  
R09  23408030.868   124997580.737       -1139.696          51.000    23408027.224    97220603.890        -886.428          51.000  
R16  26029973.641   139047590.480       -4572.317          51.000    26029971.353   108148034.786       -3556.361          48.000  
E11  28374341.462   149108582.133       -2812.731          45.000    28374337.024   114252259.918       -2155.344          44.000  
G18  24534457.776   128929811.577        -376.239          48.000    24534453.094   100464901.609        -293.189          49.000  
G29  26116377.563   137242898.505       -2225.732          50.000    26116373.412   106942790.488       -1734.420          44.000  
S31  43029219.448   226120194.107        -684.980          44.000  
R18  27984128.948                1      -4212.555          27.000    27984127.487                1      -3276.904          28.000  
R19  24910844.582   133256585.187       -3305.658          43.000    24910839.024   103643615.022       -2571.100          48.000  
G05  27955060.165   146904819.555       -1796.906          39.000    27955052.014   114471237.705       -1400.311          37.000  
G23  27741603.010   145783203.955        2717.786          46.000    27741599.561   113597322.050        2117.669          41.000  
E34  30084300.178   158094249.228        1735.621          42.000    30084304.511   121137292.254        1329.856          47.000  
E24  32393405.617   170228598.447       -3230.670          40.000    32393408.071   130434952.731       -2475.379          45.000  
E10  31843849.852   167340713.330       -3429.249          44.000    31843849.339   128222629.127       -2627.631          42.000  
G25  26295980.791   138186532.474       -3220.760          47.000    26295978.133   107677887.402       -2509.709          42.000  
E25  28148533.732   147921847.683       -1843.894          47.000    28148535.581   113342869.432       -1412.918          54.000  
G31  26211580.203   137742723.080       -1004.636          47.000    26211576.570   107332066.200        -782.733          44.000  
E14  34032090.953   178839983.342       -2128.808          39.000    34032088.569   137033289.952       -1630.980          39.000  
G12                                                                  29351541.460                3      -2977.499          15.000  
> 2024 04 15 05 03 00.0140000  0 24                     
S33  43987356.688   231155269.408        -685.529          42.000  
E02  27987424.168   147074928.604         620.093          47.000    27987423.756   112693809.903         475.070          51.000  
G28  26568739.406   139619630.175       -3047.482          44.000    26568736.547   108794497.327       -2374.539          45.000  
E36  27553764.892   144796358.620        -479.915          46.000    27553765.530   110948071.938        -367.762          51.000  
G26  26004241.869   136653240.136        1923.795          49.000    26004238.866   106483002.264        1499.115          43.000  
R20  24534498.700   131197043.825         543.559          40.000    24534497.310   102042230.604         422.680          43.000  
R10  25078465.378   133682406.988        2322.406          48.000                                                                  
R09  23414505.821   125032156.165       -1165.389          50.000    23414501.901    97247495.890        -906.396          51.000  
R16  26055687.536   139184944.725       -4584.483          51.000    26055684.962   108254865.768       -3565.765          49.000  
E11  28390417.661   149193058.787       -2818.866          46.000    28390411.954   114316988.769       -2160.009          43.000  
G18  24536658.417   128941373.669        -394.603          48.000    24536653.350   100473911.012        -307.424          49.000  
G29  26129094.211   137309724.015       -2229.316          50.000    26129089.773   106994862.313       -1737.240          44.000  
S31  43033130.054   226140745.423        -684.990          44.000  
R18  28007790.449                1      -4209.472          28.000    28007792.451                       -3273.773          24.000  
R19  24929404.849   133355869.574       -3313.452          44.000    24929399.047   103720836.203       -2576.996          48.000  
G05  27965367.431   146958988.750       -1814.191          40.000    27965361.188   114513447.481       -1413.629          38.000  
G23  27726094.513   145701707.552        2715.251          45.000    27726090.498   113533818.523        2115.801          40.000  
E34  30074413.107   158042297.520        1727.705          41.000    30074418.223   121097485.218        1323.860          47.000  
E24  32411861.048   170325581.977       -3234.949          40.000    32411863.617   130509264.725       -2478.795          47.000  
E10  31863431.334   167443611.583       -3430.497          44.000    31863430.263   128301473.270       -2628.706          43.000  
G25  26314400.574   138283332.163       -3232.450          47.000    26314398.084   107753315.699       -2518.732          42.000  
E25  28159089.296   147977315.865       -1853.932          48.000    28159090.906   113385371.009       -1420.550          54.000  
G31  26217369.778   137773150.371       -1023.837          46.000    26217366.089   107355775.786        -798.003          43.000  
E14  34044212.257   178903687.312       -2118.358          38.000    34044211.193   137082102.111       -1623.164          39.000  
> 2024 04 15 05 03 30.0140000  0 25                     
S33  43991269.625   231175830.608        -685.631          42.000  
E02  27983904.409   147056434.537         612.563          47.000    27983904.491   112679639.142         469.406          51.000  
G28  26586169.006   139711220.967       -3058.959          45.000    26586165.460   108865866.717       -2383.529          45.000  
E36  27556537.396   144810931.715        -491.744          46.000    27556538.619   110959238.361        -376.850          51.000  
G26  25993282.720   136595649.395        1915.314          49.000    25993279.215   106438126.382        1492.199          43.000  
R20  24531494.834   131180978.553         527.516          40.000    24531492.991   102029735.398         410.122          44.000  
R10  25065439.782   133612975.930        2306.061          48.000                                                                  
R09  23421124.505   125067496.181       -1190.891          51.000    23421119.587    97274982.567        -926.269          51.000  
R03  28487014.143                3        764.400          12.000                                                                  
R16  26081466.842   139322652.972       -4596.189          51.000    26081464.279   108361972.104       -3574.854          49.000  
E11  28406527.150   149277713.317       -2824.822          46.000    28406520.948   114381853.930       -2164.292          43.000  
G18  24538961.301   128953476.399        -412.479          49.000    24538956.324   100483341.718        -321.439          49.000  
G29  26141829.738   137376650.867       -2232.643          49.000    26141825.239   107047013.120       -1739.819          44.000  
S31  43037040.335   226161295.561        -684.902          44.000  
R18  28031435.965                       -4205.664          29.000    28031460.182                3      -3268.889          24.000  
R19  24948006.791   133455372.045       -3320.441          44.000    24948000.399   103798227.016       -2582.514          47.000  
G05  27975771.693   147013666.670       -1831.061          41.000    27975766.799   114556053.680       -1427.094          37.000  
G23  27710598.118   145620277.999        2713.029          44.000    27710593.963   113470367.076        2114.376          40.000  
E34  30064570.906   157990568.785        1720.324          42.000    30064574.616   121057849.017        1318.284          48.000  
E24  32430338.233   170422688.181       -3238.834          40.000    32430342.517   130583670.754       -2481.870          46.000  
E10  31883018.010   167546537.186       -3431.348          44.000    31883016.378   128380338.332       -2629.246          43.000  
G25  26332886.680   138380474.405       -3243.934          47.000    26332884.073   107829010.913       -2527.662          42.000  
E25  28169699.920   148033075.022       -1863.464          48.000    28169701.262   113428095.559       -1427.929          54.000  
G31  26223267.451   137804143.325       -1042.576          46.000    26223262.940   107379926.116        -812.339          42.000  
E14  34056276.243   178967081.458       -2107.999          38.000    34056274.599   137130676.856       -1615.253          39.000  
> 2024 04 15 05 04 00.0140000  0 25                     
S33  43995181.929   231196391.241        -685.550          42.000  
E02  27980427.654   147038164.524         604.954          47.000    27980427.638   112665640.052         463.552          51.000  
G28  26603663.536   139803155.570       -3070.637          43.000    26603659.448   108937503.985       -2392.367          44.000  
E36  27559379.035   144825861.974        -503.847          47.000    27559379.674   110970678.442        -385.986          51.000  
G26  25982373.907   136538322.980        1906.023          49.000    25982370.068   106393456.466        1485.222          43.000  
R20  24528580.571   131165397.573         511.049          40.000    24528578.930   102017616.879         397.356          44.000  
R10  25052506.358   133544036.916        2289.569          47.000                                                                  
R09  23427885.985   125103601.024       -1216.605          52.000    23427880.992    97303064.088        -946.145          52.000  
R16  26107311.363   139460711.117       -4607.996          51.000    26107309.352   108469350.570       -3584.011          49.000  
E11  28422669.838   149362543.718       -2831.081          46.000    28422663.640   114446853.871       -2169.310          43.000  
G18  24541366.351   128966118.834        -430.760          48.000    24541362.130   100493192.995        -335.580          49.000  
G29  26154584.644   137443678.915       -2236.252          50.000    26154579.937   107099242.740       -1742.351          43.000  
S31  43040950.945   226181844.854        -685.112          44.000  
R18  28055051.964                3      -4202.181          23.000    28055055.505                2      -3268.445          27.000  
R19  24966647.094   133555089.020       -3327.729          43.000    24966640.418   103875784.660       -2588.117          46.000  
G05  27986272.452   147068852.904       -1848.498          41.000    27986267.904   114599055.940       -1440.393          37.000  
G23  27695115.515   145538918.210        2710.656          45.000    27695112.457   113406970.028        2112.022          42.000  
E34  30054769.598   157939063.524        1712.705          42.000    30054773.660   121018384.071        1312.386          48.000  
E24  32448841.430   170519916.259       -3243.169          36.000    32448844.519   130658170.147       -2485.092          42.000  
E10  31902608.557   167649488.407       -3432.427          43.000    31902607.082   128459223.007       -2630.001          43.000  
G25  26351436.661   138477957.819       -3255.469          45.000    26351434.780   107904971.988       -2536.711          42.000  
E25  28180365.442   148089125.070       -1873.406          47.000    28180367.217   113471042.982       -1435.493          54.000  
G31  26229272.761   137835700.395       -1061.546          47.000    26229268.024   107404516.017        -827.251          42.000  
E14  34068280.565   179030165.998       -2098.072          38.000    34068278.422   137179014.360       -1607.558          38.000  
R03                                                                  28482765.932                3        583.139          12.000  
> 2024 04 15 05 04 30.0140000  0 25                     
S33  43999093.976   231216949.871        -685.221          42.000  
E02  27976994.417   147020120.965         597.837          48.000    27976993.756   112651814.474         458.050          51.000  
G28  26621223.315   139895431.989       -3081.283          44.000    26621218.865   109009407.653       -2401.035          44.000  
E36  27562287.790   144841149.680        -515.380          46.000    27562288.705   110982392.430        -394.917          50.000  
G26  25971515.803   136481264.341        1897.524          48.000    25971512.499   106348995.188        1478.556          44.000  
R20  24525757.076   131150301.289         495.261          40.000    24525756.026   102005875.367         385.172          44.000  
R10  25039667.013   133475594.687        2273.151          48.000                                                                  
R09  23434790.508   125140471.362       -1241.635          52.000    23434785.781    97331740.990        -965.740          51.000  
R16  26133221.364   139599117.299       -4619.127          51.000    26133219.006   108576999.717       -3592.659          49.000  
E11  28438845.205   149447549.274       -2836.302          45.000    28438840.024   114511988.017       -2173.365          43.000  
G18  24543875.277   128979301.313        -448.356          48.000    24543870.125   100503465.075        -349.305          49.000  
G29  26167359.298   137510808.638       -2239.263          50.000    26167354.264   107151551.615       -1744.850          43.000  
S31  43044861.386   226202393.709        -684.748          44.000  
R18  28078644.819                3      -4195.454          21.000    28078656.669                3      -3264.170          22.000  
R19  24985327.442   133655018.868       -3334.253          43.000    24985320.468   103953507.858       -2593.439          47.000  
G05  27996871.157   147124547.537       -1864.929          41.000    27996866.149   114642454.313       -1453.204          36.000  
G23  27679647.355   145457632.451        2708.398          44.000    27679645.276   113343630.614        2110.666          43.000  
E34  30045012.079   157887783.589        1705.833          42.000    30045015.226   120979091.765        1307.057          48.000  
E24  32467367.315   170617266.459       -3247.280          31.000    32467369.561   130732763.076       -2488.026          38.000  
E10  31922203.727   167752464.776       -3432.610          43.000    31922202.490   128538126.982       -2630.389          42.000  
G25  26370052.309   138575782.371       -3266.255          45.000    26370051.097   107981198.866       -2545.187          43.000  
E25  28191086.224   148145467.151       -1882.881          47.000    28191088.814   113514214.174       -1442.698          54.000  
G31  26235384.767   137867821.623       -1080.144          47.000    26235381.769   107429545.522        -841.258          44.000  
E14  34080225.419   179092942.327       -2087.442          37.000    34080225.161   137227115.752       -1599.385          38.000  
E30                                                                  31953831.068                3       1484.901          26.000  
> 2024 04 15 05 05 00.0140000  0 25                     
S33  44003005.448   231237504.493        -685.449          42.000  
E02  27973603.194   147002300.648         590.214          48.000    27973602.773   112638159.962         452.214          51.000  
G28  26638845.640   139988042.739       -3092.405          41.000    26638842.990   109081571.821       -2409.805          44.000  
E36  27565263.799   144856789.553        -527.400          47.000    27565265.008   110994376.251        -403.999          51.000  
G26  25960708.344   136424471.315        1888.579          48.000    25960705.359   106304740.887        1471.625          44.000  
R20  24523023.612   131135684.390         479.191          40.000    24523022.333   101994506.714         372.935          44.000  
R10  25026921.660   133407649.172        2256.464          48.000                                                                  
R09  23441837.326   125178103.157       -1267.112          51.000    23441833.489    97361010.144        -985.513          52.000  
R16  26159195.026   139737863.451       -4630.581          52.000    26159193.384   108684913.274       -3601.498          49.000  
E11  28455052.975   149532723.745       -2841.879          45.000    28455048.358   114577251.591       -2177.779          43.000  
G18  24546485.960   128993018.450        -466.292          49.000    24546480.159   100514153.789        -363.245          48.000  
G29  26180152.060   137578034.937       -2242.472          50.000    26180147.377   107203935.771       -1747.512          43.000  
S31  43048770.585   226222937.209        -684.482          44.000  
R18  28102255.924                3      -4196.474          21.000    28102250.763                3      -3269.332          24.000  
R19  25004046.392   133755154.023       -3341.345          42.000    25004040.390   104031390.756       -2598.785          47.000  
G05  28007564.304   147180744.464       -1881.750          42.000    28007560.854   114686244.122       -1466.272          37.000  
G23  27664192.699   145376419.118        2705.915          45.000    27664190.450   113280347.653        2108.336          43.000  
E34  30035296.584   157836725.219        1698.227          43.000    30035299.013   120939969.221        1301.276          48.000  
E24  32485911.992                       -3251.169          27.000    32485917.136   130807445.541       -2491.096          35.000  
E10  31941802.652   167855460.281       -3433.682          42.000    31941801.966   128617045.608       -2630.951          42.000  
G25  26388731.741   138673942.295       -3277.646          46.000    26388730.747   108057687.079       -2553.921          44.000  
E25  28201863.112   148202096.776       -1892.534          47.000    28201864.927   113557605.685       -1450.134          54.000  
G31  26241603.858   137900501.616       -1098.792          47.000    26241600.371   107455010.432        -856.220          44.000  
E14  34092112.489   179155406.359       -2076.880          38.000    34092112.207   137274977.808       -1591.504          39.000  
E30                                                                  31942773.211                        1483.990          28.000  
> 2024 04 15 05 05 30.0140000  0 25                     
S33  44006917.367   231258062.185        -684.969          42.000  
E02  27970256.517   146984712.595         582.521          48.000    27970255.921   112624683.400         446.385          51.000  
G28  26656532.911   140080992.511       -3104.008          42.000    26656531.352   109154000.133       -2418.569          44.000  
E36  27568307.772   144872788.479        -539.097          47.000    27568309.613   111006635.186        -413.035          51.000  
G26  25949952.864   136367953.995        1879.496          47.000    25949950.582   106260701.437        1464.534          44.000  
R20  24520381.639   131121553.640         462.904          41.000    24520380.334   101983516.183         360.030          45.000  
R10  25014270.455   133340211.299        2239.703          48.000                                                                  
R09  23449027.468   125216503.733       -1292.700          50.000    23449024.735    97390877.247       -1005.375          52.000  
R16  26185233.142   139876953.890       -4641.847          52.000    26185230.675   108793094.647       -3610.403          48.000  
E11  28471294.429   149618073.053       -2847.690          45.000    28471290.133   114642649.100       -2181.895          44.000  
G18  24549199.276   129007277.092        -484.087          48.000    24549193.994   100525264.434        -377.241          49.000  
G29  26192964.714   137645365.129       -2245.955          50.000    26192959.418   107256400.835       -1750.123          43.000  
S31  43052680.491   226243483.936        -684.761          44.000  
R18  28125845.041                3      -4191.495          23.000    28125814.268                3      -3255.423          19.000  
R19  25022804.387   133855499.193       -3348.218          43.000    25022799.831   104109436.995       -2604.065          48.000  
G05  28018356.342   147237451.191       -1898.761          42.000    28018352.094   114730431.140       -1478.943          36.000  
G23  27648754.211   145295289.099        2702.866          45.000    27648751.595   113217129.598        2106.305          43.000  
E34  30025623.531   157785896.820        1690.654          42.000    30025626.580   120901022.887        1295.405          48.000  
E24  32504485.957                       -3254.838          26.000    32504487.810                       -2493.548          30.000  
E10  31961407.237   167958481.068       -3434.269          43.000    31961406.266   128695983.638       -2631.529          42.000  
G25  26407475.464   138772444.144       -3288.969          45.000    26407474.868   108134441.727       -2562.756          43.000  
E25  28212696.204   148259021.650       -1902.285          48.000    28212697.450   113601223.457       -1457.646          54.000  
G31  26247930.443   137933747.075       -1117.384          48.000    26247926.242   107480915.943        -870.641          44.000  
E14  34103942.138   179217566.177       -2066.723          39.000    34103940.749   137322606.729       -1583.396          39.000  
E30                                                                  31931716.800                        1484.862          29.000  
> 2024 04 15 05 06 00.0140000  0 25                     
S33  44010829.575   231278621.180        -685.030          42.000  
E02  27966953.930   146967357.770         574.822          48.000    27966953.440   112611385.549         440.372          51.000  
G28  26674284.749   140174277.786       -3114.794          43.000    26674282.098   109226689.940       -2427.126          42.000  
E36  27571420.429   144889145.342        -551.013          47.000    27571422.396   111019168.371        -422.201          51.000  
G26  25939250.499   136311714.431        1870.120          46.000    25939248.832   106216878.403        1457.266          44.000  
R20  24517829.245   131107908.016         446.949          40.000    24517828.968   101972902.945         347.738          45.000  
R10  25001714.632   133273285.309        2222.583          47.000                                                                  
R09  23456362.501   125255672.879       -1318.230          50.000    23456360.108    97421342.124       -1025.298          52.000  
R16  26211335.197   140016384.964       -4653.105          51.000    26211332.385   108901540.953       -3619.049          48.000  
E11  28487568.609   149703595.074       -2853.337          45.000    28487565.013   114708178.960       -2186.285          45.000  
G18  24552014.631   129022076.054        -501.993          48.000    24552010.282   100536796.117        -391.154          49.000  
G29  26205796.579   137712798.508       -2249.207          50.000    26205792.098   107308946.324       -1752.607          43.000  
S31  43056590.819   226264033.016        -684.553          44.000  
R18  28149374.678                3      -4179.485          23.000    28149331.311                3      -3255.637          20.000  
R19  25041602.229   133956050.828       -3355.084          43.000    25041597.269   104187643.824       -2609.308          47.000  
G05  28029244.714   147294666.482       -1915.387          43.000    28029239.247   114775014.484       -1492.304          35.000  
G23  27633332.057   145214245.094        2700.258          45.000    27633329.197   113153978.596        2104.072          43.000  
E34  30015995.733   157735298.761        1683.036          43.000    30015998.245   120862253.048        1289.433          48.000  
E10  31981015.619   168061525.300       -3434.921          43.000    31981014.596   128774939.626       -2631.990          40.000  
G25  26426284.415   138871286.388       -3300.319          44.000    26426283.102   108211461.608       -2571.450          42.000  
E25  28223584.802   148316241.484       -1912.059          48.000    28223585.878   113645067.210       -1465.093          54.000  
G31  26254364.143   137967556.382       -1136.080          48.000    26254359.946   107507260.852        -885.261          44.000  
E14  34115711.695   179279421.791       -2056.510          38.000    34115711.884   137370002.637       -1575.779          39.000  
E30                                                                  31920655.674                        1483.583          30.000  
E24                                                                  32523081.919                       -2497.571          27.000  
> 2024 04 15 05 06 30.0140000  0 25                     
S33  44014741.606   231299179.382        -685.055          43.000  
E02  27963695.860   146950233.614         567.106          48.000    27963694.800   112598264.440         434.415          51.000  
G28  26692099.235   140267891.773       -3125.939          44.000    26692095.598   109299635.847       -2435.714          41.000  
E36  27574599.925   144905855.420        -562.781          46.000    27574602.460   111031972.208        -431.310          52.000  
G26  25928601.001   136255751.077        1860.656          46.000    25928599.424   106173270.620        1449.849          45.000  
R20  24515366.983   131094742.480         430.776          40.000    24515367.189   101962663.116         335.090          45.000  
R10  24989255.410   133206870.585        2205.377          48.000                                                                  
R09  23463841.255   125295606.140       -1343.867          51.000    23463838.384    97452401.319       -1045.223          52.000  
R16  26237498.615   140156149.471       -4664.210          51.000    26237496.132   109010246.602       -3627.824          48.000  
E11  28503874.864   149789284.202       -2859.061          44.000    28503871.255   114773836.870       -2190.852          45.000  
G18  24554932.753   129037410.613        -520.000          49.000    24554929.169   100548745.139        -405.224          50.000  
G29  26218647.551   137780331.151       -2252.670          50.000    26218642.339   107361569.189       -1755.496          42.000  
S31  43060500.732   226284579.261        -684.843          44.000  
R18  28172882.594                1      -4182.604          26.000    28172868.565                3      -3256.692          25.000  
R19  25060436.690   134056801.829       -3361.695          44.000    25060431.027   104266005.702       -2614.728          46.000  
G05  28040228.201   147352384.863       -1932.367          42.000    28040221.173   114819989.809       -1505.646          36.000  
G23  27617926.619   145133286.341        2697.183          45.000    27617923.498   113090893.992        2101.756          44.000  
E34  30006409.934   157684927.804        1675.447          43.000    30006412.701   120823657.251        1283.674          47.000  
E10  32000627.192   168164587.568       -3435.573          42.000    32000626.336   128853909.465       -2632.427          39.000  
G25  26445157.009   138970463.920       -3311.486          44.000    26445155.571   108288742.764       -2580.367          42.000  
E25  28234528.646   148373752.380       -1921.736          48.000    28234529.860   113689134.002       -1472.569          54.000  
G31  26260905.002   138001924.614       -1154.878          48.000    26260900.039   107534041.242        -899.900          44.000  
E14  34127423.196   179340969.750       -2046.248          38.000    34127423.898   137417162.749       -1568.162          39.000  
E30                                                                  31909592.875   128486698.2631       1484.820          30.000  
E24                                                                  32541698.269                3      -2498.685          22.000  
> 2024 04 15 05 07 00.0140000  0 25                     
S33  44018651.814   231319727.747        -684.694          42.000  
E02  27960480.302   146933334.116         559.664          48.000    27960478.883   112585315.477         428.853          51.000  
G28  26709974.492   140361824.056       -3136.143          44.000    26709970.743   109372829.833       -2443.663          42.000  
E36  27577846.101   144922910.622        -574.248          47.000    27577847.864   111045040.480        -439.836          52.000  
G26  25918003.469   136200059.029        1851.994          47.000    25918001.671   106129874.241        1443.281          45.000  
R20  24512993.689   131082048.891         415.584          41.000    24512993.240   101952790.365         323.264          45.000  
R10  24976893.189   133140964.064        2188.507          48.000                                                                  
R09  23471461.180   125336296.134       -1368.795          51.000    23471458.566    97484049.084       -1064.582          52.000  
R16  26263724.024   140296236.190       -4674.682          51.000    26263721.665   109119202.867       -3635.898          49.000  
E11  28520211.655   149875131.363       -2864.053          45.000    28520207.785   114839615.853       -2194.698          46.000  
G18  24557951.426   129053272.522        -537.429          49.000    24557947.388   100561105.093        -418.682          50.000  
G29  26231516.417   137847955.141       -2255.484          51.000    26231510.698   107414263.199       -1757.363          42.000  
S31  43064408.810   226305117.549        -684.191          44.000  
R18  28196388.728                3      -4179.378          17.000    28196354.417                3      -3251.935          18.000  
R19  25079306.472   134157741.611       -3367.609          43.000    25079299.975   104344514.436       -2619.196          46.000  
G05  28051305.775   147410597.970       -1948.511          42.000    28051301.740   114865350.692       -1518.250          37.000  
G23  27602535.979   145052408.584        2694.592          45.000    27602532.572   113027872.520        2099.829          44.000  
E34  29996866.812   157634777.449        1668.217          43.000    29996868.863   120785230.456        1278.206          46.000  
E10  32020241.383   168267659.133       -3435.806          41.000    32020240.156   128932886.417       -2632.442          39.000  
G25  26464092.080   139069968.177       -3322.259          45.000    26464090.411   108366278.534       -2588.761          42.000  
E25  28245525.857   148431547.108       -1931.086          48.000    28245527.808   113733418.272       -1479.713          53.000  
G31  26267549.676   138036843.459       -1172.974          47.000    26267544.628   107561250.684        -913.883          43.000  
E14  34139075.972   179402203.175       -2035.922          39.000    34139075.788   137464081.824       -1559.874          39.000  
E30                                                                  31898526.983                        1485.357          30.000  
E24                                                                  32560335.608                       -2503.095          24.000  
> 2024 04 15 05 07 30.0140000  0 26                     
S33  44022562.009   231340276.036        -684.991          42.000  
E02  27957309.262   146916669.738         551.527          48.000    27957307.815   112572546.677         422.672          51.000  
G28  26727911.350   140456080.707       -3147.026          44.000    26727907.905   109446276.523       -2452.154          42.000  
E36  27581160.250   144940319.235        -586.101          48.000    27581160.584   111058379.572        -449.096          52.000  
G26  25907459.745   136144649.824        1842.193          47.000    25907457.686   106086698.262        1435.389          45.000  
R20  24510710.039   131069835.007         399.158          41.000    24510708.911   101943290.726         310.460          44.000  
R10  24964626.309   133075578.448        2170.898          48.000                                                                  
R09  23479224.410   125377751.836       -1394.524          51.000    23479221.624    97516292.407       -1084.605          52.000  
R16  26290009.873   140436650.791       -4685.754          51.000    26290007.736   109228414.123       -3644.603          49.000  
R03  28456210.915                3        614.895          12.000                                                                  
E11  28536579.442   149961143.938       -2869.537          44.000    28536575.713   114905521.579       -2198.776          46.000  
G18  24561072.124   129069669.995        -555.538          49.000    24561067.710   100573882.364        -432.801          50.000  
G29  26244404.206   137915679.012       -2259.017          51.000    26244397.510   107467035.041       -1760.274          41.000  
S31  43068317.142   226325655.282        -684.202          44.000  
R18  28219840.849                3      -4172.191          18.000                                                                  
R19  25098212.001   134258877.157       -3374.414          43.000    25098206.379   104423175.447       -2624.475          46.000  
G05  28062478.950   147469314.144       -1965.527          42.000    28062476.436   114911103.630       -1531.329          37.000  
G23  27587162.759   144971624.085        2691.314          45.000    27587159.747   112964923.771        2096.860          44.000  
E34  29987367.547   157584857.500        1660.106          43.000    29987369.238   120746980.192        1272.100          46.000  
E10  32039858.863   168370747.600       -3436.345          41.000    32039857.906   129011876.321       -2633.033          40.000  
G25  26483091.782   139169807.087       -3333.537          45.000    26483089.574   108444075.065       -2597.582          43.000  
E25  28256579.768   148489634.788       -1941.063          48.000    28256581.264   113777926.995       -1487.311          53.000  
G31  26274300.567   138072320.506       -1191.774          47.000    26274295.838   107588895.112        -928.762          43.000  
E14  34150670.704   179463131.526       -2025.687          40.000    34150671.074   137510767.149       -1552.079          40.000  
E30                                                                  31887458.427                        1486.203          30.000  
E24                                                                  32578997.748                3      -2500.650          22.000  
> 2024 04 15 05 08 00.0140000  0 25                     
S33  44026471.638   231360821.351        -684.260          42.000  
E02  27954182.618   146900238.457         544.045          48.000    27954181.276   112559956.471         416.906          51.000  
G28  26745908.994   140550655.352       -3157.462          45.000    26745904.942   109519970.992       -2460.366          42.000  
E36  27584539.895   144958077.092        -597.485          48.000    27584539.893   111071986.254        -457.748          52.000  
G26  25896969.527   136089522.520        1832.954          48.000    25896967.607   106043741.915        1428.392          45.000  
R20  24508515.192   131058097.063         383.657          40.000    24508512.582   101934161.251         298.524          43.000  
R10  24952457.034   133010714.763        2153.650          47.000                                                                  
R09  23487130.690   125419969.670       -1419.662          51.000    23487127.335    97549128.463       -1104.207          51.000  
R16  26316355.734   140577386.985       -4696.215          51.000    26316354.104   109337875.510       -3652.761          48.000  
E11  28552977.958   150047316.796       -2874.813          44.000    28552973.343   114971550.136       -2202.749          46.000  
G18  24564292.893   129086598.760        -572.873          49.000    24564288.974   100587073.639        -446.427          50.000  
G29  26257309.993   137983499.028       -2261.930          51.000    26257302.713   107519881.806       -1762.767          40.000  
S31  43072224.502   226346189.562        -684.332          44.000  
R18  28243307.054                3      -4167.903          14.000                                                                  
R19  25117153.603   134360201.149       -3380.377          42.000    25117148.440   104501983.010       -2629.157          47.000  
G05  28073747.022   147528529.716       -1981.793          43.000    28073743.652   114957245.598       -1544.690          38.000  
G23  27571808.153   144890932.670        2688.284          46.000    27571804.320   112902047.480        2094.901          44.000  
E34  29977911.694   157535165.313        1653.060          42.000    29977913.028   120708904.426        1266.509          46.000  
E10  32059479.363   168473848.171       -3436.759          41.000    32059477.416   129090875.459       -2633.177          41.000  
G25  26502153.287   139269976.042       -3344.241          45.000    26502151.145   108522128.791       -2605.828          42.000  
E25  28267689.110   148548012.063       -1950.426          48.000    28267689.946   113822657.625       -1494.505          53.000  
G31  26281156.542   138108351.560       -1210.024          46.000    26281152.191   107616971.216        -942.673          42.000  
E14  34162206.475   179523751.928       -2015.330          39.000    34162206.813   137557216.483       -1544.037          40.000  
E30                                                                  31876387.043                        1485.990          29.000  
E24                                                                  32597676.241                3      -2508.002          21.000  
> 2024 04 15 05 08 30.0140000  0 24                     
S33  44030378.682   231381352.741        -684.073          42.000  
E02  27951098.819   146884032.314         536.412          48.000    27951097.079   112547538.772         411.102          51.000  
G28  26763964.189   140645535.627       -3167.707          44.000    26763958.739   109593903.626       -2468.393          42.000  
E36  27587983.359   144976174.079        -608.697          48.000    27587983.684   111085852.804        -466.586          52.000  
G26  25886531.218   136034670.191        1823.851          47.000    25886529.373   106000999.864        1421.186          45.000  
R20  24506406.929   131046824.211         368.165          40.000    24506403.727   101925393.526         286.147          43.000  
R10  24940385.841   132946367.032        2136.224          48.000                                                                  
R09  23495177.654   125462940.188       -1444.885          50.000    23495173.736    97582549.984       -1123.777          51.000  
R16  26342759.993   140718431.549       -4706.605          51.000    26342758.162   109447576.738       -3660.599          48.000  
E11  28569404.483   150133638.944       -2879.904          44.000    28569399.966   115037693.068       -2206.655          47.000  
G18  24567614.368   129104048.625        -590.247          49.000    24567609.578   100600670.943        -459.974          50.000  
G29  26270231.492   138051405.586       -2264.902          49.000    26270225.162   107572795.986       -1765.152          41.000  
S31  43076129.933   226366711.524        -683.942          44.000  
R18  28266706.290                3      -4168.907          14.000                                                                  
R19  25136128.197   134461701.628       -3386.103          43.000    25136122.482   104580927.795       -2633.728          48.000  
G05  28085108.255   147588232.944       -1998.132          43.000    28085103.117   115003767.600       -1557.190          36.000  
G23  27556469.659   144810328.159        2685.475          46.000    27556466.259   112839238.925        2092.499          45.000  
E34  29968496.691   157485692.298        1645.296          41.000    29968498.731   120670996.603        1260.724          46.000  
E30  31865312.023                1       1940.523          28.000    31865311.257                        1486.816          27.000  
E10  32079099.453   168576950.053       -3436.656          42.000    32079097.371   129169875.612       -2633.217          42.000  
G25  26521275.352   139370464.569       -3354.830          44.000    26521273.957   108600431.490       -2614.211          43.000  
E25  28278851.293   148606669.684       -1959.911          48.000    28278852.265   113867603.062       -1501.777          53.000  
G31  26288117.044   138144926.025       -1228.103          48.000    26288111.505   107645470.781        -957.110          42.000  
E14  34173681.335   179584055.506       -2004.857          39.000    34173680.745   137603423.130       -1536.203          38.000  
> 2024 04 15 05 09 00.0140000  0 24                     
S33  44034282.735   231401869.394        -683.462          42.000  
E02  27948057.309   146868049.513         528.897          48.000    27948055.525   112535292.203         405.244          51.000  
G28  26782075.879   140740715.328       -3177.876          44.000    26782070.961   109668069.583       -2476.071          41.000  
E36  27591489.898   144994606.237        -619.967          47.000    27591491.137   111099976.168        -475.088          52.000  
G26  25876145.274   135980092.190        1814.652          48.000    25876143.543   105958471.572        1413.938          44.000  
R20  24504383.969   131036012.288         352.521          39.000    24504381.849   101916984.284         274.284          43.000  
R10  24928411.456   132882536.370        2119.025          48.000                                                                  
R09  23503363.778   125506659.399       -1469.865          50.000    23503361.058    97616553.805       -1143.265          51.000  
R16  26369219.816   140859778.081       -4716.620          50.000    26369218.771   109557512.836       -3668.386          48.000  
E11  28585857.789   150220105.516       -2884.606          43.000    28585853.979   115103946.664       -2210.382          47.000  
G18  24571033.998   129122015.481        -607.603          50.000    24571029.147   100614671.113        -473.415          51.000  
G29  26283169.208   138119395.622       -2267.883          49.000    26283163.772   107625775.210       -1766.878          42.000  
S31  43080031.969   226387216.803        -683.297          43.000  
R18  28290092.253                2      -4160.185          27.000                                                                  
R19  25155134.204   134563372.387       -3391.950          41.000    25155129.426   104660005.082       -2638.208          47.000  
G05  28096561.161   147648420.824       -2014.459          43.000    28096556.192   115050667.257       -1569.592          36.000  
G23  27541147.606   144729810.540        2682.303          46.000    27541144.604   112776498.082        2090.128          45.000  
E34  29959124.043   157436435.992        1638.168          41.000    29959125.496   120633254.844        1255.302          47.000  
E30  31854233.391                        1941.014          30.000    31854228.471                3       1487.104          23.000  
E10  32098718.554   168680048.708       -3436.685          42.000    32098716.490   129248873.292       -2633.066          43.000  
G25  26540457.483   139471268.248       -3365.350          44.000    26540456.040   108678979.756       -2622.350          43.000  
E25  28290066.696   148665604.510       -1969.207          49.000    28290067.306   113912760.899       -1508.856          53.000  
G31  26295179.640   138182039.589       -1246.125          48.000    26295174.379   107674390.372        -970.922          42.000  
E14  34185096.954   179644039.581       -1994.281          40.000    34185095.167   137649384.959       -1528.351          38.000  
> 2024 04 15 05 09 30.0140000  0 25                     
S33  44038183.823   231422369.265        -683.047          42.000  
E02  27945057.978   146852291.183         521.414          48.000    27945056.710   112523217.618         399.581          51.000  
G28  26800244.917   140836191.193       -3187.623          43.000    26800238.240   109742466.285       -2483.876          40.000  
E36  27595061.359   145013372.533        -631.131          47.000    27595062.106   111114355.564        -483.688          52.000  
G26  25865811.886   135925790.690        1805.477          47.000    25865810.040   105916158.732        1406.779          45.000  
R20  24502448.093   131025659.717         337.518          41.000    24502446.536   101908932.358         262.427          43.000  
R10  24916534.274   132819226.127        2101.611          47.000                                                                  
R09  23511691.284   125551126.861       -1494.838          50.000    23511688.514    97651139.566       -1162.525          51.000  
R03  28443185.718                3        540.070          13.000                                                                  
R16  26395735.412   141001422.604       -4726.498          50.000    26395734.138   109667680.699       -3676.300          47.000  
E11  28602339.719   150306714.643       -2889.406          43.000    28602334.905   115170309.491       -2214.002          47.000  
G18  24574550.985   129140498.157        -624.696          50.000    24574545.496   100629073.207        -486.774          50.000  
G29  26296123.267   138187468.095       -2270.727          49.000    26296117.717   107678818.674       -1769.164          42.000  
S31  43083930.865   226407705.913        -682.714          44.000  
R18  28313472.491                3      -4153.234          24.000                                                                  
R19  25174170.929   134665210.295       -3397.431          39.000    25174167.846   104739212.314       -2642.572          48.000  
G05  28108106.436   147709091.160       -2030.475          44.000    28108099.702   115097942.811       -1581.976          36.000  
G23  27525842.457   144649382.742        2679.376          44.000    27525839.346   112713827.235        2087.693          46.000  
E34  29949792.048   157387396.930        1630.955          41.000    29949794.010   120595679.540        1249.679          47.000  
E30  31843154.490                        1941.845          31.000    31843141.899                3       1497.217          21.000  
E10  32118336.129   168783142.472       -3436.356          42.000    32118334.988   129327867.269       -2633.353          43.000  
G25  26559698.969   139572385.620       -3375.969          44.000    26559698.027   108757772.471       -2630.531          41.000  
E25  28301334.771   148724816.349       -1978.456          49.000    28301334.931   113958130.995       -1516.006          53.000  
G31  26302344.567   138219690.558       -1263.914          47.000    26302338.770   107703728.780        -985.183          42.000  
E14  34196450.898   179703704.334       -1983.410          40.000    34196448.793   137695102.104       -1519.958          37.000  
> 2024 04 15 05 10 00.0140000  0 25                     
S33  44042083.067   231442861.168        -682.675          42.000  
E02  27942103.281   146836767.655         513.758          47.000    27942102.779   112511322.966         393.683          51.000  
G28  26818470.519   140931969.122       -3197.319          43.000    26818464.001   109817098.371       -2491.424          40.000  
E36  27598697.398   145032481.075        -642.423          47.000    27598697.975   111128997.188        -492.264          51.000  
G26  25855533.562   135871777.057        1795.936          48.000    25855531.334   105874070.202        1399.443          44.000  
R20  24500600.132   131015775.519         321.974          41.000    24500598.654   101901244.691         250.327          44.000  
R10  24904757.640   132756449.243        2083.984          47.000                                                                  
R09  23520161.189   125596351.373       -1519.764          51.000    23520157.293    97686314.179       -1182.032          51.000  
R16  26422308.540   141143371.150       -4736.348          50.000    26422307.246   109778085.024       -3683.827          49.000  
R04  28674271.225                3       2259.646          32.000                                                                  
E11  28618848.453   150393473.492       -2894.022          43.000    28618844.521   115236787.030       -2217.550          47.000  
G18  24578167.398   129159504.646        -641.980          49.000    24578162.167   100643883.480        -500.195          50.000  
G29  26309094.205   138255631.871       -2273.376          48.000    26309089.239   107731933.294       -1771.233          42.000  
S31  43087828.350   226428187.803        -682.391          44.000  
R18  28336798.181                3      -4146.522          23.000                                                                  
R19  25193241.065   134767221.144       -3402.843          41.000    25193236.882   104818554.111       -2646.714          48.000  
G05  28119744.643   147770252.373       -2046.545          44.000    28119738.680   115145600.915       -1594.781          37.000  
G23  27510556.344   144569056.885        2676.023          45.000    27510553.698   112651235.834        2085.216          45.000  
E34  29940501.752   157338584.740        1623.415          39.000    29940505.274   120558278.084        1243.971          47.000  
E30  31832068.616   167278608.1711       1942.323          32.000    31832086.107                3       1484.208          22.000  
E10  32137954.701   168886238.892       -3436.369          42.000    32137953.766   129406863.234       -2633.086          43.000  
G25  26579002.825   139673824.365       -3386.444          45.000    26579000.504   108836815.616       -2638.673          41.000  
E25  28312656.545   148784314.146       -1987.883          49.000    28312657.002   114003720.195       -1523.142          53.000  
G31  26309612.757   138257887.243       -1281.963          48.000    26309607.631   107733492.413        -999.006          42.000  
E14  34207745.515   179763059.240       -1973.215          40.000    34207743.422   137740581.830       -1511.969          37.000  
> 2024 04 15 05 10 30.0140000  0 25                     
S33  44045980.718   231463343.963        -682.544          42.000  
E02  27939193.139   146821478.255         505.685          46.000    27939193.279   112499607.716         387.516          51.000  
G28  26836752.684   141028044.077       -3207.304          42.000    26836746.955   109891961.928       -2499.174          40.000  
E36  27602397.252   145051929.039        -653.889          46.000    27602398.754   111143898.888        -501.035          51.000  
G26  25845309.545   135818051.779        1786.005          47.000    25845307.715   105832206.362        1391.728          45.000  
R20  24498839.378   131006356.521         306.347          41.000    24498836.826   101893918.851         238.339          44.000  
R10  24893081.426   132694207.228        2065.894          47.000                                                                  
R09  23528772.371   125642330.421       -1545.060          51.000    23528767.383    97722075.665       -1201.870          50.000  
R16  26448937.329   141285617.843       -4746.557          50.000    26448937.061   109888721.222       -3691.675          49.000  
R04  28661618.349   153481556.4501       2254.854          33.000    28661612.074                1       1753.526          29.000  
E11  28635384.746   150480378.434       -2899.118          42.000    28635382.133   115303376.523       -2221.614          47.000  
G18  24581882.903   129179031.947        -659.548          49.000    24581877.861   100659099.586        -513.942          50.000  
G29  26322082.315   138323884.820       -2276.523          48.000    26322077.050   107785117.401       -1773.764          42.000  
S31  43091724.205   226448660.410        -682.033          44.000  
R18  28360122.211                3      -4144.088          12.000                                                                  
R19  25212343.310   134869400.282       -3408.432          40.000    25212337.552   104898026.745       -2651.344          47.000  
G05  28131475.688   147831901.270       -2063.013          44.000    28131470.565   115193639.105       -1607.812          38.000  
G23  27495290.439   144488834.211        2672.286          45.000    27495287.429   112588724.800        2082.465          45.000  
E34  29931257.140   157289998.089        1615.936          40.000    29931259.040   120521049.456        1238.186          47.000  
E30  31820976.920   167220346.062        1942.020          32.000    31820996.096                3       1481.713          22.000  
E10  32157573.408   168989334.582       -3436.610          42.000    32157572.415   129485858.642       -2633.091          43.000  
G25  26598367.434   139775581.232       -3397.185          45.000    26598363.877   108916106.681       -2647.566          41.000  
E25  28324033.115   148844095.895       -1997.392          49.000    28324033.201   114049526.973       -1530.518          54.000  
G31  26316984.256   138296626.203       -1300.322          47.000    26316979.962   107763678.593       -1013.427          44.000  
E14  34218981.068   179822102.748       -1962.926          40.000    34218979.699   137785822.980       -1504.102          37.000  
> 2024 04 15 05 11 00.0140000  0 24                     
S33  44049877.754   231483822.359        -682.413          42.000  
E02  27936330.120   146806429.663         497.811          47.000    27936329.588   112488076.971         381.415          51.000  
G28  26855092.542   141124418.387       -3217.252          43.000    26855088.546   109967058.701       -2507.145          42.000  
E36  27606163.214   145071720.930        -665.206          46.000    27606164.994   111159064.113        -509.822          52.000  
G26  25835142.394   135764622.594        1776.177          47.000    25835140.215   105790573.257        1383.911          44.000  
R20  24497164.833   130997406.231         290.742          41.000    24497163.104   101886957.565         225.925          43.000  
R10  24881506.773   132632509.855        2047.474          46.000                                                                  
R09  23537523.731   125689068.990       -1570.464          50.000    23537519.940    97758427.870       -1221.500          51.000  
R16  26475623.047   141428164.897       -4756.304          50.000    26475622.539   109999591.068       -3699.342          49.000  
R04  28648997.773   153413986.031        2249.950          33.000    28648984.964                        1750.686          28.000  
E11  28651951.070   150567433.102       -2904.190          43.000    28651948.121   115370080.737       -2225.285          48.000  
G18  24585697.912   129199084.382        -676.993          48.000    24585694.005   100674724.881        -527.560          50.000  
G29  26335088.088   138392231.695       -2279.733          49.000    26335083.277   107838374.700       -1776.344          42.000  
S31  43095619.079   226469128.744        -681.894          44.000  
R19  25231477.180   134971750.096       -3414.172          42.000    25231470.574   104977632.144       -2655.541          46.000  
G05  28143301.754   147894042.005       -2079.266          45.000    28143296.871   115242060.451       -1620.245          40.000  
G23  27480045.418   144408723.187        2668.604          45.000    27480042.409   112526300.794        2079.407          44.000  
E34  29922055.158   157241643.110        1607.973          39.000    29922057.154   120483998.294        1232.259          46.000  
E30  31809891.385   167162078.855        1942.495          33.000    31809907.235                3       1491.463          21.000  
E10  32177192.112   169092433.413       -3436.452          41.000    32177191.398   129564856.500       -2633.265          42.000  
G25  26617791.878   139877660.308       -3407.742          44.000    26617788.974   108995648.754       -2655.227          41.000  
E25  28335463.896   148904166.933       -2006.998          49.000    28335464.468   114095555.408       -1537.821          54.000  
G31  26324460.294   138335911.154       -1318.461          47.000    26324456.217   107794290.186       -1027.378          44.000  
E14  34230158.744   179880840.687       -1952.607          41.000    34230156.371   137830829.948       -1496.294          36.000  
> 2024 04 15 05 11 30.0140000  0 25                     
S33  44053773.916   231504295.979        -682.416          42.000  
E02  27933512.473   146791622.564         489.384          47.000    27933511.801   112476731.284         375.006          51.000  
G28  26873488.353   141221088.188       -3227.243          42.000    26873484.546   110042385.735       -2514.566          42.000  
E36  27609994.526   145091855.178        -676.816          46.000    27609996.637   111174491.669        -518.652          52.000  
G26  25825031.538   135711491.317        1766.049          46.000    25825029.834   105749172.268        1376.286          44.000  
R20  24495578.842   130988923.792         274.930          41.000    24495577.038   101880360.151         213.903          42.000  
R10  24870035.367   132571360.225        2029.180          46.000                                                                  
R09  23546419.448   125736565.919       -1595.873          51.000    23546415.458    97795369.903       -1241.143          51.000  
R16  26502363.862   141571008.269       -4766.267          51.000    26502362.784   110110691.354       -3707.211          49.000  
R04  28636402.518                        2245.136          29.000    28636411.788                1       1746.677          29.000  
E11  28668546.618   150654635.100       -2909.274          44.000    28668542.221   115436897.851       -2229.085          48.000  
G18  24589613.670   129219660.243        -694.551          48.000    24589609.568   100690758.033        -541.224          50.000  
G29  26348111.910   138460671.841       -2282.926          49.000    26348107.095   107891704.721       -1778.958          42.000  
S31  43099513.335   226489592.064        -681.732          44.000  
R19  25250641.615   135074267.428       -3420.076          41.000    25250636.108   105057367.848       -2660.066          46.000  
G05  28155219.330   147956672.572       -2095.953          44.000    28155213.841   115290863.520       -1633.203          39.000  
G23  27464821.832   144328726.329        2664.691          45.000    27464819.454   112463965.733        2076.304          44.000  
E34  29912896.599   157193519.706        1600.249          39.000    29912899.328   120447124.600        1226.207          46.000  
E30  31798800.191   167103807.059        1942.668          33.000    31798812.671                3       1494.193          23.000  
E10  32196810.836   169195533.381       -3436.707          40.000    32196810.633   129643855.203       -2633.360          41.000  
G25  26637277.257   139980059.586       -3418.563          44.000    26637275.562   109075440.353       -2663.436          42.000  
E25  28346950.123   148964526.593       -2016.827          49.000    28346950.528   114141804.996       -1545.340          54.000  
G31  26332039.134   138375739.583       -1336.766          47.000    26332035.161   107825325.291       -1041.709          44.000  
E14  34241277.377   179939272.876       -1942.359          40.000    34241276.460   137875602.646       -1488.279          37.000  
R18                                                                  28406685.419                3      -2738.788          10.000  
> 2024 04 15 05 12 00.0140000  0 25                     
S33  44057670.802   231524773.631        -682.416          42.000  
E02  27930742.560   146777067.072         481.039          47.000    27930741.913   112465578.378         368.596          51.000  
G28  26891941.379   141318059.266       -3237.248          42.000    26891937.587   110117947.554       -2522.378          42.000  
E36  27613893.426   145112339.729        -688.405          47.000    27613894.660   111190187.643        -527.596          52.000  
G26  25814979.786   135658669.112        1755.798          46.000    25814978.324   105708012.119        1368.291          45.000  
R20  24494080.908   130980916.688         259.058          41.000    24494079.664   101874132.451         201.635          43.000  
R10  24858669.158   132510770.919        2010.436          47.000                                                                  
R09  23555457.633   125784829.605       -1621.482          51.000    23555453.385    97832908.287       -1261.076          51.000  
R16  26529160.979   141714153.565       -4776.404          50.000    26529159.303   110222026.453       -3715.054          48.000  
R04  28623834.673                1       2239.185          32.000    28623846.174                3       1746.657          24.000  
E11  28685170.872   150741991.578       -2914.166          45.000    28685165.725   115503833.327       -2232.942          48.000  
G18  24593630.917   129240767.296        -712.312          50.000    24593626.546   100707205.089        -555.105          51.000  
G29  26361155.314   138529213.494       -2286.322          49.000    26361150.255   107945113.784       -1781.407          42.000  
S31  43103408.075   226510059.601        -682.307          44.000  
R19  25269838.074   135176958.584       -3426.051          40.000    25269833.129   105137238.747       -2664.486          47.000  
G05  28167231.748   148019801.414       -2112.506          44.000    28167226.169   115340054.831       -1646.356          39.000  
G23  27449623.160   144248855.628        2660.336          45.000    27449620.351   112401728.938        2073.208          43.000  
E34  29903787.056   157145637.391        1592.111          41.000    29903787.476   120410435.627        1220.035          46.000  
E30  31787715.135   167045540.556        1942.657          32.000    31787721.009                3       1485.951          24.000  
E10  32216431.453   169298641.846       -3436.699          38.000    32216431.455   129722860.435       -2633.610          40.000  
G25  26656825.021   140082786.582       -3429.473          44.000    26656824.537   109155487.359       -2672.269          43.000  
E25  28358492.408   149025183.586       -2026.763          49.000    28358493.425   114188282.415       -1552.945          55.000  
G31  26339722.902   138416119.516       -1355.003          47.000    26339719.112   107856790.130       -1055.910          44.000  
E14  34252341.816   179997408.614       -1932.926          41.000    34252340.153   137920148.158       -1481.063          38.000  
R18                                                                  28429889.259                3      -3211.453          12.000  
> 2024 04 15 05 12 30.0140000  0 24                     
S33  44061566.990   231545248.964        -682.562          42.000  
E02  27928020.423   146762758.862         472.921          47.000    27928019.166   112454614.942         362.363          51.000  
G28  26910449.509   141415322.850       -3246.958          42.000    26910446.292   110193737.320       -2529.661          42.000  
E36  27617856.794   145133168.024        -699.880          46.000    27617858.132   111206146.995        -536.341          52.000  
G26  25804985.905   135606152.793        1745.329          45.000    25804985.297   105667090.320        1359.985          45.000  
R20  24492671.442   130973377.938         243.576          40.000    24492670.588   101868269.050         189.347          45.000  
R10  24847407.449   132450739.696        1991.691          48.000                                                                  
R09  23564638.470   125833853.563       -1646.871          51.000    23564634.341    97871038.006       -1280.794          50.000  
R16  26556013.014   141857591.198       -4786.024          50.000    26556010.252   110333588.944       -3722.558          47.000  
R04  28611304.264   153212187.9661       2234.650          38.000    28611306.296   119165101.4391       1737.808          30.000  
E11  28701823.045   150829495.189       -2919.096          45.000    28701817.106   115570881.545       -2236.751          48.000  
G18  24597747.976   129262398.808        -729.800          50.000    24597743.139   100724060.807        -568.673          51.000  
G29  26374216.550   138597851.003       -2289.442          49.000    26374210.883   107998597.547       -1783.774          41.000  
S31  43107302.564   226530525.622        -682.141          44.000  
R19  25289065.300   135279814.212       -3431.259          40.000    25289060.451   105217237.571       -2668.623          47.000  
G05  28179338.500   148083420.815       -2128.845          45.000    28179333.076   115389628.441       -1658.868          39.000  
G23  27434448.071   144169108.592        2656.014          45.000    27434444.852   112339588.491        2069.942          43.000  
E34  29894719.686   157097991.102        1584.179          41.000    29894720.980   120373927.540        1214.010          47.000  
E30  31776631.877   166987274.844        1941.801          31.000    31776631.728                        1487.898          28.000  
E10  32236052.296   169401751.784       -3437.240          37.000    32236052.473   129801866.757       -2633.414          40.000  
G25  26676434.390   140185834.300       -3440.230          45.000    26676433.852   109235784.258       -2680.908          42.000  
E25  28370090.884   149086132.241       -2036.472          48.000    28370091.554   114234983.314       -1560.369          54.000  
G31  26347511.277   138457044.388       -1373.176          47.000    26347506.339   107888679.614       -1070.296          43.000  
E14  34263346.630   180055242.630       -1922.656          41.000    34263345.502   137964462.465       -1473.086          38.000  
> 2024 04 15 05 13 00.0140000  0 24                     
S33  44065462.125   231565720.619        -682.153          42.000  
E02  27925344.862   146748696.871         464.590          48.000    27925343.558   112443840.162         356.052          51.000  
G28  26929012.796   141512873.473       -3256.512          43.000    26929009.609   110269750.737       -2537.540          43.000  
E36  27621885.613   145154336.775        -711.140          47.000    27621886.477   111222367.209        -544.856          52.000  
G26  25795050.987   135553942.374        1735.245          46.000    25795050.208   105626406.889        1352.296          45.000  
R20  24491348.309   130966304.106         228.308          40.000    24491347.827   101862767.227         177.477          44.000  
R10  24836251.129   132391268.480        1973.008          48.000                                                                  
R09  23573960.601   125883634.875       -1671.872          51.000    23573956.657    97909756.797       -1300.321          51.000  
R16  26582917.959   142001315.039       -4795.431          50.000    26582916.143   110445374.054       -3729.735          47.000  
R04  28598800.278   153145222.156        2229.971          35.000    28598799.461   119113016.900        1734.426          33.000  
E11  28718499.959   150917141.740       -2924.116          43.000    28718495.615   115638039.265       -2240.374          48.000  
G18  24601962.475   129284551.211        -746.930          49.000    24601958.105   100741322.463        -581.995          50.000  
G29  26387295.228   138666581.387       -2292.414          49.000    26387290.059   108052153.700       -1786.418          41.000  
S31  43111196.188   226550986.522        -681.645          44.000  
R19  25308323.162   135382829.026       -3436.536          39.000    25308318.315   105297360.178       -2672.742          47.000  
G05  28191538.396   148147527.288       -2144.921          45.000    28191532.124   115439581.543       -1671.307          41.000  
G23  27419296.676   144089485.958        2652.143          46.000    27419293.326   112277545.014        2066.632          44.000  
E34  29885697.060   157050579.148        1576.539          41.000    29885699.138   120337598.998        1208.032          47.000  
E30  31765543.522                        1942.627          28.000    31765546.166                        1488.385          29.000  
E10  32255672.697   169504859.350       -3436.452          36.000    32255673.040   129880871.286       -2633.460          39.000  
G25  26696104.306   140289199.019       -3450.819          44.000    26696103.573   109316328.169       -2688.957          43.000  
E25  28381743.916   149147370.056       -2046.038          48.000    28381744.740   114281905.790       -1567.723          55.000  
G31  26355401.608   138498509.839       -1391.044          48.000    26355397.325   107920990.335       -1083.979          44.000  
E14  34274294.772   180112773.059       -1912.780          41.000    34274292.363   138008544.201       -1465.563          37.000  
> 2024 04 15 05 13 30.0140000  0 26                     
S33  44069357.338   231586188.776        -681.870          42.000  
E02  27922716.206   146734883.379         456.468          48.000    27922714.949   112433255.803         349.757          51.000  
G28  26947630.479   141610708.934       -3265.930          43.000    26947628.112   110345986.112       -2544.946          44.000  
E36  27625978.771   145175846.024        -722.546          47.000    27625979.639   111238848.339        -553.579          52.000  
G26  25785175.081   135502041.243        1724.941          47.000    25785173.850   105585964.442        1344.125          45.000  
R20  24490112.212   130959694.965         212.723          39.000    24490111.111   101857626.828         165.491          43.000  
R10  24825200.628   132332362.118        1954.339          48.000                                                                  
R09  23583424.170   125934173.580       -1697.138          50.000    23583421.830    97949064.665       -1319.954          51.000  
R16  26609876.513   142145323.065       -4804.868          50.000    26609875.149   110557380.177       -3737.037          49.000  
R04  28586324.524   153078416.523        2224.158          37.000    28586326.977                        1730.327          26.000  
G16  28932311.756                1       2601.398          31.000                                                                  
E11  28735204.655   151004930.557       -2928.521          42.000    28735201.359   115705306.027       -2243.887          48.000  
G18  24606276.496   129307224.439        -764.272          48.000    24606272.041   100758989.930        -595.570          49.000  
G29  26400392.044   138735405.569       -2295.616          49.000    26400386.038   108105782.931       -1788.579          40.000  
S31  43115089.073   226571444.305        -681.683          44.000  
R19  25327610.455   135486001.146       -3441.754          40.000    25327604.999   105377605.176       -2676.697          46.000  
G05  28203830.166   148212120.769       -2161.266          44.000    28203824.083   115489914.102       -1683.918          40.000  
G23  27404168.791   144009991.908        2647.809          46.000    27404166.444   112215601.724        2063.217          45.000  
E34  29876719.963   157003403.114        1568.671          42.000    29876722.236   120301451.219        1202.032          48.000  
E10  32275293.091   169607964.201       -3436.664          35.000    32275292.673   129959873.701       -2633.182          37.000  
G25  26715834.870   140392880.339       -3461.193          44.000    26715833.594   109397118.744       -2696.990          43.000  
E25  28393451.714   149208897.942       -2055.645          48.000    28393453.037   114329050.528       -1575.061          55.000  
G31  26363395.295   138540515.489       -1409.058          48.000    26363391.354   107953721.987       -1097.966          44.000  
E14  34285185.090   180170001.285       -1902.390          41.000    34285183.018   138052394.406       -1457.743          38.000  
E30                                                                  31754457.136                        1488.315          30.000  
R03                                                                  28422542.482                2        297.732          26.000  
> 2024 04 15 05 14 00.0140000  0 25                     
S33  44073250.337   231606647.117        -681.692          42.000  
E02  27920134.087   146721313.644         448.489          48.000    27920132.871   112422858.223         343.605          51.000  
G28  26966301.080   141708820.115       -3274.895          43.000    26966297.523   110422436.272       -2551.826          43.000  
E36  27630135.471   145197688.775        -733.397          47.000    27630136.149   111255585.014        -561.979          52.000  
G26  25775356.667   135450445.710        1715.070          47.000    25775355.031   105545760.149        1336.376          44.000  
R20  24488961.818   130953542.877         197.629          40.000    24488959.676   101852841.895         153.658          42.000  
R10  24814254.597   132274017.533        1935.571          48.000                                                                  
R09  23593027.874   125985462.799       -1722.100          50.000    23593026.142    97988956.249       -1339.345          51.000  
R16  26636886.360   142289605.310       -4813.839          50.000    26636885.157   110669599.546       -3744.057          49.000  
R04  28573879.047   153011769.413        2218.978          39.000    28573878.462   119009220.305        1726.220          35.000  
G16  28917452.217                1       2602.832          31.000                                                                  
E11  28751936.124   151092853.840       -2932.832          43.000    28751932.786   115772675.831       -2247.204          48.000  
G18  24610689.050   129330411.177        -781.324          49.000    24610684.445   100777057.561        -608.789          50.000  
G29  26413505.764   138804317.154       -2298.391          49.000    26413499.204   108159480.271       -1791.049          40.000  
S31  43118980.323   226591892.518        -681.340          44.000  
R19  25346925.310   135589321.988       -3446.513          40.000    25346920.409   105457965.815       -2680.415          48.000  
G05  28216212.735   148277193.664       -2176.957          44.000    28216206.940   115540620.291       -1696.302          39.000  
G23  27389065.433   143930623.555        2643.689          46.000    27389063.203   112153756.387        2059.936          45.000  
E34  29867785.690   156956457.520        1561.004          42.000    29867788.105   120265480.001        1196.138          47.000  
E10  32294911.726   169711058.796       -3436.025          35.000    32294910.628   130038868.279       -2632.801          36.000  
G25  26735624.256   140496870.815       -3471.240          45.000    26735621.732   109478150.231       -2704.737          41.000  
E25  28405213.807   149270709.750       -2064.993          47.000    28405215.469   114376412.816       -1582.243          55.000  
G31  26371490.213   138583053.826       -1426.703          48.000    26371485.950   107986868.692       -1111.490          43.000  
E14  34296015.744   180226921.717       -1891.980          41.000    34296015.207   138096008.789       -1449.665          39.000  
E30                                                                  31743368.452                        1488.746          31.000  
> 2024 04 15 05 14 30.0140000  0 25                     
S33  44077144.548   231627109.490        -682.000          42.000  
E02  27917600.548   146708002.378         439.469          48.000    27917599.966   112412658.683         336.638          51.000  
G28  26985025.227   141807217.257       -3284.587          43.000    26985021.810   110499109.360       -2559.250          42.000  
E36  27634357.909   145219877.536        -745.297          47.000    27634358.385   111272586.813        -571.081          52.000  
G26  25765599.417   135399171.723        1703.898          46.000    25765597.232   105505806.409        1327.617          44.000  
R20  24487899.575   130947861.295         181.934          40.000    24487897.141   101848422.947         141.076          42.000  
R10  24803418.421   132216252.685        1915.881          49.000                                                                  
R09  23602775.996   126037515.511       -1747.752          50.000    23602773.728    98029441.682       -1359.289          51.000  
R16  26663949.603   142434172.166       -4823.442          49.000    26663949.486   110782040.332       -3751.590          49.000  
R04  28561466.461   152945298.617        2213.149          37.000    28561462.698   118957520.723        1721.176          38.000  
G16  28902594.453                        2602.632          30.000                                                                  
E11  28768695.729   151180923.397       -2937.916          44.000    28768691.738   115840157.691       -2251.091          48.000  
G18  24615201.793   129354123.744        -799.060          49.000    24615197.230   100795534.918        -622.656          51.000  
G29  26426637.829   138873328.999       -2302.040          49.000    26426631.643   108213255.730       -1793.967          39.000  
S31  43122872.206   226612344.995        -681.718          44.000  
R19  25366269.324   135692802.191       -3451.932          40.000    25366264.897   105538450.400       -2684.851          48.000  
G05  28228689.194   148342758.706       -2193.636          44.000    28228683.896   115591710.004       -1709.168          40.000  
G23  27373989.452   143851397.507        2638.488          47.000    27373986.813   112092021.913        2056.094          45.000  
E34  29858898.868   156909756.469        1552.678          42.000    29858901.221   120229696.123        1189.643          47.000  
E10  32314530.102   169814155.275       -3436.447          34.000    32314529.220   130117864.273       -2632.908          35.000  
G25  26755474.082   140601182.505       -3482.331          45.000    26755472.482   109559432.047       -2713.536          42.000  
E25  28417032.578   149332818.860       -2075.089          46.000    28417034.553   114424002.896       -1590.118          55.000  
G31  26379688.277   138626136.508       -1445.106          48.000    26379684.313   108020439.621       -1126.150          43.000  
E14  34306791.482   180283548.304       -1882.951          41.000    34306791.040   138139397.997       -1442.501          40.000  
E30                                                                  31732283.627   127772758.3321       1488.008          32.000  
