     3.00           OBSERVATION DATA    M: Mixed            RINEX VERSION / TYPE
CONVBIN 2.4.3                           20240415 061442 UTC PGM / RUN BY / DATE 
format: u-blox UBX                                          COMMENT             
log: /home/regis/git/gnsspwv/obsdata/VERT00CHL/2024-04-15/VECOMMENT             
{self.marker}                                               MARKER NAME         
                                                            MARKER NUMBER       
GEODETIC                                                    MARKER TYPE         
{self.observer}     {self.institution}                      OBSERVER / AGENCY   
UNKNOWN             UBLOX-ZED-F9P                           REC # / TYPE / VERS 
UNKNOWN             TWIVSP6037L                             ANT # / TYPE        
  1713381.0000 -5047934.0000 -3490983.0000                  APPROX POSITION XYZ 
        0.0000        0.0000        0.0000                  ANTENNA: DELTA H/E/N
G    8 C1C L1C D1C S1C C2L L2L D2L S2L                      SYS / # / OBS TYPES 
R    8 C1C L1C D1C S1C C2C L2C D2C S2C                      SYS / # / OBS TYPES 
E    8 C1C L1C D1C S1C C7Q L7Q D7Q S7Q                      SYS / # / OBS TYPES 
S    4 C1C L1C D1C S1C                                      SYS / # / OBS TYPES 
  2024    04    15    06    00   00.0160000     GPS         TIME OF FIRST OBS   
  2024    04    15    06    14   30.0160000     GPS         TIME OF LAST OBS    
                                                            END OF HEADER       
> 2024 04 15 06 00 00.0160000  0 27                     
S33  44428467.621   233473338.6301       -672.190          42.000  
E02  27918569.142   146713094.5761       -497.400          47.000    27918568.886   112416560.5571       -381.163          51.000  
G28  28834101.342   151524209.4061      -3693.119          41.000    28834100.694   118070726.1281      -2878.000          42.000  
E36  28262336.344   148519934.0411      -1618.979          49.000    28262336.988   113801202.8121      -1240.528          51.000  
G26  25187003.163   132358627.4361        419.266          49.000    25187000.836   103136551.7501        326.688          46.000  
R20  24717818.562   132177353.9451      -1006.124          39.000    24717816.651   102804697.6551       -782.180          44.000  
R10  24347044.542   129783521.3641       -257.394          48.000                                                                  
R09  25043674.929   133731818.6481      -3780.808          51.000    25043670.921   104013897.8791      -2940.590          50.000  
R05  28468872.174   152182460.9301       2757.970          46.000    28468870.846   118364088.4291       2145.160          45.000  
R04  27668711.191   148164640.9301       1095.775          45.000    27668705.690   115239238.9211        852.439          42.000  
G16  27584887.254   144959566.9451       2369.726          47.000                                                                  
E11  30366147.486   159575589.8321      -3147.441          38.000    30366143.634   122272434.4391      -2411.604          45.000  
G18  25402232.680   133490005.3811      -2150.551          48.000    25402228.068   104018301.1051      -1675.801          49.000  
G29  27694191.292   145534359.1831      -2582.008          44.000    27694184.156   113403668.3741      -2011.949          35.000  
S31  43474059.883   228457853.7051       -671.693          44.000  
E30  30759204.500   161640824.5891       1736.286          41.000    30759204.953   123854552.1231       1330.636          47.000  
R11  27524048.725   147080143.4741       3064.424          41.000    27524050.704   114395795.7881       2383.550          39.000  
R21  27361447.543   146416906.3851       1593.239          50.000    27361444.670   113879643.0421       1239.150          46.000  
R19  27186366.191   145429090.0661      -3587.592          40.000    27186360.297   113111118.6481      -2790.332          46.000  
G23  26189710.333   137627994.2941       1772.467          47.000    26189706.269   107242622.3521       1381.058          48.000  
E34  29250706.988   153713715.9031        774.646          45.000    29250710.276   117780786.6101        593.515          52.000  
G27  28969383.606   152235077.2281       1658.049          39.000    28969381.732   118624823.1311       1292.082          39.000  
G10  28339841.455   148926948.3201       3158.166          42.000    28339839.898   116046928.3641       2460.795          41.000  
G25  28773126.996   151203997.5141      -4205.365          43.000    28773125.252   117821360.1551      -3276.929          38.000  
E25  29717317.581   156165852.5961      -2911.194          48.000    29717318.611   119659702.7441      -2230.676          51.000  
G31  27505934.172   144544584.4101      -2784.104          43.000    27505932.026   112632213.6851      -2169.027          39.000  
E14  35062401.068   184254303.4311      -1059.454          40.000    35062400.638   141181924.1361       -811.474          44.000  
> 2024 04 15 06 00 30.0160000  0 27                     
S33  44432301.398   233493484.494        -671.537          42.000  
E02  27921441.516   146728189.021        -509.192          47.000    27921441.137   112428126.441        -390.201          52.000  
G28  28855183.300   151634998.588       -3693.041          41.000    28855182.938   118157055.530       -2877.808          43.000  
E36  28271599.999   148568612.123       -1626.628          49.000    28271600.040   113838501.606       -1246.321          51.000  
G26  25184656.556   132346297.833         402.247          49.000    25184654.614   103126944.266         313.470          46.000  
R20  24723489.222   132207677.306       -1016.155          39.000    24723487.350   102828282.483        -790.144          44.000  
R10  24348567.799   129791640.037        -284.392          48.000                                                                  
R09  25064963.615   133845503.867       -3798.647          51.000    25064960.382   104102319.677       -2954.431          50.000  
R05  28453395.941   152099729.714        2756.853          48.000    28453394.044   118299741.965        2144.335          45.000  
R04  27662622.816   148132037.706        1077.420          45.000    27662617.525   115213880.827         838.082          43.000  
G16  27571373.914   144888554.353        2363.999          47.000                                                                  
E11  30384114.007   159670009.257       -3147.980          37.000    30384110.933   122344781.769       -2411.915          45.000  
G18  25414541.647   133554692.285       -2162.392          48.000    25414537.974   104068706.510       -1684.888          50.000  
G29  27708939.089   145611856.585       -2585.161          44.000    27708932.410   113464056.004       -2014.576          36.000  
S31  43477892.329   228477994.242        -671.621          44.000  
E30  30749302.493   161588787.930        1732.111          41.000    30749302.749   123814679.894        1327.255          46.000  
R11  27506878.125   146988384.872        3052.580          40.000    27506877.192   114324427.971        2374.315          39.000  
R21  27352537.716   146369228.290        1584.943          50.000    27352535.198   113842560.254        1232.703          46.000  
R19  27206479.862   145536683.148       -3585.835          41.000    27206473.178   113194802.159       -2789.093          43.000  
G23  26179631.058   137575026.744        1758.268          48.000    26179627.273   107201348.990        1370.042          48.000  
E34  29246309.283   153690601.044         766.014          46.000    29246311.857   117763075.264         586.866          52.000  
G27  28959913.306   152185310.920        1659.488          39.000    28959911.339   118586044.229        1292.847          37.000  
G10  28321815.251   148832223.658        3156.378          42.000    28321813.399   115973117.133        2459.824          39.000  
G25  28797147.097   151330225.234       -4210.478          44.000    28797146.224   117919719.317       -3280.968          39.000  
E25  29733958.571   156253303.791       -2919.318          47.000    29733959.982   119726710.786       -2236.870          51.000  
G31  27521856.533   144628253.581       -2794.416          44.000    27521852.656   112697410.395       -2177.352          38.000  
E14  35068424.045   184285950.202       -1051.013          40.000    35068422.172   141206172.928        -805.441          44.000  
> 2024 04 15 06 01 00.0160000  0 27                     
S33  44436134.858   233513630.018        -671.238          42.000  
E02  27924382.370   146743642.253        -521.074          47.000    27924382.047   112439967.219        -399.171          52.000  
G28  28876264.684   151745782.714       -3692.617          40.000    28876264.567   118243381.026       -2877.453          42.000  
E36  28280907.049   148617521.323       -1634.173          49.000    28280907.314   113875977.491       -1252.060          51.000  
G26  25182409.117   132334489.629         384.784          48.000    25182407.599   103117743.072         300.037          45.000  
R20  24729217.255   132238309.929       -1026.261          39.000    24729215.566   102852107.870        -798.376          44.000  
R10  24350244.222   129800575.118        -311.580          49.000                                                                  
R09  25086354.834   133959728.812       -3816.546          52.000    25086351.320   104191161.259       -2968.375          50.000  
R05  28437927.481   152017037.815        2755.773          48.000    28437923.194   118235426.105        2143.328          43.000  
R04  27656639.373   148099989.840        1058.910          45.000    27656633.606   115188954.733         823.609          44.000  
G16  27557896.054   144817726.634        2357.786          46.000                                                                  
E11  30402083.836   159764436.722       -3147.528          38.000    30402079.604   122417135.289       -2411.893          44.000  
G18  25426919.753   133619736.807       -2174.087          48.000    25426915.793   104119390.544       -1694.187          50.000  
G29  27723704.503   145689453.747       -2588.527          43.000    27723700.571   113524521.257       -2016.141          37.000  
S31  43481724.584   228498133.718        -671.618          44.000  
E30  30739427.218   161536890.777        1727.556          41.000    30739427.098   123774914.564        1323.737          46.000  
R11  27489773.136   146896982.428        3040.595          39.000    27489772.150   114253337.154        2365.003          40.000  
R21  27343676.400   146321807.104        1576.293          51.000    27343672.332   113805677.247        1226.097          44.000  
R19  27226585.373   145644237.926       -3584.486          42.000    27226580.109   113278455.867       -2788.022          45.000  
G23  26169633.850   137522490.523        1743.914          48.000    26169630.152   107160411.724        1358.966          48.000  
E34  29241961.619   153667750.884         757.339          47.000    29241963.410   117745566.749         580.299          52.000  
G27  28950437.024   152135510.667        1660.555          41.000    28950434.523   118547238.845        1294.197          37.000  
G10  28303801.538   148737559.312        3154.362          43.000    28303799.152   115899352.883        2457.864          40.000  
G25  28821196.594   151456605.332       -4215.288          43.000    28821195.962   118018197.215       -3284.702          40.000  
E25  29750647.370   156341004.631       -2927.507          47.000    29750648.549   119793910.121       -2243.145          51.000  
G31  27537839.729   144712245.386       -2805.028          43.000    27537835.217   112762858.481       -2185.624          39.000  
E14  35074401.618   184317360.828       -1043.285          40.000    35074399.922   141230240.768        -799.062          44.000  
> 2024 04 15 06 01 30.0160000  0 27                     
S33  44439968.045   233533774.545        -671.594          42.000  
E02  27927392.176   146759456.360        -533.274          47.000    27927391.335   112452084.519        -408.609          52.000  
G28  28897344.622   151856559.894       -3692.667          41.000    28897344.158   118329700.997       -2877.419          41.000  
E36  28290257.589   148666661.655       -1641.855          48.000    28290258.570   113913630.481       -1258.046          52.000  
G26  25180261.868   132323205.830         367.284          49.000    25180260.028   103108950.516         286.238          45.000  
R20  24735003.440   132269251.451       -1036.845          40.000    24735001.959   102876173.508        -806.283          45.000  
R10  24352073.626   129810328.190        -338.943          48.000                                                                  
R09  25107846.208   134074490.905       -3834.500          52.000    25107842.467   104280420.656       -2982.393          50.000  
R05  28422464.747   151934391.021        2753.867          46.000    28422461.261   118171145.311        2142.029          42.000  
R04  27650759.028   148068502.448        1040.166          45.000    27650753.064   115164464.565         808.961          43.000  
G16  27544453.732   144747087.392        2351.348          46.000                                                                  
E11  30420055.443   159858872.512       -3147.941          37.000    30420050.468   122489495.154       -2412.083          44.000  
G18  25439365.421   133685138.131       -2186.140          48.000    25439360.963   104170352.622       -1703.511          50.000  
G29  27738490.063   145767152.142       -2591.931          44.000    27738485.686   113585065.469       -2019.602          37.000  
S31  43485556.931   228518272.517        -671.344          44.000  
E30  30729579.405   161485136.069        1722.568          41.000    30729578.412   123735258.364        1320.062          46.000  
R11  27472735.071   146805941.789        3028.467          39.000    27472735.157   114182527.750        2355.802          40.000  
R21  27334863.320   146274643.303        1567.748          51.000    27334858.834   113768994.431        1219.370          45.000  
R19  27246684.888   145751754.794       -3583.278          41.000    27246678.841   113362080.096       -2786.917          43.000  
G23  26159719.502   137470389.770        1729.354          48.000    26159715.223   107119813.778        1347.443          47.000  
E34  29237664.087   153645166.649         748.243          47.000    29237665.713   117728261.997         573.290          52.000  
G27  28940953.819   152085677.722        1661.426          41.000    28940951.867   118508408.069        1294.576          38.000  
G10  28285799.758   148642959.737        3151.951          44.000    28285798.323   115825639.116        2455.787          41.000  
G25  28845274.768   151583137.065       -4220.545          42.000    28845274.206   118116793.261       -3288.488          40.000  
E25  29767383.543   156428955.597       -2935.940          47.000    29767385.172   119861301.107       -2249.644          51.000  
G31  27553884.060   144796558.193       -2816.000          42.000    27553878.866   112828556.694       -2193.927          38.000  
E14  35080335.167   184348537.456       -1035.561          41.000    35080332.745   141254129.349        -793.363          44.000  
> 2024 04 15 06 02 00.0160000  0 27                     
S33  44443802.713   233553923.635        -671.798          43.000  
E02  27930470.903   146775637.470        -545.848          47.000    27930470.257   112464483.032        -418.114          52.000  
G28  28918423.812   151967332.324       -3692.793          41.000    28918422.850   118416016.929       -2876.901          39.000  
E36  28299653.247   148716037.103       -1649.917          48.000    28299654.677   113951463.622       -1264.259          52.000  
G26  25178216.171   132312453.441         349.175          49.000    25178213.885   103100572.018         272.213          45.000  
R20  24740849.073   132300505.437       -1047.346          40.000    24740847.144   102900482.174        -814.374          45.000  
R10  24354058.093   129820906.165        -366.397          49.000                                                                  
R09  25129438.677   134189792.147       -3852.482          52.000    25129435.317   104370099.393       -2996.235          51.000  
R05  28407015.330   151851799.050        2751.946          47.000    28407012.217   118106907.187        2140.479          44.000  
R04  27644984.680   148037584.485        1020.849          45.000    27644979.412   115140417.272         794.044          44.000  
G16  27531048.656   144676644.795        2344.728          46.000                                                                  
E11  30438028.957   159953320.780       -3148.408          37.000    30438023.389   122561864.569       -2412.462          44.000  
G18  25451879.752   133750899.462       -2198.158          49.000    25451874.562   104221595.219       -1712.719          50.000  
G29  27753296.261   145844957.340       -2595.425          45.000    27753291.355   113645692.864       -2022.181          37.000  
S31  43489390.082   228538416.125        -671.691          44.000  
E30  30719758.741   161433530.807        1717.543          42.000    30719758.256   123695716.686        1316.053          46.000  
R11  27455767.981   146715272.292        3016.048          40.000    27455766.680   114112007.094        2345.766          39.000  
R21  27326099.378   146227742.292        1558.865          51.000    27326094.202   113732516.020        1212.370          46.000  
R19  27266778.008   145859238.138       -3582.508          40.000    27266771.105   113445678.270       -2786.108          42.000  
G23  26149888.860   137418732.666        1714.336          47.000    26149884.915   107079561.514        1335.746          47.000  
E34  29233418.473   153622853.556         739.032          47.000    29233419.646   117711165.002         566.284          52.000  
G27  28931466.144   152035817.622        1662.038          40.000    28931464.252   118469556.069        1295.269          39.000  
G10  28267811.628   148548433.403        3149.505          44.000    28267810.827   115751982.408        2454.100          41.000  
G25  28869382.460   151709823.723       -4225.863          42.000    28869382.275   118215510.017       -3292.593          40.000  
E25  29784169.252   156517161.169       -2944.464          47.000    29784170.157   119928887.162       -2256.215          51.000  
G31  27569988.692   144881194.396       -2826.639          40.000    27569985.432   112894506.938       -2202.753          38.000  
E14  35086223.383   184379486.218       -1028.275          40.000    35086221.869   141277843.335        -787.724          44.000  
> 2024 04 15 06 02 30.0160000  0 27                     
S33  44447636.319   233574070.069        -672.067          43.000  
E02  27933617.984   146792177.739        -557.703          47.000    27933617.711   112477156.744        -427.288          52.000  
G28  28939501.848   152078088.911       -3691.990          42.000    28939499.923   118502320.525       -2876.510          39.000  
E36  28309092.240   148765637.666       -1657.337          48.000    28309093.350   113989469.252       -1269.928          52.000  
G26  25176269.240   132302225.373         331.995          49.000    25176267.370   103092602.117         258.484          45.000  
R20  24746749.452   132332060.873       -1056.964          40.000    24746748.306   102925025.312        -822.048          45.000  
R10  24356196.249   129832300.879        -393.686          49.000                                                                  
R09  25151128.670   134305620.301       -3870.023          51.000    25151126.620   104460187.903       -3010.025          50.000  
R05  28391575.421   151769257.767        2750.194          47.000    28391571.504   118042708.455        2139.124          45.000  
R04  27639316.324   148007230.363        1002.313          42.000    27639309.696   115116808.538         779.499          42.000  
G16  27517680.673   144606392.410        2338.162          47.000                                                                  
E11  30456002.158   160047771.713       -3148.695          37.000    30455996.365   122634236.083       -2412.563          43.000  
G18  25464460.221   133817010.011       -2209.687          49.000    25464454.649   104273109.950       -1721.858          50.000  
G29  27768121.499   145922861.077       -2598.533          45.000    27768114.926   113706397.091       -2025.041          37.000  
S31  43493222.760   228558556.806        -671.601          44.000  
E30  30709965.586   161382067.991        1712.812          41.000    30709965.184   123656284.159        1312.474          46.000  
R11  27438870.078   146624969.476        3003.181          39.000    27438866.740   114041771.546        2336.250          34.000  
R21  27317380.848   146181094.669        1550.385          49.000    27317377.468   113696234.714        1205.912          47.000  
R19  27286862.175   145966677.743       -3580.704          40.000    27286855.996   113529242.367       -2784.908          41.000  
G23  26140141.830   137367513.373        1699.830          46.000    26140138.843   107039650.416        1324.497          48.000  
E34  29229221.216   153600802.817         730.426          46.000    29229223.664   117694269.035         559.666          52.000  
G27  28921970.835   151985921.649        1663.432          42.000    28921969.309   118430676.143        1296.138          39.000  
G10  28249836.131   148453974.773        3147.216          44.000    28249835.123   115678378.452        2452.577          40.000  
G25  28893517.528   151836654.530       -4230.099          43.000    28893518.441   118314339.140       -3296.311          42.000  
E25  29801000.609   156605611.835       -2952.664          47.000    29801001.752   119996661.028       -2262.467          51.000  
G31  27586153.513   144966142.564       -2837.012          40.000    27586151.031   112960700.204       -2210.570          38.000  
E14  35092067.471   184410199.360       -1020.110          40.000    35092066.293   141301376.766        -781.648          44.000  
> 2024 04 15 06 03 00.0160000  0 27                     
S33  44451469.675   233594215.371        -671.571          43.000  
E02  27936834.042   146809080.687        -569.567          46.000    27936834.359   112490108.360        -436.422          52.000  
G28  28960575.563   152188829.683       -3691.407          42.000    28960572.794   118588611.774       -2876.389          39.000  
E36  28318574.517   148815464.772       -1664.674          49.000    28318575.062   114027648.469       -1275.526          52.000  
G26  25174424.187   132292526.129         314.491          49.000    25174422.216   103085044.249         244.907          45.000  
R20  24752706.845   132363918.489       -1066.868          40.000    24752705.507   102949803.469        -829.797          45.000  
R10  24358487.671   129844515.887        -420.826          49.000                                                                  
R09  25172918.446   134421974.604       -3887.200          52.000    25172915.881   104550685.643       -3023.427          51.000  
R05  28376143.643   151686774.023        2748.412          44.000    28376141.710   117978554.442        2137.701          46.000  
R04  27633753.837   147977446.594         983.408          44.000    27633747.263   115093643.353         764.588          40.000  
G16  27504349.691   144536335.868        2331.924          47.000                                                                  
E11  30473975.344   160142226.979       -3148.854          37.000    30473970.766   122706610.902       -2412.727          43.000  
G18  25477106.161   133883470.408       -2221.248          48.000    25477101.706   104324897.283       -1730.743          50.000  
G29  27782966.320   146000866.451       -2601.924          44.000    27782959.058   113767180.498       -2027.744          37.000  
S31  43497055.066   228578695.955        -671.403          44.000  
E30  30700199.707   161330752.065        1707.965          41.000    30700200.159   123616964.196        1308.652          46.000  
R11  27422040.087   146535040.090        2990.979          38.000    27422039.072   113971826.433        2326.739          34.000  
R21  27308711.230   146134703.120        1542.070          49.000    27308708.408   113660152.556        1199.375          46.000  
R19  27306939.511   146074074.897       -3579.281          42.000    27306933.239   113612773.457       -2783.812          42.000  
G23  26130479.696   137316737.486        1685.083          47.000    26130476.267   107000084.826        1313.073          47.000  
E34  29225075.933   153579017.137         721.734          46.000    29225078.157   117677576.157         552.926          52.000  
G27  28912469.301   151935992.760        1664.659          42.000    28912467.742   118391770.567        1297.535          39.000  
G10  28231874.489   148359589.786        3144.726          43.000    28231873.409   115604831.858        2450.369          40.000  
G25  28917680.569   151963630.309       -4234.904          42.000    28917681.449   118413281.169       -3299.815          41.000  
E25  29817879.387   156694309.512       -2960.777          47.000    29817879.954   120064624.161       -2268.634          50.000  
G31  27602378.414   145051402.299       -2847.099          40.000    27602374.447   113027136.314       -2218.548          38.000  
E14  35097868.007   184440680.458       -1012.295          40.000    35097866.669   141324732.398        -775.613          43.000  
> 2024 04 15 06 03 30.0160000  0 27                     
S33  44455302.170   233614354.545        -671.343          43.000  
E02  27940118.896   146826342.562        -581.653          46.000    27940119.206   112503334.994        -445.704          52.000  
G28  28981644.304   152299547.249       -3690.371          40.000    28981642.377   118674884.898       -2875.589          39.000  
E36  28328098.177   148865512.550       -1672.236          49.000    28328098.769   114065996.780       -1281.385          52.000  
G26  25172678.122   132283352.708         296.757          49.000    25172676.286   103077896.109         231.236          45.000  
R20  24758720.611   132396072.492       -1077.247          41.000    24758718.084   102974812.140        -837.742          44.000  
R10  24360931.319   129857547.175        -448.257          48.000                                                                  
R09  25194806.119   134538846.633       -3904.524          52.000    25194801.199   104641586.099       -3036.847          49.000  
R05  28360725.228   151604347.716        2746.326          47.000    28360721.727   117914445.158        2135.844          46.000  
R04  27628299.770   147948231.824         964.054          46.000    27628293.510   115070920.765         749.751          44.000  
G16  27491054.565   144466473.048        2325.370          47.000                                                                  
E11  30491949.073   160236680.897       -3148.573          36.000    30491944.894   122778984.685       -2412.770          43.000  
G18  25489818.893   133950274.006       -2232.697          48.000    25489813.836   104376952.036       -1739.832          49.000  
G29  27797827.491   146078968.725       -2605.175          44.000    27797822.230   113828039.400       -2030.069          38.000  
S31  43500886.509   228598830.615        -671.099          44.000  
E30  30690462.229   161279580.128        1702.830          41.000    30690462.325   123577754.545        1304.928          46.000  
R11  27405279.432   146445483.430        2978.520          37.000    27405277.358                        2316.511          31.000  
R21  27300089.374   146088562.679        1533.662          49.000    27300085.269   113624265.682        1192.890          46.000  
R19  27327006.912   146181423.833       -3577.915          42.000    27327002.183   113696267.085       -2782.584          42.000  
G23  26120902.528   137266403.314        1670.142          47.000    26120897.656   106960863.386        1301.417          47.000  
E34  29220979.636   153557491.802         712.936          46.000    29220982.181   117661082.763         546.268          53.000  
G27  28902961.181   151886026.534        1665.888          41.000    28902959.680   118352835.925        1298.188          39.000  
G10  28213927.092   148265277.062        3142.376          43.000    28213926.561   115531341.555        2448.700          41.000  
G25  28941869.991   152090744.390       -4239.723          43.000    28941870.480   118512330.993       -3303.656          42.000  
E25  29834804.238   156783248.819       -2968.939          48.000    29834804.355   120132772.448       -2274.914          50.000  
G31  27618661.063   145136966.168       -2857.306          38.000    27618656.639   113093809.380       -2226.884          37.000  
E14  35103622.222   184470925.773       -1004.411          39.000    35103622.404   141347907.376        -769.662          44.000  
> 2024 04 15 06 04 00.0160000  0 27                     
S33  44459135.181   233634498.140        -671.202          43.000  
E02  27943474.441   146843972.873        -593.557          47.000    27943474.220   112516843.934        -454.822          52.000  
G28  29002709.067   152410247.364       -3689.742          36.000    29002708.227   118761144.459       -2875.006          38.000  
E36  28337665.262   148915788.406       -1679.513          49.000    28337665.677   114104519.834       -1286.839          52.000  
G26  25171034.234   132274715.492         279.043          48.000    25171032.293   103071165.806         217.447          45.000  
R20  24764789.949   132428529.262       -1086.739          40.000    24764787.434   103000056.323        -845.310          44.000  
R10  24363530.797   129871404.681        -475.419          48.000                                                                  
R09  25216790.047   134656241.551       -3921.743          52.000    25216786.535   104732893.257       -3050.140          51.000  
R05  28345319.686   151521992.343        2744.048          48.000    28345315.659   117850391.032        2134.251          45.000  
R04  27622953.984   147919598.283         944.970          46.000    27622947.195   115048650.235         734.952          42.000  
G16  27477798.028   144396815.553        2318.569          45.000                                                                  
E11  30509923.227   160331141.095       -3148.342          35.000    30509919.683   122851363.270       -2412.510          42.000  
G18  25502597.347   134017427.399       -2244.006          48.000    25502592.116   104429279.368       -1748.553          49.000  
G29  27812708.746   146157177.195       -2608.588          42.000    27812704.144   113888981.044       -2033.100          36.000  
S31  43504718.531   228618968.141        -670.950          44.000  
E30  30680754.252   161228562.563        1698.243          42.000    30680753.949   123538663.198        1301.100          46.000  
R11  27388593.678   146356312.819        2965.920          36.000    27388589.007                        2306.675          31.000  
R21  27291514.298   146042681.699        1525.271          50.000    27291511.092   113588580.632        1186.376          46.000  
R19  27347067.106   146288732.343       -3576.063          42.000    27347062.663   113779729.256       -2781.574          42.000  
G23  26111409.546   137216522.319        1655.209          46.000    26111406.392   106921995.122        1289.917          48.000  
E34  29216934.012   153536235.428         704.298          46.000    29216937.147   117644795.453         539.607          53.000  
G27  28893447.131   151836031.713        1667.192          42.000    28893445.441   118313878.977        1299.132          38.000  
G10  28195995.983   148171048.531        3139.709          44.000    28195995.743   115457916.880        2446.514          41.000  
G25  28966086.716   152218003.399       -4243.985          41.000    28966087.239   118611493.747       -3307.034          40.000  
E25  29851776.253   156872437.597       -2976.987          48.000    29851776.563   120201111.886       -2281.047          50.000  
G31  27635001.393   145222839.478       -2867.456          38.000    27634997.930   113160723.578       -2234.279          39.000  
E14  35109334.251   184500944.961        -996.697          38.000    35109334.663   141370909.086        -763.554          43.000  
> 2024 04 15 06 04 30.0160000  0 27                     
S33  44462968.160   233654640.112        -671.462          43.000  
E02  27946898.536   146861967.161        -605.854          47.000    27946898.586   112530631.767        -464.190          52.000  
G28  29023769.582   152520922.240       -3688.631          36.000    29023769.822   118847384.405       -2874.347          39.000  
E36  28347274.396   148966285.775       -1687.011          48.000    28347274.976   114143212.630       -1292.655          52.000  
G26  25169492.612   132266610.859         261.254          49.000    25169489.883   103064850.500         203.450          45.000  
R20  24770914.264   132461282.072       -1096.631          40.000    24770912.221   103025530.749        -852.994          44.000  
R10  24366284.529   129886083.683        -503.000          48.000                                                                  
R09  25238870.657   134774150.491       -3938.875          52.000    25238867.104   104824600.159       -3063.514          51.000  
R05  28329926.269   151439706.997        2741.669          50.000    28329922.750   117786391.357        2132.496          44.000  
R04  27617714.225   147891544.442         925.522          47.000    27617706.498   115026830.539         719.803          42.000  
G16  27464580.483   144327360.519        2311.791          44.000                                                                  
E11  30527898.216   160425601.388       -3148.589          35.000    30527894.734   122923741.920       -2412.360          41.000  
G18  25515441.334   134084923.241       -2255.615          48.000    25515436.484   104481873.528       -1757.568          49.000  
G29  27827612.070   146235486.975       -2612.051          45.000    27827605.956   113950001.693       -2035.542          37.000  
S31  43508550.247   228639104.313        -671.274          44.000  
E30  30671074.943   161177695.845        1692.992          42.000    30671074.329   123499687.409        1297.272          46.000  
R11  27371980.865   146267526.879        2953.877          33.000    27371976.639   113763760.869        2296.757          32.000  
R21  27282987.768   145997054.847        1516.622          51.000    27282983.370   113553093.203        1179.573          44.000  
R19  27367118.063   146395993.653       -3574.800          42.000    27367112.440   113863154.733       -2780.259          39.000  
G23  26102003.655   137167092.084        1640.072          47.000    26102000.037   106883478.106        1277.999          48.000  
E34  29212939.825   153515242.703         695.335          46.000    29212942.305   117628710.145         532.816          53.000  
G27  28883926.644   151786003.253        1668.169          42.000    28883924.490   118274895.785        1299.841          36.000  
G10  28178080.424   148076902.065        3136.584          44.000    28178080.298   115384556.180        2444.043          41.000  
G25  28990329.070   152345400.138       -4248.450          37.000    28990330.810   118710763.843       -3310.704          37.000  
E25  29868794.891   156961869.785       -2985.138          48.000    29868795.456   120269637.822       -2287.327          50.000  
G31  27651398.850   145309014.645       -2877.532          39.000    27651397.738   113227873.022       -2242.296          41.000  
E14  35115003.062   184530733.618        -988.717          37.000    35115003.418   141393734.141        -757.825          43.000  
> 2024 04 15 06 05 00.0160000  0 27                     
S33  44466800.583   233674779.911        -671.114          43.000  
E02  27950392.539   146880326.758        -618.032          47.000    27950392.388   112544699.515        -473.614          53.000  
G28  29044825.468   152631569.679       -3688.155          37.000    29044825.293   118933603.000       -2873.735          40.000  
E36  28356925.335   149017003.922       -1694.240          48.000    28356926.211   114182074.605       -1298.180          52.000  
G26  25168052.062   132259040.947         243.432          49.000    25168049.065   103058951.865         189.603          45.000  
R20  24777094.835   132494328.959       -1106.365          40.000    24777091.936   103051233.890        -860.581          44.000  
R10  24369192.980   129901584.995        -530.426          49.000                                                                  
R09  25261047.146   134892570.211       -3955.683          52.000    25261041.885   104916704.341       -3076.692          50.000  
R05  28314547.583   151357496.593        2739.038          50.000    28314542.588   117722450.004        2130.488          43.000  
R04  27612585.284   147864073.696         905.941          47.000    27612577.473   115005464.427         704.657          43.000  
G16  27451402.628   144258110.963        2304.949          44.000                                                                  
E11  30545875.118   160520061.181       -3148.890          36.000    30545870.286   122996120.221       -2412.764          42.000  
G18  25528350.642   134152760.041       -2266.895          48.000    25528345.867   104534733.388       -1766.382          50.000  
G29  27842531.592   146313898.952       -2615.539          42.000    27842527.860   114011101.877       -2037.724          37.000  
S31  43512381.677   228659238.978        -671.190          44.000  
E30  30661425.030   161126982.218        1687.800          43.000    30661423.945   123460828.952        1293.302          46.000  
R11  27355446.651                1       2939.985          28.000    27355432.778   113695008.289        2286.621          32.000  
R21  27274508.601   145951682.178        1508.243          50.000    27274504.205   113517803.434        1173.270          45.000  
R19  27387160.840   146503207.945       -3573.088          41.000    27387154.475   113946543.653       -2779.003          40.000  
G23  26092683.236   137118115.999        1625.085          46.000    26092679.574   106845314.958        1266.095          48.000  
E34  29208995.477   153494514.030         686.628          47.000    29208997.839   117612827.176         526.113          53.000  
G27  28874400.015   151735941.876        1669.360          42.000    28874397.940   118235886.952        1300.719          36.000  
G10  28160181.551   147982841.495        3134.016          45.000    28160181.430   115311262.402        2441.912          41.000  
G25  29014596.580                       -4252.775          33.000    29014599.582   118810140.142       -3313.969          33.000  
E25  29885859.206   157051545.115       -2993.179          48.000    29885860.332   120338350.058       -2293.568          51.000  
G31  27667855.123   145395488.955       -2887.453          40.000    27667853.529   113295255.487       -2249.614          41.000  
E14  35120629.570   184560293.227        -981.338          38.000    35120628.445   141416383.715        -752.083          43.000  
> 2024 04 15 06 05 30.0160000  0 27                     
S33  44470631.774   233694912.858        -671.109          43.000  
E02  27953955.479   146899046.190        -630.241          48.000    27953954.711   112559042.969        -482.892          53.000  
G28  29065876.718   152742180.318       -3686.438          40.000    29065873.372   119019792.916       -2872.738          39.000  
E36  28366617.000   149067935.332       -1701.520          48.000    28366618.151   114221099.973       -1303.729          52.000  
G26  25166712.492   132252001.114         225.690          50.000    25166710.154   103053466.281         175.701          45.000  
R20  24783328.406   132527662.239       -1115.916          41.000    24783325.459   103077159.768        -868.062          43.000  
R10  24372254.027   129917903.032        -557.742          49.000                                                                  
R09  25283316.618   135011490.739       -3972.566          52.000    25283312.573   105009198.018       -3089.821          50.000  
R05  28299180.743   151275359.063        2736.370          48.000    28299177.834   117658565.312        2128.221          44.000  
R04  27607562.420   147837183.487         886.377          47.000    27607554.751   114984549.857         689.380          42.000  
G16  27438263.628   144189063.355        2297.635          43.000                                                                  
E11  30563848.486   160614513.226       -3148.644          36.000    30563843.640   123068492.545       -2412.517          41.000  
G18  25541322.527   134220929.423       -2278.192          47.000    25541318.255   104587852.387       -1775.104          50.000  
G29  27857471.770   146392406.913       -2618.933          43.000    27857467.218   114072276.935       -2040.502          37.000  
S31  43516212.156   228679367.160        -670.832          44.000  
E30  30651802.356   161076417.150        1682.857          43.000    30651801.699   123422084.337        1289.515          46.000  
R11  27338964.748   146091158.0161       2927.292          34.000    27338959.812   113626557.001        2276.371          34.000  
R21  27266075.408   145906557.067        1499.755          50.000    27266071.611   113482706.262        1166.583          46.000  
R19  27407193.672   146610367.338       -3571.356          42.000    27407187.363   114029889.838       -2777.475          41.000  
G23  26083449.295   137069590.639        1609.825          46.000    26083445.715   106807503.004        1254.214          48.000  
E34  29205100.709   153474043.078         677.824          47.000    29205102.313   117597141.673         519.422          53.000  
G27  28864866.152   151685841.498        1670.644          42.000    28864863.790   118196847.700        1301.494          36.000  
G10  28142298.329   147888863.809        3130.894          45.000    28142297.435   115238033.125        2439.722          40.000  
G25  29038890.693                       -4257.797          29.000    29038892.936                       -3317.609          31.000  
E25  29902968.497   157141456.458       -3001.152          48.000    29902970.170   120407243.137       -2299.599          51.000  
G31  27684366.282   145482253.201       -2897.241          42.000    27684363.985   113362863.893       -2257.263          42.000  
E14  35126209.351   184589618.391        -973.843          37.000    35126208.832   141438853.657        -746.222          43.000  
> 2024 04 15 06 06 00.0160000  0 27                     
S33  44474463.035   233715047.027        -671.605          43.000  
E02  27957587.599   146918134.635        -642.616          48.000    27957587.267   112573669.178        -492.399          53.000  
G28  29086919.271   152852759.932       -3686.139          39.000    29086917.136   119105958.601       -2871.842          39.000  
E36  28376350.272   149119087.063       -1709.045          48.000    28376351.858   114260294.175       -1309.541          52.000  
G26  25165476.147   132245501.360         207.381          50.000    25165473.698   103048401.521         161.513          45.000  
R20  24789616.581   132561288.770       -1126.059          41.000    24789614.023   103103313.710        -875.765          43.000  
R10  24375469.712   129935047.178        -585.449          48.000                                                                  
R09  25305681.244   135130916.913       -3989.479          52.000    25305677.582   105102085.002       -3102.931          51.000  
R05  28283831.196   151193308.055        2733.281          47.000    28283827.957   117594747.962        2125.804          45.000  
R04  27602651.324   147810885.430         866.419          45.000    27602644.385   114964095.829         673.860          44.000  
G16  27425166.051   144120228.861        2290.778          43.000                                                                  
E11  30581823.409   160708964.898       -3148.469          38.000    30581816.973   123140864.601       -2412.546          40.000  
G18  25554359.257   134289437.684       -2289.502          47.000    25554355.054   104641235.458       -1784.009          50.000  
G29  27872431.139   146471019.969       -2622.501          43.000    27872426.405   114133533.856       -2043.146          37.000  
S31  43520042.306   228699495.932        -671.232          44.000  
E30  30642210.148   161026010.788        1677.297          43.000    30642209.728   123383461.318        1285.187          46.000  
R11  27322572.738   146003549.265        2913.066          38.000    27322562.664   113558416.909        2265.565          35.000  
R21  27257691.525   145861687.727        1491.016          50.000    27257687.033   113447808.032        1159.670          47.000  
R19  27427217.337   146717479.010       -3569.871          41.000    27427211.102   114113198.884       -2776.415          41.000  
G23  26074302.449   137021527.119        1594.081          46.000    26074299.376   106770050.964        1242.275          48.000  
E34  29201256.475   153453838.104         668.841          48.000    29201257.274   117581659.982         512.438          53.000  
G27  28855327.027   151635710.684        1671.260          43.000    28855325.605   118157784.772        1302.150          37.000  
G10  28124432.957   147794980.579        3127.690          45.000    28124432.229   115164877.488        2437.064          41.000  
E25  29920124.992   157231611.376       -3009.440          48.000    29920125.887   120476322.862       -2305.849          51.000  
G31  27700933.595   145569313.031       -2907.133          42.000    27700930.179   113430702.642       -2265.283          41.000  
E14  35131745.933   184618718.467        -966.248          36.000    35131746.435   141461151.127        -740.469          43.000  
G25                                                                  29063211.643                       -3321.524          26.000  
> 2024 04 15 06 06 30.0160000  0 27                     
S33  44478293.789   233735178.203        -670.926          43.000  
E02  27961289.290   146937587.556        -654.524          47.000    27961288.989   112588574.662        -501.547          53.000  
G28  29107954.100   152963300.877       -3683.657          37.000    29107953.211   119192094.349       -2870.788          41.000  
E36  28386124.787   149170452.552       -1715.618          47.000    28386126.297   114299652.154       -1314.646          52.000  
G26  25164341.599   132239537.877         189.852          49.000    25164339.309   103043754.648         147.829          46.000  
R20  24795958.680   132595200.600       -1135.420          41.000    24795955.383   103129689.599        -882.852          43.000  
R10  24378840.342   129953012.174        -612.553          48.000                                                                  
R09  25328139.164   135250839.393       -4005.845          52.000    25328134.984   105195357.990       -3115.579          50.000  
R05  28268497.660   151111342.339        2730.551          46.000    28268493.947   117530996.961        2123.808          46.000  
R04  27597849.297   147785177.517         846.958          43.000    27597844.600   114944100.786         658.517          44.000  
G16  27412107.585   144051604.705        2283.835          44.000                                                                  
E11  30599795.646   160803409.844       -3147.904          38.000    30599789.376   123213231.498       -2411.920          40.000  
G18  25567459.306   134358277.453       -2300.281          48.000    25567454.750   104694876.861       -1792.487          50.000  
G29  27887410.998   146549733.092       -2625.412          42.000    27887404.129   114194868.779       -2046.313          36.000  
S31  43523872.182   228719621.529        -670.765          44.000  
E30  30632646.855   160975759.520        1672.339          43.000    30632647.053   123344957.144        1281.313          46.000  
R11  27306253.968   145916339.060        2900.544          37.000    27306243.737   113490586.749        2255.779          41.000  
R21  27249353.966   145817068.336        1483.074          51.000    27249349.127   113413104.223        1153.384          46.000  
R19  27447231.261   146824536.826       -3567.583          41.000    27447225.255   114196466.061       -2774.674          41.000  
G23  26065244.979   136973922.966        1579.077          48.000    26065240.709   106732956.869        1230.390          48.000  
E34  29197459.811   153433893.688         660.354          47.000    29197462.093   117566377.950         506.038          53.000  
G27  28845781.582   151585544.356        1672.523          43.000    28845779.212   118118694.182        1303.329          36.000  
G10  28106584.826   147701189.775        3124.702          46.000    28106584.651   115091793.883        2434.972          41.000  
E25  29937326.713   157322003.710       -3017.111          48.000    29937327.041   120545584.509       -2311.810          51.000  
G31  27717555.138   145656660.030       -2916.513          43.000    27717552.437   113498765.204       -2272.694          41.000  
E14  35137240.664   184647589.046        -958.756          37.000    35137240.187   141483272.735        -734.677          43.000  
G25                                                                  29087548.499                3      -3321.925          23.000  
> 2024 04 15 06 07 00.0160000  0 27                     
S33  44482123.753   233755305.200        -670.815          43.000  
E02  27965060.503   146957406.820        -666.474          47.000    27965060.375   112603760.857        -510.790          53.000  
G28  29128981.642   153073801.228       -3682.446          37.000    29128980.807   119278198.543       -2869.585          40.000  
E36  28395940.257   149222031.628       -1722.682          47.000    28395941.536   114339173.789       -1319.952          52.000  
G26  25163308.688   132234113.347         171.895          49.000    25163306.567   103039527.753         133.864          45.000  
R20  24802353.754   132629397.764       -1144.358          41.000    24802350.949   103156287.406        -890.167          44.000  
R10  24382365.485   129971799.639        -639.794          48.000                                                                  
R09  25350689.507   135371256.298       -4022.079          52.000    25350685.031   105289015.542       -3128.114          51.000  
R05  28253182.064   151029467.825        2727.783          47.000    28253178.026   117467316.854        2121.563          47.000  
R04  27593161.059   147760064.323         827.448          47.000    27593154.797   114924568.308         643.386          44.000  
G16  27399089.734   143983194.919        2276.795          44.000                                                                  
E11  30617766.311   160897848.185       -3148.040          37.000    30617760.438   123285593.332       -2411.815          40.000  
G18  25580622.227   134427447.754       -2311.023          48.000    25580617.189   104748775.809       -1800.824          50.000  
G29  27902408.062   146628547.686       -2628.626          41.000    27902400.942   114256282.702       -2048.184          36.000  
S31  43527701.007   228739743.430        -670.441          44.000  
E30  30623114.003   160925666.212        1667.269          42.000    30623114.578   123306573.985        1277.468          46.000  
R11  27290008.817   145829532.736        2886.704          37.000    27290003.229   113423070.804        2245.455          43.000  
R21  27241062.135   145772699.626        1474.922          49.000    27241056.781   113378595.340        1147.248          45.000  
R19  27467233.242   146931540.351       -3565.896          41.000    27467227.925   114279691.060       -2773.562          40.000  
G23  26056274.739   136926782.060        1563.924          48.000    26056269.468   106696223.734        1218.498          48.000  
E34  29193714.155   153414210.811         651.977          46.000    29193716.590   117551296.328         499.506          53.000  
G27  28836228.118   151535343.740        1674.189          44.000    28836224.638   118079576.882        1304.635          36.000  
G10  28088755.405   147607495.770        3121.699          46.000    28088754.576   115018785.668        2432.708          40.000  
E25  29954572.286   157412633.716       -3024.850          48.000    29954572.970   120615028.259       -2317.677          50.000  
G31  27734231.611   145744292.444       -2925.421          44.000    27734228.172   113567050.111       -2279.771          42.000  
E14  35142690.348   184676232.089        -950.582          37.000    35142690.734   141505220.029        -728.443          43.000  
G25                                                                  29111920.100                3      -3330.245          22.000  
> 2024 04 15 06 07 30.0160000  0 26                     
S33  44485952.682   233775427.532        -670.610          43.000  
E02  27968901.834   146977590.356        -678.841          47.000    27968901.025   112619226.157        -520.155          53.000  
G28  29149998.316   153184255.490       -3680.405          35.000    29149999.189   119364266.898       -2868.044          39.000  
E36  28405795.701   149273820.170       -1729.747          48.000    28405796.916   114378855.933       -1325.362          52.000  
G26  25162378.225   132229226.474         154.141          49.000    25162376.395   103035719.812         119.950          45.000  
R20  24808801.122   132663875.682       -1153.630          42.000    24808798.431   103183103.569        -897.292          43.000  
R10  24386043.369   129991407.656        -667.231          48.000                                                                  
R09  25373330.537   135492160.357       -4038.221          52.000    25373327.436   105383052.003       -3140.765          52.000  
R05  28237882.488   150947686.216        2724.475          48.000    28237879.827   117403708.921        2119.141          48.000  
R04  27588583.766   147735546.041         807.414          47.000    27588575.166   114905498.548         627.841          42.000  
G16  27386112.128   143914999.169        2269.805          45.000                                                                  
E11  30635736.102   160992276.136       -3147.852          37.000    30635729.836   123357947.180       -2411.636          41.000  
G18  25593846.297   134496943.686       -2321.802          47.000    25593842.139   104802928.477       -1809.247          50.000  
G29  27917426.251   146707461.084       -2632.013          41.000    27917418.300   114317773.640       -2051.174          35.000  
S31  43531529.200   228759860.359        -670.494          44.000  
E30  30613611.279   160875729.801        1661.864          42.000    30613611.962   123268311.038        1273.444          46.000  
R11  27273839.936   145743132.152        2873.398          38.000    27273835.294   113355870.322        2234.800          43.000  
R21  27232816.045   145728578.568        1466.626          48.000    27232812.416   113344279.109        1140.594          47.000  
R19  27487224.312   147038486.100       -3563.897          38.000    27487220.605   114362871.076       -2771.628          40.000  
G23  26047391.594   136880104.284        1548.274          47.000    26047387.276   106659851.465        1206.375          48.000  
E34  29190017.322   153394786.549         643.154          46.000    29190020.182   117536412.845         492.849          53.000  
G27  28826667.996   151485106.318        1675.250          44.000    28826665.174   118040430.911        1305.449          36.000  
G10  28070944.440   147513898.998        3118.186          45.000    28070943.003   114945853.218        2430.201          40.000  
E25  29971862.914   157503497.708       -3032.600          48.000    29971863.818   120684651.308       -2323.779          50.000  
G31  27750960.831   145832204.165       -2934.861          45.000    27750957.117   113635552.681       -2286.901          42.000  
E14  35148098.769   184704645.772        -943.226          39.000    35148097.959   141526991.525        -722.715          43.000  
> 2024 04 15 06 08 00.0160000  0 26                     
S33  44489780.194   233795540.362        -670.151          43.000  
E02  27972812.116   146998136.354        -690.610          48.000    27972810.703   112634969.186        -529.167          52.000  
G28  29171006.715   153294658.068       -3678.694          37.000    29171007.599   119450294.892       -2866.490          38.000  
E36  28415690.141   149325814.350       -1736.219          48.000    28415691.121   114418695.641       -1330.358          53.000  
G26  25161550.433   132224876.228         136.282          49.000    25161548.712   103032330.015         106.137          45.000  
R20  24815300.099   132698629.270       -1162.753          41.000    24815297.539   103210134.137        -904.473          44.000  
R10  24389875.679   130011833.748        -694.256          48.000                                                                  
R09  25396062.480   135613545.586       -4053.896          52.000    25396058.838   105477462.704       -3152.973          51.000  
R05  28222600.036   150865999.103        2721.452          48.000    28222598.503   117340174.510        2116.778          48.000  
R04  27584115.756   147711623.332         787.917          46.000    27584108.247   114886892.054         612.719          45.000  
G16  27373175.359   143847017.726        2262.742          45.000                                                                  
E11  30653701.638   161086690.017       -3146.721          37.000    30653696.608   123430290.280       -2411.108          41.000  
G18  25607131.597   134566760.595       -2332.294          47.000    25607127.596   104857331.272       -1817.304          50.000  
G29  27932459.388   146786471.132       -2634.946          38.000    27932454.124   114379339.909       -2053.306          38.000  
S31  43535355.759   228779969.140        -670.015          44.000  
E30  30604138.174   160825949.458        1656.872          42.000    30604139.332   123230167.676        1269.707          46.000  
R11  27257748.147   145657138.367        2859.542          38.000    27257741.277   113288986.267        2224.393          42.000  
R21  27224616.767   145684702.162        1458.668          48.000    27224613.340   113310153.083        1134.564          46.000  
R19  27507205.655   147145370.532       -3561.642          41.000    27507201.086   114446003.393       -2770.129          40.000  
G23  26038596.674   136833889.876        1532.921          46.000    26038593.627   106623840.268        1194.542          49.000  
E34  29186369.850   153375618.207         634.932          46.000    29186372.609   117521725.446         486.566          53.000  
G27  28817101.150   151434829.721        1676.769          44.000    28817099.359   118001254.382        1307.220          36.000  
G10  28053152.133   147420400.111        3115.438          45.000    28053150.114   114872997.100        2427.546          39.000  
E25  29989197.654   157594592.284       -3040.010          48.000    29989198.460   120754451.018       -2329.360          50.000  
G31  27767742.761   145920390.153       -2943.877          46.000    27767738.964   113704268.941       -2293.900          43.000  
E14  35153461.467   184732828.454        -935.192          40.000    35153461.361   141548586.045        -716.698          43.000  
> 2024 04 15 06 08 30.0160000  0 26                     
S33  44493605.811   233815643.409        -670.130          43.000  
E02  27976789.545   147019042.681        -703.003          47.000    27976788.934   112650988.326        -538.719          52.000  
G28  29192005.839   153405003.900       -3677.676          38.000    29192004.537   119536278.735       -2865.142          35.000  
E36  28425623.030   149378010.044       -1743.255          49.000    28425623.526   114458689.753       -1335.790          53.000  
G26  25160824.668   132221061.248         118.190          50.000    25160823.170   103029357.300          92.095          46.000  
R20  24821850.142   132733653.905       -1171.964          42.000    24821847.779   103237375.534        -911.786          44.000  
R10  24393859.323   130033075.160        -721.864          48.000                                                                  
R09  25418882.694   135735405.084       -4069.971          52.000    25418879.377   105572242.274       -3165.429          51.000  
R05  28207336.615   150784408.384        2717.944          47.000    28207335.140   117276715.129        2113.947          49.000  
R04  27579758.400   147688296.686         767.629          44.000    27579752.159   114868749.122         596.806          43.000  
G16  27360280.204   143779250.122        2255.229          45.000                                                                  
E11  30671663.861   161181086.099       -3146.138          36.000    30671658.918   123502619.752       -2410.624          40.000  
G18  25620478.376   134636893.620       -2343.182          48.000    25620473.389   104911980.381       -1825.842          49.000  
G29  27947513.123   146865575.178       -2638.357          42.000    27947507.043   114440979.426       -2055.892          38.000  
S31  43539180.092   228800066.825        -669.730          44.000  
E30  30594694.792   160776324.017        1651.492          43.000    30594695.903   123192143.037        1265.479          46.000  
R11  27241729.592   145571552.714        2845.774          36.000    27241723.781   113222419.733        2213.431          42.000  
R21  27216461.765   145641066.989        1450.282          48.000    27216459.265   113276214.738        1128.316          46.000  
R19  27527175.500   147252189.433       -3559.520          42.000    27527170.974   114529084.750       -2768.358          41.000  
G23  26029890.227   136788138.649        1517.135          46.000    26029886.944   106588189.984        1182.336          48.000  
E34  29182769.786   153356702.788         626.222          46.000    29182773.078   117507231.856         479.815          53.000  
G27  28807525.875   151384511.340        1677.620          44.000    28807524.319   117962045.338        1307.127          37.000  
G10  28035377.787   147326999.561        3111.501          45.000    28035375.855   114800217.612        2424.208          39.000  
E25  30006576.144   157685913.704       -3047.873          48.000    30006576.242   120824424.573       -2335.466          49.000  
G31  27784575.399   146008844.614       -2953.017          46.000    27784570.983   113773194.408       -2300.811          42.000  
E14  35158781.092   184760778.237        -928.248          41.000    35158779.709   141570002.055        -710.806          44.000  
> 2024 04 15 06 09 00.0160000  0 26                     
S33  44497429.632   233835739.414        -669.798          43.000  
E02  27980836.674   147040312.659        -714.990          46.000    27980836.497   112667286.094        -547.868          52.000  
G28  29212992.651   153515292.422       -3675.228          38.000    29212991.530   119622217.961       -2863.638          35.000  
E36  28435593.669   149430408.588       -1749.953          48.000    28435594.586   114498839.288       -1340.897          53.000  
G26  25160202.209   132217785.617         100.218          51.000    25160200.227   103026804.856          78.055          46.000  
R20  24828450.254   132768950.176       -1180.754          42.000    24828448.136   103264828.158        -918.425          43.000  
R10  24397997.902   130055135.075        -748.957          47.000                                                                  
R09  25441791.225   135857738.191       -4085.621          52.000    25441788.065   105667390.187       -3177.723          51.000  
R05  28192094.155   150702921.009        2714.452          48.000    28192090.850   117213336.111        2111.192          48.000  
R04  27575513.906   147665571.706         747.458          42.000    27575507.699   114851074.111         581.088          43.000  
G16  27347426.274   143711701.957        2247.849          45.000                                                                  
E11  30689621.460   161275466.042       -3145.479          34.000    30689619.249   123574936.809       -2410.126          41.000  
G18  25633884.244   134707343.181       -2353.528          48.000    25633879.563   104966876.151       -1833.917          49.000  
G29  27962585.214   146944776.440       -2641.593          41.000    27962580.320   114502694.728       -2058.262          39.000  
S31  43543003.155   228820157.040        -669.738          44.000  
E30  30585281.985   160726857.879        1646.087          43.000    30585282.624   123154240.449        1261.435          46.000  
R11  27225790.257   145486382.324        2831.710          39.000    27225784.937   113156176.096        2202.843          41.000  
R21  27208353.424   145597675.470        1442.353          48.000    27208350.244   113242465.874        1121.794          46.000  
R19  27547131.945   147358945.085       -3557.636          42.000    27547127.322   114612116.930       -2766.942          39.000  
G23  26021273.713   136742855.960        1501.577          46.000    26021270.333   106552904.797        1170.063          48.000  
E34  29179219.712   153338042.772         617.738          46.000    29179222.212   117492933.940         473.322          53.000  
G27  28797943.124   151334154.007        1679.309          43.000    28797941.757   117922805.914        1308.241          38.000  
G10  28017623.692   147233703.229        3108.222          45.000    28017621.523   114727519.288        2421.915          39.000  
E25  30023997.093   157777463.701       -3055.522          47.000    30023997.703   120894573.258       -2341.354          49.000  
G31  27801458.841   146097567.016       -2961.895          46.000    27801454.240   113842328.655       -2307.598          42.000  
E14  35164054.562   184788498.553        -920.030          39.000    35164054.609   141591242.322        -705.162          44.000  
> 2024 04 15 06 09 30.0160000  0 26                     
S33  44501253.147   233855831.204        -669.775          43.000  
E02  27984953.891   147061952.435        -727.526          46.000    27984954.367   112683867.214        -557.461          52.000  
G28  29233969.018   153625526.296       -3673.412          38.000    29233968.652   119708114.429       -2862.546          38.000  
E36  28445604.001   149483014.087       -1757.092          48.000    28445604.983   114539147.398       -1346.315          53.000  
G26  25159682.930   132215056.154          81.847          51.000    25159681.063   103024678.000          63.902          46.000  
R20  24835101.723   132804522.450       -1190.211          41.000    24835100.515   103292495.499        -925.767          43.000  
R10  24402292.065   130078019.021        -776.588          49.000                                                                  
R09  25464789.393   135980546.440       -4101.619          51.000    25464785.390   105762907.677       -3190.057          50.000  
R05  28176871.826   150621547.757        2710.592          48.000    28176868.567   117150045.866        2108.236          47.000  
R04  27571385.097   147643457.351         726.953          43.000    27571378.607   114833874.050         565.490          42.000  
G16  27334615.236   143644381.280        2240.176          44.000                                                                  
E11  30707580.455   161369834.292       -3145.352          35.000    30707576.457   123647244.955       -2410.165          40.000  
G18  25647351.550   134778112.683       -2364.325          49.000    25647346.108   105022021.215       -1842.358          49.000  
G29  27977675.299   147024080.744       -2645.002          41.000    27977671.128   114564490.225       -2061.094          38.000  
S31  43546825.990   228840244.939        -669.562          44.000  
E30  30575900.483   160677558.213        1640.419          44.000    30575901.241   123116465.396        1257.046          46.000  
R11  27209930.181   145401636.513        2817.508          40.000    27209925.500   113090262.701        2191.466          42.000  
R21  27200291.010   145554532.692        1433.906          49.000    27200287.856   113208910.484        1115.243          47.000  
R19  27567077.584   147465641.204       -3555.708          41.000    27567073.161   114695102.814       -2765.352          36.000  
G23  26012746.597   136698049.889        1485.411          47.000    26012743.976   106517991.034        1157.531          48.000  
E34  29175717.973   153319643.371         608.814          46.000    29175720.654   117478835.734         466.611          52.000  
G27  28788353.545   151283763.342        1680.434          43.000    28788353.020   117883540.486        1308.990          39.000  
G10  27999891.376   147140519.845        3104.370          45.000    27999889.217   114654908.955        2419.096          39.000  
E25  30041463.047   157869246.824       -3063.383          47.000    30041463.800   120964900.539       -2347.216          50.000  
G31  27818394.028   146186559.555       -2970.865          45.000    27818389.572   113911673.384       -2314.959          43.000  
E14  35169288.310   184815995.877        -912.686          39.000    35169287.445   141612311.682        -699.598          44.000  
> 2024 04 15 06 10 00.0160000  0 26                     
S33  44505077.406   233875927.268        -670.130          43.000  
E02  27989142.271   147083968.054        -740.266          45.000    27989143.815   112700736.325        -567.182          52.000  
G28  29254936.480   153735708.350       -3672.091          41.000    29254935.714   119793970.617       -2861.195          40.000  
E36  28455654.883   149535830.610       -1764.040          49.000    28455655.590   114579617.210       -1351.737          53.000  
G26  25159268.318   132212879.693          63.279          50.000    25159266.867   103022982.037          49.332          46.000  
R20  24841806.834   132840374.462       -1199.904          42.000    24841804.503   103320380.387        -932.994          43.000  
R10  24406741.525   130101732.887        -804.274          49.000                                                                  
R09  25487876.544   136103831.223       -4117.401          52.000    25487872.784   105858795.819       -3202.441          50.000  
R05  28161671.755   150540298.100        2706.144          47.000    28161669.141   117086851.722        2104.852          47.000  
R04  27567370.367   147621961.936         706.037          43.000    27567363.821   114817155.444         549.257          42.000  
G16  27321849.366   143577295.955        2232.232          44.000                                                                  
E11  30725535.227   161464195.179       -3145.329          35.000    30725533.531   123719547.462       -2410.103          41.000  
G18  25660880.307   134849205.358       -2375.110          49.000    25660875.506   105077418.131       -1850.806          50.000  
G29  27992787.490   147103493.529       -2649.125          41.000    27992782.447   114626370.354       -2064.208          38.000  
S31  43550649.029   228860335.285        -669.847          44.000  
E30  30566552.461   160628432.133        1634.591          44.000    30566552.738   123078823.354        1252.534          46.000  
R11  27194151.892   145317324.979        2803.019          40.000    27194147.557   113024687.091        2179.937          42.000  
R21  27192276.563   145511643.588        1425.438          50.000    27192272.726   113175552.414        1108.754          46.000  
R19  27587013.073   147572283.192       -3553.969          42.000    27587009.148   114778046.585       -2763.973          37.000  
G23  26004313.062   136653728.491        1469.310          47.000    26004309.439   106483454.909        1144.824          48.000  
E34  29172268.092   153301509.791         599.983          47.000    29172269.764   117464941.214         459.793          52.000  
G27  28778759.409   151233345.012        1680.981          43.000    28778758.569   117844253.512        1309.741          38.000  
G10  27982182.502   147047457.998        3100.070          46.000    27982180.940   114582393.362        2415.362          40.000  
E25  30058973.338   157961267.497       -3071.286          46.000    30058974.467   121035409.850       -2353.353          50.000  
G31  27835380.283   146275824.553       -2979.991          44.000    27835375.981   113981230.441       -2322.151          43.000  
E14  35174478.633   184843276.450        -905.869          38.000    35174478.940   141633214.953        -694.184          44.000  
> 2024 04 15 06 10 30.0160000  0 26                     
S33  44508902.649   233896028.752        -669.651          43.000  
E02  27993404.484   147106363.182        -752.462          46.000    27993405.372   112717896.223        -576.637          52.000  
G28  29275893.272   153845838.705       -3669.880          39.000    29275893.595   119879786.373       -2859.694          42.000  
E36  28465746.763   149588859.895       -1770.842          49.000    28465746.872   114620250.037       -1356.820          53.000  
G26  25158960.352   132211260.626          44.949          50.000    25158958.341   103021720.423          34.958          45.000  
R20  24848563.158   132876506.803       -1208.904          40.000    24848561.035   103348483.340        -940.081          43.000  
R10  24411345.863   130126279.878        -831.739          48.000                                                                  
R09  25511053.509   136227591.919       -4132.929          52.000    25511049.789   105955054.085       -3214.331          50.000  
R05  28146495.539   150459179.700        2702.157          46.000    28146494.354   117023759.656        2101.742          47.000  
R04  27563472.399   147601091.834         685.782          39.000    27563466.023   114800923.166         533.229          41.000  
G16  27309128.587   143510451.804        2224.471          44.000                                                                  
E11  30743489.826   161558550.759       -3145.014          35.000    30743488.919   123791845.878       -2409.536          41.000  
G18  25674470.356   134920622.119       -2385.632          48.000    25674465.858   105133067.555       -1858.905          50.000  
G29  28007919.581   147183018.287       -2652.029          38.000    28007915.570   114688337.711       -2066.814          38.000  
S31  43554473.227   228880431.932        -669.517          44.000  
E30  30557238.035   160579484.293        1628.969          44.000    30557238.444   123041317.898        1248.062          47.000  
R11  27178456.087   145233454.950        2788.793          41.000    27178451.989   112959454.819        2168.954          43.000  
R21  27184309.576   145469010.943        1417.251          50.000    27184305.761   113142393.796        1102.375          47.000  
R19  27606938.813   147678872.250       -3551.842          41.000    27606934.172                       -2762.363          31.000  
G23  25995972.890   136609897.405        1453.189          47.000    25995969.307   106449300.841        1132.441          48.000  
E34  29168867.795   153283644.851         591.378          47.000    29168870.285   117451252.559         453.061          52.000  
G27  28769160.312   151182902.214        1682.178          43.000    28769158.800   117804947.484        1310.864          37.000  
G10  27964498.009   146954523.952        3096.188          45.000    27964497.035   114509977.369        2412.524          40.000  
E25  30076529.251   158053527.837       -3079.012          45.000    30076530.928   121106102.807       -2359.159          49.000  
G31  27852418.451   146365362.223       -2988.833          44.000    27852414.651   114050999.954       -2328.700          42.000  
E14  35179630.028   184870344.177        -898.432          39.000    35179629.202   141653955.124        -688.290          43.000  
> 2024 04 15 06 11 00.0160000  0 26                     
S33  44512727.190   233916129.083        -669.530          43.000  
E02  27997738.019   147129132.316        -764.882          46.000    27997738.251   112735342.687        -586.010          52.000  
G28  29296838.136   153955908.668       -3667.737          41.000    29296839.403   119965555.023       -2857.811          42.000  
E36  28475876.778   149642094.413       -1777.581          49.000    28475877.168   114661040.138       -1362.061          53.000  
G26  25158757.422   132210194.140          26.670          50.000    25158755.045   103020889.376          20.792          45.000  
R20  24855371.406   132912911.560       -1217.596          41.000    24855369.365   103376798.183        -947.053          44.000  
R10  24416105.300   130151653.715        -859.241          47.000                                                                  
R09  25534317.173   136351818.523       -4148.230          52.000    25534312.985   106051674.766       -3226.422          49.000  
R05  28131345.058   150378191.234        2697.728          46.000    28131344.324   116960768.666        2098.272          48.000  
R04  27559693.066   147580843.789         664.769          41.000    27559685.690   114785174.656         517.245          43.000  
G16  27296453.889   143443845.460        2216.705          43.000                                                                  
E11  30761443.463   161652893.833       -3144.030          37.000    30761442.038   123864134.740       -2409.119          42.000  
G18  25688120.652   134992354.697       -2396.033          48.000    25688115.937   105188963.086       -1867.035          50.000  
G29  28023072.628   147262649.334       -2655.748          39.000    28023067.854   114750387.868       -2069.458          37.000  
S31  43558297.494   228900528.512        -669.354          44.000  
E30  30547956.919   160530710.306        1623.349          45.000    30547957.285   123003945.636        1243.816          47.000  
R11  27162843.983   145150024.128        2773.929          43.000    27162839.901   112894564.207        2157.648          44.000  
R21  27176389.023   145426627.993        1408.993          49.000    27176385.890   113109429.377        1095.743          47.000  
R19  27626853.393   147785401.722       -3549.775          41.000    27626847.326   114943805.568       -2760.523          34.000  
G23  25987724.714   136566553.045        1437.003          47.000    25987720.590   106415526.041        1119.771          48.000  
E34  29165518.024   153266042.173         582.774          47.000    29165520.441   117437764.831         446.417          52.000  
G27  28759555.586   151132429.035        1683.307          43.000    28759552.619   117765617.755        1311.371          37.000  
G10  27946836.404   146861714.792        3091.839          45.000    27946835.431   114437658.648        2409.519          40.000  
E25  30094131.097   158146020.702       -3086.535          46.000    30094131.743   121176973.936       -2365.064          49.000  
G31  27869507.201   146455163.342       -2997.299          45.000    27869502.904   114120974.754       -2335.459          42.000  
E14  35184738.999   184897193.796        -891.021          39.000    35184737.892   141674528.201        -682.766          42.000  
> 2024 04 15 06 11 30.0160000  0 26                     
S33  44516550.632   233936221.271        -669.680          43.000  
E02  28002141.183   147152267.098        -777.419          47.000    28002140.601   112753069.336        -595.638          52.000  
G28  29317770.020   154065906.439       -3665.692          41.000    29317771.552   120051267.374       -2856.013          42.000  
E36  28486044.068   149695523.898       -1784.353          49.000    28486044.417   114701979.622       -1367.227          53.000  
G26  25158658.204   132209672.562           8.186          50.000    25158655.814   103020482.957           6.237          45.000  
R20  24862228.399   132949577.680       -1226.405          41.000    24862226.539   103405316.286        -954.063          44.000  
R10  24421019.503   130177845.399        -886.727          48.000                                                                  
R09  25557665.323   136476497.955       -4163.477          52.000    25557662.603   106148647.612       -3238.226          51.000  
R05  28116218.306   150297327.566        2693.228          47.000    28116216.506   116897874.753        2094.698          47.000  
R04  27556025.824   147561211.444         644.145          42.000    27556020.425   114769905.080         501.001          45.000  
G16  27283823.253   143377470.616        2208.671          43.000                                                                  
E11  30779392.588   161747214.491       -3143.709          37.000    30779390.097   123936406.411       -2408.451          41.000  
G18  25701828.778   135064392.002       -2406.464          48.000    25701824.086   105245096.046       -1875.134          50.000  
G29  28038245.401   147342378.034       -2659.235          39.000    28038239.331   114812514.092       -2071.999          36.000  
S31  43562119.965   228920615.684        -669.561          44.000  
E30  30538707.020   160482102.872        1617.256          45.000    30538707.697   122966700.992        1239.307          47.000  
R11  27147310.755   145067027.783        2759.260          41.000    27147308.542   112830011.522        2145.829          46.000  
R21  27168513.603   145384485.241        1400.758          50.000    27168510.611   113076651.779        1089.429          47.000  
R19  27646754.470   147891861.268       -3547.766          40.000    27646751.583   115026607.453       -2758.826          32.000  
G23  25979567.508   136523689.053        1420.657          46.000    25979563.025   106382125.558        1107.059          47.000  
E34  29162216.694   153248692.573         573.988          47.000    29162218.532   117424471.015         439.802          52.000  
G27  28749943.698   151081916.726        1684.387          43.000    28749940.321   117726257.546        1312.506          37.000  
G10  27929198.029   146769024.771        3087.594          46.000    27929197.107   114365432.780        2405.928          41.000  
E25  30111774.110   158238736.179       -3094.497          46.000    30111774.649   121248015.639       -2371.028          49.000  
G31  27886643.150   146545216.170       -3005.937          45.000    27886640.186   114191145.703       -2342.151          42.000  
E14  35189804.449   184923817.269        -883.698          38.000    35189804.603   141694927.973        -677.251          42.000  
> 2024 04 15 06 12 00.0160000  0 26                     
S33  44520375.000   233956319.589        -669.893          43.000  
E02  28006616.823   147175782.004        -790.042          47.000    28006615.444   112771087.256        -605.370          52.000  
G28  29338690.833   154175843.299       -3663.546          42.000    29338692.332   120136932.266       -2854.303          41.000  
E36  28496250.754   149749160.902       -1791.035          49.000    28496251.206   114743078.122       -1372.417          53.000  
G26  25158665.155   132209711.123         -10.501          50.000    25158662.855   103020512.989          -8.200          45.000  
R20  24869136.553   132986517.241       -1235.753          42.000    24869134.237   103434047.027        -960.934          43.000  
R10  24426088.256   130204869.046        -914.343          47.000                                                                  
R09  25581099.921   136601640.355       -4178.906          50.000    25581097.403   106245980.550       -3250.287          51.000  
R05  28101117.702   150216608.111        2688.397          47.000    28101116.502   116835093.010        2090.885          47.000  
R04  27552479.300   147542212.128         623.067          42.000    27552472.278   114755127.871         484.739          43.000  
G16  27271240.204   143311343.482        2200.381          45.000                                                                  
E11  30797340.904   161841525.680       -3143.222          39.000    30797336.752   124008670.828       -2408.347          41.000  
G18  25715596.711   135136745.759       -2416.742          48.000    25715592.762   105301475.598       -1883.289          50.000  
G29  28053437.922   147422218.560       -2662.964          39.000    28053433.225   114874727.497       -2074.907          37.000  
S31  43565943.302   228940708.145        -669.712          44.000  
E30  30529491.650   160433677.570        1611.601          45.000    30529492.834   122929595.923        1234.702          47.000  
R11  27131862.077   144984483.869        2744.214          38.000    27131861.027   112765810.726        2134.228          46.000  
R21  27160685.616   145342596.127        1392.296          49.000    27160682.507   113044071.461        1082.780          47.000  
R19  27666645.827   147998263.945       -3545.645          41.000    27666642.632   115109365.149       -2757.529          36.000  
G23  25971504.405   136481321.852        1404.165          46.000    25971500.784   106349112.197        1094.120          47.000  
E34  29158965.908   153231609.674         565.251          47.000    29158967.843   117411381.551         433.083          52.000  
G27  28740326.663   151031379.380        1685.089          43.000    28740323.596   117686877.875        1312.939          38.000  
G10  27911586.051   146676471.085        3082.875          47.000    27911584.488   114293313.150        2402.213          42.000  
E25  30129461.451   158331687.168       -3102.150          46.000    30129462.475   121319237.813       -2376.926          48.000  
G31  27903829.104   146635531.426       -3014.526          44.000    27903826.884   114261521.145       -2349.133          43.000  
E14  35194831.006   184950229.311        -876.221          39.000    35194830.803   141715165.806        -671.817          43.000  
> 2024 04 15 06 12 30.0160000  0 26                     
S33  44524199.938   233976418.701        -670.410          42.000  
E02  28011163.190   147199674.734        -803.036          47.000    28011162.225   112789394.687        -615.280          52.000  
G28  29359598.451   154285713.718       -3661.552          41.000    29359600.366   120222545.391       -2853.064          42.000  
E36  28506496.138   149803001.196       -1798.345          49.000    28506496.688   114784332.385       -1377.921          52.000  
G26  25158779.491   132210308.174         -29.442          51.000    25158776.788   103020978.224         -23.104          45.000  
R20  24876095.138   133023725.498       -1245.085          41.000    24876091.595   103462986.809        -968.239          42.000  
R10  24431312.645   130232721.590        -942.588          46.000                                                                  
R09  25604621.065   136727238.932       -4194.403          51.000    25604617.938   106343668.251       -3262.317          51.000  
R05  28086045.611   150136033.842        2683.103          49.000    28086042.551   116772424.133        2086.807          46.000  
R04  27549048.985   147523845.655         601.305          41.000    27549040.932   114740842.872         467.922          40.000  
G16  27258703.508   143245463.985        2191.501          45.000                                                                  
E11  30815285.931   161935823.475       -3143.301          39.000    30815281.044   124080924.978       -2408.406          41.000  
G18  25729424.568   135209410.937       -2427.527          47.000    25729420.247   105358097.817       -1891.632          50.000  
G29  28068650.540   147502168.143       -2667.205          38.000    28068647.735   114937025.842       -2078.332          36.000  
S31  43569767.114   228960802.794        -670.017          44.000  
E30  30520310.659   160385433.270        1604.860          45.000    30520312.054   122892629.521        1229.702          47.000  
R11  27116501.017   144902393.627        2728.473          41.000    27116498.720   112701962.782        2122.130          46.000  
R21  27152902.647   145300957.400        1383.541          48.000    27152900.624   113011685.865        1076.112          46.000  
R19  27686525.503   148104605.869       -3544.050          41.000    27686522.672   115192075.507       -2756.493          34.000  
G23  25963537.483   136439451.103        1387.148          46.000    25963533.454   106316485.673        1080.708          48.000  
E34  29155765.184   153214790.326         555.978          46.000    29155767.389   117398494.037         426.027          52.000  
G27  28730704.620   150980814.357        1685.590          43.000    28730701.791   117647476.576        1313.593          39.000  
G10  27893999.372   146584054.058        3077.991          46.000    27893997.662   114221299.978        2398.490          42.000  
E25  30147193.741   158424869.807       -3110.139          46.000    30147194.843   121390637.484       -2383.149          49.000  
G31  27921064.242   146726102.698       -3023.528          45.000    27921061.591   114332096.078       -2355.879          42.000  
E14  35199815.957   184976427.999        -870.045          38.000    35199816.745   141735240.109        -666.528          44.000  
> 2024 04 15 06 13 00.0160000  0 26                     
S33  44528024.526   233996518.744        -669.527          43.000  
E02  28015781.864   147223945.861        -815.043          48.000    28015780.816   112807992.046        -624.428          53.000  
G28  29380493.869   154395514.779       -3658.627          42.000    29380494.804   120308104.381       -2850.817          41.000  
E36  28516779.736   149857043.406       -1804.496          49.000    28516780.514   114825741.358       -1382.604          52.000  
G26  25158999.687   132211464.929         -47.625          51.000    25158996.669   103021879.579         -37.053          45.000  
R20  24883102.753   133061200.935       -1253.212          41.000    24883099.174   103492134.351        -974.754          42.000  
R10  24436694.273   130261402.661        -969.456          47.000                                                                  
R09  25628226.816   136853290.002       -4208.826          51.000    25628223.079   106441707.940       -3273.510          50.000  
R05  28071001.165   150055609.786        2678.578          49.000    28070997.403   116709872.130        2083.244          46.000  
R04  27545736.636   147506114.984         580.589          41.000    27545731.063   114727052.354         451.632          42.000  
G16  27246214.713   143179834.816        2183.878          45.000                                                                  
E11  30833227.420   162030106.929       -3142.418          40.000    30833222.652   124153168.144       -2407.687          40.000  
G18  25743310.759   135282385.367       -2437.170          47.000    25743306.552   105414961.027       -1899.121          49.000  
G29  28083885.934   147582226.950       -2669.830          41.000    28083882.539   114999409.303       -2080.523          35.000  
S31  43573591.373   228980899.240        -669.487          44.000  
E30  30511164.798   160337371.600        1599.377          45.000    30511165.960   122855803.059        1225.471          47.000  
R11  27101227.247   144820761.011        2713.743          44.000    27101222.754   112638470.789        2110.587          47.000  
R21  27145169.920   145259568.401        1375.890          49.000    27145165.805   112979494.556        1070.203          46.000  
R19  27706393.380   148210886.447       -3541.257          40.000    27706389.607   115274738.184       -2754.271          39.000  
G23  25955665.130   136398079.263        1370.884          47.000    25955660.837   106284247.885        1068.335          48.000  
E34  29152614.112   153198234.208         547.724          46.000    29152616.717   117385808.228         419.755          53.000  
G27  28721076.782   150930221.817        1687.439          42.000    28721074.973   117608053.884        1314.832          41.000  
G10  27876439.568   146491776.865        3073.904          46.000    27876438.464   114149395.780        2395.234          43.000  
E25  30164970.274   158518283.059       -3117.212          46.000    30164970.885   121462213.841       -2388.624          49.000  
G31  27938348.042   146816927.216       -3031.371          46.000    27938345.051   114402868.346       -2361.979          42.000  
E14  35204761.987   185002414.144        -862.529          38.000    35204761.467   141755151.561        -660.704          44.000  
> 2024 04 15 06 13 30.0160000  0 26                     
S33  44531849.506   234016616.901        -669.854          42.000  
E02  28020470.932   147248590.421        -827.721          47.000    28020470.682   112826875.541        -634.206          53.000  
G28  29401373.829   154505238.253       -3655.933          41.000    29401374.593   120393602.835       -2848.706          40.000  
E36  28527100.543   149911280.699       -1811.264          48.000    28527101.451   114867299.808       -1387.887          52.000  
G26  25159325.247   132213177.113         -66.347          51.000    25159322.297   103023213.761         -51.678          45.000  
R20  24890158.677   133098935.823       -1262.141          41.000    24890155.770   103521483.706        -981.777          42.000  
R10  24442228.807   130290906.420        -997.149          47.000                                                                  
R09  25651914.560   136979784.025       -4223.828          50.000    25651911.592   106540092.136       -3285.180          50.000  
R05  28055984.187   149975334.695        2673.328          49.000    28055980.929   116647436.026        2079.273          46.000  
R04  27542544.049   147489017.378         559.252          44.000    27542537.407   114713754.210         434.795          40.000  
G16  27233773.139   143114453.191        2175.474          44.000                                                                  
E11  30851165.876   162124369.533       -3141.617          40.000    30851160.395   124225395.315       -2407.158          41.000  
G18  25757255.155   135355661.420       -2447.449          48.000    25757250.297   105472059.260       -1907.221          49.000  
G29  28099141.627   147662389.907       -2674.077          42.000    28099136.438   115061873.904       -2083.110          34.000  
S31  43577415.126   229000992.653        -669.916          44.000  
E30  30502053.070   160289488.742        1593.082          45.000    30502053.712   122819113.589        1220.683          46.000  
R11  27086036.272   144739584.637        2698.221          44.000    27086032.190   112575333.593        2098.588          48.000  
R21  27137481.807   145218423.050        1367.452          50.000    27137476.830   112947492.731        1063.447          46.000  
R19  27726248.875   148317098.731       -3539.211          39.000    27726245.284   115357347.711       -2752.894          39.000  
G23  25947887.453   136357203.330        1354.131          47.000    25947883.093   106252396.547        1055.208          48.000  
E34  29149513.980   153181935.588         538.944          47.000    29149515.274   117373319.705         412.962          52.000  
G27  28711442.607   150879596.545        1688.239          42.000    28711442.274   117568605.668        1315.497          41.000  
G10  27858905.944   146399637.288        3068.962          46.000    27858905.859   114077598.831        2391.569          43.000  
E25  30182788.688   158611920.434       -3124.834          46.000    30182789.101   121533961.925       -2394.435          48.000  
G31  27955678.317   146907996.519       -3039.548          46.000    27955675.169   114473831.355       -2368.817          41.000  
E14  35209665.380   185028183.230        -855.567          35.000    35209665.200   141774896.665        -655.484          43.000  
> 2024 04 15 06 14 00.0160000  0 26                     
S33  44535673.750   234036714.437        -670.074          42.000  
E02  28025232.411   147273612.218        -840.187          47.000    28025232.445   112846048.071        -643.812          53.000  
G28  29422238.669   154614885.002       -3653.738          41.000    29422239.818   120479041.545       -2846.793          39.000  
E36  28537458.699   149965714.947       -1817.527          48.000    28537459.821   114909009.177       -1392.707          52.000  
G26  25159757.680   132215449.188         -85.027          50.000    25159754.867   103024984.195         -66.234          45.000  
R20  24897264.856   133136932.194       -1270.774          41.000    24897261.910   103551036.433        -988.146          43.000  
R10  24447918.877   130321236.156       -1024.600          47.000                                                                  
R09  25675686.485   137106719.890       -4238.434          51.000    25675683.009   106638819.980       -3296.478          51.000  
R05  28040996.191   149895216.480        2668.082          49.000    28040991.725   116585121.936        2075.185          45.000  
R04  27539471.593   147472558.898         538.070          45.000    27539462.099   114700953.090         418.632          40.000  
G16  27221379.304   143049324.691        2166.788          43.000                                                                  
E11  30869100.272   162218613.485       -3140.967          41.000    30869094.549   124297608.206       -2406.485          42.000  
G18  25771257.301   135429240.203       -2457.465          48.000    25771251.696   105529393.375       -1914.899          49.000  
G29  28114416.428   147742660.199       -2677.416          42.000    28114411.902   115124422.160       -2086.102          33.000  
S31  43581238.678   229021085.532        -669.802          44.000  
E30  30492976.760   160241789.666        1587.012          45.000    30492976.752   122782564.953        1216.105          46.000  
R11  27070930.956   144658871.544        2682.770          44.000    27070927.644   112512556.770        2086.688          48.000  
R21  27129839.001   145177524.128        1359.276          50.000    27129833.653   112915682.520        1057.237          46.000  
R19  27746091.379   148423245.764       -3537.073          37.000    27746086.668   115439906.519       -2750.955          39.000  
G23  25940203.464   136316828.996        1337.616          47.000    25940200.435   106220936.087        1042.237          49.000  
E34  29146462.229   153165897.389         530.417          47.000    29146463.278   117361030.742         406.370          52.000  
G27  28701803.717   150828942.023        1689.105          43.000    28701803.137   117529134.603        1316.156          42.000  
G10  27841400.677   146307641.782        3064.242          47.000    27841399.753   114005914.136        2387.787          43.000  
E25  30200650.359   158705784.127       -3132.417          46.000    30200650.728   121605883.439       -2400.171          47.000  
G31  27973054.713   146999310.642       -3047.657          46.000    27973051.678   114544985.129       -2374.857          41.000  
E14  35214527.801   185053739.302        -847.879          34.000    35214528.310   141794478.539        -649.903          44.000  
> 2024 04 15 06 14 30.0160000  0 26                     
S33  44539497.175   234056807.838        -669.608          43.000  
E02  28030064.964   147299007.586        -852.783          47.000    28030065.039   112865506.850        -653.418          53.000  
G28  29443088.064   154724448.037       -3650.610          39.000    29443089.796   120564415.095       -2844.690          41.000  
E36  28547853.667   150020340.637       -1824.027          48.000    28547854.765   114950865.235       -1397.658          52.000  
G26  25160296.000   132218278.109        -103.603          51.000    25160292.912   103027188.525         -80.648          45.000  
R20  24904417.608   133175183.086       -1279.577          40.000    24904415.224   103580787.111        -995.041          43.000  
R10  24453763.351   130352387.403       -1052.064          48.000                                                                  
R09  25699538.766   137234089.699       -4252.893          51.000    25699534.764   106737885.346       -3307.733          50.000  
R05  28026037.706   149815255.463        2662.701          49.000    28026034.060   116522930.095        2071.026          46.000  
R04  27536517.041   147456738.202         516.735          45.000    27536507.564   114688648.176         402.105          40.000  
G16  27209032.962   142984448.326        2158.275          43.000                                                                  
E11  30887028.694   162312833.708       -3140.288          40.000    30887024.060   124369802.903       -2406.256          42.000  
G18  25785314.567   135503115.322       -2467.478          47.000    25785310.196   105586958.418       -1922.799          49.000  
G29  28129711.389   147823034.494       -2680.760          41.000    28129706.470   115187051.458       -2089.301          35.000  
S31  43585061.355   229041174.579        -669.706          44.000  
E30  30483934.822   160194271.853        1580.885          45.000    30483934.227   122746155.212        1211.425          46.000  
R11  27055914.318   144578621.576        2667.321          46.000    27055909.670   112450140.155        2074.521          48.000  
R21  27122238.973   145136866.620        1351.162          47.000    27122235.847   112884060.100        1050.986          47.000  
R19  27765920.546   148529321.959       -3534.662          37.000    27765916.328   115522410.180       -2749.060          39.000  
G23  25932615.250   136276954.564        1320.748          46.000    25932612.232   106189865.131        1029.138          48.000  
E34  29143458.553   153150115.140         521.734          47.000    29143459.932   117348937.863         399.894          52.000  
G27  28692158.600   150778254.316        1690.167          42.000    28692156.975   117489637.725        1317.102          40.000  
G10  27823921.226   146215789.413        3059.306          47.000    27823920.097   113934340.988        2383.876          43.000  
E25  30218554.231   158799868.960       -3139.832          46.000    30218554.365   121677974.391       -2405.798          47.000  
G31  27990475.693   147090862.341       -3055.672          43.000    27990473.323   114616324.024       -2381.106          41.000  
E14  35219350.800   185079079.044        -840.958          35.000    35219350.676   141813894.664        -644.434          45.000  
