     3.00           OBSERVATION DATA    M: Mixed            RINEX VERSION / TYPE
CONVBIN 2.4.3                           20240415 111442 UTC PGM / RUN BY / DATE 
format: u-blox UBX                                          COMMENT             
log: /home/regis/git/gnsspwv/obsdata/VERT00CHL/2024-04-15/VECOMMENT             
{self.marker}                                               MARKER NAME         
                                                            MARKER NUMBER       
GEODETIC                                                    MARKER TYPE         
{self.observer}     {self.institution}                      OBSERVER / AGENCY   
UNKNOWN             UBLOX-ZED-F9P                           REC # / TYPE / VERS 
UNKNOWN             TWIVSP6037L                             ANT # / TYPE        
  1713381.0000 -5047934.0000 -3490983.0000                  APPROX POSITION XYZ 
        0.0000        0.0000        0.0000                  ANTENNA: DELTA H/E/N
G    8 C1C L1C D1C S1C C2L L2L D2L S2L                      SYS / # / OBS TYPES 
R    8 C1C L1C D1C S1C C2C L2C D2C S2C                      SYS / # / OBS TYPES 
E    8 C1C L1C D1C S1C C7Q L7Q D7Q S7Q                      SYS / # / OBS TYPES 
S    4 C1C L1C D1C S1C                                      SYS / # / OBS TYPES 
  2024    04    15    11    00   00.0020000     GPS         TIME OF FIRST OBS   
  2024    04    15    11    14   30.0020000     GPS         TIME OF LAST OBS    
                                                            END OF HEADER       
> 2024 04 15 11 00 00.0020000  0 23                     
S33  40373041.587   212161981.7251       -650.123          42.000  
E05  24886913.283   130781642.5651      -2320.533          39.000    24886915.919   100209325.4361      -1778.211          47.000  
G02  21733917.231   114212536.7961       1443.359          47.000                                                                  
R08  20879231.146   111807360.6721       2061.909          51.000    20879224.079    86961424.5911       1603.743          48.000  
R06  23068449.586   123097707.6851      -4547.770          32.000                                                                  
R22  20088558.450   107234062.5631         21.356          50.000    20088553.686    83404347.9531         16.637          51.000  
G28  25445514.745   133717086.4231       1473.979          43.000    25445513.275   104195106.8571       1148.351          42.000  
G08  21130389.589   111041108.8581      -2190.729          49.000    21130387.785    86525479.1271      -1707.025          47.000  
E08  26684272.109   140226781.1771       2259.301          46.000    26684271.956   107446486.9051       1731.237          50.000  
S31  39419711.497   207152143.8761       -650.874          44.000  
R21  22076711.762   118137243.2981      -3095.309          51.000    22076705.108    91884357.8371      -2407.409          44.000  
R23  22510775.601   120417367.8191       2677.027          49.000                                                                  
E15  24532298.180   128918177.2691        183.632          48.000    24532298.535    98781512.9071        140.837          52.000  
G03  23081449.889   121293834.7611       1304.655          47.000    23081446.987    94514676.7821       1016.907          42.000  
E34  25541371.803   134221035.9601      -1676.772          47.000    25541372.577   102844841.1161      -1284.765          51.000  
G27  22863468.401   120148294.3421      -3918.755          47.000    22863466.047    93622139.7371      -3053.483          45.000  
G10  24957627.830   131153309.0811      -3785.552          44.000    24957625.751   102197247.4791      -2950.631          36.000  
E03  24491575.387   128704129.2611        321.669          49.000    24491575.613    98617470.5571        246.560          52.000  
G21  20876627.029   109707430.6421       1025.050          49.000                                                                  
E27  27774516.084   145955953.1811      -2589.133          43.000    27774518.125   111836493.5541      -1984.072          47.000  
E18  27144949.863   142647713.8321      -1391.294          47.000                                                                  
G32  22791163.026   119768398.7731      -2679.297          45.000    22791160.637    93326032.4241      -2087.726          46.000  
E13  27595930.193   145017643.6711       1362.566          37.000    27595932.184   111117384.2741       1044.032          41.000  
> 2024 04 15 11 00 30.0020000  0 23                     
S33  40376751.969   212181480.624        -650.051          42.000  
E05  24900193.167   130851419.309       -2331.331          40.000    24900194.372   100262790.602       -1786.370          48.000  
G02  21725697.106   114169338.901        1436.021          47.000                                                                  
R08  20867733.454   111745793.320        2042.257          50.000    20867726.905    86913538.865        1588.432          49.000  
R06  23094035.561                       -4554.346          30.000                                                                  
R22  20088481.816   107233650.833           5.588          52.000    20088476.291    83404027.677           4.401          51.000  
G28  25437111.701   133672930.152        1469.513          43.000    25437110.816   104160699.405        1145.158          43.000  
G08  21142948.240   111107104.591       -2209.439          49.000    21142946.481    86576904.313       -1721.646          47.000  
E08  26671385.678   140159060.534        2255.011          46.000    26671385.072   107394597.004        1727.803          50.000  
S31  39423426.018   207171664.299        -650.961          44.000  
R21  22094102.798   118230308.455       -3109.446          50.000    22094096.965    91956741.753       -2418.423          45.000  
R23  22495767.690   120337088.869        2674.697          48.000                                                                  
E15  24531255.655   128912700.034         180.988          47.000    24531256.483    98777316.039         138.678          52.000  
G03  23074024.100   121254810.034        1296.559          47.000    23074021.133    94484267.841        1010.452          43.000  
E34  25550956.707   134271402.225       -1681.429          47.000    25550957.277   102883433.353       -1288.287          51.000  
G27  22885867.368   120266003.897       -3928.924          46.000    22885865.261    93713861.357       -3061.531          45.000  
G10  24979233.915   131266847.792       -3784.182          45.000    24979231.480   102285718.968       -2948.832          34.000  
E03  24489775.729   128694670.146         308.496          48.000    24489775.671    98610222.631         236.394          52.000  
G21  20870803.260   109676827.596        1014.636          49.000                                                                  
E27  27789313.040   146033713.554       -2595.190          42.000    27789315.389   111896076.168       -1988.389          47.000  
E18  27152887.423   142689426.541       -1389.997          47.000                                                                  
G32  22806506.958   119849029.997       -2696.542          44.000    22806505.311    93388861.826       -2101.225          46.000  
E13  27588147.030   144976739.552        1364.390          38.000    27588148.221   111086042.148        1045.296          41.000  
> 2024 04 15 11 01 00.0020000  0 23                     
S33  40380461.549   212200973.679        -649.761          42.000  
E05  24913534.458   130921519.871       -2342.006          41.000    24913534.197   100316503.937       -1794.476          49.000  
G02  21717518.309   114126359.865        1429.109          47.000                                                                  
R08  20856345.927   111684813.358        2022.910          50.000    20856339.237    86866110.000        1573.424          48.000  
R06  23119653.610                       -4559.725          29.000                                                                  
R22  20088493.263   107233710.871          -9.784          51.000    20088487.246    83404074.342          -7.559          51.000  
G28  25428734.110   133628906.178        1465.547          42.000    25428733.315   104126394.980        1141.889          43.000  
G08  21155612.936   111173657.817       -2227.688          49.000    21155611.219    86628763.933       -1735.836          47.000  
E08  26658523.982   140091472.323        2250.928          45.000    26658523.462   107342808.584        1724.753          50.000  
S31  39427140.007   207191180.877        -650.265          44.000  
R21  22111572.876   118323796.477       -3123.242          51.000    22111568.423    92029454.498       -2429.072          46.000  
R23  22480772.932   120256879.949        2672.409          47.000                                                                  
E15  24530229.175   128907306.181         178.554          48.000    24530230.229    98773183.052         136.809          52.000  
G03  23066643.917   121216029.761        1288.802          45.000    23066642.317    94454049.430        1004.106          44.000  
E34  25560567.145   134321906.643       -1685.590          47.000    25560567.691   102922131.461       -1291.634          51.000  
G27  22908324.112   120384014.031       -3938.596          46.000    22908321.471    93805817.200       -3068.929          45.000  
G10  25000828.585   131380331.468       -3781.666          44.000    25000826.977   102374147.587       -2946.599          33.000  
E03  24488050.170   128685605.612         295.747          48.000    24488050.783    98603277.058         226.595          52.000  
G21  20865038.385   109646531.973        1004.808          49.000                                                                  
E27  27804144.226   146111649.493       -2600.583          43.000    27804146.271   111955793.307       -1992.703          48.000  
E18  27160816.991   142731099.608       -1388.263          47.000                                                                  
G32  22821947.981   119930170.621       -2713.014          45.000    22821945.537    93452088.209       -2113.953          46.000  
E13  27580352.161   144935780.345        1366.324          38.000    27580353.935   111054657.796        1047.029          41.000  
> 2024 04 15 11 01 30.0020000  0 23                     
S33  40384169.856   212220460.958        -649.686          42.000  
E05  24926933.352   130991940.560       -2352.905          40.000    24926934.928   100370462.561       -1802.916          49.000  
G02  21709380.501   114083599.454        1421.358          47.000                                                                  
R08  20845068.033   111624420.630        2003.043          50.000    20845062.006    86819137.855        1557.877          49.000  
R06  23145291.781                1      -4564.524          28.000                                                                  
R22  20088591.289   107234242.739         -25.881          50.000    20088586.911    83404487.935         -20.140          51.000  
G28  25420382.730   133585015.227        1460.530          43.000    25420381.402   104092194.208        1138.276          43.000  
G08  21168382.429   111240764.787       -2246.425          48.000    21168381.385    86681055.033       -1750.447          47.000  
E08  26645687.338   140024016.013        2246.103          45.000    26645687.084   107291121.243        1721.097          50.000  
S31  39430852.602   207210689.394        -650.223          44.000  
R21  22129123.310   118417704.443       -3137.450          51.000    22129117.443    92102493.933       -2440.387          46.000  
R23  22465791.521   120176741.623        2669.941          48.000                                                                  
E15  24529218.350   128901994.313         175.546          48.000    24529219.423    98769112.888         134.458          52.000  
G03  23059310.061   121177491.564        1280.356          45.000    23059308.832    94424019.644         997.594          44.000  
E34  25570204.375   134372547.605       -1690.561          47.000    25570204.792   102960934.197       -1295.391          51.000  
G27  22930836.751   120502319.844       -3948.740          46.000    22930834.260    93898003.470       -3076.897          44.000  
G10  25022411.806   131493756.949       -3780.004          43.000    25022408.723   102462530.842       -2945.219          32.000  
E03  24486400.844   128676934.064         282.289          49.000    24486400.744    98596632.587         216.357          52.000  
G21  20859332.093   109616543.774         994.260          49.000                                                                  
E27  27819007.814   146189756.706       -2606.624          44.000    27819009.518   112015641.666       -1997.235          48.000  
E18  27168739.354   142772730.647       -1387.281          47.000                                                                  
G32  22837484.792   120011816.223       -2730.029          46.000    22837481.990    93515708.074       -2127.335          46.000  
E13  27572546.618   144894763.994        1368.269          38.000    27572548.723   111023229.706        1048.176          41.000  
> 2024 04 15 11 02 00.0020000  0 23                     
S33  40387878.214   212239947.268        -649.825          42.000  
E05  24940398.151   131062687.350       -2363.724          41.000    24940398.050   100424671.042       -1811.266          50.000  
G02  21701286.774   114041067.020        1413.708          46.000                                                                  
R08  20833903.191   111564625.060        1983.005          51.000    20833895.700    86772630.145        1542.338          49.000  
R06  23170971.920                       -4570.574          31.000                                                                  
R22  20088780.828   107235256.216         -42.109          50.000    20088777.093    83405276.142         -32.797          51.000  
G28  25412057.788   133541267.519        1455.889          43.000    25412056.332   104058105.103        1134.161          42.000  
G08  21181259.462   111308431.383       -2265.133          49.000    21181257.872    86733782.183       -1765.060          47.000  
E08  26632878.433   139956700.635        2241.154          46.000    26632877.137   107239541.869        1717.335          49.000  
S31  39434565.293   207230199.004        -650.587          44.000  
R21  22146751.873   118512039.301       -3151.878          49.000    22146746.783    92175865.400       -2451.394          46.000  
R23  22450825.202   120096684.196        2666.994          47.000                                                                  
E15  24528224.978   128896772.592         172.275          48.000    24528225.991    98765111.791         132.024          52.000  
G03  23052023.797   121139202.639        1271.661          44.000    23052022.648    94394184.089         991.115          44.000  
E34  25579868.366   134423333.074       -1695.530          48.000    25579869.453   102999847.661       -1299.129          52.000  
G27  22953406.192   120620926.023       -3958.736          46.000    22953404.660    93990423.784       -3084.795          45.000  
G10  25043986.390   131607130.475       -3778.572          42.000    25043983.034   102550873.600       -2944.032          34.000  
E03  24484827.334   128668663.388         268.822          49.000    24484827.050    98590295.275         205.957          52.000  
G21  20853685.492   109586871.987         983.531          49.000                                                                  
E27  27833905.580   146268040.543       -2612.652          45.000    27833906.250   112075625.342       -2001.806          47.000  
E18  27176655.208   142814326.781       -1386.085          47.000                                                                  
G32  22853119.358   120093971.828       -2747.228          47.000    22853116.277    93579725.374       -2140.738          46.000  
E13  27564731.612   144853698.132        1369.274          38.000    27564733.719   110991763.612        1049.319          42.000  
> 2024 04 15 11 02 30.0020000  0 23                     
S33  40391586.812   212259437.489        -649.707          42.000  
E05  24953920.531   131133762.256       -2374.502          40.000    24953922.769   100479130.917       -1819.506          49.000  
G02  21693237.660   113998767.386        1406.290          47.000                                                                  
R08  20822848.802   111505432.017        1963.184          51.000    20822841.461    86726591.073        1526.843          48.000  
R06  23196686.272   123781983.7951      -4575.672          35.000                                                                  
R22  20089062.162   107236757.119         -58.064          50.000    20089058.398    83406443.449         -45.153          51.000  
G28  25403760.762   133497669.472        1450.906          42.000    25403759.678   104024132.575        1130.632          42.000  
G08  21194243.768   111376659.463       -2283.509          50.000    21194241.460    86786946.867       -1779.487          47.000  
E08  26620096.669   139889531.315        2236.646          46.000    26620095.473   107188074.419        1713.807          49.000  
S31  39438278.612   207249712.087        -650.435          44.000  
R21  22164459.585   118606803.947       -3165.919          49.000    22164453.931    92249571.066       -2462.236          44.000  
R23  22435875.470   120016713.685        2664.471          47.000                                                                  
E15  24527249.109   128891645.288         169.475          48.000    24527250.180    98761183.042         129.820          52.000  
G03  23044785.425   121101166.193        1263.856          43.000    23044784.128    94364545.318         984.849          44.000  
E34  25589560.600   134474267.084       -1700.224          47.000    25589562.005   103038874.929       -1302.749          52.000  
G27  22976033.360   120739833.349       -3968.442          46.000    22976032.543    94083078.705       -3092.249          45.000  
G10  25065550.966   131720454.346       -3776.481          41.000    25065549.525   102639177.656       -2942.875          34.000  
E03  24483330.336   128660797.561         255.452          49.000    24483330.567    98584268.165         195.776          53.000  
G21  20848100.041   109557522.722         973.048          49.000                                                                  
E27  27848836.444   146346502.335       -2618.217          45.000    27848836.762   112135745.396       -2006.277          46.000  
E18  27184564.340   142855891.281       -1384.828          47.000                                                                  
G32  22868849.722   120176638.534       -2763.899          46.000    22868847.531    93644140.909       -2153.690          47.000  
E13  27556908.534   144812586.390        1371.065          38.000    27556910.188   110960262.402        1050.766          41.000  
> 2024 04 15 11 03 00.0020000  0 23                     
S33  40395295.446   212278925.650        -649.811          42.000  
E05  24967506.721   131205158.031       -2385.322          40.000    24967509.253   100533836.677       -1827.786          50.000  
G02  21685231.898   113956696.733        1398.485          47.000                                                                  
R08  20811906.741   111446837.484        1942.996          51.000    20811898.837    86681017.498        1511.171          48.000  
R06  23222431.311   123919342.908       -4581.870          34.000    23221995.964                3      -3556.305          15.000  
R22  20089434.239   107238741.946         -74.453          50.000    20089429.775    83407987.171         -57.835          52.000  
G28  25395492.077   133454218.335        1445.830          42.000    25395491.052   103990274.496        1126.685          42.000  
G08  21207332.900   111445441.741       -2302.071          50.000    21207330.351    86840543.389       -1793.918          47.000  
E08  26607341.203   139822504.004        2231.644          45.000    26607340.863   107136715.800        1709.942          49.000  
S31  39441991.201   207269223.167        -650.710          44.000  
R21  22182248.892   118701991.635       -3180.110          50.000    22182240.917    92323605.868       -2473.394          43.000  
R23  22420941.663   119936827.198        2661.414          48.000                                                                  
E15  24526290.011   128886607.540         166.269          47.000    24526291.713    98757322.910         127.379          53.000  
G03  23037594.296   121063376.405        1255.411          44.000    23037592.466    94335098.676         978.194          43.000  
E34  25599280.541   134525344.517       -1705.044          48.000    25599281.823   103078012.088       -1306.561          52.000  
G27  22998717.264   120859033.297       -3978.284          47.000    22998714.289    94175961.661       -3099.966          44.000  
G10  25087105.402   131833721.898       -3774.957          42.000    25087104.617   102727437.848       -2941.418          35.000  
E03  24481909.367   128653331.396         242.009          48.000    24481909.900    98578547.294         185.435          53.000  
G21  20842575.949   109528492.518         962.174          49.000                                                                  
E27  27863799.413   146425134.341       -2624.069          45.000    27863799.979   112195995.862       -2010.653          46.000  
E18  27192467.149   142897418.261       -1383.761          47.000                                                                  
G32  22884676.363   120259808.363       -2780.683          46.000    22884674.377    93708948.467       -2166.767          47.000  
E13  27549075.053   144771423.309        1373.150          38.000    27549077.195   110928721.884        1051.940          42.000  
> 2024 04 15 11 03 30.0020000  0 23                     
S33  40399003.076   212298409.321        -649.466          42.000  
E05  24981154.450   131276871.141       -2395.695          41.000    24981155.617   100588785.592       -1835.761          49.000  
G02  21677269.966   113914855.049        1390.844          48.000                                                                  
R08  20801076.679   111388841.650        1923.113          51.000    20801069.187    86635909.615        1495.745          49.000  
R06  23248204.012   124056855.357       -4586.876          35.000                                                                  
R22  20089896.767   107241210.881         -90.479          51.000    20089892.245    83409907.402         -70.361          51.000  
G28  25387252.413   133410914.897        1440.920          42.000    25387250.425   103956531.515        1122.643          43.000  
G08  21220526.224   111514774.540       -2320.313          50.000    21220523.840    86894568.895       -1807.959          47.000  
E08  26594613.875   139755618.321        2227.170          46.000    26594612.488   107085465.680        1706.441          48.000  
S31  39445703.362   207288730.091        -650.082          44.000  
R21  22200115.175   118797599.795       -3194.114          49.000    22200110.429    92397967.667       -2484.223          46.000  
R23  22406023.905   119857025.022        2658.516          49.000                                                                  
E15  24525348.346   128881658.081         163.475          47.000    24525349.991    98753530.434         125.182          53.000  
G03  23030449.994   121025830.881        1247.504          44.000    23030447.772    94305842.394         972.018          43.000  
E34  25609027.856   134576563.925       -1709.753          48.000    25609028.476   103117258.022       -1310.031          52.000  
G27  23021456.506   120978521.277       -3987.754          48.000    23021452.861    94269069.065       -3107.271          45.000  
G10  25108648.446   131946929.954       -3772.601          43.000    25108646.528   102815651.656       -2940.193          35.000  
E03  24480564.288   128646263.328         228.962          48.000    24480564.996    98573131.461         175.395          53.000  
G21  20837112.241   109499780.867         951.717          48.000                                                                  
E27  27878794.089   146503932.460       -2629.391          44.000    27878794.923   112256373.608       -2014.768          46.000  
E18  27200362.070   142938905.427       -1382.201          47.000                                                                  
G32  22900598.263   120343476.838       -2797.134          47.000    22900595.963    93774144.583       -2179.700          46.000  
E13  27541232.945   144730207.126        1374.883          39.000    27541234.035   110897140.661        1053.333          42.000  
> 2024 04 15 11 04 00.0020000  0 23                     
S33  40402710.681   212317893.599        -649.224          42.000  
E05  24994861.364   131348904.778       -2406.509          42.000    24994863.323   100643980.096       -1843.924          50.000  
G02  21669352.346   113873248.701        1382.658          46.000                                                                  
R08  20790358.668   111331451.132        1902.981          51.000    20790352.045    86591272.537        1480.099          49.000  
R06  23274002.362   124194521.837       -4591.176          36.000    23273890.275                3      -3988.276          12.000  
R22  20090451.609   107244170.863        -106.925          50.000    20090447.591    83412209.571         -83.231          52.000  
G28  25379041.933   133367766.656        1435.547          44.000    25379039.972   103922909.473        1118.765          43.000  
G08  21233824.699   111584660.860       -2338.759          49.000    21233822.158    86949025.733       -1822.562          46.000  
E08  26581913.578   139688880.549        2222.042          46.000    26581912.498   107034328.876        1702.605          48.000  
S31  39449415.589   207308237.623        -650.275          44.000  
R21  22218059.497   118893632.424       -3208.242          48.000    22218057.338    92472659.550       -2495.215          46.000  
R23  22391122.920   119777314.713        2655.392          48.000                                                                  
E15  24524424.318   128876802.368         160.274          47.000    24524426.005    98749809.791         122.787          53.000  
G03  23023352.862   120988534.132        1238.908          45.000    23023350.798    94276779.958         965.369          43.000  
E34  25618803.309   134627930.455       -1714.711          49.000    25618803.187   103156616.707       -1313.885          52.000  
G27  23044249.382   121098299.100       -3997.492          47.000    23044246.185    94362402.307       -3114.901          45.000  
G10  25130180.860   132060082.141       -3771.031          43.000    25130179.741   102903821.904       -2938.201          35.000  
E03  24479296.081   128639598.500         215.364          48.000    24479296.998    98568024.600         164.990          53.000  
G21  20831710.712   109471394.590         940.737          48.000                                                                  
E27  27893820.727   146582899.136       -2635.087          43.000    27893821.926   112316880.546       -2019.043          47.000  
E18  27208250.379   142980357.225       -1381.119          47.000                                                                  
G32  22916615.420   120427646.257       -2813.957          46.000    22916612.378    93839731.028       -2192.632          46.000  
E13  27533380.716   144688942.577        1376.240          38.000    27533382.199   110865522.368        1054.521          43.000  
> 2024 04 15 11 04 30.0020000  0 23                     
S33  40406418.093   212337375.074        -649.397          42.000  
E05  25008628.312   131421254.873       -2416.890          41.000    25008631.330   100699417.088       -1851.959          50.000  
G02  21661479.248   113831876.904        1375.157          47.000                                                                  
R08  20779754.877   111274665.637        1882.743          51.000    20779747.746    86547106.014        1464.216          48.000  
R06  23299828.564   124332336.449       -4596.218          36.000                                                                  
R22  20091098.481   107247621.649        -123.222          51.000    20091094.554    83414893.465         -95.841          52.000  
G28  25370861.453   133324774.102        1430.577          45.000    25370858.794   103889408.776        1114.556          43.000  
G08  21247227.890   111655096.559       -2357.063          49.000    21247225.121    87003910.628       -1836.535          46.000  
E08  26569242.607   139622289.850        2217.365          46.000    26569241.112   106983304.760        1698.945          48.000  
S31  39453127.163   207327743.002        -650.013          44.000  
R21  22236084.738   118990086.290       -3222.037          49.000    22236081.326    92547679.083       -2506.054          45.000  
R23  22376239.049   119697696.987        2652.368          48.000                                                                  
E15  24523518.221   128872038.741         157.240          47.000    24523519.481    98746159.704         120.477          52.000  
G03  23016302.645   120951483.403        1231.002          44.000    23016300.339    94247909.186         959.233          43.000  
E34  25628604.630   134679442.220       -1719.409          48.000    25628605.564   103196086.665       -1317.451          51.000  
G27  23067096.263   121218361.517       -4006.686          48.000    23067093.945    94455957.327       -3122.241          46.000  
G10  25151701.549   132173174.958       -3768.916          43.000    25151701.284   102991945.959       -2936.797          36.000  
E03  24478103.394   128633334.876         202.133          47.000    24478104.899    98563225.164         154.844          53.000  
G21  20826370.830   109443333.706         929.905          48.000                                                                  
E27  27908879.025   146662029.878       -2640.326          43.000    27908880.454   112377513.176       -2023.219          48.000  
E18  27216130.990   143021770.970       -1379.638          47.000                                                                  
G32  22932725.813   120512311.686       -2830.568          44.000    22932723.571    93905704.011       -2205.574          46.000  
E13  27525518.469   144647627.482        1377.984          38.000    27525520.127   110833865.331        1055.923          43.000  
> 2024 04 15 11 05 00.0020000  0 24                     
S33  40410125.393   212356856.498        -649.384          42.000  
E05  25022457.779   131493921.853       -2427.660          43.000    25022459.218   100755096.894       -1860.110          49.000  
G02  21653652.130   113790743.659        1366.837          47.000                                                                  
R07  19963913.966                3      -1630.962          10.000                                                                  
R08  20769263.384   111218488.596        1862.316          51.000    20769256.291    86503412.714        1448.461          48.000  
R06  23325680.506   124470297.337       -4601.234          37.000                                                                  
R22  20091837.738   107251567.354        -139.967          51.000    20091833.996    83417962.307        -108.840          52.000  
G28  25362710.605   133281942.103        1424.999          45.000    25362707.307   103856033.170        1110.519          42.000  
G08  21260736.369   111726081.892       -2375.514          49.000    21260733.601    87059223.806       -1851.057          46.000  
E08  26556598.685   139555849.750        2212.028          45.000    26556598.342   106932396.061        1694.862          49.000  
S31  39456838.824   207347247.711        -650.000          44.000  
R21  22254189.744   119086962.517       -3236.342          50.000    22254183.793    92623027.140       -2517.007          43.000  
R23  22361373.077   119618176.291        2649.087          46.000                                                                  
E15  24522630.122   128867369.936         154.083          48.000    24522630.908    98742582.281         117.948          52.000  
G03  23009298.684   120914680.279        1222.659          44.000    23009297.044    94219231.401         952.889          43.000  
E34  25638434.973   134731101.672       -1724.414          48.000    25638436.151   103235669.809       -1321.412          51.000  
G27  23089996.792   121338707.755       -4016.384          47.000    23089994.902    94549733.485       -3129.740          45.000  
G10  25173212.204   132286209.297       -3766.852          43.000    25173212.401   103080024.397       -2935.122          36.000  
E03  24476988.906   128627474.818         188.384          47.000    24476989.524    98558734.950         144.340          53.000  
G21  20821094.193   109415601.937         918.773          49.000                                                                  
E27  27923968.900   146741324.514       -2645.955          43.000    27923969.679   112438271.351       -2027.374          48.000  
E18  27224004.170   143063148.370       -1378.703          47.000                                                                  
G32  22948931.162   120597472.662       -2846.894          46.000    22948930.027    93972063.128       -2218.567          47.000  
E13  27517646.345   144606263.958        1379.509          37.000    27517648.631   110802171.190        1057.089          42.000  
> 2024 04 15 11 05 30.0020000  0 24                     
S33  40413833.476   212376343.577        -649.608          42.000  
E05  25036346.383   131566910.438       -2438.506          43.000    25036348.700   100811023.128       -1868.271          50.000  
G02  21645872.170   113749856.668        1358.545          48.000                                                                  
R08  20758888.139   111162928.402        1841.600          51.000    20758881.676    86460199.208        1432.403          49.000  
R06  23351562.029   124608407.357       -4606.165          38.000                                                                  
R22  20092671.358   107256016.507        -156.827          51.000    20092667.235    83421422.715        -121.938          52.000  
G28  25354591.325   133239279.768        1419.203          44.000    25354589.461   103822789.771        1105.843          42.000  
G08  21274350.030   111797621.317       -2393.915          49.000    21274346.756    87114968.731       -1865.505          46.000  
E08  26543985.853   139489568.127        2206.568          45.000    26543985.208   106881608.791        1690.865          49.000  
S31  39460551.614   207366759.043        -650.736          44.000  
R21  22272373.213   119184266.686       -3250.664          50.000    22272367.094    92698708.075       -2528.192          44.000  
R23  22346527.033   119538761.737        2645.163          46.000                                                                  
E15  24521761.369   128862803.041         150.422          48.000    24521761.859    98739082.917         115.280          52.000  
G03  23002343.350   120878130.823        1214.044          45.000    23002342.757    94190751.296         945.961          44.000  
E34  25648295.092   134782915.644       -1729.844          48.000    25648296.068   103275371.324       -1325.388          51.000  
G27  23112953.323   121459341.250       -4025.935          47.000    23112950.833    94643733.472       -3137.111          45.000  
G10  25194712.448   132399190.341       -3765.078          42.000    25194712.244   103168061.315       -2934.208          34.000  
E03  24475952.421   128622025.006         174.708          48.000    24475952.397    98554559.066         133.876          53.000  
G21  20815881.527   109388207.915         907.365          49.000                                                                  
E27  27939090.914   146820787.125       -2651.662          44.000    27939091.143   112499158.254       -2031.796          48.000  
E18  27231872.577   143104495.419       -1377.773          47.000                                                                  
G32  22965232.100   120683132.980       -2863.682          47.000    22965230.869    94038811.344       -2231.433          47.000  
E13  27509767.487   144564858.452        1380.593          38.000    27509769.282   110770444.900        1057.836          42.000  
G04                                                                  25391426.846                3       2484.543          22.000  
> 2024 04 15 11 06 00.0020000  0 24                     
S33  40417541.796   212395829.834        -649.481          41.000  
E05  25050295.887   131640212.314       -2448.775          44.000    25050297.657   100867189.409       -1876.311          50.000  
G02  21638137.505   113709211.283        1350.751          47.000                                                                  
R08  20748627.718   111107979.782        1821.370          51.000    20748620.473    86417461.374        1416.633          48.000  
R06  23377470.660   124746655.898       -4610.602          39.000                                                                  
R22  20093599.075   107260964.463        -173.289          52.000    20093593.633    83425271.094        -134.816          51.000  
G28  25346504.807   133196783.200        1413.764          42.000    25346502.487   103789675.580        1101.306          41.000  
G08  21288067.516   111869706.320       -2412.006          48.000    21288064.697    87171138.791       -1879.407          46.000  
E08  26531401.465   139423439.822        2201.695          45.000    26531401.373   106830938.996        1687.138          49.000  
S31  39464264.458   207386268.998        -650.146          44.000  
R21  22290635.347   119281991.187       -3264.602          50.000    22290631.173    92774715.876       -2538.925          46.000  
R23  22331700.974   119459449.097        2642.138          47.000                                                                  
E15  24520909.783   128858332.048         147.453          47.000    24520911.054    98735657.051         112.934          52.000  
G03  22995436.114   120841827.975        1206.032          46.000    22995433.846    94162463.323         939.779          43.000  
E34  25658182.975   134834877.864       -1734.643          48.000    25658183.920   103315186.452       -1329.135          51.000  
G27  23135962.039   121580252.449       -4035.023          47.000    23135959.554    94737949.871       -3144.133          45.000  
G10  25216201.505   132512110.313       -3763.118          40.000    25216199.829   103256050.672       -2932.349          32.000  
E03  24474992.084   128616979.059         161.318          48.000    24474992.115    98550692.648         123.649          53.000  
G21  20810731.808   109361146.741         896.393          49.000                                                                  
E27  27954241.686   146900408.845       -2656.750          44.000    27954242.425   112560167.082       -2035.747          47.000  
E18  27239733.880   143145805.136       -1376.365          47.000                                                                  
G32  22981626.188   120769283.382       -2879.799          48.000    22981624.879    94105941.462       -2243.958          47.000  
E13  27501878.649   144523404.455        1382.385          38.000    27501880.683   110738681.442        1059.261          41.000  
G04                                                                  25373262.501                3       2477.877          22.000  
> 2024 04 15 11 06 30.0020000  0 24                     
S33  40421248.925   212415312.096        -649.561          41.000  
E05  25064304.443   131713823.724       -2459.028          45.000    25064305.635   100923592.866       -1884.240          50.000  
G02  21630448.152   113668807.107        1342.456          47.000                                                                  
R08  20738480.265   111053642.359        1800.856          51.000    20738473.960    86375198.902        1400.586          49.000  
R06  23403403.998   124885036.991       -4615.256          39.000                                                                  
R22  20094619.052   107266411.133        -190.066          52.000    20094614.005    83429507.342        -147.872          52.000  
G28  25338449.311   133154453.066        1407.982          42.000    25338447.959   103756691.004        1097.099          41.000  
G08  21301887.853   111942332.922       -2430.206          49.000    21301884.483    87227730.892       -1893.640          46.000  
E08  26518846.896   139357464.246        2196.485          45.000    26518846.690   106780386.243        1682.993          49.000  
S31  39467976.243   207405775.392        -650.208          44.000  
R21  22308974.904   119380132.620       -3278.614          50.000    22308971.765    92851047.958       -2549.990          47.000  
R23  22316893.602   119380239.139        2638.360          47.000                                                                  
E15  24520077.356   128853955.613         144.132          47.000    24520078.321    98732303.621         110.459          52.000  
G03  22988574.493   120805769.194        1197.675          47.000    22988571.743    94134365.508         933.199          43.000  
E34  25668099.727   134886986.696       -1739.554          49.000    25668100.126   103355113.909       -1332.935          51.000  
G27  23159022.545   121701436.332       -4044.251          47.000    23159019.985    94832378.767       -3151.440          44.000  
G10  25237677.891   132624965.949       -3761.016          38.000    25237677.068   103343989.909       -2930.601          33.000  
E03  24474108.030   128612335.161         147.781          48.000    24474108.846    98547134.289         113.299          53.000  
G21  20805645.373   109334418.404         885.133          49.000                                                                  
E27  27969422.344   146980185.381       -2662.023          44.000    27969423.081   112621294.530       -2039.730          47.000  
E18  27247587.142   143187075.066       -1375.160          47.000                                                                  
G32  22998112.984   120855919.248       -2896.323          49.000    22998111.507    94173449.847       -2256.862          47.000  
E13  27493981.413   144481900.045        1384.154          39.000    27493982.970   110706879.354        1060.573          41.000  
G04                                                                  25355078.969                3       2482.563          26.000  
> 2024 04 15 11 07 00.0020000  0 24                     
S33  40424956.025   212434790.756        -649.452          41.000  
E05  25078369.670   131787742.025       -2469.023          44.000    25078372.255   100980231.466       -1891.952          50.000  
G04  25336893.741                1       3184.237          29.000    25336891.022                        2481.123          28.000  
G02  21622804.860   113628644.974        1334.630          47.000                                                                  
R08  20728447.327   110999916.915        1780.548          51.000    20728440.495    86333412.411        1384.901          49.000  
R06  23429360.806   125023546.194       -4619.109          38.000                                                                  
R22  20095732.805   107272357.528        -206.650          51.000    20095728.147    83434132.300        -160.755          52.000  
G28  25330427.144   133112291.169        1402.567          43.000    25330423.861   103723837.566        1092.552          40.000  
G08  21315810.749   112015498.249       -2448.120          49.000    21315807.839    87284742.775       -1907.489          46.000  
E08  26506321.019   139291641.920        2191.289          45.000    26506321.486   106729950.904        1679.178          49.000  
S31  39471687.658   207425278.095        -650.281          44.000  
R21  22327392.664   119478689.330       -3292.270          49.000    22327389.826    92927703.014       -2560.614          46.000  
R23  22302105.950   119301133.502        2634.964          48.000                                                                  
E15  24519262.430   128849673.443         140.976          47.000    24519263.278    98729022.437         108.037          52.000  
G03  22981758.274   120769953.084        1189.756          46.000    22981755.866    94106456.835         927.277          43.000  
E34  25678043.271   134939241.594       -1744.369          49.000    25678043.985   103395153.291       -1336.582          51.000  
G27  23182133.834   121822889.085       -4053.073          46.000    23182131.939    94927017.180       -3158.253          45.000  
G10  25259139.845   132737755.205       -3758.616          34.000    25259142.323   103431877.408       -2928.990          33.000  
E03  24473301.140   128608092.610         134.533          48.000    24473301.965    98543883.467         103.139          54.000  
G21  20800622.556   109308024.186         874.146          49.000                                                                  
E27  27984632.123   147060113.474       -2666.899          43.000    27984632.772   112682538.103       -2043.557          47.000  
E18  27255432.746   143228303.932       -1373.854          47.000                                                                  
G32  23014691.947   120943036.927       -2911.950          50.000    23014689.113    94241333.656       -2268.975          46.000  
E13  27486074.736   144440344.340        1386.011          39.000    27486074.988   110675037.976        1061.970          41.000  
> 2024 04 15 11 07 30.0020000  0 24                     
S33  40428662.663   212454269.312        -649.403          41.000  
E05  25092495.611   131861970.281       -2479.521          45.000    25092496.827   101037107.558       -1899.900          50.000  
G04  25318716.203                        3186.119          31.000    25318712.700                        2482.487          31.000  
G02  21615209.877   113588731.217        1326.208          47.000                                                                  
R08  20718529.770   110946809.754        1759.738          50.000    20718523.291    86292106.820        1368.661          49.000  
R06  23455341.412   125162184.548       -4623.730          39.000    23155373.679                3      -3669.831          13.000  
R22  20096941.555   107278810.473        -223.737          51.000    20096937.146    83439151.204        -174.073          52.000  
G28  25322437.193   133070305.058        1396.346          41.000    25322434.665   103691121.046        1088.258          40.000  
G08  21329836.735   112089205.069       -2465.973          49.000    21329833.998    87342176.599       -1921.472          46.000  
E08  26493826.119   139225979.062        2185.948          45.000    26493826.373   106679637.752        1674.942          49.000  
S31  39475399.248   207444781.101        -650.225          44.000  
R21  22345889.961   119577665.000       -3306.261          51.000    22345885.794    93004683.980       -2571.479          46.000  
R23  22287339.631   119222140.039        2631.143          49.000                                                                  
E15  24518466.981   128845490.996         137.634          48.000    24518467.407    98725817.648         105.545          52.000  
G03  22974989.973   120734384.007        1181.400          45.000    22974987.113    94078740.630         920.456          43.000  
E34  25688015.028   134991647.690       -1749.490          48.000    25688017.076   103435308.510       -1340.574          52.000  
G27  23205296.982   121944612.529       -4062.009          45.000    23205295.822    95021866.473       -3165.249          45.000  
G10  25280588.910                       -3756.137          30.000    25280590.500                       -2927.502          29.000  
E03  24472571.011   128604256.372         120.942          48.000    24472572.198    98540943.977          92.694          54.000  
G21  20795664.474   109281970.893         862.576          48.000                                                                  
E27  27999871.771   147140195.632       -2672.058          44.000    27999871.846   112743899.705       -2047.442          47.000  
E18  27263271.502   143269496.094       -1372.679          47.000                                                                  
G32  23031361.857   121030638.562       -2928.262          50.000    23031359.397    94309594.593       -2281.682          46.000  
E13  27478159.174   144398742.139        1387.433          40.000    27478158.147   110643160.984        1063.093          40.000  
> 2024 04 15 11 08 00.0020000  0 24                     
S33  40432368.957   212473745.349        -649.296          42.000  
E05  25106679.935   131936505.107       -2489.843          45.000    25106681.295   101094218.562       -1907.780          50.000  
G04  25300538.918   132955210.5451       3183.820          34.000    25300536.458   103601491.9601       2481.146          34.000  
G02  21607661.784   113549065.897        1317.801          47.000                                                                  
R08  20708727.883   110894321.148        1739.132          51.000    20708721.982    86251282.354        1352.665          48.000  
R06  23481345.520   125300946.693       -4627.728          38.000                                                                  
R22  20098244.920   107285770.327        -240.624          50.000    20098241.164    83444564.379        -187.149          51.000  
G28  25314480.492   133028495.696        1390.338          40.000    25314478.120   103658542.290        1083.573          40.000  
G08  21343965.370   112163449.789       -2483.862          49.000    21343961.776    87400029.571       -1935.461          46.000  
E08  26481361.567   139160475.494        2180.636          45.000    26481360.987   106629446.638        1670.866          48.000  
S31  39479110.097   207464281.578        -650.256          44.000  
R21  22364464.168   119677057.016       -3320.195          50.000    22364457.071    93081988.789       -2582.419          43.000  
R23  22272594.063   119143259.413        2627.256          50.000                                                                  
E15  24517690.124   128841407.312         134.380          48.000    24517690.351    98722688.553         102.862          51.000  
G03  22968267.597   120699059.760        1173.436          44.000    22968265.049    94051215.238         914.316          43.000  
E34  25698016.579   135044203.708       -1754.604          48.000    25698018.501   103475578.605       -1344.394          52.000  
G27  23228511.855   122066602.007       -4070.812          46.000    23228509.465    95116923.046       -3172.220          44.000  
G10  25302029.199   132963142.514       -3753.802          32.000    25302028.444                       -2924.781          24.000  
E03  24471917.671   128600824.992         107.512          48.000    24471919.354    98538314.707          82.295          54.000  
G21  20790771.167   109256258.566         851.175          48.000                                                                  
E27  28015139.523   147220427.910       -2677.048          45.000    28015139.852   112805376.365       -2051.236          47.000  
E18  27271102.619   143310649.531       -1371.166          47.000                                                                  
G32  23048122.769   121118719.861       -2944.106          49.000    23048120.147    94378229.271       -2293.914          45.000  
E13  27470233.195   144357091.889        1388.996          41.000    27470232.021   110611247.197        1064.253          40.000  
> 2024 04 15 11 08 30.0020000  0 25                     
S33  40436074.498   212493218.570        -649.160          42.000  
E05  25120921.417   132011343.578       -2499.604          45.000    25120922.197   101151562.218       -1915.342          50.000  
G04  25282362.462   132859692.482        3183.437          38.000    25282359.616   103527062.184        2480.911          36.000  
G02  21600161.193   113509649.561        1309.636          47.000                                                                  
R08  20699042.040   110842451.130        1718.802          51.000    20699035.307    86210938.950        1336.855          49.000  
R06  23507372.532   125439827.520       -4631.429          40.000                                                                  
R22  20099643.859   107293237.812        -257.377          50.000    20099640.160    83450372.386        -200.151          52.000  
G28  25306557.636   132986864.660        1385.069          41.000    25306557.670   103626102.535        1079.140          43.000  
G08  21358195.393   112238229.143       -2501.520          50.000    21358192.576    87458299.138       -1949.188          46.000  
E08  26468926.907   139095131.394        2175.640          45.000    26468925.978   106579377.718        1667.033          47.000  
S31  39482820.439   207483779.533        -649.572          44.000  
R21  22383114.327   119776862.945       -3333.690          50.000    22383107.923    93159615.473       -2592.934          45.000  
R23  22257869.367   119064492.977        2623.759          49.000                                                                  
E15  24516931.737   128837421.839         131.336          48.000    24516931.871    98719634.705         100.527          51.000  
G03  22961591.738   120663978.775        1165.346          45.000    22961590.837    94023879.386         908.104          44.000  
E34  25708045.862   135096908.825       -1759.215          48.000    25708048.008   103515962.960       -1348.062          52.000  
G27  23251775.053   122188853.367       -4079.251          46.000    23251771.305    95212183.721       -3178.570          43.000  
G10  25323456.248   133075735.652       -3751.809          37.000    25323445.646                3      -2923.318          17.000  
E03  24471341.739   128597797.484          94.107          48.000    24471342.948    98535994.878          72.152          54.000  
G21  20785943.445   109230887.926         839.998          48.000                                                                  
E27  28030435.026   147300806.839       -2681.670          45.000    28030435.503   112866965.397       -2054.857          47.000  
E18  27278925.759   143351762.696       -1369.804          46.000                                                                  
G32  23064974.167   121207276.877       -2959.826          48.000    23064971.685    94447234.677       -2306.552          44.000  
E13  27462296.386   144315392.532        1390.992          40.000    27462296.406   110579295.763        1065.894          40.000  
R07                                                                  20047418.577                3      -2161.023          11.000  
> 2024 04 15 11 09 00.0020000  0 24                     
S33  40439779.795   212512690.300        -649.036          42.000  
E05  25135219.802   132086486.470       -2509.778          45.000    25135221.327   101209139.152       -1923.001          50.000  
G04  25264188.719   132764185.943        3183.260          40.000    25264185.412   103452641.399        2480.773          39.000  
G02  21592708.972   113470486.471        1301.262          47.000                                                                  
R08  20689471.996   110791203.458        1697.898          51.000    20689465.148    86171079.597        1320.585          48.000  
R06  23533421.684   125578825.970       -4634.956          41.000                                                                  
R22  20101138.338   107301217.412        -274.497          50.000    20101134.636    83456578.674        -213.497          51.000  
G28  25298670.666   132945417.253        1378.268          41.000    25298670.255   103593805.806        1074.147          43.000  
G08  21372527.033   112313543.649       -2519.305          49.000    21372525.001    87516985.694       -1963.080          47.000  
E08  26456524.615   139029950.822        2170.069          46.000    26456522.792   106529434.077        1662.702          47.000  
S31  39486530.482   207503276.397        -649.646          44.000  
R21  22401843.666   119877084.385       -3347.578          49.000    22401839.005    93237565.351       -2603.882          47.000  
R23  22243167.016   118985846.495        2619.632          49.000                                                                  
E15  24516192.425   128833537.817         127.872          47.000    24516192.799    98716658.588          97.921          52.000  
G03  22954963.082   120629143.068        1157.065          46.000    22954962.193    93996734.608         901.720          44.000  
E34  25718104.693   135149765.965       -1764.462          49.000    25718106.406   103556463.801       -1351.945          52.000  
G27  23275087.894   122311366.224       -4088.083          46.000    23275085.364    95307648.167       -3185.659          44.000  
G10  25344868.382   133188262.352       -3749.828          37.000    25344870.382                3      -2920.519          26.000  
E03  24470842.547   128595176.535          80.644          47.000    24470844.246    98533986.577          61.754          54.000  
G21  20781181.757   109205863.294         828.386          48.000                                                                  
E27  28045758.076   147381332.671       -2686.565          45.000    28045759.283   112928666.982       -2058.615          47.000  
E18  27286742.006   143392837.717       -1368.494          46.000                                                                  
G32  23081916.342   121296309.501       -2975.569          48.000    23081914.095    94516610.700       -2318.688          44.000  
E13  27454351.631   144273646.787        1392.280          39.000    27454352.843   110547308.734        1066.820          40.000  
> 2024 04 15 11 09 30.0020000  0 24                     
S33  40443484.600   212532158.953        -648.660          42.000  
E05  25149577.311   132161929.100       -2519.713          45.000    25149577.978   101266945.733       -1930.619          50.000  
G04  25246016.425   132668690.216        3182.995          42.000    25246013.021   103378229.028        2480.583          41.000  
G02  21585304.975   113431575.070        1293.037          47.000                                                                  
R08  20680017.637   110740577.307        1677.399          50.000    20680010.995    86131703.655        1304.638          49.000  
R06  23559490.500   125717935.680       -4638.528          40.000                                                                  
R22  20102729.048   107309708.029        -291.464          50.000    20102725.261    83463182.412        -226.667          51.000  
G28  25290818.325   132904153.108        1372.417          43.000    25290817.620   103561651.989        1069.410          43.000  
G08  21386959.862   112389388.270       -2536.798          49.000    21386957.463    87576085.345       -1976.782          46.000  
E08  26444151.017   138964932.181        2164.508          45.000    26444150.481   106479614.528        1658.600          48.000  
S31  39490239.842   207522768.913        -649.588          44.000  
R21  22420648.136   119977717.083       -3361.187          49.000    22420644.914    93315835.112       -2614.286          46.000  
R23  22228486.966   118907319.361        2615.686          48.000                                                                  
E15  24515471.581   128829752.977         124.564          47.000    24515472.745    98713758.469          95.542          52.000  
G03  22948380.209   120594549.194        1149.183          45.000    22948378.645    93969778.301         895.532          44.000  
E34  25728191.638   135202772.540       -1769.402          49.000    25728193.231   103597079.143       -1355.661          52.000  
G27  23298450.015   122434134.604       -4096.451          46.000    23298447.993    95403311.700       -3192.208          44.000  
G10  25366269.836   133300718.541       -3747.442          40.000    25366269.173                       -2920.359          29.000  
E03  24470420.599   128592959.316          67.301          47.000    24470422.232    98532287.633          51.545          54.000  
G21  20776485.327   109181183.911         817.004          48.000                                                                  
E27  28061108.711   147462000.183       -2691.298          46.000    28061109.470   112990477.101       -2062.045          47.000  
E18  27294551.063   143433871.258       -1367.037          47.000                                                                  
G32  23098948.401   121385812.053       -2991.108          48.000    23098946.048    94586352.856       -2330.634          45.000  
E13  27446397.455   144231851.685        1394.247          38.000    27446399.803   110515283.915        1068.157          41.000  
> 2024 04 15 11 10 00.0020000  0 24                     
S33  40447189.403   212551626.915        -649.094          42.000  
E05  25163990.808   132237675.040       -2529.895          45.000    25163991.519   101324984.728       -1938.607          50.000  
G04  25227847.732   132573212.903        3182.132          40.000    25227844.449   103303831.029        2479.583          42.000  
G02  21577949.932   113392922.678        1284.210          48.000                                                                  
R08  20670680.450   110690579.031        1656.173          50.000    20670674.194    86092816.077        1288.086          48.000  
R06  23585580.597   125857158.222       -4642.777          40.000                                                                  
R22  20104417.233   107318716.941        -308.951          51.000    20104412.814    83470189.303        -240.305          51.000  
G28  25283003.142   132863080.431        1365.829          43.000    25283001.907   103529647.214        1064.668          43.000  
G08  21401493.699   112465766.245       -2554.651          49.000    21401491.314    87635600.593       -1990.735          46.000  
E08  26431810.927   138900082.227        2158.794          45.000    26431810.222   106429924.262        1654.090          48.000  
S31  39493949.363   207542263.577        -649.833          44.000  
R21  22439532.000   120078765.455       -3375.103          49.000    22439527.983    93394428.154       -2625.129          46.000  
R23  22213831.147   118828920.036        2611.168          48.000                                                                  
E15  24514771.210   128826073.322         120.862          46.000    24514772.705    98710938.950          92.558          52.000  
G03  22941844.460   120560201.999        1140.795          45.000    22941842.326    93943014.203         888.964          43.000  
E34  25738308.516   135255934.236       -1774.681          49.000    25738309.641   103637813.350       -1359.931          52.000  
G27  23321861.467   122557160.848       -4105.104          46.000    23321859.790    95499176.157       -3198.738          44.000  
G10  25387658.123   133413108.405       -3744.728          40.000    25387653.477                       -2917.903          30.000  
E03  24470077.252   128591151.306          53.378          48.000    24470078.042    98530902.230          40.935          54.000  
G21  20771856.121   109156857.051         805.094          48.000                                                                  
E27  28076486.923   147542812.345       -2696.119          46.000    28076487.290   113052398.066       -2065.984          47.000  
E18  27302352.469   143474868.233       -1365.924          47.000                                                                  
G32  23116070.069   121475787.097       -3007.142          48.000    23116068.315    94656463.189       -2343.257          45.000  
E13  27438436.457   144190012.743        1395.380          38.000    27438438.315   110483225.451        1069.206          41.000  
> 2024 04 15 11 10 30.0020000  0 24                     
S33  40450895.183   212571101.948        -649.381          42.000  
E05  25178463.781   132313727.904       -2540.044          45.000    25178464.253   101383258.916       -1946.465          50.000  
G04  25209683.955   132477761.558        3181.500          38.000    25209681.404   103229453.303        2478.993          40.000  
G02  21570645.539   113354536.427        1275.055          48.000                                                                  
R08  20661462.337   110641215.649        1634.884          51.000    20661454.653    86054422.300        1271.636          48.000  
R06  23611692.816   125996495.135       -4646.409          40.000                                                                  
R22  20106204.414   107328251.591        -326.623          52.000    20106198.614    83477605.089        -254.045          51.000  
G28  25275225.405   132822207.151        1359.047          44.000    25275224.414   103497797.954        1058.862          43.000  
G08  21416130.291   112542680.847       -2572.729          50.000    21416127.881    87695533.995       -2004.645          46.000  
E08  26419503.048   138835407.838        2152.846          45.000    26419503.243   106380368.502        1649.632          49.000  
S31  39497660.523   207561763.458        -649.814          44.000  
R21  22458495.003   120180233.911       -3389.219          51.000    22458491.068    93473347.914       -2636.101          47.000  
R23  22199200.835   118750656.912        2606.532          47.000                                                                  
E15  24514092.427   128822504.935         117.041          47.000    24514093.544    98708204.690          89.756          52.000  
G03  22935355.258   120526106.296        1132.440          44.000    22935353.503    93916446.094         882.502          42.000  
E34  25748455.281   135309256.791       -1780.095          49.000    25748456.513   103678670.793       -1363.915          51.000  
G27  23345322.317   122680447.378       -4113.783          46.000    23345320.860    95595243.435       -3205.577          45.000  
G10  25409033.535   133525436.264       -3742.698          36.000    25409027.319                       -2916.346          30.000  
E03  24469812.124   128589758.027          39.528          48.000    24469812.809    98529834.611          30.306          54.000  
G21  20767295.523   109132889.996         792.782          48.000                                                                  
E27  28091892.735   147623772.291       -2701.168          45.000    28091893.325   113114432.253       -2069.593          47.000  
E18  27310148.352   143515833.692       -1365.008          47.000                                                                  
G32  23133282.277   121566237.317       -3022.910          48.000    23133281.328    94726943.801       -2355.434          45.000  
E13  27430467.496   144148135.451        1396.671          38.000    27430469.941   110451137.634        1070.082          42.000  
> 2024 04 15 11 11 00.0020000  0 24                     
S33  40454601.610   212590580.062        -649.391          42.000  
E05  25192993.910   132390082.990       -2550.216          45.000    25192994.070   101441764.619       -1953.960          50.000  
G04  25191525.038   132382335.602        3180.481          42.000    25191522.590   103155095.276        2478.172          39.000  
G02  21563391.196   113316414.593        1266.339          48.000                                                                  
R08  20652362.139   110592484.828        1613.771          51.000    20652354.471    86016520.512        1255.158          48.000  
R06  23637824.785   126135940.051       -4649.563          41.000                                                                  
R22  20108088.506   107338310.765        -343.990          51.000    20108083.076    83485428.823        -267.666          51.000  
G28  25267485.161   132781533.079        1352.531          45.000    25267484.442   103466103.847        1053.933          44.000  
G08  21430867.854   112620126.986       -2590.192          49.000    21430865.451    87755881.585       -2018.390          46.000  
E08  26407228.766   138770907.335        2147.268          44.000    26407229.477   106330945.999        1645.133          49.000  
S31  39501371.705   207581266.603        -650.012          44.000  
R21  22477534.733   120282117.816       -3403.015          51.000    22477530.386    93552590.836       -2646.530          46.000  
R23  22184595.952   118672528.938        2602.069          48.000                                                                  
E15  24513434.016   128819045.498         113.645          47.000    24513435.511    98705553.914          87.037          52.000  
G03  22928914.508   120492258.627        1124.238          45.000    22928912.492    93890071.232         875.968          43.000  
E34  25758632.473   135362737.554       -1785.325          49.000    25758633.570   103719649.466       -1367.920          51.000  
G27  23368831.641   122803988.186       -4122.171          46.000    23368830.215    95691508.844       -3211.981          45.000  
G10  25430395.243   133637698.038       -3741.247          35.000    25430390.683                       -2914.821          28.000  
E03  24469624.709   128588776.556          25.884          48.000    24469626.151    98529082.522          19.876          54.000  
G21  20762803.049   109109281.775         780.999          48.000                                                                  
E27  28107326.998   147704874.689       -2705.656          46.000    28107326.684   113176575.611       -2073.049          46.000  
E18  27317937.357   143556764.224       -1363.694          47.000                                                                  
G32  23150584.572   121657156.932       -3038.396          47.000    23150582.478    94797790.180       -2367.513          45.000  
E13  27422491.518   144106216.921        1398.138          38.000    27422493.271   110419018.220        1071.112          43.000  
> 2024 04 15 11 11 30.0020000  0 24                     
S33  40458307.544   212610054.065        -648.889          42.000  
E05  25207579.482   132466732.712       -2559.613          44.000    25207579.995   101500496.138       -1961.291          49.000  
G04  25173370.658   132286931.496        3179.852          41.000    25173368.036   103080754.310        2477.807          41.000  
G02  21556186.122   113278553.528        1257.843          48.000                                                                  
R08  20643380.059   110544383.173        1593.012          50.000    20643372.564    85979108.091        1239.017          48.000  
R06  23663975.222   126275483.274       -4652.919          39.000                                                                  
R22  20110070.073   107348890.456        -361.281          51.000    20110065.414    83493657.410        -280.918          51.000  
G28  25259782.788   132741055.183        1346.109          44.000    25259782.157   103434562.604        1048.936          44.000  
G08  21445705.864   112698096.778       -2607.477          49.000    21445702.949    87816637.203       -2031.775          46.000  
E08  26394986.925   138706576.518        2141.771          45.000    26394987.742   106281653.490        1641.025          49.000  
S31  39505082.741   207600767.802        -649.952          44.000  
R21  22496650.347   120384410.709       -3416.385          50.000    22496646.092    93632151.824       -2657.317          46.000  
R23  22170014.939   118594533.691        2597.597          46.000                                                                  
E15  24512796.198   128815690.020         110.276          47.000    24512797.104    98702982.779          84.559          52.000  
G03  22922520.086   120458652.718        1116.369          46.000    22922518.160    93863884.798         869.832          44.000  
E34  25768838.123   135416371.185       -1790.058          49.000    25768839.744   103760745.283       -1371.739          51.000  
G27  23392387.576   122927774.570       -4130.097          46.000    23392386.168    95787965.622       -3218.274          45.000  
E03  24469516.121   128588201.298          12.576          48.000    24469516.850    98528641.691           9.620          54.000  
G21  20758377.896   109086028.807         769.207          47.000                                                                  
E27  28122785.634   147786111.555       -2709.737          45.000    28122785.696   113238822.011       -2076.518          46.000  
E18  27325717.759   143597653.761       -1362.001          47.000                                                                  
G32  23167973.827   121748537.559       -3053.511          46.000    23167970.573    94868995.761       -2379.304          43.000  
E13  27414506.411   144064251.583        1399.814          39.000    27414507.570   110386862.929        1072.616          43.000  
G10                                                                  25451740.303                       -2912.621          29.000  
> 2024 04 15 11 12 00.0020000  0 25                     
S33  40462011.325   212629517.288        -648.341          42.000  
E05  25222219.422   132543667.096       -2569.201          43.000    25222220.644   101559445.755       -1968.572          50.000  
G04  25155219.051   132191543.347        3179.260          42.000    25155217.231   103006425.714        2477.665          38.000  
G02  21549029.283   113240946.653        1249.329          48.000                                                                  
R07  20133433.904                3      -1920.000          10.000                                                                  
R08  20634512.817   110496903.003        1572.475          51.000    20634505.942    85942179.062        1222.896          49.000  
R06  23690142.070   126415112.915       -4655.880          39.000                                                                  
R22  20112148.327   107359984.173        -378.256          51.000    20112144.048    83502285.774        -294.149          51.000  
G28  25252116.718   132700767.813        1339.552          45.000    25252115.480   103403169.881        1043.800          44.000  
G08  21460640.132   112776579.724       -2624.591          48.000    21460638.299    87877792.656       -2045.001          47.000  
E08  26382777.064   138642408.477        2136.118          46.000    26382776.630   106232485.691        1636.882          49.000  
S31  39508791.078   207620255.876        -649.085          44.000  
R21  22515839.933   120487102.516       -3429.572          49.000    22515836.619    93712023.079       -2667.467          46.000  
R23  22155458.845   118516665.503        2593.507          47.000                                                                  
E15  24512175.757   128812430.912         107.068          47.000    24512176.884    98700485.494          82.077          52.000  
G03  22916169.984   120425279.807        1108.675          46.000    22916167.290    93837879.904         863.626          44.000  
E34  25779071.866   135470149.769       -1795.044          49.000    25779073.681   103801952.131       -1375.371          51.000  
G27  23415988.277   123051795.260       -4137.723          46.000    23415986.070    95884604.999       -3224.172          44.000  
E03  24469482.179   128588024.018          -0.721          48.000    24469483.305    98528505.817          -0.519          54.000  
G21  20754019.239   109063124.827         757.565          46.000                                                                  
E27  28138267.824   147867472.314       -2714.137          45.000    28138268.045   113301163.295       -2079.449          44.000  
E18  27333488.781   143638493.649       -1360.537          46.000                                                                  
G32  23185448.160   121840368.011       -3068.354          45.000    23185444.658    94940551.854       -2390.906          42.000  
E13  27406510.818   144022231.383        1401.285          39.000    27406511.649   110354665.597        1073.892          43.000  
G10                                                                  25473076.272                       -2911.705          30.000  
> 2024 04 15 11 12 30.0020000  0 24                     
S33  40465714.767   212648978.145        -648.584          42.000  
E05  25236915.296   132620894.655       -2579.189          43.000    25236916.302   101618619.990       -1976.122          49.000  
G04  25137072.775   132096183.672        3178.159          42.000    25137070.604   102932119.374        2476.475          40.000  
G02  21541923.304   113203606.068        1240.234          47.000                                                                  
R08  20625764.635   110450056.548        1550.957          51.000    20625758.695    85905742.889        1206.350          49.000  
R06  23716326.006   126554835.820       -4659.125          39.000                                                                  
R22  20114325.523   107371604.146        -396.074          51.000    20114321.037    83511323.474        -308.075          51.000  
G28  25244489.546   132660684.047        1332.789          44.000    25244487.264   103371935.752        1038.491          43.000  
G08  21475673.927   112855583.985       -2642.041          49.000    21475672.195    87939354.352       -2058.716          47.000  
E08  26370600.036   138578414.928        2130.210          46.000    26370599.098   106183451.613        1632.191          49.000  
S31  39512499.684   207639743.082        -649.641          44.000  
R21  22535106.457   120590202.823       -3443.353          48.000    22535103.171    93792212.073       -2678.145          46.000  
R23  22140928.006   118438937.611        2588.551          48.000                                                                  
E15  24511576.695   128809279.204         103.301          48.000    24511577.285    98698070.501          79.141          52.000  
G03  22909866.032   120392149.689        1100.362          47.000    22909862.573    93812064.169         857.301          44.000  
E34  25789335.636   135524083.955       -1800.410          49.000    25789337.012   103843278.232       -1379.531          51.000  
G27  23439635.125   123176057.583       -4146.080          47.000    23439632.489    95981432.651       -3230.789          44.000  
E03  24469526.154   128588255.099         -14.547          48.000    24469527.488    98528682.853         -11.085          54.000  
G21  20749729.753   109040581.767         745.351          46.000                                                                  
E27  28153775.436   147948964.965       -2718.544          44.000    28153775.609   113363605.676       -2083.056          44.000  
E18  27341253.220   143679293.802       -1359.376          46.000                                                                  
G32  23203009.098   121932655.927       -3083.879          43.000    23203007.076    95012464.394       -2402.809          43.000  
E13  27398505.747   143980166.654        1402.879          39.000    27398506.938   110322434.186        1074.751          44.000  
G10                                                                  25494400.180                       -2908.853          29.000  
> 2024 04 15 11 13 00.0020000  0 24                     
S33  40469417.351   212668434.512        -648.545          42.000  
E05  25251666.155   132698409.787       -2588.344          42.000    25251667.554   101678014.639       -1983.410          50.000  
G04  25118931.769   132000851.014        3177.191          42.000    25118929.372   102857834.052        2476.027          39.000  
G02  21534868.289   113166529.726        1231.604          48.000                                                                  
R08  20617134.959   110403840.665        1529.931          52.000    20617128.608    85869797.164        1190.080          49.000  
R06  23742526.103   126694644.776       -4661.672          38.000                                                                  
R22  20116600.547   107383748.386        -413.522          51.000    20116596.553    83520768.975        -321.632          51.000  
G28  25236899.976   132620802.800        1325.987          42.000    25236898.086   103340859.434        1033.282          43.000  
G08  21490806.392   112935103.573       -2659.113          49.000    21490804.593    88001317.593       -2072.034          47.000  
E08  26358455.723   138514593.517        2124.603          46.000    26358454.373   106134549.436        1627.909          49.000  
S31  39516207.039   207659225.488        -649.385          44.000  
R21  22554448.826   120693706.321       -3456.901          49.000    22554445.570    93872714.636       -2688.766          46.000  
R23  22126423.520   118361349.105        2583.960          47.000    22125237.584                3       1728.372          11.000  
E15  24510996.081   128806231.829          99.794          48.000    24510997.331    98695735.455          76.572          51.000  
G03  22903605.828   120359257.961        1092.576          46.000    22903603.555    93786434.223         851.563          44.000  
E34  25799627.268   135578170.301       -1805.424          49.000    25799629.386   103884720.917       -1383.277          51.000  
G27  23463326.378   123300554.711       -4153.757          47.000    23463323.699    96078443.246       -3236.665          44.000  
E03  24469648.056   128588890.873         -27.890          49.000    24469648.370    98529169.955         -21.280          54.000  
G21  20745507.488   109018397.887         733.544          46.000                                                                  
E27  28169306.847   148030583.451       -2722.591          44.000    28169307.355   113426144.466       -2086.116          44.000  
E18  27349008.930   143720050.060       -1357.793          46.000                                                                  
G32  23220656.581   122025394.682       -3098.902          40.000    23220655.209    95084728.259       -2414.802          43.000  
E13  27390490.269   143938053.824        1404.348          38.000    27390492.978   110290165.921        1076.200          43.000  
G10                                                                  25515707.722                       -2907.198          29.000  
> 2024 04 15 11 13 30.0020000  0 24                     
S33  40473119.235   212687887.818        -648.442          42.000  
E05  25266471.796   132776214.301       -2598.264          42.000    25266473.503   101737630.949       -1990.799          50.000  
G04  25100797.193   131905551.226        3176.079          42.000    25100794.850   102783574.348        2475.224          39.000  
G02  21527864.312   113129722.970        1222.461          48.000                                                                  
R08  20608622.159   110358260.545        1508.784          52.000    20608615.698    85834345.903        1173.527          49.000  
R06  23768742.142   126834539.627       -4664.629          37.000                                                                  
R22  20118974.205   107396422.240        -431.306          51.000    20118970.973    83530626.329        -335.454          50.000  
G28  25229349.858   132581130.291        1318.596          40.000    25229349.188   103309945.751        1027.708          44.000  
G08  21506037.058   113015139.739       -2676.276          50.000    21506035.248    88063683.369       -2085.541          47.000  
E08  26346343.595   138450949.123        2118.573          44.000    26346343.385   106085782.907        1623.349          49.000  
S31  39519913.856   207678705.039        -648.982          44.000  
R21  22573868.454   120797615.630       -3470.260          52.000    22573862.806    93953532.892       -2699.292          45.000  
R23  22111946.266   118283906.332        2579.091          47.000                                                                  
E15  24510436.750   128803293.038          96.224          47.000    24510437.905    98693483.598          73.719          51.000  
G03  22897392.713   120326607.722        1084.566          45.000    22897391.072    93760992.424         845.103          44.000  
E34  25809949.736   135632412.704       -1810.613          49.000    25809951.276   103926283.178       -1387.381          51.000  
G27  23487062.187   123425287.147       -4161.525          47.000    23487058.944    96175637.218       -3242.699          43.000  
E03  24469846.370   128589934.852         -41.416          49.000    24469846.890    98529969.839         -31.737          54.000  
G21  20741354.950   108996578.649         721.287          45.000                                                                  
E27  28184862.944   148112328.998       -2726.904          43.000    28184863.177   113488780.602       -2089.302          43.000  
E18  27356757.095   143760765.577       -1356.373          46.000                                                                  
G32  23238390.360   122118584.938       -3113.594          42.000    23238389.229    95157343.956       -2426.210          43.000  
E13  27382467.864   143895896.629        1406.170          38.000    27382470.825   110257863.676        1077.363          44.000  
G10                                                                  25537000.622                       -2904.906          28.000  
> 2024 04 15 11 14 00.0020000  0 26                     
S33  40476821.006   212707341.489        -648.273          42.000  
E05  25281331.629   132854309.147       -2607.723          40.000    25281333.733   101797469.763       -1998.254          49.000  
G04  25082669.401   131810289.316        3174.789          42.000    25082666.774   102709344.172        2474.215          41.000  
G02  21520912.502   113093190.090        1213.397          48.000                                                                  
R07  20187043.317                3      -2006.479          13.000                                                                  
R08  20600230.794   110313320.202        1487.589          52.000    20600224.414    85799392.272        1156.940          49.000  
R06  23794974.519   126974519.769       -4667.277          36.000                                                                  
R22  20121449.713   107409630.307        -449.011          52.000    20121445.091    83540899.232        -349.268          50.000  
G28  25221840.786   132541672.041        1312.297          39.000    25221840.553   103279198.965        1022.027          44.000  
G08  21521365.582   113095693.096       -2693.506          49.000    21521363.190    88126452.127       -2098.676          46.000  
E08  26334266.739   138387485.945        2112.575          45.000    26334266.783   106037155.262        1618.786          49.000  
S31  39523620.946   207698185.293        -648.940          44.000  
R21  22593363.352   120901932.215       -3483.765          51.000    22593357.394    94034667.893       -2709.612          47.000  
R23  22097496.506   118206614.999        2573.992          47.000                                                                  
E15  24509898.349   128800466.328          92.600          47.000    24509899.763    98691317.639          70.897          51.000  
G03  22891226.361   120294201.156        1076.368          46.000    22891224.221    93735740.485         838.637          43.000  
E34  25820301.965   135686814.275       -1815.793          49.000    25820303.782   103967967.426       -1391.431          51.000  
G27  23510842.364   123550254.721       -4169.348          47.000    23510840.126    96273014.400       -3248.771          44.000  
G31  25904912.569                3       1590.935          27.000                                                                  
E03  24470122.826   128591389.856         -55.106          49.000    24470123.783    98531084.677         -42.222          54.000  
G21  20737273.738   108975128.803         709.050          46.000                                                                  
E27  28200443.050   148194202.041       -2731.140          40.000    28200442.563   113551514.476       -2092.702          40.000  
E18  27364497.601   143801442.786       -1354.940          46.000                                                                  
G32  23256210.360   122212226.786       -3128.810          43.000    23256207.988    95230311.544       -2437.913          42.000  
E13  27374438.878   143853698.043        1407.651          38.000    27374440.671   110225529.680        1078.569          44.000  
G10                                                                  25558277.881                       -2902.532          24.000  
> 2024 04 15 11 14 30.0020000  0 25                     
S33  40480522.224   212726791.356        -648.170          42.000  
E05  25296246.289   132932688.788       -2617.327          38.000    25296249.866   101857526.783       -2005.494          50.000  
G04  25064548.936   131715063.918        3173.534          43.000    25064546.417   102635142.461        2472.819          42.000  
G02  21514011.858   113056929.200        1204.248          47.000                                                                  
R08  20591956.667   110269016.900        1466.216          51.000    20591949.826    85764934.127        1140.288          49.000  
R06  23821221.935   127114577.509       -4670.204          37.000                                                                  
R22  20124023.255   107423370.619        -466.873          51.000    20124019.008    83551586.113        -363.173          50.000  
G28  25214373.145   132502426.902        1304.675          40.000    25214370.704   103248618.294        1016.622          42.000  
G08  21536791.630   113176757.592       -2710.693          49.000    21536788.941    88189619.200       -2112.122          46.000  
E08  26322224.567   138324201.718        2106.610          45.000    26322223.843   105988664.687        1614.163          48.000  
S31  39527327.154   207717662.440        -649.005          44.000  
R21  22612930.373   121006650.970       -3497.335          49.000    22612927.031    94116115.616       -2720.029          46.000  
R23  22083075.524   118129474.380        2568.814          46.000                                                                  
E15  24509381.587   128797748.689          88.792          47.000    24509382.502    98689235.246          68.078          50.000  
G03  22885104.669   120262033.965        1068.397          46.000    22885103.326    93710675.106         832.560          44.000  
E34  25830684.096   135741371.645       -1821.063          49.000    25830685.758   104009771.021       -1395.342          51.000  
G27  23534665.845   123675450.662       -4177.016          45.000    23534664.516    96370569.500       -3254.903          44.000  
G31  25895826.380   136083496.7771       1591.553          30.000    25895829.043                        1240.424          29.000  
E03  24470477.608   128593252.192         -68.780          49.000    24470477.816    98532511.615         -52.600          54.000  
G21  20733262.241   108954046.637         696.626          46.000                                                                  
E27  28216045.302   148276196.552       -2735.139          40.000    28216045.524   113614341.444       -2095.902          39.000  
E18  27372230.777   143842077.557       -1353.614          46.000                                                                  
G32  23274114.368   122306313.580       -3143.361          40.000    23274111.799    95303625.855       -2449.575          42.000  
E13  27366401.262   143811454.382        1409.062          39.000    27366401.433   110193161.123        1079.668          44.000  
G10                                                                  25579532.907                3      -2899.852          20.000  
