     3.00           OBSERVATION DATA    M: Mixed            RINEX VERSION / TYPE
CONVBIN 2.4.3                           20240415 235942 UTC PGM / RUN BY / DATE 
format: u-blox UBX                                          COMMENT             
log: /home/regis/git/gnsspwv/obsdata/VERT00CHL/2024-04-15/VECOMMENT             
{self.marker}                                               MARKER NAME         
                                                            MARKER NUMBER       
GEODETIC                                                    MARKER TYPE         
{self.observer}     {self.institution}                      OBSERVER / AGENCY   
UNKNOWN             UBLOX-ZED-F9P                           REC # / TYPE / VERS 
UNKNOWN             TWIVSP6037L                             ANT # / TYPE        
  1713381.0000 -5047934.0000 -3490983.0000                  APPROX POSITION XYZ 
        0.0000        0.0000        0.0000                  ANTENNA: DELTA H/E/N
G    8 C1C L1C D1C S1C C2L L2L D2L S2L                      SYS / # / OBS TYPES 
R    8 C1C L1C D1C S1C C2C L2C D2C S2C                      SYS / # / OBS TYPES 
E    8 C1C L1C D1C S1C C7Q L7Q D7Q S7Q                      SYS / # / OBS TYPES 
S    4 C1C L1C D1C S1C                                      SYS / # / OBS TYPES 
  2024    04    15    23    45   00.4990000     GPS         TIME OF FIRST OBS   
  2024    04    15    23    59   30.4990000     GPS         TIME OF LAST OBS    
                                                            END OF HEADER       
> 2024 04 15 23 45 00.4990000  0 22                     
G25  22794182.384   119784361.8331       1194.191          43.000    22794187.059    93338447.2501        930.518          42.000  
E19  23982034.122   126026421.5571      -2776.989          45.000    23982038.142    96565841.1511      -2127.942          46.000  
G24  20309554.184   106727582.6551        311.792          48.000    20309553.536    83164391.3651        242.907          47.000  
R16  20306859.808   108475683.5721        206.428          52.000    20306859.744    84370175.2471        160.566          51.000  
R17  20629537.868   110393317.1081       -511.133          51.000    20629535.650    85861655.0311       -397.479          48.000  
R06  20881283.033   111426543.4421       -920.424          40.000                                                                  
R15  20604069.774   110102139.6301      -2090.253          53.000    20604068.150    85635307.7951      -1625.787          48.000  
R05  21562534.812   115264050.1661      -4653.678          50.000    21562543.221    89649688.4791      -3619.552          47.000  
G17  23457708.307   123271071.5061      -4122.058          43.000    23457704.999    96055969.5571      -3212.006          40.000  
G19  21885209.248   115008045.8511      -3265.847          47.000                                                                  
S31  38402632.429   201807225.0111       -746.951          44.000  
S33  39354403.504   206808820.6181       -748.707          43.000  
G06  23478996.009   123383199.2171       1072.284          45.000    23478998.600    96142578.6991        835.413          42.000  
G11  24256790.242   127470356.8451       1907.223          45.000    24256816.043    99327690.0601       1485.873          44.000  
R18  21141296.862   112854080.6531       2691.728          51.000    21141300.788    87775655.7641       2093.588          48.000  
E04  24563920.788   129084255.7711        256.990          48.000    24563923.749    98908838.8581        196.995          51.000  
G12  21067236.197   110709265.9481        109.741          49.000    21067233.878    86267130.8411         85.612          44.000  
G13  22727247.613   119432333.4871      -4380.442          45.000                                                                  
G15  21489912.189   112930246.1911      -3291.159          48.000    21489915.422    87997614.1611      -2564.492          45.000  
E13  26614090.251   139858186.6481        828.761          40.000    26614097.073   107164180.5631        635.066          47.000  
E26  27112490.096   142477090.0441       1857.314          42.000    27112526.435   109170904.5711       1423.001          48.000  
E21  24142022.300   126867206.8871      -2037.744          48.000    24142024.601    97210392.4301      -1561.389          52.000  
> 2024 04 15 23 45 30.4990000  0 25                     
G25  22787380.145   119748608.931        1188.883          45.000    22787383.444    93310587.955         926.501          42.000  
E19  23997918.772   126109895.280       -2788.080          45.000    23997923.250    96629801.388       -2136.420          47.000  
G24  20307804.456   106718387.544         300.780          48.000    20307803.230    83157226.333         234.293          46.000  
R16  20305712.436   108469553.256         201.854          52.000    20305711.783    84365407.270         157.054          50.000  
R17  20632480.154   110409055.388        -538.397          52.000    20632476.245    85873895.963        -418.762          48.000  
R09  23566509.512                3       1704.557          13.000    23263345.225                3       1661.330          11.000  
R06  20886529.255   111454538.007        -946.429          40.000                                                                  
R15  20615816.183   110164905.207       -2094.519          53.000    20615814.731    85684125.422       -1629.071          49.000  
R05  21588676.426   115403792.017       -4662.806          49.000    21588685.668    89758375.778       -3626.579          48.000  
G17  23481265.780   123394863.697       -4130.963          43.000    23481261.973    96152431.035       -3219.006          41.000  
G19  21903892.418   115106225.863       -3279.946          47.000                                                                  
S31  38406898.891   201829645.330        -747.916          44.000  
S33  39358678.224   206831284.747        -749.441          43.000  
G06  23472905.392   123351200.658        1060.663          44.000    23472909.571    96117644.998         826.465          42.000  
G11  24245903.779   127413154.590        1905.997          44.000    24245928.669    99283118.510        1484.868          44.000  
R18  21126205.190   112773526.768        2678.153          49.000    21126210.703    87713003.081        2082.964          48.000  
E04  24562490.630   129076741.594         243.415          48.000    24562494.142    98903081.230         186.579          51.000  
G12  21066632.682   110706093.200         101.294          48.000    21066629.742    86264658.582          79.006          44.000  
G13  22752272.305   119563832.255       -4386.719          44.000                                                                  
G15  21508732.862   113029149.542       -3302.783          48.000    21508735.157    88074681.387       -2573.645          44.000  
E13  26609388.210   139833468.019         818.731          42.000    26609393.117   107145240.375         627.237          47.000  
E26  27101882.674   142421346.819        1858.500          43.000    27101918.266   109128192.655        1424.010          48.000  
E21  24153660.905   126928368.277       -2040.097          49.000    24153663.353    97257256.347       -1563.163          52.000  
E31                                                                  27216416.273                3        840.457          27.000  
R24                                                                  23455118.259                3      -2915.084          24.000  
> 2024 04 15 23 46 00.4990000  0 24                     
G25  22780605.445   119713004.653        1184.076          46.000    22780607.603    93282844.493         922.671          42.000  
E19  24013864.460   126193684.382       -2798.298          46.000    24013868.116    96694003.293       -2144.159          47.000  
G24  20306115.225   106709513.291         290.238          48.000    20306114.461    83150311.350         226.164          46.000  
R16  20304587.555   108463543.880         198.106          52.000    20304586.609    84360733.352         154.131          50.000  
R17  20635571.131   110425600.092        -565.094          51.000    20635566.996    85886764.101        -439.587          47.000  
R06  20891922.391   111483313.011        -972.539          41.000                                                                  
R15  20627582.924   110227782.993       -2098.028          53.000    20627581.339    85733030.336       -1631.860          48.000  
R05  21614866.020   115543791.308       -4671.094          48.000    21614876.111    89867263.283       -3633.127          48.000  
G17  23504870.813   123518908.770       -4139.239          43.000    23504866.970    96249089.580       -3225.525          40.000  
G19  21922652.519   115204811.406       -3293.107          47.000                                                                  
S31  38411166.884   201852070.787        -747.668          45.000  
S33  39362953.793   206853751.690        -749.101          43.000  
G06  23466879.735   123319537.831        1049.585          45.000    23466883.790    96092972.887         817.914          42.000  
G11  24235022.573   127355977.900        1905.142          44.000    24235046.922    99238566.947        1484.464          44.000  
R18  21111189.825   112693372.107        2664.924          50.000    21111195.699    87650660.925        2072.719          49.000  
E04  24561135.642   129069622.314         230.653          47.000    24561139.604    98897626.182         176.746          51.000  
G12  21066074.800   110703162.869          93.513          48.000    21066072.035    86262375.266          72.794          44.000  
G13  22777330.320   119695504.081       -4392.199          45.000                                                                  
G15  21527617.426   113128388.112       -3313.783          48.000    21527619.948    88152009.801       -2582.077          44.000  
E13  26604739.552   139809041.337         809.201          42.000    26604744.997   107126523.924         620.007          47.000  
E26  27091267.468   142365560.662        1860.044          44.000    27091302.179   109085447.950        1425.243          47.000  
E21  24165310.529   126989587.484       -2041.729          49.000    24165312.993    97304164.566       -1564.406          52.000  
E31                                                                  27210160.658                         838.606          27.000  
R09                                                                  23255737.422                3       1656.743          13.000  
> 2024 04 15 23 46 30.4990000  0 24                     
G25  22773858.022   119677547.402        1179.694          45.000    22773860.243    93255215.588         919.527          42.000  
E19  24029868.552   126277786.256       -2808.528          46.000    24029872.585    96758444.848       -2151.928          47.000  
G24  20304487.273   106700960.509         279.829          47.000    20304486.872    83143646.834         217.993          46.000  
R16  20303484.847   108457653.863         194.453          51.000    20303483.804    84356152.257         151.326          50.000  
R17  20638813.940   110442950.920        -591.656          52.000    20638810.561    85900259.221        -460.284          49.000  
R06  20897461.415   111512866.176        -997.769          42.000    20898376.382                3       -421.656          12.000  
R15  20639370.239   110290771.660       -2101.270          52.000    20639367.706    85782021.508       -1634.393          47.000  
R05  21641104.068   115684041.974       -4678.910          47.000    21641113.541    89976346.299       -3639.274          48.000  
G17  23528523.314   123643202.878       -4147.028          43.000    23528519.239    96345942.218       -3231.683          39.000  
G19  21941488.501   115303798.529       -3306.198          45.000                                                                  
S31  38415434.281   201874497.890        -747.416          44.000  
S33  39367230.010   206876222.193        -748.974          43.000  
G06  23460919.018   123288212.270        1038.849          46.000    23460922.837    96068563.582         809.485          42.000  
G11  24224145.349   127298828.525        1904.528          44.000    24224169.305    99194036.667        1484.067          43.000  
R18  21096249.468   112613620.220        2651.799          50.000    21096255.105    87588631.993        2062.488          49.000  
E04  24559856.092   129062897.566         217.650          47.000    24559859.789    98892473.432         166.776          51.000  
G12  21065562.218   110700472.903          85.852          48.000    21065559.774    86260279.257          66.771          44.000  
G13  22802420.348   119827345.361       -4397.447          44.000                                                                  
G15  21546565.158   113227958.120       -3324.309          48.000    21546567.681    88229596.492       -2590.354          44.000  
E13  26600146.855   139784907.092         799.794          44.000    26600151.739   107108031.574         612.881          46.000  
E26  27080644.062   142309732.381        1861.686          45.000    27080677.841   109042671.067        1426.520          47.000  
E21  24176970.588   127050862.593       -2043.303          49.000    24176973.041    97351115.614       -1565.680          52.000  
E31                                                                  27203924.196                         835.514          25.000  
R09                                                                  23543738.269                3       1650.891          14.000  
> 2024 04 15 23 47 00.4990000  0 24                     
G25  22767138.527   119642241.462        1174.261          43.000    22767141.001    93227704.621         915.176          42.000  
E19  24045933.066   126362204.111       -2819.326          46.000    24045936.974    96823128.509       -2160.293          48.000  
G24  20302921.808   106692735.654         268.388          48.000    20302921.283    83137237.851         209.283          45.000  
R16  20302405.226   108451887.834         189.959          52.000    20302405.549    84351667.597         147.722          51.000  
R17  20642207.409   110461113.258        -619.104          52.000    20642205.028    85914385.539        -481.409          49.000  
R06  20903146.932   111543201.189       -1024.329          42.000                                                                  
R15  20651179.334   110353876.087       -2105.518          52.000    20651177.448    85831102.682       -1637.683          47.000  
R05  21667388.657   115824544.032       -4687.712          47.000    21667398.311    90085624.741       -3646.021          48.000  
G17  23552223.508   123767747.564       -4155.768          43.000    23552218.657    96442990.065       -3238.391          37.000  
G19  21960402.072   115403189.521       -3319.792          44.000                                                                  
S31  38419703.413   201896932.818        -747.869          44.000  
S33  39371507.080   206898698.752        -749.558          43.000  
G06  23455023.405   123257231.481        1026.886          45.000    23455026.715    96044422.879         800.183          42.000  
G11  24213276.057   127241714.167        1903.008          42.000    24213298.995    99149533.696        1483.026          43.000  
R18  21081385.419   112534280.446        2637.539          49.000    21081391.310    87526923.557        2051.602          49.000  
E04  24558653.677   129056572.936         203.975          48.000    24558656.182    98887627.267         156.307          51.000  
G12  21065097.719   110698027.717          77.307          49.000    21065094.892    86258373.966          60.017          44.000  
G13  22827542.762   119959358.046       -4403.418          44.000                                                                  
G15  21565576.655   113327861.420       -3335.812          48.000    21565579.901    88307442.842       -2599.226          44.000  
E13  26595611.107   139761071.849         789.459          44.000    26595616.322   107089768.272         604.912          47.000  
E26  27070012.498   142253868.591        1862.582          45.000    27070046.443   108999867.084        1427.073          47.000  
E21  24188641.995   127112197.565       -2045.726          48.000    24188644.704    97398112.521       -1567.437          52.000  
E31                                                                  27197708.518                3        826.811          21.000  
R24                                                                  23518640.888                3      -2945.633          14.000  
> 2024 04 15 23 47 30.4990000  0 25                     
G25  22760447.545   119607087.833        1169.136          43.000    22760452.019    93200312.341         910.878          42.000  
E19  24062057.283   126446937.952       -2829.849          45.000    24062061.507    96888054.287       -2168.344          48.000  
G24  20301420.290   106684841.833         257.420          48.000    20301419.417    83131086.806         200.616          46.000  
R16  20301349.377   108446247.106         185.821          51.000    20301349.657    84347280.392         144.494          51.000  
R17  20645753.169   110480089.383        -646.234          52.000    20645751.759    85929144.809        -502.704          50.000  
R06  20908977.640   111574318.411       -1050.357          42.000                                                                  
R15  20663010.695   110417097.874       -2109.558          53.000    20663008.882    85880275.180       -1640.729          49.000  
R05  21693720.192   115965294.525       -4696.056          46.000    21693729.147    90195096.435       -3652.275          47.000  
G17  23575970.955   123892541.169       -4164.166          43.000    23575965.841    96540231.843       -3244.647          36.000  
G19  21979391.595   115502982.369       -3333.210          44.000                                                                  
S31  38423974.625   201919377.001        -748.490          44.000  
S33  39375785.966   206921185.144        -749.892          43.000  
G06  23449194.613   123226599.547        1015.009          45.000    23449197.521    96020554.007         791.071          43.000  
G11  24202412.940   127184639.013        1901.787          43.000    24202436.776    99105061.312        1481.726          44.000  
R18  21066600.896   112455358.815        2623.487          50.000    21066606.149    87465540.343        2040.531          49.000  
E04  24557526.960   129050650.587         190.494          48.000    24557528.871    98883089.347         146.024          51.000  
G12  21064678.066   110695826.697          69.199          49.000    21064675.675    86256658.922          53.727          45.000  
G13  22852698.056   120091540.723       -4409.032          45.000                                                                  
G15  21584651.856   113428096.097       -3346.711          49.000    21584653.517    88385547.453       -2607.839          43.000  
E13  26591133.198   139737538.637         779.200          45.000    26591138.125   107071736.405         597.152          47.000  
E26  27059375.327   142197972.641        1863.648          45.000    27059408.846   108957038.538        1428.006          46.000  
E21  24200325.170   127173593.062       -2047.691          47.000    24200327.844    97445155.820       -1568.955          52.000  
E31                                                                  27191511.965                3        812.083          20.000  
R09                                                                  23529413.465                3       1640.000          16.000  
R14                                                                  24168463.770                3      -2469.578          19.000  
> 2024 04 15 23 48 00.4990000  0 26                     
G25  22753789.546   119572095.687        1163.196          45.000    22753793.135    93173045.870         906.657          41.000  
E19  24078243.131   126531995.613       -2840.927          45.000    24078248.086    96953228.171       -2176.814          48.000  
G24  20299983.462   106677290.414         245.732          49.000    20299982.454    83125202.569         191.608          45.000  
R16  20300318.485   108440741.416         180.900          51.000    20300318.048    84342998.240         140.715          50.000  
R17  20649453.019   110499889.711        -674.109          51.000    20649450.976    85944545.104        -524.286          49.000  
R06  20914956.180   111606226.361       -1077.070          39.000    20915068.749                3       -459.945          13.000  
R15  20674865.332   110480447.319       -2114.081          52.000    20674864.030    85929546.951       -1644.299          48.000  
R05  21720099.752   116106298.233       -4704.802          46.000    21720107.942    90304765.035       -3659.125          47.000  
G17  23599766.937   124017590.659       -4172.852          42.000    23599761.685    96637673.075       -3252.069          35.000  
G19  21998459.126   115603184.699       -3347.262          44.000                                                                  
S31  38428249.053   201941838.958        -749.421          44.000  
S33  39380068.506   206943688.570        -750.599          43.000  
G06  23443433.799   123196328.873        1002.716          45.000    23443436.736    95996966.634         781.195          44.000  
G11  24191561.499   127127615.675        1899.657          44.000    24191584.153    99060629.228        1480.070          44.000  
R18  21051897.216   112376869.359        2608.805          50.000    21051902.807    87404493.280        2029.010          49.000  
R07  23177215.337                3       2073.628          30.000    23177205.541                1       1613.526          28.000  
E04  24556477.956   129045140.989         176.590          47.000    24556480.624    98878867.699         135.226          51.000  
G12  21064308.031   110693879.675          60.399          49.000    21064305.521    86255141.786          46.967          45.000  
G13  22877886.864   120223900.207       -4415.238          45.000                                                                  
G15  21603790.676   113528669.331       -3358.386          48.000    21603792.484    88463915.850       -2616.888          43.000  
E13  26586713.962   139714318.733         768.701          45.000    26586719.451   107053944.631         588.831          46.000  
E26  27048734.680   142142056.094        1863.934          45.000    27048767.214   108914194.297        1428.177          46.000  
E21  24212021.449   127235057.978       -2050.133          47.000    24212024.362    97492252.309       -1571.013          52.000  
E31                                                                  27185339.363                3        827.349          10.000  
R09                                                                  23515816.498                3       1644.484          14.000  
R14                                                                  24186236.008                3      -2469.984          12.000  
> 2024 04 15 23 48 30.4990000  0 23                     
G25  22747160.978   119537262.042        1158.448          45.000    22747163.787    93145902.896         902.740          41.000  
E19  24094490.099   126617373.270       -2851.205          44.000    24094494.914    97018647.245       -2184.577          49.000  
G24  20298611.291   106670080.562         234.544          49.000    20298610.097    83119584.508         182.669          45.000  
R16  20299311.997   108435367.613         176.835          51.000    20299312.198    84338818.678         137.566          51.000  
R17  20653308.171   110520512.325        -701.221          52.000    20653304.998    85960584.940        -545.325          49.000  
R06  20921083.020   111638921.444       -1103.055          41.000                                                                  
R15  20686744.089   110543921.576       -2117.890          52.000    20686741.773    85978915.770       -1647.288          48.000  
R05  21746524.512   116247547.826       -4712.286          46.000    21746533.273    90414624.837       -3665.127          48.000  
G17  23623611.210   124142890.338       -4180.707          42.000    23623605.334    96735309.196       -3258.197          34.000  
G19  22017603.944   115703791.048       -3360.274          43.000                                                                  
S31  38432526.195   201964316.086        -749.643          44.000  
S33  39384354.058   206966208.495        -751.179          42.000  
G06  23437741.810   123166419.604         990.881          44.000    23437745.987    95973660.857         772.186          45.000  
G11  24180718.804   127070644.505        1897.976          44.000    24180740.808    99016237.832        1479.095          45.000  
R18  21037275.207   112298814.332        2594.647          50.000    21037280.204    87343784.096        2017.963          49.000  
R07  23165637.047                        2055.815          31.000    23165634.701                        1598.507          27.000  
E04  24555507.496   129040042.431         163.161          47.000    24555510.431    98874960.987         125.059          51.000  
G12  21063985.400   110692182.917          52.479          50.000    21063982.362    86253819.689          40.731          45.000  
G13  22903107.755   120356431.050       -4420.646          43.000                                                                  
G15  21622992.480   113629576.079       -3369.160          48.000    21622993.909    88542544.134       -2625.273          42.000  
E13  26582353.243   139691411.399         758.479          44.000    26582360.165   107036392.347         581.195          46.000  
E26  27038088.658   142086118.380        1864.961          45.000    27038121.929   108871333.934        1428.989          46.000  
E21  24223730.136   127296589.059       -2052.112          47.000    24223733.449    97539399.485       -1572.439          52.000  
> 2024 04 15 23 49 00.4990000  0 24                     
G25  22740561.496   119502580.981        1153.390          45.000    22740563.514    93118878.814         898.851          40.000  
E19  24110796.364   126703063.780       -2861.810          44.000    24110801.546    97084306.039       -2192.715          48.000  
G24  20297304.324   106663208.544         223.310          49.000    20297302.898    83114229.662         173.857          45.000  
R16  20298329.483   108430120.309         172.657          50.000    20298329.844    84334737.482         134.259          51.000  
R17  20657313.783   110541951.812        -728.565          51.000    20657310.936    85977260.125        -566.620          49.000  
R06  20927357.273   111672396.993       -1129.397          41.000                                                                  
R15  20698643.455   110607515.372       -2122.064          51.000    20698641.845    86028377.584       -1650.329          47.000  
R05  21772993.489   116389033.216       -4720.308          46.000    21773001.624    90524667.995       -3671.224          47.000  
G17  23647500.727   124268431.464       -4188.885          41.000    23647495.327    96833133.458       -3263.788          33.000  
G19  22036824.505   115804792.866       -3373.460          44.000                                                                  
S31  38436805.596   201986804.189        -749.887          45.000  
S33  39388641.139   206988737.745        -751.372          43.000  
G06  23432119.428   123136868.924         978.925          45.000    23432122.746    95950634.491         762.689          45.000  
G11  24169885.050   127013722.954        1896.400          43.000    24169906.797    98971885.120        1477.527          44.000  
R18  21022732.427   112221192.650        2579.829          49.000    21022739.038    87283411.925        2006.523          50.000  
R07  23154169.031                        2036.689          28.000    23154146.607                3       1585.261          25.000  
E04  24554614.643   129035350.157         149.264          48.000    24554617.472    98871365.598         114.333          51.000  
G12  21063709.266   110690730.135          44.141          49.000    21063705.653    86252687.687          34.425          44.000  
G13  22928360.290   120489125.131       -4425.924          43.000                                                                  
G15  21642256.166   113730807.710       -3380.099          47.000    21642258.292    88621425.536       -2633.588          42.000  
E13  26578052.075   139668812.763         747.823          44.000    26578060.268   107019076.602         572.962          46.000  
E26  27027438.057   142030155.932        1865.550          44.000    27027471.434   108828454.698        1429.407          46.000  
E21  24235450.058   127358180.024       -2054.254          47.000    24235454.067    97586592.562       -1574.021          53.000  
R09                                                                  23199904.426                3       1632.532          15.000  
> 2024 04 15 23 49 30.4990000  0 24                     
G25  22733990.778   119468052.367        1148.173          45.000    22733993.404    93091973.533         894.589          40.000  
E19  24127161.626   126789065.983       -2872.119          44.000    24127166.851    97150203.667       -2200.787          48.000  
G24  20296061.185   106656676.433         211.764          49.000    20296060.061    83109139.678         165.105          45.000  
R16  20297370.343   108424999.635         168.463          50.000    20297371.126    84330754.761         130.906          50.000  
R17  20661473.895   110564209.560        -755.750          51.000    20661471.053    85994571.733        -587.872          49.000  
R06  20933776.962   111706651.976       -1155.060          41.000                                                                  
R15  20710567.389   110671229.013       -2126.032          52.000    20710564.804    86077932.624       -1653.536          48.000  
R05  21799505.646   116530749.926       -4727.925          47.000    21799513.063    90634891.014       -3677.367          45.000  
G17  23671436.042   124394211.941       -4196.863          41.000    23671431.095    96931144.233       -3269.983          33.000  
G19  22056119.494   115906188.002       -3386.665          43.000                                                                  
S31  38441087.015   202009302.123        -750.269          45.000  
S33  39392930.277   207011276.943        -751.761          43.000  
G06  23426564.783   123107679.914         966.541          45.000    23426566.733    95927889.935         753.101          44.000  
G11  24159062.788   126956854.354        1894.454          44.000    24159083.166    98927573.631        1475.984          43.000  
R18  21008274.260   112144009.172        2565.184          51.000    21008279.404    87223380.610        1995.037          50.000  
R07  23142797.191                1       2017.682          28.000    23142805.133    96355117.0551       1569.064          34.000  
E04  24553799.033   129031065.294         135.801          47.000    24553802.044    98868082.371         104.034          51.000  
G12  21063478.457   110689520.618          35.967          49.000    21063475.012    86251745.248          28.114          44.000  
G13  22953643.214   120621980.025       -4431.432          44.000                                                                  
G15  21661581.332   113832361.794       -3390.729          46.000    21661582.994    88700558.212       -2642.172          41.000  
E13  26573811.889   139646524.824         737.507          44.000    26573818.927   107001998.906         565.096          47.000  
E26  27016783.051   141974171.029        1866.364          43.000    27016816.633   108785558.321        1430.017          46.000  
E21  24247182.384   127419830.558       -2056.188          47.000    24247185.959    97633831.275       -1575.618          53.000  
R09                                                                  23487589.502                3       1636.250          12.000  
> 2024 04 15 23 50 00.4990000  0 23                     
G25  22727447.935   119433675.228        1143.129          44.000    22727452.555    93065186.258         890.773          41.000  
E19  24143586.169   126875377.610       -2882.552          44.000    24143591.423    97216338.377       -2208.624          48.000  
G24  20294883.088   106650485.385         200.389          50.000    20294881.773    83104315.472         155.966          45.000  
R16  20296436.774   108420004.853         164.073          52.000    20296436.565    84326869.968         127.537          51.000  
R17  20665786.216   110587285.160        -783.209          51.000    20665783.534    86012519.444        -609.045          50.000  
R06  20940342.322   111741684.498       -1181.040          41.000                                                                  
R15  20722513.468   110735062.395       -2130.169          52.000    20722510.953    86127580.759       -1656.710          49.000  
R05  21826059.509   116672693.037       -4735.563          47.000    21826067.398    90745290.118       -3683.119          45.000  
G17  23695416.082   124520227.886       -4204.684          40.000    23695412.101    97029338.501       -3275.882          33.000  
G19  22075487.875   116007973.229       -3399.636          42.000                                                                  
S31  38445369.859   202031809.205        -750.599          45.000  
S33  39397221.474   207033826.823        -752.064          43.000  
G06  23421078.931   123078854.687         954.462          43.000    23421081.222    95905428.877         743.762          44.000  
G11  24148251.337   126900041.076        1892.411          44.000    24148271.198    98883305.228        1474.590          44.000  
R18  20993898.003   112067267.851        2550.312          51.000    20993902.451    87163693.181        1983.514          49.000  
R07  23131534.465   123824930.3441       1998.029          33.000    23131549.378    96308258.807        1554.364          32.000  
E04  24553061.210   129027188.076         122.117          47.000    24553064.217    98865111.479          93.672          51.000  
G12  21063294.423   110688553.209          27.887          49.000    21063291.225    86250991.440          21.830          44.000  
G13  22978955.975   120754992.313       -4436.916          44.000                                                                  
G15  21680966.755   113934235.176       -3401.473          46.000    21680969.430    88779939.690       -2650.660          42.000  
E13  26569630.562   139624548.723         727.078          44.000    26569637.045   106985160.154         557.029          46.000  
E26  27006125.796   141918165.120        1866.959          43.000    27006157.868   108742645.897        1430.508          46.000  
E21  24258925.559   127481539.417       -2058.217          47.000    24258929.078    97681114.665       -1577.074          53.000  
> 2024 04 15 23 50 30.4990000  0 25                     
G25  22720935.939   119399454.189        1138.320          45.000    22720941.308    93038520.630         886.856          42.000  
E19  24160070.564   126962002.224       -2892.655          45.000    24160075.519    97282712.923       -2216.457          47.000  
G24  20293771.515   106644642.183         188.990          50.000    20293769.817    83099762.300         147.273          45.000  
R16  20295526.508   108415141.162         159.980          52.000    20295525.771    84323087.107         124.495          50.000  
R17  20670251.165   110611184.228        -810.297          49.000    20670248.662    86031107.656        -630.243          49.000  
R09  23470941.651                3       1655.452          12.000                                                                  
R06  20947053.983   111777498.410       -1206.701          42.000                                                                  
R15  20734481.907   110799020.812       -2134.057          52.000    20734478.841    86177326.153       -1659.819          49.000  
R05  21852655.026   116814862.528       -4742.594          47.000    21852664.747    90855865.177       -3688.592          45.000  
G17  23719441.200   124646481.637       -4212.364          38.000    23719438.237    97127718.110       -3282.263          32.000  
G19  22094931.576   116110150.694       -3412.612          41.000                                                                  
S31  38449655.975   202054331.843        -751.051          45.000  
S33  39401514.964   207056389.612        -752.376          43.000  
G06  23415664.069   123050400.975         942.322          44.000    23415666.471    95883257.281         734.235          44.000  
G11  24137450.251   126843291.012        1890.686          45.000    24137469.628    98839086.085        1473.060          42.000  
R18  20979605.931   111990978.312        2535.492          51.000    20979610.745    87104357.134        1971.963          49.000  
R07  23120396.946   123765261.052        1979.865          35.000    23120403.065                        1540.171          30.000  
E04  24552401.897   129023724.295         108.559          47.000    24552405.209    98862457.385          83.195          51.000  
G12  21063157.145   110687831.915          19.962          48.000    21063154.104    86250429.410          15.619          45.000  
G13  23004299.820   120888164.245       -4441.704          44.000                                                                  
G15  21700414.689   114036429.897       -3411.760          47.000    21700417.401    88859571.527       -2658.250          43.000  
E13  26565509.913   139602891.153         716.640          45.000    26565515.844   106968565.474         549.037          46.000  
E26  26995464.333   141862145.167        1867.437          44.000    26995496.267   108699722.793        1430.942          45.000  
E21  24270680.979   127543310.913       -2060.073          47.000    24270683.547    97728446.043       -1578.567          53.000  
E31                                                                  27154772.242                3        815.324          26.000  
> 2024 04 15 23 51 00.4990000  0 24                     
G25  22714453.543   119365390.036        1132.744          45.000    22714459.088    93011977.262         882.343          43.000  
E19  24176614.110   127048939.492       -2903.250          44.000    24176619.204    97349327.011       -2224.482          47.000  
G24  20292726.438   106639149.759         177.124          50.000    20292724.644    83095482.481         137.827          45.000  
R16  20294641.119   108410409.450         155.364          51.000    20294639.367    84319406.935         120.818          49.000  
R17  20674872.610   110635908.392        -838.049          52.000    20674869.767    86050337.592        -651.880          50.000  
R06  20953910.952   111814093.678       -1232.999          42.000                                                                  
R15  20746474.356   110863105.561       -2138.417          51.000    20746472.139    86227169.816       -1663.212          49.000  
R05  21879292.141   116957254.806       -4750.244          46.000    21879303.543    90966613.523       -3694.713          45.000  
G17  23743510.868   124772971.286       -4219.977          36.000    23743509.197                       -3289.000          31.000  
G19  22114449.418   116212718.968       -3425.590          41.000                                                                  
S31  38453944.720   202076869.769        -751.798          45.000  
S33  39405811.846   207078969.026        -753.000          43.000  
G06  23410321.230   123022322.720         929.565          43.000    23410324.286    95861378.233         724.390          44.000  
G11  24126662.138   126786608.461        1887.997          45.000    24126681.642    98794919.500        1471.018          41.000  
R18  20965400.119   111915146.150        2519.932          50.000    20965404.526    87045376.856        1959.877          50.000  
R07  23109354.303   123706173.570        1959.216          32.000    23109360.727                1       1525.118          31.000  
E04  24551822.517   129020675.919          94.481          47.000    24551825.189    98860121.588          72.419          51.000  
G12  21063066.447   110687357.287          11.603          49.000    21063063.572    86250059.594           9.081          45.000  
G13  23029673.002   121021494.243       -4447.183          43.000                                                                  
G15  21719923.024   114138944.423       -3422.657          47.000    21719926.240    88939452.549       -2667.004          43.000  
E13  26561449.811   139581555.016         705.704          44.000    26561455.534   106952217.089         540.662          46.000  
E26  26984801.392   141806114.409        1867.617          44.000    26984832.647   108656791.450        1431.035          45.000  
E21  24282447.217   127605145.559       -2062.444          47.000    24282450.158    97775825.817       -1580.265          53.000  
E31                                                                  27148721.515                3        811.916          23.000  
> 2024 04 15 23 51 30.4990000  0 24                     
G25  22708001.378   119331480.997        1127.627          46.000    22708005.810    92985554.731         879.002          43.000  
E19  24193216.946   127136186.671       -2913.422          44.000    24193221.706    97416178.563       -2232.395          47.000  
G24  20291748.207   106634008.566         165.490          50.000    20291745.912    83091476.320         128.985          45.000  
R16  20293779.433   108405808.621         151.110          52.000    20293777.355    84315828.524         117.553          49.000  
R17  20679646.632   110661456.785        -865.436          50.000    20679643.536    86070208.589        -673.083          49.000  
R06  20960915.421   111851467.379       -1258.832          41.000                                                                  
R15  20758490.924   110927315.722       -2142.519          52.000    20758489.122    86277111.002       -1666.448          50.000  
R05  21905970.934   117099864.400       -4757.315          46.000    21905983.433    91077530.844       -3700.181          45.000  
G17  23767624.082   124899692.836       -4228.396          34.000    23767624.755                       -3294.479          29.000  
G19  22134041.127   116315673.572       -3438.173          42.000                                                                  
S31  38458236.556   202099421.971        -752.003          45.000  
S33  39410111.438   207101562.304        -753.366          43.000  
G06  23405049.198   122994621.248         916.858          42.000    23405053.378    95839792.810         714.398          44.000  
G11  24115887.563   126729995.071        1885.840          46.000    24115906.839    98750806.815        1469.471          40.000  
R18  20951279.922   111839774.982        2504.562          51.000    20951284.655    86986755.094        1948.007          49.000  
R07  23098423.418                        1939.808          27.000    23098431.103    96170448.9301       1508.958          34.000  
E04  24551321.563   129018042.421          80.982          47.000    24551324.282    98858103.696          61.903          51.000  
G12  21063023.661   110687127.104           3.652          49.000    21063020.670    86249880.298           2.806          46.000  
G13  23055075.923   121154978.251       -4452.146          43.000                                                                  
E31  27142679.334                1       1054.390          29.000    27142690.509   109292369.9531        807.983          29.000  
G15  21739490.986   114241774.611       -3432.843          47.000    21739494.507    89019579.531       -2674.878          43.000  
E13  26557450.648   139560540.738         695.035          43.000    26557456.210   106936115.294         532.594          46.000  
E26  26974136.336   141750073.575        1867.965          44.000    26974166.674   108613852.433        1431.230          44.000  
E21  24294225.466   127667041.413       -2064.192          47.000    24294228.495    97823252.516       -1581.792          53.000  
> 2024 04 15 23 52 00.4990000  0 24                     
G25  22701577.915   119297725.880        1122.219          47.000    22701581.458    92959252.146         874.638          42.000  
E19  24209878.442   127223741.191       -2923.840          44.000    24209882.870    97483265.582       -2240.315          47.000  
G24  20290836.600   106629219.553         153.509          50.000    20290834.461    83087744.601         119.566          44.000  
R16  20292942.152   108401337.613         146.525          52.000    20292940.919    84312351.105         114.007          50.000  
R17  20684573.973   110687828.751        -893.030          50.000    20684572.056    86090720.147        -694.604          50.000  
R06  20968064.643   111889617.442       -1285.075          41.000                                                                  
R15  20770529.869   110991650.685       -2146.843          52.000    20770527.586    86327149.263       -1669.824          49.000  
R05  21932689.682   117242685.592       -4764.389          46.000    21932702.618    91188612.652       -3705.527          45.000  
G17  23791781.447   125026642.469       -4235.650          31.000    23791779.878                       -3300.880          27.000  
G19  22153706.010   116419011.952       -3451.229          42.000                                                                  
S31  38462530.910   202121988.020        -752.845          44.000  
S33  39414413.455   207124169.807        -753.893          43.000  
G06  23399850.620   122967298.453         904.156          43.000    23399853.291    95818502.429         704.565          44.000  
G11  24105127.537   126673453.021        1883.213          46.000    24105146.101    98706749.674        1467.379          42.000  
R18  20937246.823   111764868.114        2488.939          51.000    20937251.973    86928494.453        1935.801          49.000  
R07  23087602.667   123589751.861        1920.131          34.000    23087609.324                        1494.720          30.000  
E04  24550899.904   129015823.714          66.805          48.000    24550901.907    98856403.618          51.118          51.000  
G12  21063025.778   110687139.714          -4.695          49.000    21063023.496    86249890.157          -3.750          46.000  
G13  23080506.778   121288612.866       -4457.490          43.000                                                                  
E31  27136667.932                        1050.991          29.000    27136681.555                         804.530          31.000  
G15  21759118.828   114344917.033       -3443.544          47.000    21759122.628    89099949.810       -2683.265          44.000  
E13  26553511.575   139539849.082         684.102          41.000    26553518.976   106920260.730         524.169          46.000  
E26  26963469.586   141694023.798        1868.286          44.000    26963499.358   108570906.591        1431.404          44.000  
E21  24306014.811   127728997.046       -2066.388          47.000    24306018.301    97870724.996       -1583.352          53.000  
> 2024 04 15 23 52 30.4990000  0 25                     
G25  22695183.607   119264125.099        1117.525          46.000    22695187.291    92933069.865         870.729          42.000  
E19  24226596.795   127311602.508       -2933.737          43.000    24226602.571    97550587.662       -2247.915          47.000  
G24  20289992.406   106624785.334         141.858          50.000    20289990.808    83084289.319         110.646          45.000  
R16  20292129.822   108396997.167         142.591          51.000    20292128.881    84308975.255         110.932          50.000  
R17  20689655.820   110715025.618        -920.281          50.000    20689654.725    86111873.263        -715.774          50.000  
R09  23435129.206                3       1643.000          13.000                                                                  
R06  20975359.735   111928543.211       -1310.365          42.000                                                                  
R15  20782593.789   111056111.628       -2150.760          52.000    20782591.772    86377285.503       -1672.822          50.000  
R05  21959447.179   117385714.384       -4771.061          45.000    21959460.440    91299855.907       -3710.816          46.000  
G17  23815980.576   125153817.912       -4243.356          29.000    23815974.486                3      -3306.006          24.000  
G19  22173443.515   116522731.728       -3463.681          43.000                                                                  
S31  38466827.659   202144568.312        -752.791          45.000  
S33  39418718.315   207146790.827        -754.503          43.000  
G06  23394724.036   122940357.812         891.785          43.000    23394727.420    95797509.849         694.794          44.000  
G11  24094380.449   126616986.205        1880.957          46.000    24094399.851    98662751.198        1465.527          43.000  
R18  20923301.785   111690431.140        2473.405          50.000    20923306.694    86870599.294        1923.726          49.000  
R07  23076899.473   123532423.965        1901.439          36.000    23076893.362    96080813.514        1477.772          32.000  
E04  24550556.601   129014021.450          53.089          48.000    24550558.825    98855022.641          40.712          51.000  
G12  21063073.654   110687395.376         -12.458          49.000    21063071.292    86250089.383          -9.717          46.000  
G13  23105965.979   121422396.211       -4462.068          43.000                                                                  
E31  27130677.687                        1047.289          30.000    27130691.562   109244053.377         802.244          32.000  
G15  21778805.833   114448369.611       -3453.399          47.000    21778809.357    89180561.753       -2690.931          43.000  
E13  26549636.017   139519482.678         673.288          41.000    26549643.409   106904655.374         516.051          46.000  
E26  26952801.136   141637968.018        1868.637          43.000    26952831.055   108527956.187        1431.752          45.000  
E21  24317817.309   127791012.681       -2068.177          48.000    24317819.611    97918243.455       -1584.756          53.000  
> 2024 04 15 23 53 00.4990000  0 24                     
G25  22688819.469   119230680.454        1112.012          45.000    22688822.867    92907009.211         866.637          42.000  
E19  24243375.149   127399771.061       -2944.292          43.000    24243380.791    97618145.173       -2256.107          47.000  
G24  20289217.095   106620709.771         129.699          50.000    20289215.967    83081113.511         101.184          45.000  
R16  20291341.474   108392789.543         137.786          50.000    20291341.576    84305702.706         107.122          50.000  
R17  20694892.883   110743049.850        -948.252          50.000    20694890.660    86133669.899        -737.503          49.000  
R06  20982799.798   111968245.380       -1336.585          41.000                                                                  
R15  20794680.390   111120701.011       -2155.489          52.000    20794678.619    86427521.646       -1676.405          50.000  
R05  21986243.608   117528948.635       -4778.081          45.000    21986256.059    91411258.904       -3716.389          45.000  
G17  23840223.516   125281218.904       -4250.197          28.000    23840211.744                3      -3309.676          19.000  
G19  22193253.802   116626832.265       -3476.700          44.000                                                                  
S31  38471127.833   202167165.653        -753.761          45.000  
S33  39423025.787   207169427.933        -755.129          43.000  
G06  23389671.070   122913804.236         878.351          44.000    23389673.675    95776818.852         684.522          42.000  
G11  24083648.607   126560599.778        1877.784          45.000    24083667.091    98618815.287        1463.068          43.000  
R18  20909447.139   111616470.718        2457.021          51.000    20909451.218    86813074.764        1911.102          49.000  
R07  23066304.212   123475690.998        1880.745          38.000    23066295.784    96036688.006        1462.753          31.000  
E04  24550293.348   129012638.493          38.743          47.000    24550295.807    98853962.938          29.737          51.000  
G12  21063168.406   110687895.106         -20.986          48.000    21063166.330    86250478.820         -16.345          46.000  
G13  23131453.956   121556327.548       -4467.233          43.000                                                                  
E31  27124708.726                        1042.459          30.000    27124722.937   109220020.433         799.279          32.000  
G15  21798552.058   114552131.625       -3464.197          48.000    21798554.811    89261414.821       -2699.360          43.000  
E13  26545823.355   139499445.268         662.129          41.000    26545830.264   106889302.100         507.364          46.000  
E26  26942133.838   141581910.316        1868.393          44.000    26942162.543   108485004.333        1431.499          46.000  
E21  24329630.338   127853089.805       -2070.690          48.000    24329632.573    97965809.034       -1586.573          53.000  
> 2024 04 15 23 53 30.4990000  0 24                     
G25  22682484.204   119197389.314        1107.164          46.000    22682487.768    92881068.188         862.758          41.000  
E19  24260210.091   127488243.161       -2954.318          42.000    24260216.480    97685935.252       -2263.529          47.000  
G24  20288509.608   106616992.451         118.062          50.000    20288508.897    83078216.867          92.000          46.000  
R16  20290577.254   108388712.484         133.722          50.000    20290577.826    84302531.690         104.004          50.000  
R17  20700284.465   110771899.140        -975.335          50.000    20700282.237    86156108.270        -758.529          49.000  
R06  20990383.737   112008719.978       -1361.980          41.000                                                                  
R15  20806790.620   111185416.928       -2159.290          52.000    20806790.199    86477856.231       -1679.340          49.000  
R05  22013077.855   117672381.407       -4784.238          45.000    22013089.840    91522816.260       -3721.089          44.000  
G17  23864509.015                       -4257.594          25.000                                                                  
G19  22213134.842   116731308.746       -3488.809          45.000                                                                  
S31  38475430.417   202189776.492        -754.034          44.000  
S33  39427336.200   207192079.250        -755.212          43.000  
G06  23384691.498   122887638.095         865.924          43.000    23384694.204    95756429.766         674.780          42.000  
G11  24072933.671   126504294.558        1875.566          44.000    24072951.560    98574942.670        1461.500          44.000  
R18  20895681.345   111542989.149        2441.294          51.000    20895685.550    86755922.643        1898.833          50.000  
R07  23055819.169   123419554.113        1860.593          32.000    23055815.977    95993026.142        1447.249          34.000  
E04  24550109.761   129011673.400          25.103          48.000    24550112.226    98853223.416          19.287          51.000  
G12  21063309.538   110688636.208         -28.839          47.000    21063307.604    86251056.313         -22.539          46.000  
G13  23156969.108   121690402.099       -4471.335          42.000                                                                  
E31  27118761.160                        1040.245          27.000    27118774.647   109196069.608         797.192          33.000  
G15  21818355.448   114656198.207       -3473.853          48.000    21818358.867    89342505.188       -2706.883          43.000  
E13  26542072.806   139479736.285         651.428          40.000    26542080.170   106874200.499         499.187          47.000  
E26  26931464.935   141525850.615        1868.661          45.000    26931493.996   108442050.976        1431.600          47.000  
E21  24341453.837   127915225.600       -2072.184          48.000    24341456.565    98013419.573       -1587.750          53.000  
> 2024 04 15 23 54 00.4990000  0 25                     
G25  22676178.224   119164253.333        1102.387          47.000    22676182.074    92855248.051         858.698          42.000  
E19  24277104.611   127577019.406       -2964.390          43.000    24277110.242    97753958.403       -2271.422          47.000  
G24  20287871.613   106613637.188         105.711          50.000    20287869.866    83075602.337          82.562          45.000  
R16  20289839.244   108384768.113         129.289          50.000    20289838.760    84299463.868         100.665          50.000  
R17  20705831.402   110801575.724       -1003.016          50.000    20705827.917    86179190.088        -780.139          49.000  
R06  20998113.964   112049967.722       -1387.911          41.000                                                                  
R15  20818925.228   111250261.804       -2163.656          52.000    20818924.589    86528291.083       -1682.741          49.000  
R05  22039947.784   117816010.361       -4790.853          45.000    22039959.327    91634526.197       -3726.173          44.000  
G17  23888838.540   125536680.938       -4264.899          28.000                                                                  
G19  22233087.047   116836160.568       -3501.209          45.000                                                                  
S31  38479736.237   202212403.733        -754.419          44.000  
S33  39431649.917   207214747.593        -755.828          43.000  
G06  23379786.004   122861864.162         852.796          43.000    23379789.856    95736346.325         664.132          42.000  
G11  24062233.855   126448075.711        1872.545          44.000    24062251.887    98531137.367        1458.932          44.000  
R18  20882006.176   111469993.000        2425.120          51.000    20882010.823    86699148.101        1886.183          50.000  
R07  23045443.322                        1840.828          30.000    23045443.003    95949831.791        1431.648          35.000  
E04  24550005.865   129011128.946          11.154          48.000    24550008.728    98852806.217           8.544          51.000  
G12  21063496.747   110689619.518         -36.680          48.000    21063494.411    86251822.540         -28.501          45.000  
G13  23182511.192   121824619.307       -4476.357          42.000                                                                  
G15  21838216.891   114760568.467       -3484.104          48.000    21838220.098    89423832.203       -2714.869          44.000  
E13  26538385.580   139460359.487         640.307          40.000    26538391.907   106859353.427         490.581          46.000  
E26  26920795.280   141469793.038        1868.475          44.000    26920825.114   108399099.255        1431.696          47.000  
E21  24353288.884   127977421.564       -2074.093          47.000    24353291.986    98061076.208       -1589.265          52.000  
E31                                                                  27112846.499   109172202.198         794.003          32.000  
R09                                                                  23404445.519                3       1603.293          11.000  
> 2024 04 15 23 54 30.4990000  0 24                     
G25  22669902.538   119131270.264        1096.939          47.000    22669905.649    92829547.044         854.688          41.000  
E19  24294055.973   127666096.082       -2974.259          44.000    24294061.687    97822211.741       -2278.857          47.000  
G24  20287301.897   106610643.844          93.920          50.000    20287300.242    83073269.843          73.212          46.000  
R16  20289125.968   108380954.730         124.975          51.000    20289125.433    84296497.946          97.191          50.000  
R17  20711531.038   110832078.087       -1030.434          49.000    20711528.341    86202914.163        -801.459          50.000  
R06  21005988.388   112091985.130       -1413.275          41.000                                                                  
R15  20831084.574   111315234.030       -2167.840          53.000    20831083.318    86578825.039       -1686.117          49.000  
R05  22066852.824   117959828.746       -4796.905          44.000    22066865.416    91746383.437       -3731.031          45.000  
G17  23913208.732                       -4271.815          26.000                                                                  
G19  22253110.068   116941383.097       -3513.454          45.000                                                                  
S31  38484045.018   202235045.254        -754.848          44.000  
S33  39435966.445   207237429.730        -756.497          43.000  
G06  23374955.747   122836483.252         839.476          41.000    23374958.231    95716569.089         654.179          40.000  
G11  24051551.457   126391944.417        1869.578          44.000    24051568.482    98487400.196        1456.674          44.000  
R18  20868423.097   111397484.891        2408.769          52.000    20868426.951    86642753.150        1873.448          50.000  
R07  23035178.398                        1821.142          29.000    23035182.900    95907106.285        1416.353          36.000  
E04  24549982.300   129011003.961          -2.600          48.000    24549984.636    98852710.411          -1.986          51.000  
G12  21063729.961   110690842.414         -44.664          48.000    21063726.568    86252775.445         -34.810          45.000  
G13  23208079.637   121958974.558       -4480.763          43.000                                                                  
G15  21858134.238   114865237.873       -3493.898          48.000    21858139.332    89505392.289       -2722.565          45.000  
E13  26534761.344   139441314.651         629.285          39.000    26534767.172   106844760.662         482.171          46.000  
E26  26910126.639   141413737.714        1868.597          43.000    26910156.782   108356149.271        1431.762          47.000  
E21  24365134.538   128039675.159       -2075.959          46.000    24365138.024    98108777.007       -1590.750          52.000  
E31                                                                  27106939.634                         792.382          30.000  
> 2024 04 15 23 55 00.4990000  0 25                     
G25  22663655.229   119098441.789        1091.698          47.000    22663658.100    92803966.520         850.820          42.000  
E19  24311064.068   127755474.126       -2984.304          43.000    24311070.046    97890696.001       -2286.633          48.000  
G24  20286801.729   106608016.361          81.598          50.000    20286800.327    83071222.420          63.667          46.000  
R16  20288436.673   108377274.702         120.551          51.000    20288436.762    84293635.738          93.867          50.000  
R17  20717386.193   110863408.334       -1058.023          49.000    20717383.604    86227282.118        -822.891          49.000  
R06  21014008.109   112134772.887       -1438.940          42.000                                                                  
R15  20843266.890   111380336.092       -2172.167          52.000    20843266.753    86629459.947       -1689.391          50.000  
R05  22093791.405   118103834.356       -4803.248          44.000    22093805.392    91858386.173       -3735.868          44.000  
G17  23937619.340                1      -4279.489          23.000                                                                  
G19  22273203.271   117046975.773       -3525.838          45.000                                                                  
S31  38488356.678   202257703.502        -755.371          44.000  
S33  39440285.683   207260127.112        -756.687          43.000  
G06  23370201.007   122811500.091         826.412          42.000    23370204.030    95697101.826         643.608          41.000  
G11  24040886.590   126335905.884        1866.519          44.000    24040902.206    98443735.274        1454.344          43.000  
R18  20854933.364   111325471.438        2392.186          52.000    20854936.307    86586742.881        1860.742          50.000  
R07  23025031.383   123254760.255        1801.082          36.000    23025037.177    95864853.591        1400.281          32.000  
E04  24550039.038   129011301.355         -16.974          48.000    24550041.287    98852938.243         -13.010          51.000  
G12  21064008.234   110692306.433         -52.738          48.000    21064005.200    86253916.273         -41.085          45.000  
G13  23233673.719   122093467.235       -4485.364          44.000                                                                  
E31  27101036.866                3       1028.926          25.000    27101053.843                         788.873          28.000  
G15  21878109.692   114970205.716       -3503.731          48.000    21878114.544    89587184.900       -2730.312          45.000  
E13  26531200.951   139422605.520         618.200          38.000    26531207.269   106830425.172         473.789          46.000  
E26  26899460.003   141357688.900        1868.338          43.000    26899489.833   108313204.284        1431.466          47.000  
E21  24376991.871   128101988.001       -2077.987          46.000    24376995.664    98156523.202       -1592.223          52.000  
R09                                                                  23385520.313                3       1594.877          14.000  
> 2024 04 15 23 55 30.4990000  0 23                     
G25  22657437.962   119065770.359        1086.447          47.000    22657439.869    92778508.381         846.498          40.000  
E19  24328129.718   127845154.700       -2994.409          44.000    24328135.977    97959412.043       -2294.434          48.000  
G24  20286371.956   106605759.243          68.919          50.000    20286370.881    83069463.597          53.752          46.000  
R16  20287773.414   108373730.181         115.856          52.000    20287772.831    84290878.941          90.179          50.000  
R17  20723394.516   110895569.410       -1086.044          48.000    20723392.304    86252296.309        -844.557          48.000  
R06  21022170.306   112178331.433       -1465.235          41.000                                                                  
R15  20855474.887   111445571.073       -2176.800          52.000    20855473.880    86680198.261       -1693.027          49.000  
R05  22120766.591   118248025.177       -4809.497          44.000    22120779.333    91970532.951       -3740.495          43.000  
G19  22293368.029   117152938.586       -3538.343          46.000                                                                  
S31  38492672.068   202280380.488        -756.247          44.000  
S33  39444608.583   207282844.781        -757.699          43.000  
G06  23365524.539   122786920.126         812.689          44.000    23365527.722    95677948.740         633.104          41.000  
G11  24030240.770   126279965.905        1863.108          44.000    24030256.013    98400147.114        1451.630          44.000  
R18  20841536.616   111253960.070        2375.221          52.000    20841539.555    86531123.165        1847.426          50.000  
R07  23015002.222   123201049.301        1779.922          36.000    23015005.288    95823078.434        1384.082          34.000  
E04  24550176.509   129012024.549         -31.106          48.000    24550179.012    98853492.330         -23.858          51.000  
G12  21064332.530   110694013.563         -61.021          47.000    21064329.571    86255246.550         -47.703          45.000  
G13  23259294.038   122228097.501       -4489.978          45.000                                                                  
G15  21898142.464   115075472.136       -3513.823          48.000    21898146.941    89669210.158       -2738.176          45.000  
E13  26527706.883   139404236.712         606.525          40.000    26527711.488   106816350.393         464.813          46.000  
E26  26888795.805   141301651.457        1867.678          44.000    26888824.497   108270268.010        1430.922          47.000  
E21  24388861.579   128164362.355       -2080.220          46.000    24388865.027    98204316.511       -1593.917          52.000  
E31                                                                  27095188.358                         785.881          30.000  
> 2024 04 15 23 56 00.4990000  0 23                     
G25  22651251.604   119033261.417        1081.160          46.000    22651253.302    92753176.874         842.104          40.000  
E19  24345253.402   127935141.654       -3004.582          44.000    24345259.878    98028362.841       -2302.062          47.000  
G24  20286014.880   106603880.073          56.580          50.000    20286013.516    83067999.283          44.037          46.000  
R16  20287136.529   108370327.894         111.168          52.000    20287135.481    84288232.699          86.480          49.000  
R17  20729560.657   110928567.257       -1113.699          47.000    20729558.603    86277961.331        -866.164          48.000  
R06  21030478.064   112222665.703       -1490.417          41.000                                                                  
R15  20867708.785   111510945.318       -2181.276          51.000    20867707.987    86731044.872       -1696.539          49.000  
R05  22147777.073   118392402.746       -4815.406          45.000    22147789.925    92082824.927       -3745.277          45.000  
G19  22313603.697   117259274.733       -3550.515          46.000                                                                  
S31  38496992.322   202303083.671        -756.746          44.000  
S33  39448936.605   207305587.716        -758.244          42.000  
G06  23360926.499   122762751.768         798.858          44.000    23360928.085    95659116.316         622.448          41.000  
G11  24019615.141   126224133.371        1859.406          44.000    24019630.173    98356642.633        1449.008          44.000  
R18  20828235.384   111182961.081        2358.188          52.000    20828238.738    86475901.958        1834.201          50.000  
R07  23005082.869   123147960.597        1759.579          34.000    23005089.725    95781787.156        1368.970          34.000  
E04  24550396.698   129013180.095         -45.595          47.000    24550398.978    98854377.698         -34.964          51.000  
G12  21064704.654   110695968.910         -69.084          47.000    21064701.944    86256770.222         -53.900          45.000  
G13  23284941.334   122362868.387       -4494.612          45.000                                                                  
E31  27089332.795                        1021.516          27.000    27089344.052                         782.652          27.000  
G15  21918231.813   115181039.989       -3523.830          47.000    21918236.137    89751470.288       -2746.008          44.000  
E13  26524277.813   139386215.484         594.958          39.000    26524282.189   106802541.981         455.912          46.000  
E26  26878134.441   141245633.327        1867.168          43.000    26878162.695   108227346.548        1430.714          46.000  
E21  24400745.511   128226803.445       -2082.413          46.000    24400747.410    98252160.924       -1595.493          52.000  
> 2024 04 15 23 56 30.4990000  0 23                     
G25  22645094.668   119000912.671        1075.598          46.000    22645097.305    92727970.152         838.266          41.000  
E19  24362435.885   128025431.700       -3014.810          44.000    24362441.902    98097545.885       -2310.121          47.000  
G24  20285729.358   106602378.838          43.658          50.000    20285727.684    83066829.456          34.076          46.000  
R16  20286525.481   108367065.608         106.348          51.000    20286524.279    84285695.396          82.752          49.000  
R17  20735884.729   110962400.021       -1141.818          49.000    20735882.769    86304275.657        -888.031          49.000  
R06  21038931.829   112267771.900       -1516.410          43.000                                                                  
R15  20879968.229   111576457.497       -2186.144          51.000    20879966.853    86781998.749       -1700.288          48.000  
R05  22174819.591   118536960.942       -4821.694          44.000    22174835.246    92195257.299       -3750.067          45.000  
G19  22333908.763   117365979.659       -3563.052          45.000                                                                  
S31  38501317.288   202325809.827        -757.823          44.000  
S33  39453268.864   207328352.816        -759.224          43.000  
G06  23356404.696   122738995.788         784.826          43.000    23356406.949    95640605.308         611.812          41.000  
G11  24009010.123   126168409.475        1855.490          45.000    24009025.495    98313222.840        1445.970          44.000  
R18  20815031.282   111112477.088        2340.743          52.000    20815034.700    86421081.317        1820.605          50.000  
R07  22995278.693   123095495.860        1738.093          37.000    22995286.562    95740981.256        1352.539          31.000  
E04  24550698.903   129014766.820         -60.161          47.000    24550700.988    98855593.457         -46.123          51.000  
G12  21065123.661   110698169.965         -77.510          48.000    21065121.534    86258485.348         -60.323          46.000  
G13  23310613.686   122497775.481       -4499.435          45.000                                                                  
G15  21938377.956   115286904.411       -3533.716          48.000    21938381.687    89833961.487       -2753.547          44.000  
E13  26520914.075   139368541.692         583.102          38.000    26520918.732   106788999.754         446.820          45.000  
E26  26867476.766   141189634.610        1866.187          43.000    26867504.818   108184439.968        1429.913          46.000  
E21  24412640.850   128289308.812       -2084.536          47.000    24412641.860    98300054.625       -1597.338          52.000  
E31                                                                  27083521.892                         779.313          31.000  
> 2024 04 15 23 57 00.4990000  0 23                     
G25  22638972.040   118968734.911        1070.182          46.000    22638974.572    92702896.654         833.956          42.000  
E19  24379677.531   128116034.481       -3024.890          44.000    24379682.892    98166968.548       -2317.770          47.000  
G24  20285518.146   106601268.223          30.772          50.000    20285516.965    83065964.024          23.862          46.000  
R16  20285943.311   108363954.963         101.494          51.000    20285942.021    84283276.041          78.911          49.000  
R17  20742365.912   110997078.765       -1169.821          50.000    20742362.304    86331248.036        -909.853          47.000  
R06  21047531.051   112313659.552       -1542.408          41.000                                                                  
R15  20892257.739   111642119.000       -2190.869          51.000    20892254.334    86833068.792       -1703.956          49.000  
R05  22201899.115   118681706.047       -4827.360          47.000    22201915.015    92307834.967       -3754.636          45.000  
G19  22354285.131   117473061.792       -3575.366          45.000                                                                  
S31  38505648.273   202348569.598        -758.876          44.000  
S33  39457607.491   207351153.144        -760.239          42.000  
G06  23351964.112   122715665.925         770.892          43.000    23351967.251    95622426.309         600.757          42.000  
G11  23998428.726   126112808.585        1851.707          46.000    23998443.698    98269898.870        1442.621          44.000  
R18  20801926.418   111042523.925        2323.252          52.000    20801930.145    86366673.479        1806.914          49.000  
R07  22985598.165   123043669.407        1717.313          38.000    22985595.397                1       1336.473          31.000  
E04  24551085.760   129016796.505         -74.603          48.000    24551087.230    98857148.627         -57.264          51.000  
G12  21065591.141   110700626.865         -85.884          47.000    21065589.614    86260399.843         -66.945          46.000  
G13  23336313.607   122632826.931       -4503.909          44.000                                                                  
E31  27077717.970   142294352.1481       1013.609          29.000    27077723.995   109030782.815         776.999          33.000  
G15  21958581.048   115393074.058       -3543.802          47.000    21958586.012    89916690.518       -2761.344          44.000  
E13  26517616.757   139351227.991         571.339          37.000    26517624.056   106775733.502         437.828          45.000  
E26  26856826.224   141133668.608        1865.406          43.000    26856852.970   108141558.463        1429.300          45.000  
E21  24424548.576   128351889.043       -2086.951          46.000    24424550.533    98348005.675       -1599.059          52.000  
> 2024 04 15 23 57 30.4990000  0 23                     
G25  22632880.469   118936720.323        1064.800          46.000    22632882.943    92677950.301         829.698          42.000  
E19  24396976.808   128206941.012       -3034.968          44.000    24396981.988    98236623.954       -2325.473          46.000  
G24  20285378.967   106600542.704          17.984          49.000    20285378.409    83065398.657          14.042          46.000  
R16  20285388.283   108360988.659          96.702          52.000    20285387.237    84280968.940          75.218          50.000  
R17  20748999.638   111032595.998       -1197.610          48.000    20748997.726    86358872.580        -931.462          47.000  
R06  21056274.560   112360319.223       -1567.781          42.000                                                                  
R15  20904572.125   111707923.022       -2195.501          51.000    20904568.890    86884249.653       -1707.665          49.000  
R05  22229011.689   118826626.201       -4833.229          47.000    22229027.162    92420548.770       -3759.130          45.000  
G19  22374731.386   117580510.887       -3587.497          45.000                                                                  
S31  38509984.262   202371356.675        -759.765          44.000  
S33  39461951.211   207373979.419        -760.857          43.000  
G06  23347605.205   122692757.436         756.864          42.000    23347609.197    95604575.644         589.739          43.000  
G11  23987869.942   126057326.350        1847.655          46.000    23987885.802    98226667.311        1439.678          44.000  
R18  20788919.867   110973098.429        2305.647          52.000    20788924.094    86312676.083        1793.252          50.000  
R07  22976036.606   122992476.871        1695.836          37.000    22976035.601                        1319.270          31.000  
E04  24551553.952   129019262.473         -89.210          47.000    24551556.569    98859038.084         -68.331          51.000  
G12  21066105.633   110703331.540         -93.989          47.000    21066104.444    86262507.424         -73.191          47.000  
G13  23362038.860   122768013.128       -4508.107          45.000                                                                  
E31  27071936.109   142264002.347        1010.047          31.000    27071948.120   109007527.973         774.078          36.000  
G15  21978841.127   115499538.621       -3553.344          47.000    21978845.854    89999649.349       -2768.950          44.000  
E13  26514391.960   139334268.747         559.778          38.000    26514397.133   106762738.801         428.833          45.000  
E26  26846180.635   141077730.068        1864.465          44.000    26846206.509   108098697.978        1428.443          44.000  
E21  24436469.315   128414536.258       -2088.971          46.000    24436472.047    98396008.049       -1600.642          52.000  
> 2024 04 15 23 58 00.4990000  0 24                     
G25  22626816.818   118904855.737        1059.951          46.000    22626819.630    92653120.848         825.899          43.000  
E19  24414331.646   128298137.053       -3044.305          44.000    24414335.737    98306501.184       -2332.696          46.000  
G24  20285313.056   106600191.195           5.791          50.000    20285311.461    83065124.726           4.528          46.000  
R16  20284857.440   108358153.613          92.663          51.000    20284857.135    84278763.915          72.088          50.000  
R17  20755791.617   111068938.208       -1224.894          49.000    20755790.441    86387138.745        -952.553          48.000  
R06  21065161.956   112407735.910       -1592.710          44.000                                                                  
R15  20916910.506   111773857.084       -2199.561          51.000    20916908.214    86935531.673       -1710.824          50.000  
R05  22256152.925   118971703.757       -4838.203          46.000    22256169.130    92533384.947       -3762.879          47.000  
G19  22395245.084   117688311.516       -3598.940          44.000                                                                  
S31  38514323.849   202394158.327        -759.942          44.000  
S33  39466297.664   207396820.155        -761.179          43.000  
G06  23343324.863   122670260.049         743.321          42.000    23343328.019    95587045.266         579.302          43.000  
G11  23977331.565   126001953.042        1844.246          46.000    23977346.833    98183520.532        1437.123          44.000  
R18  20776010.788   110904192.158        2288.494          51.000    20776016.166    86259082.538        1779.910          51.000  
R07  22966588.918   122941907.881        1675.182          32.000    22966590.600    95621470.0631       1303.389          36.000  
E04  24552103.853   129022152.546        -103.102          47.000    24552106.658    98861252.510         -79.077          51.000  
G12  21066665.198   110706270.337        -101.707          46.000    21066663.891    86264797.402         -79.133          47.000  
G13  23387785.991   122903318.585       -4511.969          44.000                                                                  
E31  27066175.813   142233756.829        1006.703          31.000    27066191.660   108984353.035         770.840          34.000  
G15  21999154.081   115606282.253       -3562.474          48.000    21999159.268    90082825.623       -2775.958          44.000  
E13  26511228.158   139317652.636         548.449          36.000    26511235.304   106750007.095         420.119          45.000  
E26  26835537.823   141021808.265        1863.900          43.000    26835563.693   108055850.276        1428.191          44.000  
E21  24448400.127   128477237.112       -2090.739          45.000    24448403.722    98444051.515       -1601.815          52.000  
R09                                                                  23329689.991                3       1583.000          11.000  
> 2024 04 15 23 58 30.4990000  0 23                     
G25  22620781.493   118873140.744        1054.666          46.000    22620784.389    92628407.957         822.025          44.000  
E19  24431739.743   128389620.706       -3054.360          44.000    24431744.592    98376598.805       -2340.308          45.000  
G24  20285316.353   106600215.427          -7.143          50.000    20285316.937    83065143.572          -5.500          47.000  
R16  20284351.701   108355450.169          87.834          52.000    20284350.977    84276661.243          68.253          50.000  
R17  20762738.512   111106105.333       -1252.758          50.000    20762736.292    86416046.513        -974.357          48.000  
R06  21074189.125   112455907.884       -1618.307          42.000                                                                  
R15  20929271.986   111839921.256       -2204.400          48.000    20929271.806    86986914.847       -1714.518          50.000  
R05  22283322.973   119116934.342       -4843.526          46.000    22283338.996    92646340.065       -3767.261          46.000  
G19  22415826.388   117796460.772       -3610.756          44.000                                                                  
S31  38518665.266   202416973.525        -760.770          45.000  
S33  39470646.841   207419674.811        -762.347          43.000  
G06  23339122.450   122648176.256         729.401          42.000    23339124.885    95569837.230         568.107          42.000  
G11  23966813.906   125946691.690        1840.028          45.000    23966829.790    98140461.035        1433.698          44.000  
R18  20763201.038   110835809.423        2270.573          52.000    20763204.984    86205896.152        1765.970          50.000  
R07  22957259.234   122891965.517        1653.915          35.000    22957257.136    95582626.091        1286.902          34.000  
E04  24552735.252   129025467.369        -117.622          47.000    24552737.708    98863792.380         -90.132          51.000  
G12  21067268.418   110709442.275        -109.593          47.000    21067267.444    86267269.083         -85.408          46.000  
G13  23413555.765   123038740.222       -4516.016          44.000                                                                  
E31  27060445.415   142203615.257        1002.920          34.000    27060455.969   108961257.739         768.626          36.000  
G15  22019518.836   115713302.409       -3571.976          46.000    22019524.650    90166217.332       -2783.412          43.000  
E13  26508134.299   139301381.377         536.669          38.000    26508139.390   106737539.549         411.260          45.000  
E26  26824898.190   140965905.201        1863.116          43.000    26824924.760   108013016.915        1427.507          45.000  
E21  24460341.990   128539991.002       -2092.701          47.000    24460345.339    98492135.642       -1603.470          52.000  
> 2024 04 15 23 59 00.4990000  0 24                     
G25  22614767.641   118841541.492        1052.225          48.000    22614771.646    92603785.262         820.003          44.000  
E19  24449196.820   128481357.079       -3061.276          44.000    24449201.990    98446890.054       -2345.712          46.000  
G24  20285386.741   106600583.657         -17.138          51.000    20285387.224    83065430.473         -13.337          47.000  
R16  20283863.613   108352843.984          86.065          51.000    20283862.802    84274634.228          66.899          49.000  
R17  20769832.150   111144063.250       -1277.573          51.000    20769830.331    86445569.357        -993.655          49.000  
R06  21083350.525   112504799.212       -1640.724          41.000                                                                  
R15  20941654.294   111906082.184       -2206.197          49.000    20941651.383    87038373.290       -1715.779          48.000  
R05  22310514.249   119262279.478       -4845.707          47.000    22310531.060    92759384.208       -3768.771          47.000  
G19  22436465.812   117904922.491       -3619.545          43.000                                                                  
S31  38523003.334   202439748.2161       -758.765          45.000  
S33  39474992.292   207442483.6111       -760.135          43.000  
G06  23334991.851   122626475.208         717.570          41.000    23334994.759    95552927.426         559.251          41.000  
G11  23956313.344   125891511.992        1838.757          45.000    23956327.728    98097465.122        1432.550          45.000  
R18  20750483.112   110767920.757        2255.534          53.000    20750486.728    86153094.026        1754.361          51.000  
R19  23298832.883   124633144.6741       3597.432          37.000    23298849.303    96936798.8321       2798.298          40.000  
R07  22948042.948   122842618.303        1635.944          36.000    22948034.705    95544244.983        1272.240          37.000  
E04  24553440.420   129029174.100        -129.239          47.000    24553443.100    98866632.528         -99.038          51.000  
G12  21067910.149   110712813.174        -114.866          48.000    21067908.314    86269895.782         -89.368          46.000  
G13  23439340.601   123174241.807       -4517.132          44.000                                                                  
E31  27054722.455   142173543.823        1002.012          35.000    27054733.201   108938216.203         767.900          35.000  
G15  22039930.676   115820562.571       -3578.468          47.000    22039936.101    90249796.033       -2788.536          43.000  
E13  26505095.869   139285423.041         527.308          37.000    26505102.542   106725311.754         404.330          45.000  
E26  26814256.766   140909989.578        1865.009          43.000    26814282.962   107970173.947        1428.775          46.000  
E21  24472287.911   128602763.971       -2091.786          48.000    24472290.591    98540234.378       -1602.901          52.000  
> 2024 04 15 23 59 30.4990000  0 25                     
G25  22608776.252   118810059.217        1047.041          47.000    22608780.456    92579253.711         816.188          44.000  
E19  24466702.827   128573346.111       -3070.856          45.000    24466707.293    98517374.883       -2352.926          46.000  
G24  20285523.510   106601299.241         -29.889          50.000    20285522.900    83065988.043         -23.445          47.000  
R16  20283394.265   108350337.440          81.530          51.000    20283393.174    84272684.700          63.403          49.000  
R17  20777073.888   111182812.947       -1305.223          52.000    20777070.130    86475708.037       -1015.220          47.000  
R06  21092647.715   112554409.426       -1666.029          41.000                                                                  
R15  20954052.768   111972341.619       -2210.679          48.000    20954050.631    87089908.345       -1719.490          48.000  
R05  22337726.086   119407735.980       -4850.745          48.000    22337744.191    92872514.938       -3772.708          48.000  
G19  22457164.136   118013695.895       -3631.126          42.000                                                                  
S31  38527337.902   202462526.586        -759.283          45.000  
S33  39479334.348   207465300.672        -760.830          43.000  
G06  23330936.395   122605161.057         703.494          43.000    23330938.006    95536319.138         548.129          40.000  
G11  23945828.524   125836418.722        1834.541          46.000    23945843.378    98054536.518        1429.466          46.000  
R18  20737859.052   110700532.114        2237.556          53.000    20737863.212    86100680.819        1740.231          50.000  
R19  23278657.261   124525220.433        3597.611          36.000    23278676.279    96852856.062        2798.159          41.000  
R07  22938930.616                        1614.226          30.000    22938931.461    95506330.275        1255.834          40.000  
E04  24554220.839   129033274.978        -143.642          47.000    24554223.645    98869774.686        -109.987          51.000  
G12  21068589.934   110716383.938        -122.692          48.000    21068586.944    86272678.205         -95.621          45.000  
G13  23465140.387   123309822.437       -4520.935          44.000                                                                  
E31  27049012.755   142143543.878         998.562          35.000    27049024.621   108915229.415         764.901          38.000  
G15  22060387.705   115928061.659       -3587.525          46.000    22060392.883    90333560.890       -2795.378          43.000  
E13  26502119.097   139269780.765         515.561          36.000    26502125.393   106713326.173         395.100          44.000  
E26  26803614.968   140854065.237        1863.903          44.000    26803639.921   107927324.242        1428.226          47.000  
E21  24484236.792   128665557.195       -2093.872          48.000    24484239.357    98588348.628       -1604.348          52.000  
R09                                                                  23305651.843                3       1566.422          13.000  
