     3.00           OBSERVATION DATA    M: Mixed            RINEX VERSION / TYPE
CONVBIN 2.4.3                           20240415 012942 UTC PGM / RUN BY / DATE 
format: u-blox UBX                                          COMMENT             
log: /home/regis/git/gnsspwv/obsdata/VERT00CHL/2024-04-15/VECOMMENT             
{self.marker}                                               MARKER NAME         
                                                            MARKER NUMBER       
GEODETIC                                                    MARKER TYPE         
{self.observer}     {self.institution}                      OBSERVER / AGENCY   
UNKNOWN             UBLOX-ZED-F9P                           REC # / TYPE / VERS 
UNKNOWN             TWIVSP6037L                             ANT # / TYPE        
  1713381.0000 -5047934.0000 -3490983.0000                  APPROX POSITION XYZ 
        0.0000        0.0000        0.0000                  ANTENNA: DELTA H/E/N
G    8 C1C L1C D1C S1C C2L L2L D2L S2L                      SYS / # / OBS TYPES 
R    8 C1C L1C D1C S1C C2C L2C D2C S2C                      SYS / # / OBS TYPES 
E    8 C1C L1C D1C S1C C7Q L7Q D7Q S7Q                      SYS / # / OBS TYPES 
S    4 C1C L1C D1C S1C                                      SYS / # / OBS TYPES 
  2024    04    15    01    15   00.0080000     GPS         TIME OF FIRST OBS   
  2024    04    15    01    29   30.0080000     GPS         TIME OF LAST OBS    
                                                            END OF HEADER       
> 2024 04 15 01 15 00.0080000  0 27                     
S33  42087507.903   221171434.0961       -762.946          43.000  
E33  30147549.497                1      -2342.715          28.000    30147555.386   121391771.9981      -1795.070          38.000  
G32  25542691.571   134227765.4251       -248.472          44.000    25542691.203   104593019.3281       -193.382          44.000  
R14  24930548.788   132893898.1931      -2958.784          49.000    24930547.760   103361998.0481      -2301.085          43.000  
R17  22115251.381   118343678.4551      -1036.556          53.000    22115244.875    92045313.6151       -806.229          48.000  
R06  25256986.580   134776122.7491      -1654.835          36.000                                                                  
R05  25574378.099                       -4340.763          30.000    25574396.638   106329428.4091      -3376.851          40.000  
R16  23915545.295   127752698.8681       1577.428          49.000    23915542.335    99363120.7361       1226.807          48.000  
E11  27591659.314   144995448.5421       2035.749          41.000    27591664.465   111100607.7821       1559.950          47.000  
G06  25704430.546   135077669.1711      -1776.574          36.000    25704430.588   105255574.2001      -1384.207          38.000  
G29  24899125.977   130846120.1291       2155.835          46.000    24899126.954   101958267.0771       1679.712          39.000  
S31  41134746.074   216164627.4761       -762.369          44.000  
E03  28083159.046   147578048.6271       -618.172          44.000    28083162.300   113079230.9271       -473.836          49.000  
R15  22439220.690   119908617.9821       -756.920          52.000    22439217.699    93262430.4191       -588.575          49.000  
R18  23031245.466   122942403.9041       2674.870          51.000    23031245.893    95622151.0011       2080.436          50.000  
R24  25302332.380   135303276.0231      -4405.505          47.000    25302328.512   105235903.8551      -3426.356          45.000  
E31  29729618.133   156230161.0581      -2488.994          38.000    29729619.540   119708899.2021      -1907.178          38.000  
G11  24929468.138   131005692.0451        302.756          46.000    24929464.837   102082544.2201        235.960          46.000  
E24  26711756.095   140371346.9221      -1444.830          47.000    26711755.751   107557324.9061      -1107.123          53.000  
G24  23135625.135   121578622.6981      -2185.394          50.000    23135623.969    94736657.6751      -1702.960          46.000  
G12  23511733.531   123555298.1931       -929.441          48.000    23511729.704    96276981.6811       -724.363          45.000  
E05  26163161.820   137488382.0591      -2951.855          43.000    26163167.362   105348272.7091      -2261.759          48.000  
G25  23971400.309   125970782.1851        526.165          47.000    23971400.432    98159119.5031        410.045          45.000  
E10  27830912.440   146252893.7261       1233.369          47.000    27830914.222   112064150.3731        945.046          49.000  
E25  27018421.011   141983045.2081        233.984          46.000    27018422.454   108792354.0571        179.299          51.000  
E12  28019072.144   147241564.7581        128.308          41.000    28019071.128   112821673.2141         98.390          44.000  
E14  22985784.021   120791245.9891      -4758.178          50.000    22985784.411    92554385.0051      -3645.781          52.000  
> 2024 04 15 01 15 30.0080000  0 27                     
S33  42091862.777   221194318.788        -762.774          42.000  
E33  30160964.162                       -2355.191          27.000    30160966.435   121445771.575       -1804.257          37.000  
G32  25544165.457   134235504.163        -267.317          45.000    25544163.224   104599049.494        -208.409          43.000  
R14  24947220.299   132982768.942       -2965.935          49.000    24947220.698   103431119.633       -2306.779          45.000  
R17  22121140.978   118375198.322       -1064.662          52.000    22121135.163    92069829.100        -827.999          48.000  
R06  25266352.345   134826099.367       -1676.677          37.000                                                                  
R05  25598752.514   136839662.884       -4345.270          35.000    25598773.899   106430768.422       -3379.048          38.000  
R16  23906689.773   127705396.355        1576.238          50.000    23906687.861    99326329.901        1225.907          49.000  
E11  27580047.951   144934429.571        2032.151          42.000    27580052.522   111053853.495        1557.062          47.000  
G06  25714623.735   135131240.131       -1794.980          35.000    25714626.088   105297317.771       -1398.491          39.000  
G29  24886850.229   130781611.572        2144.938          47.000    24886850.414   101908000.954        1671.395          39.000  
S31  41139098.309   216187499.651        -762.319          44.000  
E03  28086728.703   147596808.403        -632.241          45.000    28086732.405   113093605.291        -484.445          49.000  
R15  22443493.806   119931452.912        -765.440          52.000    22443490.230    93280190.931        -595.301          49.000  
R18  23016259.797   122862410.396        2658.036          51.000    23016260.279    95559934.050        2067.344          50.000  
R24  25327086.192   135435640.997       -4418.796          48.000    25327080.897   105338854.407       -3436.711          45.000  
E31  29743827.803   156304832.120       -2488.842          37.000    29743829.224   119766114.692       -1907.246          38.000  
G11  24927788.000   130996866.892         285.654          45.000    24927785.016   102075667.558         222.436          46.000  
E24  26720008.970   140414721.901       -1446.719          46.000    26720009.848   107590560.277       -1108.451          53.000  
G24  23148148.305   121644431.469       -2201.666          50.000    23148147.342    94787937.209       -1715.588          47.000  
G12  23517052.874   123583251.759        -934.028          48.000    23517048.389    96298763.716        -727.974          44.000  
E05  26180037.925   137577059.794       -2959.702          44.000    26180042.224   105416220.484       -2267.906          48.000  
G25  23968406.231   125955044.343         523.081          48.000    23968404.830    98146856.283         407.566          44.000  
E10  27823900.507   146216041.770        1223.486          48.000    27823901.621   112035913.237         937.501          49.000  
E25  27017089.829   141976054.825         232.144          45.000    27017092.311   108786997.852         177.875          51.000  
E12  28018376.992   147237918.838         114.672          40.000    28018376.758   112818879.623          88.010          44.000  
E14  23012988.048   120934202.676       -4772.132          50.000    23012987.897    92663923.268       -3656.573          52.000  
> 2024 04 15 01 16 00.0080000  0 27                     
S33  42096217.682   221217202.102        -762.833          43.000  
E33  30174443.736                3      -2366.846          26.000    30174444.941   121500045.315       -1813.541          37.000  
G32  25545745.376   134243808.126        -285.996          45.000    25545744.670   104605520.101        -223.031          44.000  
R14  24963932.737   133071849.522       -2972.824          50.000    24963933.199   103500404.426       -2312.161          46.000  
R17  22127188.199   118407557.503       -1092.517          52.000    22127182.588    92094997.385        -849.830          49.000  
R06  25275840.400   134876728.234       -1698.393          39.000                                                                  
R05  25623144.894   136970058.070       -4348.449          35.000    25623168.168   106532185.296       -3381.562          35.000  
R16  23897841.355   127658126.325        1575.233          50.000    23897839.263    99289564.362        1225.039          49.000  
E11  27568455.292   144873514.243        2028.920          41.000    27568460.472   111007178.591        1554.413          47.000  
G06  25724923.502   135185365.731       -1813.490          37.000    25724925.775   105339493.582       -1412.862          38.000  
G29  24874636.654   130717427.250        2133.977          47.000    24874635.700   101857987.434        1662.946          39.000  
S31  41143450.893   216210371.781        -762.554          44.000  
E03  28090378.394   147615984.977        -646.062          46.000    28090381.666   113108299.009        -495.113          50.000  
R15  22447815.022   119954542.929        -773.898          51.000    22447811.231    93298149.851        -601.926          50.000  
R18  23001367.595   122782921.987        2641.252          50.000    23001369.217    95498109.934        2054.326          50.000  
R24  25351913.284   135568401.573       -4431.765          48.000    25351907.776   105442112.620       -3446.958          45.000  
E31  29758036.967   156379502.280       -2488.808          38.000    29758039.907   119823329.485       -1907.011          40.000  
G11  24926205.459   130988549.888         268.954          46.000    24926202.806   102069186.841         209.451          47.000  
E24  26728274.394   140458147.570       -1448.188          46.000    26728273.363   107623834.494       -1109.760          53.000  
G24  23160763.537   121710724.903       -2217.828          50.000    23160762.606    94839594.397       -1728.241          47.000  
G12  23522398.187   123611340.395        -938.486          48.000    23522392.878    96320650.972        -731.260          44.000  
E05  26196958.541   137665976.535       -2967.689          44.000    26196962.731   105484351.350       -2274.038          48.000  
G25  23965430.131   125939399.803         519.952          48.000    23965427.456    98134665.720         405.190          44.000  
E10  27816942.796   146179483.423        1213.856          48.000    27816945.118   112007901.128         930.034          50.000  
E25  27015768.308   141969113.931         230.591          45.000    27015771.258   108781679.546         176.687          51.000  
E12  28017761.639   147234676.970         101.210          41.000    28017759.324   112816395.633          77.717          43.000  
E14  23040271.279   121077577.279       -4786.020          50.000    23040270.466    92773781.746       -3667.218          51.000  
> 2024 04 15 01 16 30.0080000  0 27                     
S33  42100570.212   221240076.605        -761.932          42.000  
E33  30187992.575   158638978.9621      -2377.952          31.000    30187990.035   121554584.970       -1822.311          37.000  
G32  25547431.352   134252667.916        -304.462          46.000    25547430.860   104612423.826        -237.282          44.000  
R14  24980681.878   133161131.307       -2979.287          49.000    24980682.139   103569845.754       -2317.177          46.000  
R17  22133390.158   118440745.712       -1120.021          52.000    22133384.762    92120810.462        -871.179          49.000  
R06  25285448.001   134927997.578       -1719.391          38.000                                                                  
R05  25647553.752   137100538.225       -4349.577          33.000    25647580.509   106633668.353       -3384.034          35.000  
R16  23888996.904   127610880.284        1574.566          50.000    23888994.485    99252817.465        1224.564          49.000  
E11  27556881.324   144812695.325        2025.702          41.000    27556885.861   110960577.555        1552.237          46.000  
G06  25735330.019   135240035.851       -1831.549          39.000    25735330.505   105382093.697       -1427.118          40.000  
G29  24862482.777   130653559.223        2123.707          47.000    24862482.172   101808220.412        1654.763          39.000  
S31  41147801.103   216233233.911        -761.859          44.000  
E03  28094104.725   147635568.900        -659.583          45.000    28094108.299   113123304.845        -505.397          50.000  
R15  22452182.502   119977880.052        -781.994          51.000    22452178.581    93316300.950        -608.310          50.000  
R18  22986569.878   122703933.278        2624.670          49.000    22986571.909    95436674.446        2041.406          51.000  
R24  25376811.059   135701544.083       -4444.336          47.000    25376805.804   105545667.919       -3456.608          46.000  
E31  29772244.128   156454162.536       -2488.707          38.000    29772246.386   119880536.619       -1906.935          39.000  
G11  24924718.033   130980733.491         252.168          45.000    24924715.312   102063096.217         196.392          46.000  
E24  26736545.077   140501614.578       -1449.353          46.000    26736544.732   107657140.397       -1110.586          53.000  
G24  23173468.656   121777493.581       -2233.435          50.000    23173468.175    94891621.889       -1740.442          47.000  
G12  23527767.438   123639554.605        -942.494          49.000    23527761.235    96342636.077        -734.406          43.000  
E05  26213922.431   137755120.919       -2975.131          45.000    26213926.420   105552656.672       -2279.738          48.000  
G25  23962468.455   125923839.128         517.328          47.000    23962466.413    98122540.550         402.949          44.000  
E10  27810040.285   146143211.279        1204.224          48.000    27810042.215   111980108.297         922.726          50.000  
E25  27014454.767   141962212.919         229.348          45.000    27014458.003   108776391.796         175.717          51.000  
E12  28017218.723   147231830.655          88.115          40.000    28017217.275   112814214.765          67.369          43.000  
E14  23067630.768   121221354.810       -4799.188          50.000    23067629.966    92883948.983       -3677.203          50.000  
> 2024 04 15 01 17 00.0080000  0 27                     
S33  42104921.995   221262946.619        -761.832          43.000  
E33  30201606.626   158710508.698       -2389.813          29.000    30201601.205   121609393.436       -1831.134          36.000  
G32  25549224.055   134262088.582        -323.165          45.000    25549223.287   104619764.567        -251.603          44.000  
R14  24997469.897   133250619.478       -2986.187          49.000    24997470.145   103639447.558       -2322.548          46.000  
R17  22139748.377   118474767.446       -1147.648          52.000    22139742.562    92147271.824        -892.604          50.000  
R06  25295175.576   134979910.100       -1740.923          36.000                                                                  
R05  25671977.944                       -4353.798          28.000    25672007.881                       -3386.179          31.000  
R16  23880159.031   127563664.494        1573.641          50.000    23880155.175    99216094.116        1223.855          49.000  
E11  27545327.034   144751979.869        2022.385          41.000    27545331.632   110914055.770        1549.537          46.000  
G06  25745838.516   135295254.713       -1849.425          40.000    25745836.684   105425121.430       -1441.318          38.000  
G29  24850389.983   130590014.225        2113.089          47.000    24850389.316   101758705.104        1646.450          38.000  
S31  41152151.004   216256091.704        -761.633          44.000  
E03  28097909.843   147655565.035        -673.072          45.000    28097913.460   113138626.515        -515.821          50.000  
R15  22456596.760   120001470.659        -790.278          51.000    22456593.615    93334649.189        -614.743          51.000  
R18  22971869.182   122625453.265        2607.701          51.000    22971869.413    95375634.637        2028.284          50.000  
R24  25401780.993   135835069.617       -4457.062          46.000    25401775.591   105649521.146       -3466.537          47.000  
E31  29786451.326   156528818.072       -2488.138          38.000    29786453.102   119937740.188       -1906.471          39.000  
G11  24923327.082   130973424.531         235.261          44.000    24923323.475   102057400.953         183.412          46.000  
E24  26744824.280   140545127.978       -1450.880          46.000    26744825.068   107690481.864       -1111.809          53.000  
G24  23186265.513   121844741.838       -2249.268          50.000    23186265.179    94944023.069       -1752.649          47.000  
G12  23533161.558   123667899.303        -946.613          49.000    23533156.171    96364722.877        -737.645          44.000  
E05  26230930.400   137844496.059       -2982.706          45.000    26230934.178   105621138.787       -2285.474          48.000  
G25  23959523.683   125908367.351         514.585          47.000    23959522.115    98110484.644         400.957          44.000  
E10  27803193.628   146107232.137        1194.572          48.000    27803195.105   111952539.952         915.420          49.000  
E25  27013150.782   141955356.566         227.984          45.000    27013153.442   108771138.254         174.723          51.000  
E12  28016753.750   147229385.940          75.048          40.000    28016752.258   112812341.595          57.407          43.000  
E14  23095067.563   121365534.792       -4812.363          50.000    23095066.747    92994424.580       -3687.417          51.000  
> 2024 04 15 01 17 30.0080000  0 27                     
S33  42109272.395   221285808.400        -761.691          43.000  
G32  25551123.537   134272068.056        -341.656          46.000    25551122.992   104627540.760        -266.303          44.000  
R14  25014296.424   133340312.158       -2992.943          49.000    25014295.847   103709208.428       -2327.780          46.000  
R17  22146261.701   118509619.927       -1175.288          51.000    22146255.410    92174379.350        -914.056          49.000  
R06  25305023.829   135032461.274       -1762.073          36.000                                                                  
R05  25696423.596                       -4355.921          30.000    25696486.892                3      -3371.594          22.000  
R16  23871324.975   127516478.317        1572.642          50.000    23871321.282    99179393.806        1223.083          48.000  
E11  27533792.944   144691368.140        2018.614          42.000    27533797.028   110867613.486        1546.885          46.000  
G06  25756450.692   135351019.637       -1867.539          41.000    25756449.308   105468574.609       -1455.292          39.000  
G29  24838358.965   130526791.961        2102.328          46.000    24838358.456   101709441.264        1638.199          40.000  
S31  41156499.293   216278942.583        -761.414          44.000  
E03  28101793.945   147675971.338        -686.891          45.000    28101796.103   113154262.465        -526.201          49.000  
R15  22461059.276   120025314.256        -798.768          50.000    22461055.789    93353194.219        -621.302          50.000  
R18  22957262.649   122547484.148        2590.667          51.000    22957263.009    95314992.180        2014.898          51.000  
R24  25426820.735   135968971.734       -4469.275          45.000    25426816.601   105753667.300       -3476.240          47.000  
E31  29800655.773   156603467.348       -2488.158          38.000    29800658.961   119994939.018       -1906.570          40.000  
G11  24922032.780   130966622.884         218.294          45.000    24922029.218   102052101.025         170.344          45.000  
E24  26753113.145   140588685.921       -1452.400          46.000    26753113.865   107723857.427       -1112.966          53.000  
G24  23199153.439   121912467.278       -2265.314          50.000    23199152.381    94996796.112       -1765.198          46.000  
G12  23538579.818   123696372.538        -950.916          49.000    23538575.112    96386909.818        -740.925          45.000  
E05  26247980.882   137934098.128       -2990.264          44.000    26247984.999   105689794.776       -2291.237          48.000  
G25  23956596.141   125892982.575         511.589          47.000    23956594.617    98098496.536         398.712          45.000  
E10  27796402.499   146071545.926        1184.914          48.000    27796404.257   111925196.069         907.779          49.000  
E25  27011854.936   141948542.631         226.765          46.000    27011856.706   108765917.228         173.664          51.000  
E12  28016365.343   147227341.907          61.711          41.000    28016363.037   112810775.445          47.252          43.000  
E14  23122579.469   121510109.732       -4825.461          50.000    23122578.546    93105202.810       -3697.465          51.000  
E33                                                                  30215278.656   121664468.287       -1840.207          35.000  
> 2024 04 15 01 18 00.0080000  0 27                     
S33  42113621.184   221308660.863        -761.608          43.000  
E33  30229023.406                1      -2413.121          27.000    30229021.763   121719805.777       -1849.137          35.000  
G32  25553128.600   134282602.616        -360.379          45.000    25553127.179   104635749.462        -280.638          44.000  
R14  25031160.563   133430206.553       -2999.724          49.000    25031158.887   103779126.245       -2333.142          45.000  
R17  22152927.177   118545298.800       -1203.038          50.000    22152922.112    92202129.593        -935.657          49.000  
R06  25314989.449   135085645.370       -1782.754          34.000                                                                  
R05  25720873.432                       -4357.977          27.000    25720947.018                2      -3389.414          27.000  
R16  23862495.699   127469318.841        1571.792          49.000    23862492.718    99142714.218        1222.374          48.000  
E11  27522278.577   144630858.621        2015.404          43.000    27522281.840   110821249.504        1544.235          45.000  
G06  25767165.255   135407326.127       -1885.767          41.000    25767162.664   105512449.784       -1469.331          37.000  
G29  24826389.643   130463889.967        2091.547          47.000    24826389.419   101660426.946        1629.564          41.000  
S31  41160845.533   216301782.313        -761.243          44.000  
E03  28105754.764   147696783.951        -700.432          46.000    28105756.601   113170209.754        -536.563          49.000  
R15  22465568.064   120049408.849        -807.206          50.000    22465565.267    93371934.457        -627.816          51.000  
R18  22942751.837   122470026.295        2573.417          51.000    22942751.916    95254747.373        2001.623          50.000  
R24  25451931.095   136103243.179       -4481.611          45.000    25451926.391   105858100.647       -3485.865          47.000  
E31  29814858.002   156678107.098       -2487.668          34.000    29814861.997   120052130.442       -1905.965          39.000  
G11  24920833.639   130960326.700         201.655          44.000    24920830.401   102047194.974         157.150          45.000  
E24  26761410.060   140632284.759       -1453.832          46.000    26761410.734   107757264.326       -1114.010          53.000  
G24  23212130.957   121980665.794       -2281.091          49.000    23212130.045    95049937.771       -1777.374          46.000  
G12  23544021.723   123724969.776        -955.101          49.000    23544016.572    96409193.399        -744.148          45.000  
E05  26265073.788   138023921.505       -2997.567          43.000    26265077.700   105758620.327       -2296.802          48.000  
G25  23953684.375   125877681.143         508.785          47.000    23953683.704    98086573.364         396.456          45.000  
E10  27789666.998   146036150.813        1175.119          48.000    27789668.533   111898075.247         900.449          49.000  
E25  27010565.698   141941767.212         225.327          46.000    27010567.293   108760725.723         172.670          51.000  
E12  28016051.593   147225695.909          48.496          40.000    28016049.818   112809514.274          37.264          43.000  
E14  23150164.662   121655070.520       -4838.249          50.000    23150163.984    93216276.698       -3707.240          52.000  
> 2024 04 15 01 18 30.0080000  0 27                     
S33  42117967.519   221331502.080        -760.992          43.000  
G32  25555238.087   134293691.630        -378.701          44.000    25555237.670   104644390.234        -295.181          45.000  
R14  25048062.122   133520302.699       -3006.542          48.000    25048061.307   103849200.940       -2338.488          46.000  
R17  22159749.272   118581802.650       -1230.444          51.000    22159744.482    92230521.480        -956.993          49.000  
R06  25325074.013   135139459.536       -1803.689          32.000                                                                  
R05  25745327.774                3      -4360.049          26.000    25745368.543                3      -3387.837          22.000  
R16  23853671.981   127422187.044        1570.715          49.000    23853668.717    99106056.172        1221.604          46.000  
E11  27510784.192   144570452.926        2011.967          43.000    27510786.537   110774965.092        1541.496          45.000  
G06  25777982.537   135464172.936       -1903.766          41.000    25777980.189   105556746.045       -1483.597          38.000  
G29  24814480.393   130401308.948        2080.628          46.000    24814480.207   101611662.813        1621.190          41.000  
S31  41165189.959   216324611.882        -760.787          44.000  
E03  28109792.790   147718002.261        -713.825          46.000    28109794.534   113186467.914        -547.025          49.000  
R15  22470122.795   120073755.229        -815.697          49.000    22470121.008    93390870.498        -634.434          51.000  
R18  22928338.782   122393083.243        2556.280          52.000    22928338.005    95194902.952        1988.164          50.000  
R24  25477108.633   136237879.021       -4493.804          45.000    25477103.908   105962817.406       -3495.265          48.000  
E31  29829061.666   156752737.192       -2487.034          35.000    29829063.876   120109314.476       -1906.266          40.000  
G11  24919732.520   130954537.297         184.562          45.000    24919729.597   102042683.823         143.937          46.000  
E24  26769714.770   140675924.089       -1455.242          46.000    26769715.120   107790702.250       -1115.076          54.000  
G24  23225198.546   122049336.383       -2296.777          49.000    23225197.581    95103447.286       -1789.673          46.000  
G12  23549486.911   123753690.970        -959.243          49.000    23549481.626    96431573.594        -747.628          44.000  
E05  26282207.848   138113963.859       -3005.034          42.000    26282212.364   105827613.665       -2302.462          47.000  
G25  23950789.480   125862462.683         505.963          48.000    23950787.683    98074714.835         394.420          45.000  
E10  27782987.790   146001048.225        1165.285          48.000    27782988.403   111871178.536         892.886          48.000  
E25  27009283.973   141935029.630         224.026          46.000    27009285.067   108755563.210         171.642          51.000  
E12  28015815.391   147224448.407          35.087          41.000    28015812.494   112808558.452          26.681          43.000  
E14  23177822.160   121800411.237       -4850.867          50.000    23177821.743    93327641.686       -3716.946          52.000  
E33                                                                  30242829.770   121775404.433       -1857.535          33.000  
> 2024 04 15 01 19 00.0080000  0 27                     
S33  42122313.267   221354337.461        -761.177          43.000  
G32  25557454.771   134305340.381        -397.438          45.000    25557454.617   104653467.128        -309.587          45.000  
R14  25065003.260   133610606.511       -3013.606          49.000    25065002.257   103919437.138       -2343.889          46.000  
R17  22166726.317   118619136.065       -1258.140          52.000    22166721.447    92259558.610        -978.518          49.000  
R06  25335277.927   135193906.532       -1825.419          31.000                                                                  
R05  25769782.505                1      -4362.476          26.000    25769857.505                3      -3393.885          26.000  
R16  23844855.159   127375089.594        1569.373          50.000    23844852.104    99069424.844        1220.471          46.000  
E11  27499309.745   144510158.597        2007.946          44.000    27499312.103   110728765.985        1538.603          44.000  
G06  25788903.179   135521564.525       -1921.912          41.000    25788904.062   105601466.766       -1497.731          39.000  
G29  24802633.397   130339056.281        2069.544          45.000    24802633.658   101563154.465        1612.856          41.000  
S31  41169532.997   216347435.295        -760.655          44.000  
E03  28113908.417   147739631.469        -727.777          46.000    28113910.710   113203040.908        -557.676          49.000  
R15  22474727.492   120098360.237        -824.423          50.000    22474725.401    93410007.712        -641.258          51.000  
R18  22914022.796   122316664.518        2538.622          52.000    22914022.409    95135466.334        1974.437          50.000  
R24  25502353.864   136372880.606       -4506.059          44.000    25502349.752   106067818.661       -3504.797          48.000  
E31  29843263.530   156827363.268       -2487.676          38.000    29843264.031   120166495.448       -1905.989          38.000  
G11  24918730.648   130949261.821         167.466          45.000    24918725.979   102038573.124         130.389          46.000  
E24  26778027.254   140719609.378       -1456.913          46.000    26778028.297   107824175.391       -1116.300          54.000  
G24  23238356.065   122118483.926       -2312.689          48.000    23238355.444    95157328.453       -1802.240          45.000  
G12  23554976.770   123782541.304        -963.757          49.000    23554971.527    96454054.370        -750.993          44.000  
E05  26299384.530   138204228.596       -3012.608          41.000    26299389.209   105896777.390       -2308.277          47.000  
G25  23947909.933   125847332.541         502.953          47.000    23947908.064    98062925.146         391.898          45.000  
E10  27776363.516   145966245.301        1155.165          47.000    27776365.764   111844511.445         885.212          48.000  
E25  27008009.304   141928334.978         222.558          46.000    27008011.000   108750433.605         170.502          51.000  
E12  28015654.910   147223605.785          21.241          41.000    28015651.836   112807912.849          16.354          43.000  
E14  23205551.553   121946131.772       -4863.651          50.000    23205551.738    93439297.684       -3726.648          53.000  
E33                                                                  30256702.205   121831267.553       -1866.105          31.000  
> 2024 04 15 01 19 30.0080000  0 28                     
S33  42126657.968   221377168.279        -760.814          43.000  
G32  25559778.589   134317550.578        -416.354          46.000    25559778.040   104662981.512        -324.343          44.000  
R14  25081981.658   133701119.778       -3020.512          48.000    25081983.714   103989836.291       -2349.241          48.000  
R17  22173858.307   118657300.110       -1285.823          51.000    22173853.241    92289241.790       -1000.189          50.000  
R06  25345599.741                       -1846.884          27.000                                                                  
R05  25794308.001                3      -4364.950          28.000    25794340.396                3      -3391.171          23.000  
R16  23836046.220   127328029.513        1568.123          51.000    23836042.862    99032822.552        1219.799          46.000  
E11  27487857.508   144449979.632        2003.909          43.000    27487859.781   110682655.280        1535.433          44.000  
G06  25799928.159   135579501.943       -1940.072          40.000    25799929.330   105646612.808       -1511.619          37.000  
G29  24790849.860   130277135.225        2058.552          45.000    24790850.799   101514904.578        1604.074          40.000  
S31  41173875.254   216370254.851        -760.688          44.000  
E03  28118102.105   147761673.300        -741.495          45.000    28118105.064   113219930.061        -568.268          49.000  
R15  22479382.280   120123227.216        -833.160          50.000    22479378.871    93429348.734        -648.104          51.000  
R18  22899805.426   122240775.945        2520.788          51.000    22899805.976    95076442.048        1960.558          50.000  
R24  25527667.315   136508245.931       -4518.084          44.000    25527663.219   106173102.856       -3514.070          46.000  
E31  29857463.748   156901987.556       -2487.468          37.000    29857464.101   120223675.108       -1905.871          37.000  
G11  24917823.596   130944503.873         150.093          45.000    24917819.763   102034865.699         116.888          46.000  
E24  26786349.989   140763342.560       -1458.502          46.000    26786350.362   107857685.234       -1117.649          54.000  
G24  23251606.237   122188109.715       -2328.845          50.000    23251605.191    95211582.267       -1814.703          45.000  
G12  23560491.826   123811522.419        -968.200          49.000    23560486.292    96476637.061        -754.420          44.000  
E05  26316604.168   138294715.644       -3019.978          42.000    26316608.532   105966111.480       -2313.967          47.000  
G25  23945047.843   125832292.673         499.785          48.000    23945046.146    98051205.794         389.396          45.000  
E10  27769798.952   145931745.755        1144.941          48.000    27769800.412   111818076.831         877.241          48.000  
E25  27006743.650   141921684.950         220.993          47.000    27006745.477   108745338.178         169.282          51.000  
E12  28015571.319   147223170.775           7.802          41.000    28015569.414   112807579.581           5.865          43.000  
E14  23233352.471   122092228.602       -4876.139          50.000    23233353.214    93551242.015       -3736.255          53.000  
E33                                                                  30270642.895   121887395.450       -1874.963          33.000  
R07                                                                  25215524.627                3        508.995          11.000  
> 2024 04 15 01 20 00.0080000  0 27                     
S33  42131001.205   221399993.944        -760.481          43.000  
G32  25562208.180   134330318.234        -434.779          46.000    25562207.633   104672930.337        -338.646          43.000  
R14  25099001.081   133791839.341       -3027.357          49.000    25099003.235   104060395.843       -2354.686          48.000  
R17  22181144.925   118696290.117       -1313.330          52.000    22181139.213    92319567.369       -1021.380          50.000  
R06  25356039.334                       -1867.231          29.000                                                                  
R05  25818806.286                1      -4366.199          28.000    25818758.829                3      -3391.815          18.000  
R16  23827244.046   127281004.200        1567.012          52.000    23827240.105    98996247.338        1218.740          46.000  
E11  27476427.600   144389914.395        2000.531          44.000    27476429.263   110636631.686        1532.803          44.000  
G06  25811057.211   135637980.492       -1958.049          41.000    25811056.601   105692180.602       -1525.873          39.000  
G29  24779129.400   130215543.596        2047.647          44.000    24779129.513   101466911.313        1595.646          40.000  
S31  41178216.397   216393067.344        -760.081          44.000  
E03  28122374.448   147784123.815        -755.186          45.000    28122377.272   113237132.344        -578.498          49.000  
R15  22484084.101   120148354.040        -841.841          51.000    22484081.676    93448891.800        -654.719          51.000  
R18  22885687.536   122165417.760        2503.173          50.000    22885688.405    95017830.292        1946.911          50.000  
R24  25553047.366   136643967.195       -4529.803          42.000    25553043.743   106278663.861       -3523.051          45.000  
E31  29871660.371   156976606.794       -2487.671          34.000    29871663.080   120280850.774       -1905.882          37.000  
G11  24917016.322   130940261.425         132.865          45.000    24917012.191   102031559.942         103.557          46.000  
E24  26794680.791   140807119.984       -1459.885          46.000    26794681.191   107891228.969       -1118.642          54.000  
G24  23264944.921   122258209.457       -2344.464          49.000    23264944.493    95266205.418       -1826.978          45.000  
G12  23566030.723   123840630.481        -972.216          49.000    23566024.908    96499318.669        -757.490          44.000  
E05  26333864.474   138385419.320       -3027.037          44.000    26333868.715   106035611.585       -2319.418          46.000  
G25  23942202.231   125817339.406         496.973          47.000    23942200.448    98039553.927         387.306          45.000  
E10  27763291.697   145897547.681        1134.972          49.000    27763292.302   111791873.207         869.565          48.000  
E25  27005486.358   141915075.582         219.643          47.000    27005487.496   108740273.895         168.314          50.000  
E12  28015564.078   147223140.565          -5.580          40.000    28015563.724   112807556.511          -4.316          44.000  
E14  23261223.019   122238692.559       -4888.086          49.000    23261224.287    93663467.661       -3745.374          53.000  
E33                                                                  30284646.728   121943784.376       -1883.662          31.000  
> 2024 04 15 01 20 30.0080000  0 27                     
S33  42135341.717   221422803.591        -760.177          43.000  
G32  25564742.231   134343636.212        -453.294          47.000    25564741.689   104683307.972        -353.247          44.000  
R14  25116057.790   133882758.403       -3034.231          50.000    25116058.673   104131110.591       -2359.923          47.000  
R17  22188583.381   118736097.846       -1340.774          52.000    22188578.643    92350528.971       -1042.716          51.000  
R06  25366595.120                       -1887.756          30.000                                                                  
R05  25843348.694                3      -4372.374          18.000                                                                  
R16  23818446.052   127234007.882        1565.826          51.000    23818442.319    98959694.659        1217.783          46.000  
E11  27465017.617   144329957.995        1996.670          44.000    27465020.342   110590691.487        1529.908          45.000  
G06  25822285.683   135696992.276       -1976.532          39.000    25822283.534   105738163.833       -1540.081          40.000  
G29  24767470.896   130154275.913        2036.612          45.000    24767470.191   101419170.470        1586.970          41.000  
S31  41182554.752   216415864.899        -759.969          44.000  
E03  28126722.901   147806975.757        -768.632          45.000    28126725.626   113254642.217        -588.852          49.000  
R15  22488833.860   120173734.848        -850.448          51.000    22488831.195    93468632.429        -661.440          51.000  
R18  22871669.327   122090586.730        2485.355          51.000    22871670.000    94959628.526        1932.969          51.000  
R24  25578492.632   136780032.932       -4541.436          42.000    25578488.329   106384492.831       -3532.174          44.000  
E31  29885859.907   157051214.143       -2486.320          36.000    29885860.794   120338017.408       -1905.646          38.000  
G11  24916304.806   130936529.147         115.442          44.000    24916302.323   102028651.716          90.143          46.000  
E24  26803018.961   140850934.709       -1461.154          47.000    26803018.832   107924801.285       -1119.645          55.000  
G24  23278373.857   122328775.614       -2360.217          49.000    23278372.795    95321191.993       -1839.099          45.000  
G12  23571592.321   123869858.556        -976.404          49.000    23571587.138    96522093.827        -760.826          44.000  
E05  26351164.238   138476330.707       -3034.217          44.000    26351169.098   106105270.831       -2324.717          47.000  
G25  23939371.529   125802465.761         494.167          47.000    23939369.387    98027964.095         385.151          44.000  
E10  27756840.444   145863645.882        1124.949          49.000    27756841.087   111765896.594         861.996          48.000  
E25  27004234.579   141908499.623         218.390          47.000    27004235.841   108735235.204         167.394          50.000  
E12  28015634.715   147223509.107         -19.269          41.000    28015633.438   112807838.929         -14.499          44.000  
E14  23289161.354   122385511.285       -4900.046          49.000    23289162.830    93775965.151       -3754.568          53.000  
E33                                                                  30298714.419                       -1892.319          30.000  
> 2024 04 15 01 21 00.0080000  0 27                     
S33  42139682.593   221445613.906        -760.121          43.000  
G32  25567383.966   134357519.507        -472.000          46.000    25567384.313   104694126.082        -367.962          44.000  
R14  25133153.972   133973892.989       -3041.345          50.000    25133153.463   104201992.980       -2365.522          45.000  
R17  22196178.172   118776737.522       -1368.385          51.000    22196172.539    92382137.626       -1064.251          50.000  
R06  25377268.858                       -1908.542          29.000                                                                  
R05  25867882.428                1      -4369.557          27.000    25867878.997                3      -3399.770          22.000  
R16  23809656.392   127187057.510        1564.337          50.000    23809652.940    98923177.723        1216.841          46.000  
E11  27453632.441   144270127.898        1992.422          44.000    27453634.725   110544848.072        1526.595          45.000  
G06  25833619.374   135756551.626       -1994.271          41.000    25833617.174   105784573.739       -1553.913          40.000  
G29  24755876.583   130093348.417        2025.301          45.000    24755875.147   101371694.747        1578.189          41.000  
S31  41186892.893   216438663.225        -759.949          45.000  
E03  28131151.192   147830244.140        -782.347          45.000    28131153.609   113272471.193        -599.332          49.000  
R15  22493635.266   120199386.767        -859.445          52.000    22493631.089    93488583.922        -668.335          51.000  
R18  22857753.797   122016302.370        2467.144          52.000    22857754.465    94901851.947        1918.939          51.000  
R24  25604003.817   136916454.572       -4552.764          38.000    25604000.178   106490598.583       -3541.090          43.000  
E31  29900059.466   157125825.317       -2486.887          37.000    29900059.851   120395186.949       -1905.518          39.000  
G11  24915695.815   130933323.957          98.199          46.000    24915692.516   102026154.211          76.608          46.000  
E24  26811366.692   140894802.088       -1462.989          47.000    26811366.447   107958413.953       -1120.919          54.000  
G24  23291893.225   122399822.798       -2376.178          48.000    23291893.067    95376553.383       -1851.562          45.000  
G12  23577180.075   123899221.490        -980.789          49.000    23577175.396    96544974.035        -764.150          45.000  
E05  26368505.146   138567463.090       -3041.088          43.000    26368510.948   106175099.418       -2330.177          46.000  
G25  23936558.959   125787687.118         491.067          48.000    23936556.781    98016448.304         382.747          43.000  
E10  27750448.940   145830057.374        1114.495          49.000    27750449.251   111740160.047         853.992          48.000  
E25  27002991.885   141901972.124         217.031          46.000    27002993.624   108730233.651         166.335          50.000  
E12  28015784.142   147224292.543         -32.831          41.000    28015782.701   112808439.240         -25.184          44.000  
E14  23317169.745   122532694.627       -4911.952          49.000    23317170.724    93888742.013       -3763.712          53.000  
E33                                                                  30312846.040                3      -1902.770          25.000  
> 2024 04 15 01 21 30.0080000  0 27                     
S33  42144024.234   221468428.106        -760.423          43.000  
G32  25570134.467   134371970.167        -491.059          46.000    25570134.199   104705386.292        -382.530          44.000  
R14  25150292.221   134065245.427       -3048.611          51.000    25150291.933   104273044.773       -2371.106          46.000  
R17  22203927.485   118818210.694       -1396.194          51.000    22203922.639    92414394.546       -1085.883          50.000  
R06  25388060.560                       -1929.595          27.000                                                                  
R05  25892427.656                3      -4373.665          21.000    25892425.831                3      -3400.294          19.000  
R16  23800875.364   127140156.382        1562.667          49.000    23800872.496    98886699.108        1215.567          47.000  
E11  27442271.400   144210428.457        1987.932          43.000    27442274.222   110499104.749        1523.175          45.000  
G06  25845058.019   135816659.798       -2012.687          42.000    25845057.153   105831411.323       -1568.203          42.000  
G29  24744347.553   130032765.361        2013.850          45.000    24744346.912   101324487.415        1569.257          41.000  
S31  41191232.089   216461464.136        -759.874          44.000  
E03  28135658.871   147853931.030        -796.242          46.000    28135661.294   113290620.853        -610.089          49.000  
R15  22498486.993   120225313.333        -868.607          51.000    22498482.669    93508749.023        -675.633          51.000  
R18  22843941.460   121942570.887        2448.606          52.000    22843942.048    94844505.402        1904.503          51.000  
R24  25629581.105   137053230.552       -4564.642          36.000    25629578.052   106596979.973       -3550.549          40.000  
E31  29914256.257   157200442.886       -2487.157          36.000    29914259.859   120452361.462       -1906.054          41.000  
G11  24915187.842   130930649.815          80.490          46.000    24915184.064   102024070.556          62.726          46.000  
E24  26819725.016   140938724.511       -1464.804          47.000    26819724.350   107992068.814       -1122.360          54.000  
G24  23305505.496   122471352.710       -2392.194          48.000    23305504.317    95432290.922       -1864.154          45.000  
G12  23582793.515   123928721.343        -985.388          49.000    23582789.474    96567960.945        -767.887          45.000  
E05  26385889.177   138658816.851       -3048.401          43.000    26385895.465   106245097.610       -2335.929          47.000  
G25  23933765.527   125773005.796         487.863          47.000    23933763.235    98005008.346         380.244          44.000  
E10  27744116.675   145796786.286        1103.964          48.000    27744118.020   111714666.723         845.918          48.000  
E25  27001759.603   141895495.214         215.229          46.000    27001761.377   108725270.860         164.990          50.000  
E12  28016012.792   147225494.002         -46.742          42.000    28016011.255   112809359.874         -35.896          44.000  
E14  23345247.017   122680239.556       -4923.790          49.000    23345247.517    94001795.941       -3772.808          53.000  
E33                                                                  30327044.795                3      -1909.111          22.000  
> 2024 04 15 01 22 00.0080000  0 27                     
S33  42148365.024   221491240.506        -760.428          43.000  
G32  25572991.305   134386984.103        -509.656          46.000    25572990.578   104717085.425        -397.146          43.000  
R14  25167469.187   134156812.782       -3055.615          51.000    25167469.683   104344263.723       -2376.604          45.000  
R17  22211833.211   118860512.413       -1423.572          53.000    22211828.632    92447295.918       -1107.265          51.000  
R06  25398967.642                3      -1944.938          22.000                                                                  
R16  23792104.363   127093302.294        1561.289          50.000    23792100.995    98850257.057        1214.435          46.000  
E11  27430934.613   144150858.055        1983.711          42.000    27430937.572   110453460.291        1520.001          45.000  
G06  25856600.507   135877312.126       -2030.419          44.000    25856599.282   105878672.871       -1582.258          43.000  
G29  24732883.763   129972524.369        2002.785          44.000    24732882.593   101277546.585        1560.421          41.000  
S31  41195570.425   216484264.595        -759.933          44.000  
E03  28140243.932   147878032.419        -810.042          44.000    28140247.652   113309088.121        -620.670          49.000  
R15  22503387.908   120251512.420        -877.723          49.000    22503385.429    93529126.078        -682.611          51.000  
R18  22830232.687   121869392.471        2430.261          52.000    22830232.772    94787589.027        1890.173          51.000  
R24  25655213.358   137190352.753       -4576.279          33.000    25655220.538   106703630.595       -3558.701          37.000  
E31  29928455.673   157275063.540       -2487.241          35.000    29928459.562   120509538.308       -1905.909          40.000  
G11  24914779.149   130928504.583          62.974          47.000    24914775.228   102022399.039          48.883          45.000  
E24  26828092.351   140982698.313       -1466.421          47.000    26828092.314   108025763.045       -1123.627          54.000  
G24  23319208.011   122543360.936       -2407.990          48.000    23319206.647    95488401.186       -1876.208          45.000  
G12  23588433.028   123958354.424        -989.958          49.000    23588428.288    96591051.634        -771.318          45.000  
E05  26403315.183   138750386.280       -3055.853          44.000    26403320.480   106315261.046       -2341.343          46.000  
G25  23930989.028   125758418.149         484.739          47.000    23930987.683    97993641.367         377.896          44.000  
E10  27737845.426   145763830.675        1093.426          48.000    27737846.424   111689415.093         837.888          48.000  
E25  27000535.769   141889064.867         213.813          46.000    27000537.731   108720343.745         163.813          51.000  
E12  28016320.733   147227110.707         -60.804          41.000    28016318.464   112810598.642         -46.265          43.000  
E14  23373390.926   122828136.985       -4935.578          49.000    23373391.214    94115119.971       -3781.801          53.000  
E33                                                                  30341309.865                3      -1919.698          23.000  
R05                                                                  25917033.604                3      -3402.151          25.000  
> 2024 04 15 01 22 30.0080000  0 28                     
S33  42152705.771   221514049.031        -760.331          43.000  
G32  25575954.209   134402557.302        -528.452          45.000    25575953.956   104729220.353        -412.026          43.000  
R14  25184686.958   134248591.445       -3062.834          51.000    25184687.655   104415646.994       -2382.295          46.000  
R17  22219893.020   118903637.547       -1451.306          53.000    22219887.197    92480837.711       -1128.795          50.000  
R06  25409995.404                3      -1973.828          20.000                                                                  
R05  25941548.723                3      -4364.997          17.000                                                                  
R16  23783341.761   127046492.300        1559.557          50.000    23783338.389    98813849.346        1212.991          47.000  
R07  28180376.289                3       1066.079          16.000                                                                  
E11  27419622.674   144091415.119        1979.296          42.000    27419625.727   110407913.514        1516.693          45.000  
G06  25868245.238   135938503.838       -2048.603          45.000    25868244.791   105926354.803       -1596.597          44.000  
G29  24721484.616   129912622.806        1990.916          44.000    24721484.403   101230870.287        1551.304          42.000  
S31  41199908.504   216507060.105        -759.550          44.000  
E03  28144907.808   147902544.369        -823.858          44.000    28144912.009   113327869.962        -631.293          49.000  
R15  22508341.630   120277981.763        -886.931          50.000    22508338.895    93549713.348        -689.767          50.000  
R18  22816627.491   121796767.314        2411.435          52.000    22816627.760    94731102.911        1875.553          51.000  
R24  25680917.504                       -4587.797          30.000    25680926.542   106810544.593       -3568.208          35.000  
E31  29942657.073   157349683.924       -2487.392          33.000    29942658.861   120566714.948       -1906.057          38.000  
G11  24914471.278   130926886.179          45.110          47.000    24914466.629   102021137.995          35.007          45.000  
E24  26836469.308   141026719.919       -1468.268          46.000    26836469.387   108059493.890       -1124.999          54.000  
G24  23333000.690   122615843.163       -2423.938          48.000    23332999.382    95544880.827       -1888.666          45.000  
G12  23594096.685   123988117.261        -994.262          49.000    23594091.416    96614243.483        -774.823          45.000  
E05  26420780.571   138842165.704       -3062.671          43.000    26420785.709   106385585.406       -2346.896          47.000  
G25  23928230.746   125743920.609         481.586          47.000    23928229.518    97982344.609         375.162          45.000  
E10  27731633.330   145731188.563        1082.740          48.000    27731635.067   111664403.696         829.621          48.000  
E25  26999320.803   141882677.232         212.150          47.000    26999322.518   108715449.347         162.641          51.000  
E12  28016706.285   147229139.672         -74.651          42.000    28016704.815   112812153.351         -57.069          44.000  
E14  23401599.735   122976377.876       -4947.078          49.000    23401600.283    94228707.165       -3790.587          52.000  
E33                                                                  30355639.214                3      -1927.277          25.000  
> 2024 04 15 01 23 00.0080000  0 27                     
S33  42157045.154   221536852.409        -760.137          43.000  
G32  25579023.303   134418688.743        -547.177          45.000    25579023.106   104741790.237        -426.259          43.000  
R14  25201943.339   134340580.918       -3069.993          50.000    25201944.086   104487194.283       -2387.799          44.000  
R17  22228105.123   118947584.207       -1478.761          53.000    22228099.368    92515018.482       -1150.077          50.000  
R06  25421118.981                3      -1990.501          24.000                                                                  
R05  25966103.741                3      -4370.857          17.000                                                                  
R16  23774586.981   126999727.341        1557.850          50.000    23774584.489    98777476.622        1211.654          48.000  
E11  27408336.404   144032100.988        1974.792          43.000    27408337.692   110362465.387        1513.108          45.000  
G06  25879991.934   136000233.165       -2066.892          45.000    25879990.470   105974455.626       -1610.487          43.000  
G29  24710150.672   129853061.475        1979.633          45.000    24710149.169   101184459.065        1542.558          41.000  
S31  41204245.147   216529850.236        -759.788          44.000  
E03  28149650.326   147927465.815        -837.709          44.000    28149654.207   113346965.548        -641.836          48.000  
R15  22513346.247   120304722.195        -896.000          51.000    22513343.275    93570511.463        -696.790          51.000  
R18  22803126.531   121724698.314        2392.894          52.000    22803126.475    94675049.383        1861.163          51.000  
R24  25706686.129   137465607.872       -4599.119          34.000    25706691.755                       -3577.347          31.000  
E31  29956857.338   157424303.562       -2487.840          33.000    29956858.624   120623890.995       -1906.006          37.000  
G11  24914264.081   130925795.383          27.308          46.000    24914259.713   102020288.074          21.244          45.000  
E24  26844856.660   141070788.635       -1470.016          47.000    26844855.185   108093260.837       -1126.295          54.000  
G24  23346883.356   122688797.867       -2439.899          47.000    23346882.689    95601728.618       -1901.105          46.000  
G12  23599784.948   124018008.418        -998.593          50.000    23599779.384    96637535.295        -778.157          45.000  
E05  26438285.715   138934152.373       -3069.953          43.000    26438290.560   106456068.551       -2352.318          47.000  
G25  23925488.964   125729512.385         478.578          48.000    23925487.691    97971117.432         372.874          46.000  
E10  27725482.545   145698860.948        1072.063          48.000    27725483.285   111639633.261         821.550          48.000  
E25  26998112.451   141876331.270         210.751          46.000    26998115.043   108710586.908         161.416          51.000  
E12  28017171.548   147231581.014         -88.414          42.000    28017169.937   112814024.003         -67.693          44.000  
E14  23429873.907   123124956.222       -4958.350          50.000    23429874.000    94342552.933       -3799.265          53.000  
E33                                                                  30370030.586                3      -1936.559          25.000  
> 2024 04 15 01 23 30.0080000  0 27                     
S33  42161383.687   221559652.697        -760.000          43.000  
G32  25582200.823   134435379.750        -565.721          47.000    25582199.369   104754796.159        -440.718          43.000  
R14  25219240.336   134432783.433       -3077.043          50.000    25219241.125   104558907.243       -2393.180          45.000  
R17  22236472.229   118992353.008       -1505.900          53.000    22236465.778    92549838.691       -1171.406          51.000  
R06  25432381.549                3      -2011.101          25.000                                                                  
R05  25990505.697                3      -4376.608          13.000    25990562.292                3      -3411.642          22.000  
R16  23765841.468   126953010.401        1556.432          50.000    23765838.728    98741141.249        1210.523          47.000  
E11  27397074.509   143972919.544        1970.466          43.000    27397075.429   110317118.921        1509.795          44.000  
G06  25891840.608   136062500.812       -2084.486          45.000    25891839.551   106022975.862       -1624.453          44.000  
G29  24698882.072   129793843.930        1968.238          45.000    24698881.325   101138315.727        1533.573          43.000  
S31  41208581.700   216552637.165        -759.385          44.000  
E03  28154471.494   147952798.220        -851.144          45.000    28154474.669   113366376.034        -652.234          48.000  
R15  22518401.805   120331736.524        -905.024          51.000    22518398.871    93591522.609        -703.939          51.000  
R18  22789730.177   121653191.352        2374.168          51.000    22789730.229    94619433.003        1846.477          50.000  
R24  25732524.473   137603733.345       -4609.700          34.000    25732521.803   107025148.878       -3585.497          32.000  
G11  24914157.228   130925235.527           9.822          45.000    24914151.614   102019851.858           7.760          43.000  
E24  26853251.168   141114906.355       -1471.372          47.000    26853250.585   108127065.336       -1127.459          54.000  
G24  23360856.322   122762226.201       -2455.475          47.000    23360855.639    95658945.472       -1913.306          45.000  
G12  23605498.192   124048029.512       -1002.785          50.000    23605492.159    96660928.388        -781.640          44.000  
E05  26455828.574   139026346.093       -3076.499          43.000    26455834.133   106526710.343       -2357.176          47.000  
G25  23922764.624   125715195.451         475.707          47.000    23922763.442    97959961.413         370.586          45.000  
E10  27719391.053   145666851.382        1061.696          48.000    27719392.046   111615106.531         813.423          48.000  
E25  26996913.803   141870028.616         209.383          47.000    26996915.522   108705757.634         160.380          51.000  
E12  28017713.545   147234437.280        -102.031          41.000    28017713.502   112816212.638         -78.311          44.000  
E14  23458210.892   123273868.508       -4969.257          49.000    23458211.213    94456654.568       -3807.677          53.000  
E31                                                                  29971057.841   120681068.125       -1905.751          36.000  
E33                                                                  30384485.131                3      -1944.392          25.000  
> 2024 04 15 01 24 00.0080000  0 27                     
S33  42165724.015   221582462.327        -760.488          43.000  
G32  25585486.620   134452643.685        -585.008          48.000    25585486.347   104768248.493        -455.733          44.000  
R14  25236580.203   134525212.888       -3084.948          51.000    25236580.756   104630796.774       -2399.428          45.000  
R17  22244992.709   119037956.395       -1534.200          53.000    22244987.809    92585308.019       -1193.219          51.000  
R06  25443750.285                3      -2023.028          18.000                                                                  
R16  23757108.350   126906356.815        1553.926          49.000    23757104.475    98704855.164        1208.638          47.000  
E11  27385840.312   143913886.699        1964.993          42.000    27385841.601   110271886.317        1505.737          45.000  
G06  25903794.425   136125319.353       -2103.235          44.000    25903793.883   106071925.394       -1638.755          43.000  
G29  24687681.429   129734984.807        1955.795          45.000    24687681.347   101092451.678        1523.937          43.000  
S31  41212919.755   216575434.110        -760.309          44.000  
E03  28159374.035   147978554.959        -865.794          46.000    28159376.233   113386111.669        -663.397          48.000  
R15  22523510.722   120359040.339        -915.167          50.000    22523508.271    93612758.900        -711.762          51.000  
R18  22776443.614   121582264.057        2354.370          52.000    22776442.692    94564267.468        1831.201          50.000  
R24  25758422.332   137742200.236       -4621.821          32.000    25758416.075                       -3593.728          30.000  
E31  29985255.633   157573561.1421      -2488.523          33.000    29985259.599   120738257.106       -1906.558          35.000  
G11  24914154.673   130925221.887          -8.862          47.000    24914149.441   102019841.315          -6.776          43.000  
E24  26861658.952   141159086.953       -1473.840          47.000    26861657.588   108160918.003       -1129.355          54.000  
G24  23374922.881   122836141.142       -2472.144          49.000    23374920.882    95716541.517       -1926.483          45.000  
G12  23611238.086   124078194.726       -1007.992          49.000    23611233.050    96684433.759        -785.387          45.000  
E05  26473413.133   139118758.633       -3084.035          41.000    26473420.051   106597519.833       -2363.156          47.000  
G25  23920059.692   125700983.643         471.927          47.000    23920058.995    97948887.299         367.872          45.000  
E10  27713362.651   145635175.319        1050.046          48.000    27713363.981   111590835.357         804.583          48.000  
E25  26995724.603   141863782.798         207.079          46.000    26995726.903   108700971.910         158.646          51.000  
E12  28018338.536   147237723.106        -117.062          41.000    28018338.511   112818730.358         -89.595          44.000  
E14  23486612.591   123423123.236       -4980.932          49.000    23486613.441    94571018.579       -3816.514          53.000  
E33                                                                  30399007.813                3      -1954.394          24.000  
R07                                                                  25174080.126                3        306.328          14.000  
> 2024 04 15 01 24 30.0080000  0 26                     
S33  42170067.204   221605283.366        -760.537          42.000  
G32  25588880.187   134470480.758        -603.834          47.000    25588879.719   104782147.478        -470.538          44.000  
R14  25253963.251   134617871.015       -3092.038          49.000    25253964.609   104702864.101       -2405.007          46.000  
R17  22253670.991   119084393.855       -1561.520          53.000    22253665.384    92621426.068       -1214.498          51.000  
R06  25455234.764                3      -2058.639          22.000                                                                  
R16  23748387.207   126859768.582        1552.214          50.000    23748383.658    98668619.906        1207.142          48.000  
E11  27374634.527   143855005.110        1960.539          42.000    27374636.581   110226769.628        1502.120          45.000  
G06  25915853.312   136188688.434       -2121.402          44.000    25915851.974   106121303.967       -1652.906          42.000  
G29  24676549.564   129676486.438        1944.205          45.000    24676549.054   101046868.742        1514.933          43.000  
S31  41217259.832   216598241.932        -760.137          44.000  
E03  28164356.010   148004736.408        -879.401          45.000    28164358.974   113406172.710        -673.924          49.000  
R15  22528675.523   120386635.832        -924.370          51.000    22528672.133    93634222.075        -719.032          51.000  
R18  22763265.130   121511921.186        2335.302          51.000    22763264.860    94509556.440        1816.282          50.000  
R24  25784381.043   137881004.458       -4632.444          33.000    25784391.753                3      -3598.568          20.000  
G11  24914256.622   130925756.622         -26.761          46.000    24914251.801   102020258.068         -20.726          44.000  
E24  26870076.822   141203331.143       -1475.618          46.000    26870077.046   108194819.426       -1130.649          54.000  
G24  23389081.001   122910542.655       -2487.884          49.000    23389080.757    95774516.654       -1938.582          46.000  
G12  23617005.774   124108504.567       -1012.356          49.000    23617001.263    96708051.853        -789.046          45.000  
E05  26491040.699   139211388.669       -3090.906          42.000    26491047.229   106668495.941       -2368.295          47.000  
G25  23917376.353   125686877.695         468.835          47.000    23917374.639    97937895.680         365.166          45.000  
E10  27707399.215   145603835.149        1039.446          48.000    27707400.225   111566821.545         796.465          48.000  
E25  26994547.080   141857594.249         205.647          47.000    26994549.015   108696230.076         157.560          51.000  
E12  28019047.294   147241439.949        -130.687          42.000    28019045.516   112821578.380        -100.242          44.000  
E14  23515079.389   123572715.789       -4991.716          49.000    23515079.928    94685641.474       -3824.820          53.000  
E31                                                                  29999466.076   120795458.798       -1906.839          35.000  
E33                                                                  30413597.471                3      -1965.013          22.000  
> 2024 04 15 01 25 00.0080000  0 27                     
S33  42174409.213   221628103.508        -761.026          42.000  
G32  25592381.138   134488878.684        -622.818          46.000    25592381.557   104796483.446        -485.244          44.000  
R14  25271386.138   134710745.232       -3099.649          49.000    25271388.007   104775099.517       -2410.818          47.000  
R17  22262501.542   119131651.782       -1589.172          52.000    22262496.758    92658182.262       -1236.066          51.000  
R06  25466836.101                3      -2072.136          26.000                                                                  
R16  23739675.459   126813235.172        1549.888          49.000    23739672.819    98632427.290        1205.540          48.000  
E11  27363456.701   143796265.110        1955.511          42.000    27363458.313   110181761.412        1498.286          45.000  
G06  25928013.943   136252594.996       -2139.389          43.000    25928013.293   106171101.303       -1666.969          43.000  
G29  24665483.672   129618337.850        1932.133          45.000    24665483.558   101001558.343        1505.518          44.000  
S31  41221599.468   216621048.087        -760.687          44.000  
E03  28169416.755   148031330.299        -893.622          45.000    28169419.871   113426549.796        -684.666          48.000  
R15  22533892.397   120414512.306        -934.189          51.000    22533889.291    93655903.793        -726.572          51.000  
R18  22750194.448   121442154.096        2315.657          50.000    22750195.182    94455293.265        1801.108          51.000  
R24  25810397.009   138020130.371       -4642.312          32.000    25810410.294                3      -3595.185          15.000  
E31  30013676.430                       -2488.524          30.000    30013673.917   120852664.248       -1906.855          36.000  
G11  24914460.574   130926829.384         -44.982          46.000    24914456.754   102021094.010         -35.079          45.000  
E24  26878506.064   141247627.243       -1477.618          46.000    26878506.368   108228760.598       -1132.258          54.000  
G24  23403330.188   122985418.067       -2504.144          49.000    23403327.971    95832861.073       -1951.094          45.000  
G12  23622798.313   124138946.946       -1017.242          49.000    23622794.035    96731773.198        -792.763          45.000  
E05  26508706.784   139304222.367       -3097.940          42.000    26508713.527   106739628.119       -2373.876          47.000  
G25  23914709.401   125672865.817         465.381          47.000    23914708.729    97926977.371         362.610          45.000  
E10  27701497.926   145572820.732        1028.021          49.000    27701498.715   111543057.360         787.709          49.000  
E25  26993377.563   141851450.944         203.802          46.000    26993379.895   108691522.886         156.171          51.000  
E12  28019833.723   147245576.559        -145.113          41.000    28019832.727   112824748.032        -111.356          44.000  
E14  23543607.624   123722629.148       -5002.706          50.000    23543607.230    94800510.158       -3833.154          53.000  
E33                                                                  30428251.391                3      -1972.337          23.000  
R05                                                                  26064204.775                3      -3406.000          14.000  
> 2024 04 15 01 25 30.0080000  0 28                     
S33  42178751.694   221650924.826        -760.716          42.000  
G32  25595989.609   134507838.985        -641.277          47.000    25595989.018   104811257.670        -499.812          44.000  
R14  25288850.979   134803838.327       -3106.713          51.000    25288851.134   104847505.122       -2416.356          46.000  
R17  22271486.657   119179730.692       -1616.142          52.000    22271481.554    92695576.999       -1257.013          52.000  
R06  25478541.650                3      -2087.636          20.000                                                                  
R16  23730974.785   126766759.933        1548.329          47.000    23730971.630    98596279.959        1204.339          46.000  
E11  27352306.258   143737670.851        1950.746          42.000    27352307.853   110136864.836        1494.626          44.000  
G06  25940277.421   136317039.884       -2156.791          44.000    25940276.532   106221318.156       -1680.533          43.000  
G29  24654485.697   129560542.570        1920.687          47.000    24654485.311   100956523.250        1496.682          43.000  
S31  41225939.933   216643856.395        -760.220          44.000  
E03  28174556.031   148058338.332        -907.111          45.000    28174558.968   113447244.201        -695.135          48.000  
R15  22539160.951   120442673.311        -943.370          50.000    22539159.272    93677806.797        -733.709          52.000  
R18  22737233.850   121372968.821        2296.515          50.000    22737233.921    94401482.685        1786.057          50.000  
R24  25836477.391   138159575.959       -4653.535          33.000    25836532.430                3      -3642.808          10.000  
G11  24914767.117   130928443.622         -62.839          45.000    24914763.998   102022351.909         -48.965          45.000  
E24  26886945.831   141291977.384       -1479.065          46.000    26886946.056   108262743.166       -1133.408          54.000  
G24  23417668.685   123060768.606       -2519.561          49.000    23417666.856    95891575.777       -1963.189          45.000  
G12  23628616.848   124169523.886       -1021.423          47.000    23628612.250    96755599.371        -795.980          45.000  
E05  26526412.270   139397259.732       -3104.413          43.000    26526417.829   106810916.335       -2378.852          47.000  
G25  23912060.982   125658950.249         462.391          46.000    23912059.642    97916134.079         360.330          45.000  
E10  27695657.954   145542135.804        1017.292          48.000    27695659.018   111519545.625         779.565          48.000  
E25  26992217.482   141845354.731         202.383          46.000    26992219.938   108686851.772         155.148          51.000  
E12  28020701.927   147250135.826        -158.929          42.000    28020699.770   112828241.544        -121.799          43.000  
E14  23572195.512   123872860.137       -5013.019          49.000    23572194.995    94915622.232       -3841.073          53.000  
E31                                                                  30027881.004   120909875.492       -1906.976          34.000  
E33                                                                  30442963.775                3      -1974.427          18.000  
R07                                                                  28156339.431                3        252.375          17.000  
R05                                                                  26088805.187                3      -3403.979          19.000  
> 2024 04 15 01 26 00.0080000  0 29                     
S33  42183094.090   221673742.797        -760.857          42.000  
G32  25599703.301   134527356.723        -659.981          47.000    25599703.629   104826466.246        -514.206          45.000  
R14  25306354.562   134897145.987       -3113.896          51.000    25306354.028   104920077.651       -2421.923          45.000  
R17  22280624.258   119228624.758       -1643.397          52.000    22280618.672    92733605.731       -1278.312          52.000  
R06  25490368.371                3      -2122.448          22.000                                                                  
R05  26113742.468                2      -4379.554          28.000                                                                  
R16  23722284.302   126720339.559        1546.234          48.000    23722280.855    98560175.292        1202.712          47.000  
E11  27341183.350   143679219.939        1946.080          42.000    27341184.425   110092078.095        1491.211          44.000  
G06  25952642.176   136382017.500       -2174.905          43.000    25952640.901   106271950.102       -1694.574          42.000  
G29  24643554.223   129503097.750        1908.901          47.000    24643553.328   100911761.240        1487.348          42.000  
S31  41230279.110   216666659.594        -759.768          44.000  
E03  28179773.397   148085755.639        -920.776          45.000    28179775.921   113468252.225        -705.486          47.000  
R15  22544483.522   120471115.940        -952.892          50.000    22544481.664    93699928.838        -741.055          52.000  
R18  22724381.860   121304364.488        2276.978          50.000    22724382.272    94348123.885        1771.029          51.000  
R24  25862612.888                       -4664.294          30.000    25862620.889                3      -3640.913           9.000  
E31  30042091.398   157872217.3731      -2489.300          32.000    30042090.957   120967089.210       -1907.072          36.000  
G11  24915176.314   130930596.294         -80.808          45.000    24915174.175   102024029.384         -62.977          44.000  
E24  26895394.879   141336377.192       -1480.750          46.000    26895395.258   108296763.799       -1134.630          54.000  
G24  23432096.547   123136589.059       -2535.241          49.000    23432095.396    95950656.616       -1975.618          46.000  
G12  23634460.273   124200230.743       -1025.849          49.000    23634455.781    96779526.825        -799.324          45.000  
E05  26544153.503   139490494.315       -3111.108          42.000    26544159.925   106882355.646       -2383.682          47.000  
G25  23909431.122   125645126.621         459.204          47.000    23909429.076    97905362.439         357.753          45.000  
E10  27689880.261   145511777.578        1006.573          47.000    27689882.008   111496284.217         771.203          48.000  
E25  26991065.373   141839300.954         201.114          47.000    26991067.986   108682213.182         154.078          51.000  
E12  28021649.822   147255114.029        -172.907          43.000    28021647.543   112832056.043        -132.439          44.000  
E14  23600842.378   124023399.083       -5022.995          50.000    23600841.390    95030970.287       -3848.749          53.000  
E33                                                                  30457740.648                3      -1998.708          15.000  
R07                                                                  28151436.583                3        223.196          16.000  
R19                                                                  25956079.256   107992011.7471       2948.718          34.000  
> 2024 04 15 01 26 30.0080000  0 27                     
S33  42187436.364   221696562.174        -760.839          42.000  
G32  25603523.854   134547435.861        -678.948          47.000    25603524.710   104842112.275        -529.133          44.000  
R14  25323899.332   134990673.049       -3121.578          50.000    25323898.750   104992820.816       -2427.780          45.000  
R17  22289914.074   119278336.868       -1670.926          52.000    22289908.889    92772270.712       -1299.653          52.000  
R06  25502304.121                3      -2139.338          16.000                                                                  
R05  26138290.625                1      -4380.158          25.000                                                                  
R16  23713606.293   126673980.177        1543.916          49.000    23713602.619    98524118.016        1200.862          47.000  
E11  27330087.932   143620919.018        1940.426          41.000    27330089.678   110047406.260        1487.075          43.000  
G06  25965108.960   136447531.095       -2192.990          44.000    25965107.567   106322999.687       -1708.896          43.000  
G29  24632689.598   129446009.332        1896.564          46.000    24632688.965   100867276.924        1478.063          42.000  
S31  41234618.982   216689464.533        -760.458          44.000  
E03  28185069.760   148113586.347        -934.965          45.000    28185071.880   113489577.028        -716.258          47.000  
R15  22549860.087   120499845.989        -962.674          50.000    22549858.094    93722274.457        -748.826          51.000  
R18  22711640.248   121236349.403        2256.976          51.000    22711640.436    94295223.387        1755.434          50.000  
R19  25934819.334                1       3788.505          32.000    25934833.002   107903582.446        2946.462          36.000  
R24  25888808.880                       -4673.780          32.000    25888789.604                3      -3638.527          20.000  
E31  30056302.469   157946894.243       -2489.348          34.000    30056301.959   121024309.185       -1907.551          36.000  
G11  24915689.515   130933293.327         -99.271          44.000    24915686.768   102026131.003         -77.253          44.000  
E24  26903854.839   141380831.365       -1482.934          46.000    26903854.451   108330826.087       -1136.281          54.000  
G24  23446614.654   123212883.074       -2551.301          48.000    23446613.103    96010106.463       -1988.027          45.000  
G12  23640329.792   124231071.932       -1030.569          50.000    23640324.833    96803558.911        -802.954          46.000  
E05  26561933.519   139583928.640       -3118.187          42.000    26561939.888   106953948.006       -2389.186          46.000  
G25  23906819.014   125631399.527         455.814          47.000    23906817.153    97894666.025         355.105          45.000  
E10  27684167.372   145481752.304         994.959          48.000    27684168.412   111473277.919         762.407          48.000  
E25  26989922.805   141833293.961         199.231          47.000    26989924.879   108677610.438         152.648          51.000  
E12  28022676.774   147260516.385        -187.160          43.000    28022675.786   112836195.546        -143.563          44.000  
E14  23629546.850   124174245.413       -5033.464          50.000    23629546.584    95146553.867       -3856.763          53.000  
> 2024 04 15 01 27 00.0080000  0 26                     
S33  42191778.592   221719378.621        -760.441          43.000  
G32  25607451.445   134568072.885        -697.133          46.000    25607451.140   104858193.009        -543.177          43.000  
R14  25341486.833   135084416.876       -3128.447          51.000    25341485.729   105065732.582       -2433.188          46.000  
R17  22299355.630   119328862.252       -1697.642          53.000    22299351.285    92811568.247       -1320.376          52.000  
R06  25514346.768                3      -2150.198          15.000                                                                  
R16  23704939.548   126627680.259        1542.393          50.000    23704936.050    98488106.984        1199.696          48.000  
E11  27319022.075   143562767.209        1935.781          41.000    27319023.820   110002848.694        1483.197          44.000  
G06  25977677.178   136513576.486       -2210.470          43.000    25977674.491   106374463.634       -1722.396          42.000  
G29  24621893.491   129389275.380        1885.290          46.000    24621892.046   100823068.847        1469.017          41.000  
S31  41238958.300   216712267.640        -760.174          44.000  
E03  28190443.710   148141827.051        -948.113          45.000    28190446.312   113511215.980        -726.638          48.000  
R15  22555289.661   120528862.092        -971.932          49.000    22555288.126    93744842.494        -755.922          52.000  
R18  22699009.523   121168924.349        2237.643          51.000    22699010.113    94242781.801        1740.366          51.000  
R19  25913579.696   138620176.0941       3786.536          36.000    25913595.385   107815204.437        2945.239          39.000  
R24  25915056.847                       -4684.392          27.000    25915061.390                3      -3631.740          19.000  
E31  30070512.768   158021576.665       -2489.434          32.000    30070512.270   121081533.393       -1908.165          34.000  
G11  24916304.806   130936533.098        -117.048          44.000    24916302.742   102028655.548         -91.061          43.000  
E24  26912323.660   141425336.985       -1484.319          47.000    26912323.580   108364927.798       -1137.340          54.000  
G24  23461221.813   123289646.846       -2566.581          48.000    23461221.080    96069922.361       -2000.026          45.000  
G12  23646224.097   124262044.377       -1034.541          50.000    23646218.310    96827693.308        -806.258          45.000  
E05  26579751.284   139677557.648       -3124.203          42.000    26579756.688   107025689.550       -2393.901          46.000  
G25  23904224.696   125617766.185         452.889          48.000    23904222.916    97884042.655         352.983          45.000  
E10  27678516.580   145452058.616         984.235          47.000    27678518.001   111450525.697         754.256          49.000  
E25  26988788.966   141827330.564         198.168          48.000    26988790.105   108673041.083         151.891          51.000  
E12  28023785.860   147266340.626        -201.091          43.000    28023784.258   112840658.299        -154.063          44.000  
E14  23658308.524   124325390.986       -5043.000          49.000    23658308.682    95262366.728       -3864.140          53.000  
> 2024 04 15 01 27 30.0080000  0 26                     
S33  42196119.656   221742193.994        -760.548          42.000  
G32  25611484.676   134589267.025        -715.976          47.000    25611484.650   104874707.886        -557.975          44.000  
R14  25359112.897   135178377.531       -3135.918          50.000    25359113.753   105138812.946       -2439.012          47.000  
R17  22308949.700   119380199.356       -1724.994          53.000    22308944.622    92851497.114       -1341.712          52.000  
R06  25526493.871                3      -2176.184          18.000                                                                  
R16  23696282.389   126581440.879        1540.123          49.000    23696279.834    98452143.029        1197.809          47.000  
E11  27307984.412   143504766.348        1930.494          41.000    27307985.940   109958406.785        1479.219          43.000  
G06  25990346.244   136580152.216       -2228.212          42.000    25990343.846   106426340.853       -1736.361          43.000  
G29  24611165.150   129332896.609        1873.172          46.000    24611163.922   100779137.513        1459.536          42.000  
S31  41243296.775   216735068.333        -760.347          44.000  
E03  28195895.355   148170477.159        -961.938          45.000    28195898.512   113533168.610        -737.161          48.000  
R15  22560772.495   120558165.219        -981.770          48.000    22560771.961    93767633.817        -763.712          52.000  
R18  22686490.179   121102092.785        2217.470          52.000    22686490.455    94190801.823        1724.672          51.000  
R19  25892350.142   138506617.925        3783.837          36.000    25892368.610   107726880.883        2942.888          41.000  
R24  25941359.992                3      -4693.895          19.000    25941352.532                3      -3646.873          17.000  
E31  30084729.968   158096264.880       -2490.361          35.000    30084724.943   121138761.859       -1907.819          34.000  
G11  24917025.058   130940316.859        -135.575          44.000    24917023.299   102031603.982        -105.454          43.000  
E24  26920802.577   141469894.055       -1486.229          46.000    26920802.428   108399068.933       -1138.864          54.000  
G24  23475918.528   123366879.361       -2582.466          47.000    23475918.079    96130103.503       -2012.450          46.000  
G12  23652142.591   124293147.964       -1039.223          49.000    23652136.880    96851929.899        -809.845          45.000  
E05  26597605.684   139771379.212       -3130.790          44.000    26597610.441   107097578.617       -2399.091          45.000  
G25  23901648.157   125604226.512         449.488          48.000    23901646.574    97873492.304         350.261          45.000  
E10  27672929.671   145422698.033         972.856          47.000    27672931.120   111428028.723         745.402          49.000  
E25  26987661.524   141821410.427         196.503          47.000    26987663.500   108668504.893         150.519          51.000  
E12  28024974.367   147272587.263        -215.457          43.000    28024972.606   112845444.700        -165.072          44.000  
E14  23687126.852   124476830.548       -5053.041          49.000    23687126.748    95378404.845       -3871.746          53.000  
> 2024 04 15 01 28 00.0080000  0 26                     
S33  42200462.430   221765014.138        -760.844          42.000  
G32  25615625.427   134611025.791        -734.761          47.000    25615625.517   104891662.706        -572.541          45.000  
R14  25376782.100   135272563.434       -3143.507          50.000    25376783.006   105212068.546       -2444.813          47.000  
R17  22318695.393   119432354.642       -1752.342          52.000    22318691.223    92892062.370       -1362.828          52.000  
R06  25538780.788                3      -2194.101          15.000                                                                  
R16  23687638.330   126535271.853        1537.514          49.000    23687636.710    98416233.860        1195.754          47.000  
E11  27296977.457   143446926.704        1925.268          41.000    27296978.925   109914088.400        1475.327          43.000  
G06  26003117.541   136647265.143       -2246.256          42.000    26003114.642   106478636.661       -1750.295          41.000  
G29  24600506.230   129276882.718        1860.744          46.000    24600504.708   100735490.491        1450.233          42.000  
S31  41247636.416   216757874.377        -760.518          44.000  
E03  28201426.999   148199544.324        -976.031          45.000    28201429.449   113555440.813        -747.853          48.000  
R15  22566312.523   120587765.604        -991.857          49.000    22566311.212    93790656.341        -771.340          51.000  
R18  22674083.275   121035866.696        2197.181          51.000    22674082.948    94139292.743        1709.019          50.000  
R19  25871137.183   138393141.551        3780.991          36.000    25871156.589   107638621.035        2940.899          42.000  
R24  25967700.395                3      -4697.143          19.000    25967733.396                3      -3645.117          15.000  
E31  30098940.259   158170967.140       -2490.458          35.000    30098941.977   121196001.228       -1908.001          36.000  
G11  24917850.493   130944653.981        -153.870          44.000    24917847.045   102034983.605        -119.933          42.000  
E24  26929293.209   141514510.840       -1488.398          46.000    26929292.642   108433255.822       -1140.409          54.000  
G24  23490705.617   123444587.787       -2598.311          47.000    23490705.099    96190655.500       -2024.778          45.000  
G12  23658087.424   124324390.734       -1043.904          49.000    23658082.484    96876274.934        -813.343          45.000  
E05  26615497.196   139865399.416       -3137.456          44.000    26615501.730   107169619.881       -2404.002          45.000  
G25  23899090.952   125590788.800         446.019          48.000    23899089.418    97863021.397         347.633          45.000  
E10  27667406.928   145393680.342         961.374          47.000    27667408.891   111405794.465         736.682          49.000  
E25  26986544.292   141815541.517         194.604          46.000    26986546.588   108664007.958         149.146          51.000  
E12  28026245.918   147279265.093        -229.837          44.000    28026243.364   112850561.504        -176.053          44.000  
E14  23716001.485   124628567.124       -5062.932          49.000    23716001.449    95494670.561       -3879.410          53.000  
> 2024 04 15 01 28 30.0080000  0 25                     
S33  42204805.708   221787839.740        -760.495          42.000  
G32  25619873.150   134633347.355        -752.966          46.000    25619872.464   104909056.063        -586.833          45.000  
R14  25394493.902   135366973.477       -3150.413          50.000    25394494.921   105285498.489       -2450.372          48.000  
R17  22328594.361   119485325.050       -1778.869          52.000    22328590.029    92933261.608       -1383.555          52.000  
R16  23679009.127   126489173.251        1535.799          50.000    23679006.607    98380379.431        1194.543          47.000  
E11  27286002.096   143389249.223        1920.169          41.000    27286003.335   109869894.239        1471.223          44.000  
G06  26015990.526   136714912.706       -2263.398          43.000    26015987.026   106531349.060       -1763.574          40.000  
G29  24589916.975   129221234.026        1849.246          47.000    24589915.252   100692128.019        1441.097          43.000  
S31  41251977.508   216780685.433        -760.001          44.000  
E03  28207037.262   148229026.869        -989.429          45.000    28207039.792   113578031.292        -758.011          48.000  
R15  22571907.876   120617662.761       -1001.237          50.000    22571906.190    93813909.699        -778.707          52.000  
R18  22661791.060   120970248.321        2177.506          52.000    22661790.443    94088256.355        1693.525          51.000  
R19  25849941.375   138279749.514        3778.476          38.000    25849959.628   107550426.849        2938.816          41.000  
R24  25994114.306                3      -4713.714          20.000                                                                  
E31  30113157.539   158245682.726       -2490.433          33.000    30113159.963   121253250.880       -1908.773          37.000  
G11  24918782.172   130949544.556        -171.710          46.000    24918777.958   102038794.508        -134.032          42.000  
E24  26937794.838   141559186.232       -1489.790          47.000    26937794.064   108467487.626       -1141.538          54.000  
G24  23505583.212   123522770.096       -2613.628          47.000    23505583.411    96251576.750       -2036.720          46.000  
G12  23664058.438   124355771.551       -1047.947          49.000    23664054.240    96900727.540        -816.452          46.000  
E05  26633427.078   139959615.032       -3143.434          44.000    26633430.327   107241810.892       -2408.552          44.000  
G25  23896552.541   125577451.986         443.217          48.000    23896551.128    97852629.106         345.403          45.000  
E10  27661950.859   145365005.908         950.533          48.000    27661952.238   111383823.237         728.327          50.000  
E25  26985436.963   141809722.412         193.566          46.000    26985439.171   108659549.182         148.250          51.000  
E12  28027598.053   147286373.530        -243.461          43.000    28027596.125   112856008.275        -186.870          44.000  
E14  23744931.123   124780594.416       -5071.930          49.000    23744931.088    95611159.018       -3886.252          53.000  
> 2024 04 15 01 29 00.0080000  0 26                     
S33  42209146.435   221810649.707        -760.288          43.000  
G32  25624224.072   134656210.237        -771.419          46.000    25624223.215   104926871.251        -601.023          44.000  
R14  25412244.343   135461586.782       -3157.454          51.000    25412244.727   105359086.530       -2455.843          49.000  
R17  22338641.035   119539088.024       -1805.490          51.000    22338636.619    92975077.289       -1404.285          52.000  
R06  25563607.521                3      -2221.258          10.000                                                                  
R16  23670389.858   126443125.767        1533.702          50.000    23670387.276    98344564.752        1193.029          48.000  
E11  27275052.953   143331715.175        1914.959          41.000    27275055.183   109825809.991        1467.267          44.000  
G06  26028961.347   136783072.868       -2280.895          42.000    26028957.610   106584460.918       -1777.194          39.000  
G29  24579393.100   129165930.774        1837.445          48.000    24579391.029   100649034.762        1431.761          43.000  
S31  41256315.049   216803479.800        -760.007          44.000  
E03  28212722.471   148258903.552       -1002.823          45.000    28212725.260   113600923.791        -768.345          48.000  
R15  22577555.248   120647837.501       -1010.797          51.000    22577552.790    93837378.916        -786.174          52.000  
R18  22649609.640   120905220.346        2157.477          53.000    22649608.252    94037679.161        1677.973          51.000  
R19  25828756.267   138166424.512        3775.906          38.000    25828774.677   107462284.912        2936.936          41.000  
R24  26020609.934                3      -4716.755          22.000                                                                  
E31  30127372.842   158320391.360       -2491.068          33.000    30127377.155   121310495.063       -1908.315          39.000  
G11  24919814.187   130954969.127        -190.136          45.000    24919810.465   102043021.497        -147.978          43.000  
E24  26946303.674   141603899.624       -1491.277          47.000    26946303.001   108501748.532       -1142.698          54.000  
G24  23520547.383   123601404.520       -2628.985          47.000    23520547.268    96312850.269       -2048.471          46.000  
G12  23670052.560   124387269.588       -1052.239          49.000    23670048.073    96925271.489        -819.895          46.000  
E05  26651388.761   140054003.263       -3149.403          44.000    26651392.041   107314134.142       -2413.098          44.000  
G25  23894029.941   125564195.475         440.242          48.000    23894028.282    97842299.382         342.930          44.000  
E10  27656556.901   145336655.674         939.294          49.000    27656557.191   111362100.399         719.683          49.000  
E25  26984335.171   141803932.235         192.274          46.000    26984337.465   108655112.569         147.281          51.000  
E12  28029028.379   147293892.508        -257.791          43.000    28029026.787   112861769.588        -197.482          44.000  
E14  23773911.412   124932886.609       -5081.022          49.000    23773911.260    95727850.466       -3893.267          53.000  
> 2024 04 15 01 29 30.0080000  0 25                     
S33  42213484.537   221833445.787        -759.655          42.000  
G32  25628676.695   134679615.470        -789.501          44.000    25628677.201   104945109.050        -615.041          44.000  
R14  25430030.567   135556405.589       -3164.135          50.000    25430032.658   105432834.368       -2461.012          48.000  
R17  22348835.579   119593643.000       -1831.819          51.000    22348831.511    93017508.956       -1424.758          52.000  
R16  23661779.951   126397132.073        1532.143          50.000    23661777.219    98308791.911        1191.615          48.000  
E11  27264132.715   143274328.316        1910.209          41.000    27264134.944   109781838.528        1463.666          45.000  
G06  26042029.066   136851745.957       -2297.489          41.000    26042025.745   106637972.467       -1790.546          39.000  
G29  24568935.793   129110975.828        1825.886          48.000    24568932.642   100606212.901        1422.634          43.000  
S31  41260650.156   216826260.368        -759.211          44.000  
E03  28218483.216   148289175.576       -1015.924          45.000    28218485.969   113624119.206        -778.404          49.000  
R15  22583254.187   120678293.114       -1019.996          51.000    22583252.153    93861066.614        -793.237          51.000  
R18  22637538.623   120840788.061        2137.664          52.000    22637537.825    93987565.255        1662.665          50.000  
R19  25807585.156   138053172.375        3773.588          37.000    25807603.242   107374199.681        2935.354          41.000  
R24  26047137.453                3      -4728.746          21.000                                                                  
E31  30141590.928   158395094.803       -2490.085          38.000    30141593.037   121367735.382       -1907.935          39.000  
G11  24920948.863   130960930.662        -207.804          45.000    24920945.439   102047666.877        -161.865          43.000  
E24  26954819.405   141648652.848       -1492.539          47.000    26954819.172   108536039.972       -1143.691          54.000  
G24  23535597.536   123680491.858       -2643.874          48.000    23535597.054    96374476.717       -2060.123          46.000  
G12  23676069.505   124418886.459       -1055.959          49.000    23676064.386    96949908.063        -822.938          45.000  
E05  26669383.166   140148563.771       -3154.931          44.000    26669386.697   107386589.407       -2417.424          45.000  
G25  23891522.879   125551021.111         437.568          48.000    23891521.727    97832033.666         340.988          45.000  
E10  27651223.773   145308632.920         928.558          48.000    27651224.646   111340628.498         711.356          50.000  
E25  26983239.913   141798172.527         191.339          47.000    26983241.161   108650699.297         146.632          51.000  
E12  28030537.602   147301824.305        -271.570          43.000    28030536.405   112867847.241        -207.768          44.000  
E14  23802941.468   125085440.407       -5089.604          49.000    23802941.224    95844742.354       -3899.757          53.000  
