     3.00           OBSERVATION DATA    M: Mixed            RINEX VERSION / TYPE
CONVBIN 2.4.3                           20240415 074442 UTC PGM / RUN BY / DATE 
format: u-blox UBX                                          COMMENT             
log: /home/regis/git/gnsspwv/obsdata/VERT00CHL/2024-04-15/VECOMMENT             
{self.marker}                                               MARKER NAME         
                                                            MARKER NUMBER       
GEODETIC                                                    MARKER TYPE         
{self.observer}     {self.institution}                      OBSERVER / AGENCY   
UNKNOWN             UBLOX-ZED-F9P                           REC # / TYPE / VERS 
UNKNOWN             TWIVSP6037L                             ANT # / TYPE        
  1713381.0000 -5047934.0000 -3490983.0000                  APPROX POSITION XYZ 
        0.0000        0.0000        0.0000                  ANTENNA: DELTA H/E/N
G    8 C1C L1C D1C S1C C2L L2L D2L S2L                      SYS / # / OBS TYPES 
R    8 C1C L1C D1C S1C C2C L2C D2C S2C                      SYS / # / OBS TYPES 
E    8 C1C L1C D1C S1C C7Q L7Q D7Q S7Q                      SYS / # / OBS TYPES 
S    4 C1C L1C D1C S1C                                      SYS / # / OBS TYPES 
  2024    04    15    07    30   00.0180000     GPS         TIME OF FIRST OBS   
  2024    04    15    07    44   30.0180000     GPS         TIME OF LAST OBS    
                                                            END OF HEADER       
> 2024 04 15 07 30 00.0180000  0 26                     
S33  45111629.883   237063398.5221       -659.380          42.000  
E02  29583652.760   155463158.8691      -2697.306          48.000    29583652.724   119121153.4441      -2066.821          51.000  
E05  31627577.080   166204042.6681       1717.772          41.000    31627580.243   127351159.6561       1316.144          49.000  
E36  30396367.688   159734342.5361      -2321.683          48.000    30396367.280   122394061.3661      -1778.975          48.000  
G26  26486180.815   139185846.4121      -2881.795          48.000    26486180.096   108456460.5151      -2245.384          45.000  
R20  26361160.566   140965042.5951      -2008.734          43.000    26361157.988   109639567.4631      -1562.512          43.000  
R10  26898194.176   143382561.4871      -4294.874          45.000                                                                  
R06  27960334.035   149201724.9221       3334.163          42.000                                                                  
R05  26598004.094   142181615.0441        196.723          50.000    26597999.857   110585657.8561        152.922          47.000  
R04  28609604.948   153203085.4801      -3036.715          44.000    28609599.371   119158029.7031      -2362.060          40.000  
G16  26182744.973   137591267.2771        -63.477          47.000                                                                  
G18  28334730.725   148900383.8041      -3225.979          45.000    28334725.696   116026387.7261      -2513.613          45.000  
G29  30695419.180   161305913.0271      -3289.200          40.000    30695415.642   125693187.7881      -2563.125          37.000  
S31  44157180.745   232047689.1571       -659.298          43.000  
E30  29696706.342   156057362.8691         62.053          47.000    29696706.277   119576316.5961         47.480          51.000  
R11  26152731.669   139752289.0181       -826.141          52.000    26152727.244   108696326.1601       -642.627          50.000  
R21  26412995.306   141341582.9491        429.247          50.000    26412990.706   109932178.7141        333.890          48.000  
E15  32091687.778   168643007.4461       1045.647          42.000    32091691.985   129220009.5351        801.321          50.000  
G23  26053135.124   136910296.1861      -1667.450          48.000    26053130.601   106683379.8461      -1299.329          49.000  
E34  29190588.374   153397794.9421       -539.599          47.000    29190589.490   117538721.4341       -413.483          53.000  
G27  27227921.244   143083657.1251       1592.162          47.000    27227918.633   111493851.9431       1240.600          46.000  
E09  33013867.211   173489090.6941        662.828          35.000    33013865.637   132933164.5211        507.856          38.000  
G10  25852553.752   135856212.8061       1146.347          51.000    25852550.726   105861950.7001        893.272          47.000  
E25                                                                  33267663.160                       -2876.976          29.000  
G15                                                                  30766452.272                3      -1114.595          23.000  
G08                                                                  29836764.220   122176560.4041       1839.667          32.000  
> 2024 04 15 07 30 30.0180000  0 26                     
S33  45115391.305   237083165.336        -658.943          42.000  
E02  29599079.593   155544226.252       -2707.689          48.000    29599079.435   119183269.988       -2074.677          51.000  
E05  31617766.509   166152490.108        1718.573          40.000    31617770.142   127311658.383        1316.883          49.000  
E36  30409622.135   159803997.349       -2322.429          48.000    30409622.664   122447433.240       -1779.514          49.000  
G26  26502675.308   139272521.203       -2896.980          48.000    26502673.850   108523999.293       -2257.405          45.000  
R20  26372436.965   141025339.545       -2011.365          43.000    26372433.230   109686465.081       -1564.587          43.000  
R10  26922397.027   143511578.300       -4306.667          45.000                                                                  
R06  27941602.075   149101767.981        3329.377          42.000                                                                  
R05  26596971.159   142176086.763         171.499          51.000    26596965.306   110581358.072         133.301          46.000  
R04  28626675.092   153294493.010       -3057.887          41.000    28626669.292   119229124.402       -2378.166          41.000  
G16  26183162.164   137593457.145         -82.977          47.000                                                                  
G08  29823272.172                1       2363.271          30.000    29823271.778                        1840.823          31.000  
G18  28353148.596   148997172.191       -3227.001          46.000    28353145.858   116101807.231       -2514.451          47.000  
G29  30714207.263   161404644.615       -3293.336          41.000    30714203.373   125770121.525       -2566.739          36.000  
S31  44160942.970   232067459.943        -659.377          43.000  
E30  29696388.303   156055694.387          48.769          47.000    29696388.723   119575038.140          37.318          51.000  
R11  26157443.609   139777464.666        -852.722          52.000    26157438.119   108715907.180        -663.287          50.000  
R21  26410599.007   141328758.936         425.222          50.000    26410594.454   109922204.487         330.811          48.000  
E15  32085728.361   168611692.977        1041.285          42.000    32085733.124   129196015.398         797.907          50.000  
G23  26062708.870   136960607.617       -1687.050          48.000    26062704.687   106722583.563       -1314.503          49.000  
E34  29193680.929   153414050.622        -544.619          46.000    29193682.880   117551177.104        -417.265          53.000  
G27  27218840.548   143035937.392        1588.540          47.000    27218837.781   111456667.755        1237.973          46.000  
E09  33010111.042   173469339.807         653.150          34.000    33010107.042   132918030.703         501.043          38.000  
G10  25846062.221   135822100.892        1127.122          51.000    25846059.509   105835370.014         878.300          46.000  
E25                                                                  33289096.642                1      -2877.099          27.000  
G15                                                                  30774636.531                3      -1117.877          18.000  
> 2024 04 15 07 31 00.0180000  0 26                     
S33  45119151.686   237102926.158        -658.671          42.000  
E02  29614564.430   155625598.757       -2717.436          48.000    29614563.992   119245620.330       -2082.198          51.000  
E05  31607949.685   166100905.677        1720.307          40.000    31607953.830   127272132.716        1317.977          49.000  
E36  30422880.072   159873669.575       -2322.554          47.000    30422880.939   122500818.450       -1779.653          49.000  
G26  26519253.424   139359642.593       -2911.459          48.000    26519252.708   108591886.056       -2268.637          45.000  
R20  26383725.384   141085707.784       -2013.609          42.000    26383722.333   109733418.094       -1565.797          44.000  
R10  26946665.953   143640942.703       -4317.809          45.000                                                                  
R06  27922895.833   149001949.435        3324.950          40.000                                                                  
R05  26596076.478   142171308.537         146.751          50.000    26596071.802   110577641.711         114.179          48.000  
R04  28643859.596   153386516.537       -3077.675          38.000    28643853.902   119300698.241       -2393.899          37.000  
G16  26183689.071   137596228.756        -102.112          47.000                                                                  
G08  29809768.606   156651402.5071       2365.973          32.000    29809768.911                        1843.582          25.000  
G18  28371572.633   149093989.178       -3227.555          46.000    28371568.346   116177249.045       -2515.274          46.000  
G29  30733018.678   161503494.681       -3297.185          43.000    30733012.358   125847147.482       -2568.778          34.000  
S31  44164703.901   232087223.972        -658.543          44.000  
E30  29696146.566   156054419.810          36.045          48.000    29696146.031   119574061.506          27.562          51.000  
R11  26162302.659   139803432.337        -878.747          51.000    26162296.618   108736104.239        -683.386          49.000  
R21  26408224.393   141316052.811         421.693          50.000    26408219.257   109912321.961         327.925          47.000  
E15  32079794.756   168580505.740        1037.436          43.000    32079798.272   129172118.739         794.955          50.000  
G23  26072392.128   137011494.485       -1705.769          48.000    26072387.897   106762235.680       -1329.225          49.000  
E34  29196802.278   153430451.366        -549.021          47.000    29196803.679   117563743.931        -420.703          53.000  
G27  27209779.023   142988320.202        1585.510          47.000    27209776.562   111419563.467        1235.636          46.000  
E09  33006404.539   173449866.431         643.877          32.000    33006400.780   132903109.587         493.516          36.000  
G10  25839679.491   135788561.386        1108.494          50.000    25839677.068   105809235.333         863.743          47.000  
E25                                                                  33310533.857                       -2877.203          27.000  
G15                                                                  30782913.711                3      -1127.698          21.000  
> 2024 04 15 07 31 30.0180000  0 26                     
S33  45122910.608   237122680.083        -658.373          42.000  
E02  29630106.851   155707274.351       -2727.591          48.000    29630106.362   119308202.910       -2090.029          51.000  
E05  31598126.932   166049290.669        1720.538          39.000    31598131.353   127232583.563        1318.552          48.000  
E36  30436142.400   159943357.701       -2323.206          48.000    30436142.271   122554215.839       -1780.217          50.000  
G26  26535916.390   139447207.459       -2926.392          47.000    26535915.281   108660118.385       -2280.255          45.000  
R20  26395028.260   141146146.742       -2016.193          42.000    26395024.701   109780426.218       -1568.162          44.000  
R10  26970998.359   143770650.067       -4329.332          45.000                                                                  
R06  27904216.360   148902273.046        3319.938          41.000                                                                  
R05  26595323.289   142167281.988         121.664          51.000    26595319.897   110574509.970          94.574          48.000  
R04  28661159.095   153479152.452       -3097.969          36.000    28661153.178   119372748.398       -2408.907          31.000  
G16  26184327.287   137599582.520        -121.527          47.000                                                                  
G08  29796250.399   156580392.629        2369.132          32.000    29796257.826                1       1844.580          28.000  
G18  28390000.736   149190832.896       -3228.642          45.000    28389998.383   116252711.681       -2516.023          47.000  
G29  30751852.184   161602462.100       -3300.984          42.000    30751845.310   125924265.019       -2572.538          36.000  
S31  44168463.473   232106980.914        -658.598          43.000  
E30  29695979.079   156053539.140          22.696          48.000    29695978.526   119573386.714          17.376          51.000  
R11  26167309.480   139830190.283        -905.188          51.000    26167304.175   108756915.954        -703.992          48.000  
R21  26405871.418   141303463.402         417.498          49.000    26405866.632   109902530.182         324.795          47.000  
E15  32073884.095   168549444.652        1033.208          43.000    32073887.445   129148318.744         791.596          50.000  
G23  26082184.966   137062954.523       -1724.921          48.000    26082180.649   106802334.400       -1344.214          49.000  
E34  29199951.215   153446995.597        -553.912          47.000    29199951.685   117576420.695        -424.483          53.000  
G27  27200737.457   142940806.440        1581.926          47.000    27200735.098   111382539.766        1232.672          46.000  
E09  33002737.196                         634.707          29.000    33002747.306   132888401.629         486.607          35.000  
G10  25833406.588   135755595.234        1089.271          50.000    25833403.761   105783547.435         848.656          46.000  
E25                                                                  33331967.718                3      -2877.140          25.000  
G15                                                                  30791272.035                3      -1147.111          23.000  
> 2024 04 15 07 32 00.0180000  0 26                     
S33  45126668.714   237142429.553        -658.647          42.000  
E02  29645707.476   155789254.918       -2738.078          48.000    29645706.750   119371019.163       -2097.972          51.000  
E05  31588300.870   165997650.190        1721.616          40.000    31588304.490   127193014.918        1319.022          48.000  
E36  30449407.053   160013064.217       -2324.098          48.000    30449407.055   122607627.306       -1780.832          50.000  
G26  26552663.403   139535216.573       -2941.239          46.000    26552662.550   108728696.902       -2292.062          44.000  
R20  26406343.614   141206659.709       -2018.379          42.000    26406341.948   109827491.822       -1570.130          44.000  
R10  26995395.407   143900698.396       -4340.832          45.000                                                                  
R06  27885565.038   148802746.597        3314.710          41.000                                                                  
R05  26594711.330   142164011.976          96.146          50.000    26594707.652   110571966.643          74.760          48.000  
R04  28678573.317   153572401.391       -3119.429          35.000    28678567.842                       -2426.382          30.000  
G16  26185077.289   137603522.706        -141.400          48.000                                                                  
G08  29782726.008   156509325.025        2369.684          32.000    29782734.276                        1846.877          29.000  
G18  28408436.361   149287705.494       -3229.963          46.000    28408430.889   116328196.801       -2516.644          45.000  
G29  30770706.953   161701549.856       -3305.171          41.000    30770702.493   126001476.274       -2575.464          37.000  
S31  44172222.426   232126734.723        -658.896          43.000  
E30  29695886.615   156053056.357           9.293          47.000    29695886.570   119573016.804           7.019          51.000  
R11  26172466.158   139857741.134        -931.836          53.000    26172459.939   108778344.379        -724.738          49.000  
R21  26403541.773   141290993.546         413.388          50.000    26403535.703   109892831.423         321.356          46.000  
E15  32067997.993   168518512.574        1028.711          43.000    32068001.136   129124617.599         788.210          49.000  
G23  26092087.005   137114989.370       -1744.324          48.000    26092082.187   106842881.027       -1359.204          49.000  
E34  29203126.910   153463685.588        -558.957          47.000    29203127.668   117589209.128        -428.394          53.000  
G27  27191716.579   142893400.927        1578.149          47.000    27191714.218   111345600.408        1229.741          46.000  
E09  32999143.334   173411759.235         625.552          29.000    32999150.984   132873910.644         479.247          38.000  
G10  25827243.546   135723207.275        1069.595          51.000    25827239.840   105758310.068         833.556          46.000  
E25                                                                  33353399.707                3      -2870.153          19.000  
G15                                                                  30799701.004                3      -1158.626          22.000  
> 2024 04 15 07 32 30.0180000  0 26                     
S33  45130426.106   237162175.355        -658.335          42.000  
E02  29661365.748   155871539.279       -2748.018          48.000    29661365.021   119434068.202       -2105.641          52.000  
E05  31578468.793   165945986.411        1722.242          40.000    31578473.065   127153428.452        1319.645          48.000  
E36  30462674.506   160082788.571       -2324.567          48.000    30462675.058   122661052.461       -1781.227          49.000  
G26  26569495.108   139623667.767       -2955.751          46.000    26569493.878   108797619.865       -2303.083          44.000  
R20  26417673.143   141267246.240       -2020.843          42.000    26417672.451   109874614.663       -1571.805          44.000  
R10  27019854.446   144031083.069       -4351.891          44.000                                                                  
R06  27866943.315   148703374.743        3309.505          42.000                                                                  
R05  26594241.737   142161500.789          70.845          51.000    26594236.983   110570013.491          55.051          47.000  
R04  28696097.596                       -3139.888          30.000    28696081.141                1      -2441.019          28.000  
G16  26185939.055   137608050.306        -160.907          48.000                                                                  
G08  29769192.877   156438200.698        2371.508          33.000    29769196.203                        1848.000          30.000  
G18  28426875.057   149384606.049       -3230.541          45.000    28426871.572   116403703.734       -2517.449          46.000  
G29  30789586.038   161800757.805       -3309.281          42.000    30789580.977   126078781.141       -2578.468          38.000  
S31  44175980.684   232146484.026        -658.483          43.000  
E30  29695870.694   156052972.446          -3.980          47.000    29695870.628   119572952.514          -3.176          51.000  
R11  26177769.968   139886083.849        -958.167          52.000    26177764.106   108800388.712        -745.178          50.000  
R21  26401234.185   141278642.459         409.668          51.000    26401228.237   109883225.057         318.544          47.000  
E15  32062135.898   168487709.355        1024.361          43.000    32062139.572   129101015.172         785.082          50.000  
G23  26102097.647   137167597.580       -1763.275          48.000    26102093.147   106883874.436       -1373.987          49.000  
E34  29206329.475   153480520.633        -563.745          46.000    29206331.302   117602108.709        -431.952          53.000  
G27  27182716.286   142846105.510        1574.416          47.000    27182714.319   111308746.874        1226.756          46.000  
E09  32995597.909                1        616.000          25.000    32995606.171   132859637.980         472.269          37.000  
G10  25821190.654   135691399.331        1050.488          51.000    25821187.245   105733524.690         818.425          46.000  
E25                                                                  33374838.896                3      -2880.064          19.000  
G15                                                                  30808209.244                3      -1169.015          25.000  
> 2024 04 15 07 33 00.0180000  0 26                     
S33  45134183.586   237181920.770        -657.622          42.000  
E02  29677081.589   155954127.571       -2757.856          48.000    29677080.866   119497350.126       -2113.177          51.000  
E05  31568635.366   165894302.841        1723.161          42.000    31568637.564   127113826.773        1320.400          47.000  
E36  30475945.434   160152531.550       -2324.868          47.000    30475946.530   122714491.884       -1781.485          49.000  
G26  26586411.208   139712560.056       -2970.582          46.000    26586409.873   108866886.554       -2314.497          45.000  
R20  26429017.609   141327907.926       -2023.404          42.000    26429015.906   109921795.991       -1573.513          43.000  
R10  27044376.911   144161801.481       -4362.736          44.000                                                                  
R06  27848350.739   148604163.208        3304.365          41.000                                                                  
R05  26593914.246   142159751.194          45.736          51.000    26593910.289   110568652.700          35.598          48.000  
R04  28713738.205                       -3159.410          25.000    28713734.869                       -2456.914          28.000  
G16  26186912.444   137613166.716        -180.475          48.000                                                                  
G08  29755650.740   156367022.185        2373.735          33.000    29755653.428   121844411.5251       1849.399          32.000  
G18  28445320.473   149481535.052       -3231.202          45.000    28445314.964   116479232.804       -2517.921          44.000  
G29  30808487.814   161900087.351       -3312.898          42.000    30808483.366   126156180.834       -2581.294          38.000  
S31  44179738.513   232166232.375        -658.111          43.000  
E30  29695930.614   156053289.658         -17.169          47.000    29695930.899   119573195.565         -13.100          51.000  
R11  26183221.441   139915219.417        -984.357          51.000    26183216.060   108823049.679        -765.607          49.000  
R21  26398948.748   141266411.495         405.750          52.000    26398942.565   109873712.111         315.661          47.000  
E15  32056299.603   168457036.091        1020.459          44.000    32056302.167   129077512.340         781.865          49.000  
G23  26112217.882   137220779.093       -1782.172          48.000    26112213.249   106925314.576       -1388.678          49.000  
E34  29209560.077   153497501.338        -568.202          45.000    29209562.551   117615119.916        -435.539          53.000  
G27  27173738.039   142798923.260        1570.833          48.000    27173735.846   111271981.467        1224.020          46.000  
E09  32992117.065                         606.346          28.000    32992114.940   132845585.904         464.767          36.000  
G10  25815248.904   135660174.502        1031.287          51.000    25815245.187   105709193.671         803.509          45.000  
E25                                                                  33396274.558                3      -2876.181          23.000  
G15                                                                  30816796.365                3      -1162.978          20.000  
> 2024 04 15 07 33 30.0180000  0 26                     
S33  45137939.745   237201659.411        -657.958          42.000  
E02  29692853.410   156037015.700       -2768.014          47.000    29692854.033   119560861.801       -2120.978          52.000  
E05  31558796.134   165842598.664        1723.519          42.000    31558797.958   127074209.327        1320.567          46.000  
E36  30489220.931   160222289.740       -2325.617          48.000    30489220.632   122767942.938       -1782.022          48.000  
G26  26603409.622   139801888.233       -2984.994          46.000    26603408.716   108936492.908       -2326.039          44.000  
R20  26440375.982   141388641.009       -2025.710          42.000    26440372.812   109969032.839       -1575.418          41.000  
R10  27068960.750   144292845.986       -4373.502          44.000                                                                  
R06  27829787.521   148505113.905        3298.845          39.000                                                                  
R05  26593729.390   142158762.655          20.122          51.000    26593725.445   110567883.870          15.668          48.000  
R04  28731492.666   153855805.2431      -3179.050          33.000    28731491.107   119665592.1531      -2472.866          32.000  
G16  26187997.982   137618871.051        -200.061          48.000                                                                  
G08  29742092.032   156295787.853        2374.852          28.000    29742098.720                        1851.397          31.000  
G18  28463769.785   149578488.717       -3232.307          45.000    28463765.081   116554781.114       -2518.706          44.000  
G29  30827412.242   161999535.402       -3316.987          43.000    30827408.380   126233672.819       -2584.560          41.000  
S31  44183495.751   232185975.605        -658.132          43.000  
E30  29696066.806   156054005.974         -30.624          46.000    29696066.920   119573744.431         -23.550          50.000  
R11  26188821.380   139945143.909       -1010.742          51.000    26188816.038   108846324.281        -786.157          49.000  
R21  26396684.488   141254296.836         401.785          52.000    26396678.404   109864289.621         312.464          47.000  
E15  32050486.512   168426489.739        1016.042          44.000    32050489.348   129054106.731         778.479          49.000  
G23  26122445.985   137274529.528       -1801.172          47.000    26122441.933   106967198.027       -1403.607          50.000  
E34  29212819.090   153514624.136        -573.284          45.000    29212820.747   117628239.978        -439.244          53.000  
G27  27164781.365   142751853.128        1567.029          48.000    27164778.566   111235303.449        1221.115          46.000  
E09  32988679.809                         596.809          30.000    32988679.500   132831753.560         457.270          36.000  
G10  25809417.784   135629531.647        1011.602          50.000    25809414.070   105685316.131         788.219          45.000  
E25                                                                  33417710.272                3      -2881.077          25.000  
G15                                                                  30825454.708                3      -1182.580          21.000  
> 2024 04 15 07 34 00.0180000  0 26                     
S33  45141694.767   237221392.988        -657.787          42.000  
E02  29708683.053   156120201.817       -2778.265          47.000    29708683.942   119624601.778       -2128.693          52.000  
E05  31548954.145   165790875.366        1724.087          43.000    31548955.057   127034577.236        1321.144          46.000  
E36  30502497.989   160292061.868       -2326.241          47.000    30502497.690   122821404.691       -1782.454          48.000  
G26  26620490.125   139891649.332       -2999.362          45.000    26620489.532   109006436.589       -2337.178          44.000  
R20  26451747.632   141449445.664       -2028.208          43.000    26451743.010   110016325.365       -1577.395          42.000  
R10  27093604.434   144424211.567       -4384.529          44.000                                                                  
R06  27811256.818   148406231.160        3292.760          41.000                                                                  
R05  26593687.165   142158536.267          -5.582          50.000    26593681.311   110567707.793          -4.219          47.000  
R04  28749359.312                       -3199.229          27.000    28749357.969   119740001.964       -2488.005          32.000  
G16  26189195.443   137625164.106        -219.922          48.000                                                                  
G08  29728530.706                        2376.980          28.000    29728534.992                        1852.460          29.000  
G18  28482224.149   149675465.482       -3233.138          45.000    28482220.458   116630347.397       -2519.399          46.000  
G29  30846358.990   162099101.117       -3321.130          42.000    30846355.343   126311256.535       -2587.646          40.000  
S31  44187251.502   232205712.811        -658.020          43.000  
E30  29696279.406   156055121.573         -44.277          46.000    29696279.248   119574599.220         -33.829          50.000  
R11  26194569.083   139975855.601       -1037.213          51.000    26194564.491   108870211.125        -806.628          50.000  
R21  26394442.429   141242297.522         397.791          52.000    26394437.164   109854956.825         309.380          47.000  
E15  32044697.257   168396069.401        1011.607          44.000    32044700.234   129030797.696         775.128          49.000  
G23  26132782.390   137328846.714       -1820.337          48.000    26132778.708   107009523.109       -1418.335          50.000  
E34  29216103.949   153531887.539        -578.122          46.000    29216105.697   117641467.799        -442.977          53.000  
G27  27155845.942   142704896.214        1562.904          48.000    27155842.740   111198713.629        1217.914          45.000  
E09  32985305.320   173338872.3511        586.773          32.000    32985299.822   132818141.806         449.837          37.000  
G10  25803697.388   135599471.794         991.806          51.000    25803693.763   105661892.896         772.923          45.000  
E25                                                                  33439143.522                3      -2868.876          21.000  
G15                                                                  30834204.954                3      -1198.356          25.000  
> 2024 04 15 07 34 30.0180000  0 26                     
S33  45145449.338   237241122.903        -657.314          42.000  
E02  29724570.354   156203686.251       -2787.792          47.000    29724570.582   119688570.354       -2136.006          52.000  
E05  31539108.471   165739136.676        1724.960          42.000    31539109.935   126994933.372        1321.738          46.000  
E36  30515777.642   160361849.009       -2326.316          47.000    30515777.827   122874877.961       -1782.471          47.000  
G26  26637654.112   139981842.684       -3013.445          46.000    26637652.491   109076717.065       -2348.156          44.000  
R20  26463131.419   141510323.335       -2030.174          43.000    26463127.751   110063674.677       -1578.992          42.000  
R10  27118307.537   144555894.880       -4394.686          43.000                                                                  
R06  27792759.140   148307520.846        3287.456          42.000                                                                  
R05  26593789.527   142159075.496         -30.618          51.000    26593783.429   110568127.228         -23.917          48.000  
R04  28767321.273                3      -3219.821          22.000    28767335.932   119814877.091       -2504.330          31.000  
G16  26190505.765   137632048.045        -239.166          48.000                                                                  
G08  29714954.229   156153155.775        2378.966          28.000    29714948.491                3       1852.929          21.000  
G18  28500683.174   149772466.015       -3233.705          45.000    28500677.600   116705932.268       -2519.833          45.000  
G29  30865327.668   162198785.781       -3324.773          43.000    30865324.048   126388932.899       -2590.556          40.000  
S31  44191006.874   232225447.167        -657.863          43.000  
E30  29696568.563   156056638.943         -57.268          46.000    29696567.911   119575761.877         -43.790          50.000  
R11  26200463.743   140007355.426       -1063.086          51.000    26200459.037   108894710.976        -826.855          50.000  
R21  26392222.251   141230415.195         394.287          52.000    26392216.957   109845715.047         306.676          47.000  
E15  32038932.839   168365776.425        1007.782          44.000    32038935.870   129007586.249         772.222          49.000  
G23  26143226.866   137383730.743       -1838.763          48.000    26143222.747   107052289.883       -1432.843          50.000  
E34  29219416.232   153549292.445        -582.542          46.000    29219417.943   117654804.027        -446.266          53.000  
G27  27146932.323   142658055.937        1559.437          48.000    27146929.134   111162214.729        1215.218          45.000  
E09  32981977.470                         577.121          30.000    32981974.105   132804753.171         442.451          37.000  
G10  25798088.563   135569998.255         972.784          50.000    25798085.126   105638926.539         757.989          46.000  
E25                                                                  33460572.689                3      -2882.035          13.000  
G15                                                                  30843017.730                3      -1208.510          24.000  
> 2024 04 15 07 35 00.0180000  0 26                     
S33  45149202.031   237260843.012        -657.350          42.000  
E02  29740512.453   156287460.906       -2797.501          47.000    29740512.633   119752761.314       -2143.627          52.000  
E05  31529258.831   165687377.881        1725.408          42.000    31529260.897   126955274.102        1321.865          47.000  
E36  30529058.986   160431643.780       -2326.836          46.000    30529059.171   122928357.064       -1782.928          47.000  
G26  26654897.782   140072458.998       -3027.798          47.000    26654896.265   109147327.144       -2359.203          44.000  
R20  26474528.174   141571266.417       -2032.808          43.000    26474524.249   110111074.805       -1580.851          42.000  
R10  27143069.518   144687885.260       -4404.993          44.000                                                                  
R06  27774292.869   148208980.716        3281.583          42.000                                                                  
R05  26594032.280   142160375.418         -56.163          51.000    26594026.710   110569138.255         -43.636          48.000  
R04  28785431.732   154144552.8411      -3238.430          31.000    28785423.302                       -2518.622          29.000  
G16  26191927.348   137639516.230        -259.021          48.000                                                                  
G08  29701369.373   156081755.151        2380.753          28.000    29701352.241                3       1837.532          13.000  
G18  28519144.807   149869482.647       -3234.566          46.000    28519140.511   116781529.590       -2520.322          45.000  
G29  30884318.583   162298582.906       -3328.470          39.000    30884314.382   126466696.953       -2594.078          35.000  
S31  44194760.099   232245170.933        -657.662          43.000  
E30  29696932.522   156058552.094         -70.611          46.000    29696932.036   119577227.806         -54.119          50.000  
R11  26206505.108   140039635.754       -1089.209          51.000    26206499.587   108919817.870        -847.174          49.000  
R21  26390021.592   141218642.164         390.333          51.000    26390015.734   109836558.267         303.762          47.000  
E15  32033191.766   168335603.796        1003.399          44.000    32033194.184   128984466.994         768.885          50.000  
G23  26153777.717   137439173.221       -1857.556          49.000    26153772.894   107095491.804       -1447.382          50.000  
E34  29222753.376   153566831.245        -587.093          45.000    29222755.711   117668242.844        -449.871          53.000  
G27  27138040.055   142611327.315        1555.393          48.000    27138037.454   111125802.806        1211.942          45.000  
E09  32978707.354   173304211.676         568.203          34.000    32978702.719   132791583.695         435.011          35.000  
G10  25792590.030   135541105.816         953.048          50.000    25792587.205   105616412.972         742.544          46.000  
E25                                                                  33482013.070                3      -2876.279          15.000  
G15                                                                  30851920.654                3      -1218.828          24.000  
> 2024 04 15 07 35 30.0180000  0 26                     
S33  45152953.754   237280559.635        -657.037          42.000  
E02  29756510.144   156371532.001       -2807.361          46.000    29756510.961   119817179.392       -2151.085          52.000  
E05  31519407.513   165635608.574        1725.629          43.000    31519410.120   126915606.774        1322.288          47.000  
E36  30542342.565   160501453.041       -2327.154          47.000    30542343.548   122981847.282       -1783.217          47.000  
G26  26672223.706   140163503.414       -3041.939          48.000    26672221.281   109218270.839       -2370.447          44.000  
R20  26485937.604   141632282.719       -2034.959          43.000    26485935.304   110158531.950       -1582.743          44.000  
R10  27167889.100   144820184.928       -4415.192          44.000                                                                  
R06  27755861.335   148110622.984        3275.344          42.000                                                                  
R05  26594418.630   142162445.126         -81.872          50.000    26594413.824   110570748.011         -63.696          49.000  
R04  28803610.545   154242033.6301      -3258.149          29.000    28803621.635                3      -2530.503          21.000  
G16  26193461.244   137647577.770        -278.680          48.000                                                                  
G08  29687768.878                        2382.320          27.000    29687772.764                3       1862.370          22.000  
G18  28537610.222   149966521.931       -3235.021          45.000    28537606.068   116857144.640       -2520.913          45.000  
G29  30903332.464   162398499.594       -3332.830          35.000    30903327.817                       -2596.806          28.000  
S31  44198512.769   232264891.451        -657.408          43.000  
E30  29697372.740   156060869.274         -84.209          46.000    29697373.389   119579003.318         -64.508          50.000  
R11  26212693.497   140072702.761       -1115.588          52.000    26212687.439   108945536.640        -867.413          49.000  
R21  26387842.975   141206985.559         386.578          52.000    26387837.684   109827492.049         300.609          47.000  
E15  32027473.848   168305558.682         999.326          44.000    32027476.941   128961445.462         765.674          50.000  
G23  26164435.470   137495180.007       -1876.379          49.000    26164430.815   107139133.465       -1462.097          51.000  
E34  29226117.855   153584510.706        -591.756          46.000    29226120.053   117681789.456        -453.442          53.000  
G27  27129170.770   142564719.575        1551.652          48.000    27129168.783   111089485.102        1208.666          46.000  
E09  32975488.897   173287319.464         558.685          32.000    32975489.610   132778640.313         427.711          38.000  
G10  25787204.734   135512803.559         933.440          51.000    25787201.530   105594359.262         727.318          46.000  
E25                                                                  33503439.331                3      -2874.376          15.000  
G15                                                                  30860893.905                3      -1241.176          20.000  
> 2024 04 15 07 36 00.0180000  0 26                     
S33  45156706.352   237300279.388        -657.765          41.000  
E02  29772566.319   156455904.861       -2817.451          46.000    29772566.476   119881828.689       -2158.717          52.000  
E05  31509555.559   165583837.496        1725.806          42.000    31509558.297   126875938.064        1322.311          46.000  
E36  30555631.038   160571282.889       -2327.911          47.000    30555631.810   123035353.276       -1783.769          47.000  
G26  26689631.321   140254980.105       -3056.462          48.000    26689629.381   109289551.355       -2381.586          45.000  
R20  26497363.357   141693378.409       -2037.876          43.000    26497360.554   110206050.789       -1584.927          43.000  
R10  27192767.353   144952796.971       -4425.606          44.000                                                                  
R06  27737466.242   148012459.032        3268.751          44.000                                                                  
R05  26594950.234   142165292.723        -107.816          49.000    26594947.311   110572962.830         -84.006          49.000  
R04  28821933.447                3      -3277.819          26.000    28821943.346                       -2549.130          28.000  
G16  26195109.863   137656239.440        -298.712          48.000                                                                  
G08  29674160.193                        2384.073          26.000    29674168.310                        1858.384          28.000  
G18  28556081.952   150063589.585       -3235.968          46.000    28556077.512   116932781.750       -2521.584          45.000  
G29  30922368.892                       -3337.047          27.000    30922362.244                3      -2598.845          26.000  
S31  44202266.478   232284616.680        -657.664          43.000  
E30  29697892.109   156063597.929         -97.831          46.000    29697892.776   119581094.110         -74.932          51.000  
R11  26219030.090   140106562.251       -1141.876          52.000    26219024.401   108971871.801        -888.068          49.000  
R21  26385688.190   141195451.836         382.407          52.000    26385681.712   109818521.380         297.206          46.000  
E15  32021782.446   168275647.455         994.941          44.000    32021784.706   128938526.508         762.292          50.000  
G23  26175201.526   137551756.099       -1895.355          49.000    26175197.035   107183218.734       -1476.855          51.000  
E34  29229510.682   153602336.619        -596.495          46.000    29229512.219   117695448.274        -457.126          53.000  
G27  27120326.263   142518241.168        1547.113          48.000    27120324.363   111053268.160        1205.557          45.000  
E09  32972334.477   173270730.658         547.881          33.000    32972333.890   132765929.409         419.611          39.000  
G10  25781932.777   135485099.693         913.594          50.000    25781929.561   105572771.833         711.833          46.000  
E25                                                                  33524864.569                3      -2879.855          13.000  
G15                                                                  30869943.786                3      -1238.822          19.000  
> 2024 04 15 07 36 30.0180000  0 26                     
S33  45160458.251   237319994.711        -657.054          42.000  
E02  29788676.731   156540568.918       -2826.908          46.000    29788677.140   119946701.138       -2166.131          51.000  
E05  31499701.673   165532057.480        1726.000          42.000    31499704.129   126836262.472        1322.613          45.000  
E36  30568921.783   160641123.528       -2328.145          47.000    30568921.800   123088867.521       -1783.955          46.000  
G26  26707119.043   140346877.449       -3070.299          48.000    26707117.479   109361159.660       -2392.239          45.000  
R20  26508802.278   141754545.482       -2039.935          42.000    26508798.815   110253625.184       -1586.782          43.000  
R10  27217701.798   145085706.634       -4435.233          44.000                                                                  
R06  27719105.557   147914484.135        3262.730          43.000                                                                  
R05  26595627.899   142168910.988        -133.558          49.000    26595624.194   110575777.027        -103.771          49.000  
R04  28840356.867                3      -3297.177          24.000    28840358.024                3      -2563.495          26.000  
G16  26196870.927   137665493.083        -318.280          48.000                                                                  
G08  29660544.544                        2385.747          25.000    29660547.397                        1858.282          30.000  
G18  28574556.496   150160675.553       -3236.490          45.000    28574551.513   117008433.154       -2522.007          44.000  
S31  44206018.919   232304335.936        -657.206          43.000  
E30  29698488.233   156066729.553        -111.121          46.000    29698488.733   119583493.654         -85.105          51.000  
R11  26225511.802   140141203.881       -1167.639          51.000    26225506.943   108998815.274        -908.173          49.000  
R21  26383554.465   141184031.133         378.937          52.000    26383547.973   109809638.622         294.631          48.000  
E15  32016113.411   168245860.642         990.726          43.000    32016116.372   128915702.866         759.306          50.000  
G23  26186074.005   137608890.621       -1913.702          49.000    26186069.093   107227739.134       -1491.223          50.000  
E34  29232928.814   153620298.976        -600.923          46.000    29232930.272   117709211.646        -460.493          53.000  
G27  27111504.520   142471884.637        1543.177          48.000    27111502.868   111017146.200        1202.494          45.000  
E09  32969223.835   173254437.564         537.901          32.000    32969232.016   132753445.130         412.338          38.000  
G10  25776773.008   135457986.531         893.905          49.000    25776770.080   105551644.698         696.578          46.000  
E25                                                                  33546293.940                3      -2866.858          15.000  
G15                                                                  30879069.125                3      -1252.171          18.000  
G29                                                                  30941425.205                3      -2596.407          21.000  
> 2024 04 15 07 37 00.0180000  0 26                     
S33  45164208.053   237339701.230        -656.746          41.000  
E02  29804842.166   156625519.457       -2836.521          46.000    29804842.845   120011793.106       -2173.434          51.000  
E05  31489846.736   165480267.247        1726.339          42.000    31489848.927   126796579.040        1322.970          46.000  
E36  30582213.101   160710970.977       -2328.372          47.000    30582213.629   123142386.990       -1784.126          47.000  
G26  26724685.102   140439189.560       -3084.061          47.000    26724683.569   109433091.163       -2403.206          45.000  
R20  26520252.715   141815780.025       -2042.481          42.000    26520250.413   110301252.015       -1588.403          43.000  
R10  27242688.931   145218906.716       -4444.969          43.000                                                                  
R06  27700779.667   147816699.609        3256.032          41.000                                                                  
R05  26596447.811   142173297.707        -159.175          49.000    26596444.129   110579188.945        -123.934          48.000  
G16  26198743.840   137675336.262        -338.068          47.000                                                                  
G08  29646920.605                        2387.312          25.000    29646929.063   121399236.0221       1860.772          33.000  
G18  28593034.454   150257775.461       -3236.982          47.000    28593029.295   117084095.444       -2522.390          44.000  
S31  44209769.738   232324047.415        -657.116          43.000  
E30  29699160.395   156070261.566        -124.479          46.000    29699160.780   119586199.994         -95.452          51.000  
R11  26232139.571   140176622.947       -1193.756          51.000    26232135.439   109026363.401        -928.345          49.000  
R21  26381440.237   141172719.610         375.146          52.000    26381434.197   109800840.771         291.840          48.000  
E15  32010468.533   168216194.518         986.891          43.000    32010471.186   128892971.718         756.096          50.000  
G23  26197051.437   137666578.497       -1932.257          49.000    26197046.818   107272690.721       -1505.560          51.000  
E34  29236372.026   153638393.593        -605.277          46.000    29236373.236   117723076.355        -463.904          53.000  
G27  27102706.352   142425648.370        1539.013          47.000    27102704.441   110981117.946        1199.255          45.000  
E09  32966191.114   173238438.469         528.423          37.000    32966187.458   132741186.091         404.929          38.000  
G10  25771726.152   135431462.108         874.209          50.000    25771722.760   105530976.330         681.235          46.000  
E25                                                                  33567725.936                3      -2906.400          11.000  
G15                                                                  30888275.907                3      -1247.853          16.000  
G29                                                                  30960508.010                3      -2613.385          21.000  
R04                                                                  28858874.226                3      -2582.268          16.000  
> 2024 04 15 07 37 30.0180000  0 25                     
S33  45167957.061   237359401.263        -656.895          41.000  
E02  29821062.545   156710757.038       -2846.341          46.000    29821063.501   120077105.004       -2181.032          52.000  
E05  31479990.300   165428470.756        1726.282          42.000    31479992.815   126756890.843        1322.683          47.000  
E36  30595506.455   160780826.552       -2329.069          47.000    30595506.593   123195912.678       -1784.528          47.000  
G26  26742329.991   140531915.891       -3098.151          47.000    26742328.764   109505345.401       -2414.098          44.000  
R20  26531717.084   141877082.651       -2045.053          43.000    26531713.067   110348931.899       -1590.769          41.000  
R10  27267730.911   145352394.027       -4454.682          43.000                                                                  
R06  27682491.795   147719111.734        3249.227          42.000                                                                  
R05  26597411.852   142178456.463        -185.275          48.000    26597408.106   110583201.288        -144.089          47.000  
G16  26200728.950   137685771.736        -358.105          47.000                                                                  
G08  29633301.461                3       2387.966          25.000    29633291.762   121343410.500        1861.005          33.000  
G18  28611515.322   150354890.377       -3237.798          47.000    28611509.755   117159769.392       -2522.921          44.000  
S31  44213519.261   232343751.785        -657.180          43.000  
E30  29699909.420   156074196.518        -138.312          46.000    29699909.526   119589215.070        -105.894          51.000  
R11  26238913.219   140212819.851       -1219.922          51.000    26238908.681   109054516.515        -948.804          49.000  
R21  26379346.051   141161518.688         371.204          51.000    26379340.464   109792128.956         288.763          47.000  
E15  32004846.574   168186650.659         982.208          42.000    32004849.548   128870334.252         752.708          50.000  
G23  26208134.481   137724819.894       -1950.958          48.000    26208129.767   107318073.640       -1520.239          50.000  
E34  29239841.679   153656621.599        -610.238          47.000    29239841.890   117737043.273        -467.614          53.000  
G27  27093931.691   142379536.067        1534.642          48.000    27093929.350   110945186.290        1195.697          45.000  
E09  32963204.011   173222736.943         518.263          39.000    32963200.712   132729154.999         396.780          40.000  
G10  25766791.120   135405529.851         854.206          50.000    25766788.071   105510769.397         665.628          46.000  
G15                                                                  30897565.146                3      -1275.487          17.000  
G29                                                                  30979611.455                3      -2611.848          17.000  
R04                                                                  28877524.388                3      -2596.818          19.000  
> 2024 04 15 07 38 00.0180000  0 24                     
S33  45171703.956   237379091.665        -656.334          42.000  
E02  29837336.369   156796277.448       -2855.511          46.000    29837337.555   120142633.596       -2187.920          52.000  
E05  31470132.512   165376667.254        1726.732          42.000    31470135.038   126717197.290        1323.168          48.000  
E36  30608801.536   160850686.839       -2328.809          48.000    30608800.950   123249441.988       -1784.517          47.000  
G26  26760053.291   140625051.058       -3111.189          46.000    26760051.782   109577918.246       -2424.326          45.000  
R20  26543192.687   141938451.321       -2046.644          42.000    26543190.218   110396663.042       -1592.029          42.000  
R10  27292825.109   145486160.944       -4463.653          43.000                                                                  
R06  27664241.891   147621722.485        3242.643          43.000                                                                  
R05  26598521.658   142184385.903        -210.612          49.000    26598517.708   110587813.092        -163.852          48.000  
G16  26202827.050   137696796.737        -377.344          46.000                                                                  
G08  29619676.719                        2390.510          28.000    29619646.786   121287545.506        1863.364          33.000  
G18  28629997.297   150452016.577       -3237.801          47.000    28629991.929   117235452.130       -2523.025          44.000  
S31  44217267.331   232363447.293        -656.637          44.000  
E30  29700734.209   156078532.307        -151.351          46.000    29700734.680   119592537.295        -115.971          51.000  
R11  26245831.945   140249790.752       -1245.373          51.000    26245827.482   109083271.607        -968.628          49.000  
R21  26377273.241   141150425.303         367.896          51.000    26377267.275   109783500.763         286.212          46.000  
E15  31999246.624   168157225.900         978.737          42.000    31999249.735   128847788.064         749.840          49.000  
G23  26219321.406   137783610.241       -1968.988          48.000    26219317.218   107363884.304       -1534.167          50.000  
E34  29243334.588   153674979.305        -614.204          47.000    29243335.178   117751109.591        -470.708          53.000  
G27  27085180.276   142333546.673        1530.833          48.000    27085177.856   110909350.411        1192.836          45.000  
E09  32960270.150   173207331.519         508.732          37.000    32960268.976   132717350.865         389.653          40.000  
G10  25761968.639   135380188.324         834.664          50.000    25761965.708   105491022.775         650.411          46.000  
G29                                                                  30998729.204                3      -2605.286          15.000  
R04                                                                  28896256.271                3      -2607.141          19.000  
> 2024 04 15 07 38 30.0180000  0 23                     
S33  45175448.600   237398771.235        -655.641          42.000  
E02  29853663.866   156882077.530       -2864.602          47.000    29853664.684   120208376.498       -2194.964          52.000  
E05  31460273.692   165324857.038        1726.953          42.000    31460275.647   126677498.590        1323.376          48.000  
E36  30622095.982   160920549.470       -2328.833          49.000    30622095.210   123302973.090       -1784.421          47.000  
G26  26777852.811   140718590.770       -3124.739          46.000    26777851.424   109650806.293       -2434.888          44.000  
R20  26554681.303   141999883.598       -2048.900          42.000    26554677.780   110444443.756       -1593.624          43.000  
R10  27317969.531   145620201.812       -4472.752          42.000                                                                  
R06  27646028.129   147524534.475        3236.218          42.000                                                                  
R05  26599774.951   142191085.332        -236.284          49.000    26599770.949   110593023.729        -183.825          49.000  
G16  26205036.621   137708410.967        -397.058          46.000                                                                  
G08  29606002.023                        2392.188          30.000    29605991.761   121231640.721        1864.194          34.000  
G18  28648481.155   150549151.403       -3237.910          47.000    28648476.558   117311141.577       -2522.974          45.000  
S31  44221013.100   232383131.208        -655.978          44.000  
E30  29701635.407   156083267.804        -164.608          46.000    29701635.989   119596165.786        -126.045          51.000  
R11  26252894.665   140287532.498       -1270.849          51.000    26252890.286   109112626.309        -988.379          49.000  
R21  26375220.250   141139436.877         364.514          52.000    26375213.391   109774954.222         283.514          47.000  
E15  31993669.162   168127918.154         974.863          41.000    31993672.526   128825331.524         747.181          48.000  
G23  26230612.491   137842945.977       -1986.975          47.000    26230608.229   107410119.951       -1548.242          50.000  
E34  29246851.094   153693464.137        -618.254          46.000    29246852.820   117765273.294        -473.754          53.000  
G27  27076452.263   142287680.225        1526.696          48.000    27076449.334   110873610.311        1189.587          45.000  
E09  32957392.928   173192222.073         498.658          36.000    32957393.273   132705773.552         382.099          39.000  
G10  25757258.757   135355437.144         815.108          50.000    25757255.356   105471736.177         635.190          46.000  
R04                                                                  28915089.573                3      -2625.638          23.000  
> 2024 04 15 07 39 00.0180000  0 23                     
S33  45179192.788   237418444.864        -655.885          42.000  
E02  29870045.758   156968160.590       -2874.169          47.000    29870045.640   120274336.225       -2202.241          52.000  
E05  31450413.895   165273046.875        1726.984          42.000    31450416.247   126637799.925        1323.366          48.000  
E36  30635390.476   160990418.584       -2329.012          48.000    30635391.163   123356509.164       -1784.584          47.000  
G26  26795729.980   140812537.217       -3138.378          46.000    26795728.971   109724011.282       -2445.302          45.000  
R20  26566182.056   142061385.194       -2050.948          40.000    26566179.396   110492278.327       -1595.286          43.000  
R10  27343165.915   145754516.548       -4481.845          44.000                                                                  
R06  27627854.047   147427557.292        3229.078          41.000                                                                  
R05  26601173.732   142198561.162        -262.125          49.000    26601169.784   110598838.288        -203.773          48.000  
G16  26207359.738   137720619.218        -416.779          47.000                                                                  
G08  29592341.728   155508900.1871       2393.905          35.000    29592332.749   121175700.523        1865.703          34.000  
G18  28666967.474   150646298.640       -3238.459          47.000    28666963.113   117386840.701       -2523.377          45.000  
S31  44224757.485   232402808.788        -655.844          44.000  
E30  29702613.436   156088408.406        -178.000          46.000    29702614.301   119600104.675        -136.436          51.000  
R11  26260103.297   140326048.465       -1296.716          51.000    26260098.569   109142583.167       -1008.649          50.000  
R21  26373186.729   141128558.035         360.852          52.000    26373181.165   109766492.915         280.823          47.000  
E15  31988115.523   168098731.789         971.146          42.000    31988118.410   128802968.023         743.875          47.000  
G23  26242007.713   137902830.055       -2005.206          47.000    26242003.740   107456782.863       -1562.524          50.000  
E34  29250393.488   153712079.993        -622.734          46.000    29250395.356   117779537.412        -477.119          53.000  
G27  27067748.447   142241943.207        1522.466          48.000    27067746.089   110837971.088        1186.445          44.000  
E09  32954576.788   173177414.876         488.453          38.000    32954576.207   132694427.778         374.424          40.000  
G10  25752662.175   135331282.391         795.348          50.000    25752659.405   105452914.331         619.601          46.000  
R04                                                                  28934046.625                3      -2633.103          20.000  
> 2024 04 15 07 39 30.0180000  0 23                     
S33  45182935.557   237438114.976        -655.267          42.000  
E02  29886480.460   157054527.654       -2883.375          47.000    29886480.518   120340513.567       -2209.435          52.000  
E05  31440555.036   165221241.251        1726.895          40.000    31440558.050   126598104.761        1323.154          48.000  
E36  30648688.700   161060296.022       -2329.304          49.000    30648687.882   123410051.619       -1784.821          46.000  
G26  26813685.227   140906890.231       -3151.776          47.000    26813683.616   109797533.075       -2455.845          45.000  
R20  26577696.317   142122957.183       -2053.155          41.000    26577693.717   110540167.649       -1597.300          43.000  
R10  27368415.085   145889102.912       -4490.591          45.000                                                                  
R06  27609720.522   147330797.812        3221.918          41.000                                                                  
R05  26602718.100   142206817.042        -288.043          50.000    26602714.307   110605259.519        -223.961          49.000  
R04  28953099.973                3      -3412.157          25.000                                                                  
G16  26209796.688   137733423.919        -436.597          46.000                                                                  
G08  29578669.451   155437068.588        2395.182          34.000    29578663.383   121119727.874        1866.835          34.000  
G18  28685456.631   150743459.842       -3238.699          47.000    28685451.569   117462550.733       -2523.785          44.000  
S31  44228501.380   232422483.528        -655.560          44.000  
E30  29703669.115   156093957.197        -191.648          45.000    29703670.382   119604356.311        -146.922          51.000  
R11  26267455.875   140365339.622       -1322.467          50.000    26267451.330   109173142.935       -1028.497          50.000  
R21  26371174.576   141117790.792         357.294          52.000    26371169.602   109758118.396         277.911          48.000  
E15  31982585.941   168069668.921         966.828          43.000    31982587.827   128780699.087         740.785          47.000  
G23  26253507.910   137963263.055       -2023.303          47.000    26253503.822   107503873.498       -1576.581          51.000  
E34  29253961.556   153730828.478        -627.022          47.000    29253963.112   117793903.152        -480.516          53.000  
G27  27059070.508   142196339.872        1518.093          48.000    27059067.957   110802436.051        1182.815          45.000  
E09  32951817.890   173162913.804         478.536          39.000    32951817.173   132683316.606         366.392          40.000  
G10  25748179.575   135307727.841         775.360          49.000    25748176.559   105434560.127         604.218          45.000  
> 2024 04 15 07 40 00.0180000  0 22                     
S33  45186676.458   237457772.624        -655.185          42.000  
E02  29902967.933   157141170.409       -2892.604          47.000    29902968.160   120406902.143       -2216.424          52.000  
E05  31430696.745   165169435.341        1727.017          41.000    31430699.098   126558409.364        1323.323          47.000  
E36  30661985.428   161130174.286       -2329.101          48.000    30661985.291   123463594.711       -1784.729          46.000  
G26  26831715.734   141001640.403       -3164.905          47.000    26831714.135   109871364.342       -2466.180          44.000  
R20  26589222.289   142184593.783       -2055.507          40.000    26589219.702   110588107.207       -1598.789          42.000  
R10  27393712.055   146023949.759       -4498.947          45.000                                                                  
R06  27591628.629   147234253.781        3214.613          42.000                                                                  
R05  26604406.678   142215847.730        -313.811          48.000    26604403.420   110612283.414        -244.262          49.000  
G16  26212345.847   137746819.934        -456.244          47.000                                                                  
G08  29564988.732   155365189.563        2396.970          34.000    29564984.456   121063718.322        1867.117          34.000  
G18  28703947.427   150840627.289       -3238.880          47.000    28703942.747   117538265.614       -2523.936          44.000  
S31  44232242.946   232442146.111        -655.008          44.000  
E30  29704801.380   156099907.812        -205.011          46.000    29704802.724   119608915.865        -157.040          51.000  
R11  26274952.741   140405397.391       -1347.894          51.000    26274947.700   109204299.021       -1048.346          50.000  
R21  26369183.195   141107127.596         353.827          52.000    26369176.751   109749824.798         275.177          48.000  
E15  31977077.329   168040722.235         962.923          43.000    31977079.208   128758519.195         737.809          47.000  
G23  26265110.710   138024236.217       -2041.302          47.000    26265106.477   107551385.052       -1590.643          50.000  
E34  29257552.530   153749701.867        -631.051          46.000    29257554.605   117808364.587        -483.621          53.000  
G27  27050416.816   142150865.122        1513.734          48.000    27050414.604   110767001.197        1179.493          45.000  
E09  32949115.384   173148713.505         468.352          38.000    32949114.628   132672435.846         358.565          38.000  
G10  25743809.881   135284767.898         755.527          48.000    25743807.563   105416669.278         588.646          46.000  
> 2024 04 15 07 40 30.0180000  0 23                     
S33  45190416.936   237477428.381        -654.778          42.000  
E02  29919508.962   157228095.533       -2902.155          47.000    29919509.535   120473507.086       -2223.721          52.000  
E05  31420841.896   165117639.386        1726.249          42.000    31420842.006   126518721.577        1322.794          46.000  
E36  30675284.303   161200060.978       -2329.491          48.000    30675284.316   123517144.259       -1784.980          46.000  
G26  26849823.225   141096793.227       -3178.287          47.000    26849820.444   109945509.356       -2476.661          44.000  
R20  26600763.246   142246303.172       -2058.058          42.000    26600759.273   110636103.395       -1600.707          44.000  
R10  27419059.753   146159059.869       -4507.958          46.000                                                                  
R06  27573580.328   147137938.160        3206.739          43.000                                                                  
R05  26606243.820   142225662.053        -340.106          50.000    26606240.518   110619916.771        -264.600          51.000  
G16  26215009.067   137760815.185        -476.385          47.000                                                                  
G08  29551303.108   155293272.555        2397.884          36.000    29551300.989   121007679.096        1868.507          34.000  
G18  28722440.862   150937808.197       -3239.546          48.000    28722435.759   117613990.971       -2524.431          44.000  
S31  44235984.317   232461807.096        -655.310          44.000  
E30  29706012.733   156106269.073        -218.801          46.000    29706013.156   119613790.078        -167.805          51.000  
R11  26282593.902   140446228.898       -1373.791          51.000    26282588.485   109236056.802       -1068.481          49.000  
R21  26367209.638   141096576.440         349.945          51.000    26367205.622   109741618.354         272.119          49.000  
R12  29039219.039                3       2303.796          26.000                                                                  
E15  31971592.258   168011899.535         958.682          42.000    31971593.672   128736434.288         734.609          46.000  
G23  26276817.197   138085755.842       -2059.564          46.000    26276813.311   107599322.413       -1604.883          50.000  
E34  29261168.458   153768707.459        -635.468          46.000    29261171.218   117822927.320        -487.035          53.000  
G27  27041789.707   142105528.885        1508.966          48.000    27041787.360   110731674.247        1175.667          45.000  
E09  32946472.884   173134823.647         457.956          39.000    32946470.888   132661792.913         350.682          38.000  
G10  25739555.636   135262411.953         735.347          49.000    25739553.259   105399249.058         572.948          46.000  
> 2024 04 15 07 41 00.0180000  0 23                     
S33  45194156.790   237497081.484        -655.022          42.000  
E02  29936103.255   157315300.833       -2911.399          46.000    29936104.155   120540326.704       -2230.764          52.000  
E05  31410986.928   165065854.650        1726.228          42.000    31410987.275   126479042.381        1322.660          45.000  
E36  30688583.310   161269954.763       -2329.795          47.000    30688584.640   123570699.237       -1785.065          46.000  
G26  26868005.762   141192345.359       -3191.630          46.000    26868003.884   110019965.529       -2486.943          44.000  
R20  26612315.607   142308083.025       -2060.215          41.000    26612311.791   110684154.394       -1602.535          41.000  
R10  27444455.017   146294428.654       -4516.449          46.000                                                                  
R06  27555574.684   147041854.525        3199.031          43.000                                                                  
R05  26608225.871   142236260.494        -366.139          49.000    26608223.521   110628159.993        -284.839          51.000  
G16  26217786.184   137775409.687        -496.222          47.000                                                                  
G08  29537610.129   155221318.044        2399.045          36.000    29537606.760                        1870.330          32.000  
G18  28740935.796   151035000.940       -3239.643          46.000    28740930.057   117689725.601       -2524.573          43.000  
S31  44239725.140   232481464.962        -655.111          44.000  
E30  29707301.558   156113040.829        -232.438          47.000    29707301.813   119618978.825        -178.084          52.000  
R11  26290378.894   140487831.418       -1399.457          52.000    26290374.042   109268414.313       -1088.513          50.000  
R21  26365259.026   141086136.458         346.381          51.000    26365254.003   109733498.414         269.397          47.000  
R12  29026309.316                3       2286.925          25.000    29026317.676                3       1775.468          24.000  
E15  31966131.268   167983199.661         954.755          43.000    31966132.801   128714443.485         731.651          47.000  
G23  26288627.517   138147819.264       -2077.673          46.000    26288623.878   107647683.523       -1618.945          50.000  
E34  29264810.833   153787843.703        -639.816          47.000    29264812.815   117837590.170        -490.300          53.000  
G27  27033188.989   142060332.222        1504.417          47.000    27033186.338   110696456.063        1172.170          45.000  
E09  32943887.844   173121244.941         447.332          37.000    32943887.657   132651388.414         342.728          39.000  
G10  25735417.082   135240660.492         715.199          50.000    25735414.210   105382299.881         557.333          46.000  
> 2024 04 15 07 41 30.0180000  0 23                     
S33  45197895.186   237516726.778        -655.062          42.000  
E02  29952750.887   157402781.848       -2920.792          47.000    29952751.029   120607357.579       -2238.004          52.000  
E05  31401134.805   165014080.200        1725.458          43.000    31401134.992   126439371.060        1322.017          45.000  
E36  30701885.246   161339852.064       -2330.145          47.000    30701885.361   123624256.887       -1785.303          46.000  
G26  26886263.496   141288291.119       -3204.912          47.000    26886261.831   110094728.430       -2497.314          44.000  
R20  26623881.505   142369931.666       -2063.049          40.000    26623878.423   110732258.899       -1604.463          43.000  
R10  27469897.252   146430048.418       -4524.906          46.000                                                                  
R06  27537612.641   146946004.604        3190.976          43.000                                                                  
R05  26610355.398   142247641.334        -392.549          50.000    26610351.431   110637011.759        -305.422          50.000  
G16  26220677.075   137790600.527        -516.510          47.000                                                                  
G08  29523910.443   155149324.156        2400.123          36.000    29523904.567                        1871.666          30.000  
G18  28759432.794   151132201.679       -3240.304          47.000    28759426.447   117765466.428       -2525.022          43.000  
S31  44243464.429   232501115.524        -654.875          44.000  
E30  29708667.162   156120220.572        -246.192          46.000    29708668.227   119624480.182        -188.724          52.000  
R11  26298307.703   140530200.371       -1425.208          51.000    26298303.513   109301367.892       -1108.411          50.000  
R21  26363328.922   141075803.747         342.517          52.000    26363322.260   109725461.858         266.357          47.000  
R12  29013510.895                3       2270.437          25.000    29013526.457                        1765.111          28.000  
E15  31960692.298   167954619.253         950.641          42.000    31960694.371   128692544.248         728.415          48.000  
G23  26300540.695   138210421.590       -2095.941          46.000    26300536.821   107696464.533       -1633.154          50.000  
E34  29268476.777   153807106.748        -644.303          47.000    29268478.484   117852350.167        -493.705          53.000  
G27  27024614.335   142015273.920        1499.531          47.000    27024611.746   110661345.696        1168.463          45.000  
E09  32941359.346   173107975.732         437.267          35.000    32941362.154   132641221.165         334.449          39.000  
G10  25731393.182   135219511.717         694.822          50.000    25731389.709   105365820.310         541.348          47.000  
> 2024 04 15 07 42 00.0180000  0 23                     
S33  45201633.251   237536370.428        -654.853          42.000  
E02  29969450.418   157490540.068       -2929.960          47.000    29969450.585   120674600.858       -2245.093          51.000  
E05  31391286.000   164962321.014        1724.879          44.000    31391285.350   126399711.458        1321.753          45.000  
E36  30715186.312   161409755.232       -2330.295          46.000    30715187.987   123677819.061       -1785.578          47.000  
G26  26904595.477   141384630.868       -3217.853          45.000    26904594.738   110169798.349       -2507.380          44.000  
R20  26635461.423   142431852.049       -2065.152          41.000    26635458.930   110780419.207       -1606.573          44.000  
R10  27495386.149   146565917.325       -4533.130          45.000                                                                  
R06  27519695.416   146850396.106        3182.658          44.000                                                                  
R05  26612631.713   142259808.513        -418.794          49.000    26612628.154   110646475.153        -325.654          50.000  
G16  26223681.766   137806391.689        -536.407          47.000                                                                  
G08  29510203.562   155077295.112        2401.393          36.000    29510198.576   120839385.052        1870.730          32.000  
G18  28777931.455   151229412.493       -3240.553          46.000    28777926.138   117841215.081       -2525.099          44.000  
S31  44247203.492   232520763.569        -654.893          44.000  
E30  29710111.339   156127811.890        -260.072          46.000    29710112.849   119630296.897        -199.253          52.000  
R11  26306379.293   140573337.273       -1450.806          51.000    26306375.222   109334918.794       -1128.387          49.000  
R21  26361419.212   141065580.937         338.947          52.000    26361412.835   109717510.771         263.641          48.000  
R12  29000817.051   154917079.9731       2251.442          32.000    29000810.694                        1752.495          31.000  
E15  31955277.319   167926160.845         946.445          42.000    31955279.208   128670738.499         725.164          48.000  
G23  26312555.930   138273563.805       -2113.641          45.000    26312551.719   107745666.263       -1647.150          49.000  
E34  29272167.382   153826498.705        -648.591          47.000    29272168.637   117867208.956        -497.062          53.000  
G27  27016066.999   141970358.751        1494.889          47.000    27016064.404   110626346.879        1164.833          45.000  
E09  32938894.288   173095020.532         426.650          36.000    32938895.935   132631294.484         326.684          39.000  
G10  25727483.302   135198969.732         674.689          50.000    25727481.131   105349813.592         525.532          47.000  
> 2024 04 15 07 42 30.0180000  0 23                     
S33  45205370.233   237556009.052        -654.503          42.000  
E02  29986202.878   157578572.679       -2939.147          47.000    29986202.716   120742054.398       -2252.092          51.000  
E05  31381439.882   164910577.870        1724.195          45.000    31381439.503   126360064.142        1321.209          46.000  
E36  30728490.305   161479662.438       -2330.542          47.000    30728490.620   123731384.318       -1785.728          47.000  
G26  26923002.741   141481360.661       -3231.002          45.000    26923001.543   110245172.162       -2517.357          44.000  
R20  26647053.273   142493842.486       -2067.809          40.000    26647051.433   110828633.956       -1608.137          44.000  
R10  27520920.170   146702029.425       -4541.537          44.000                                                                  
R06  27501822.714   146755032.040        3174.408          42.000                                                                  
R05  26615056.352   142272761.775        -445.022          50.000    26615051.242   110656549.910        -346.237          50.000  
G16  26226801.118   137822782.129        -556.604          47.000                                                                  
G08  29496490.581   155005230.812        2402.612          35.000    29496486.188   120783231.014        1871.804          33.000  
G18  28796431.900   151326631.251       -3240.962          46.000    28796425.234   117916969.953       -2525.588          42.000  
S31  44250941.485   232540407.100        -654.930          44.000  
E30  29711635.147   156135813.952        -273.734          47.000    29711635.506   119636428.325        -209.697          52.000  
R11  26314595.045   140617238.980       -1476.373          51.000    26314590.023   109369064.562       -1148.395          49.000  
R21  26359528.118   141055466.570         335.138          51.000    26359523.012   109709644.025         260.651          49.000  
R12  28988221.060   154849775.789        2234.420          36.000    28988212.944                        1738.598          30.000  
E15  31949884.277   167897822.748         942.327          41.000    31949886.375   128649024.925         722.137          48.000  
G23  26324673.764   138337242.662       -2131.781          45.000    26324669.744   107795286.127       -1661.139          49.000  
E34  29275881.772   153846017.421        -652.931          47.000    29275882.682   117882164.861        -500.232          52.000  
G27  27007547.191   141925587.264        1489.715          47.000    27007544.422   110591460.012        1160.723          45.000  
E09  32936489.682   173082379.515         415.708          36.000    32936490.727   132621608.481         318.729          40.000  
G10  25723690.079   135179034.404         654.133          50.000    25723687.024   105334279.597         509.826          47.000  
> 2024 04 15 07 43 00.0180000  0 23                     
S33  45209107.935   237575651.105        -654.572          42.000  
E02  30003009.108   157666886.676       -2948.155          48.000    30003008.319   120809723.538       -2258.889          51.000  
E05  31371598.374   164858861.251        1723.835          44.000    31371598.184   126320437.206        1320.765          46.000  
E36  30741795.740   161549581.575       -2330.526          46.000    30741796.083   123784958.696       -1785.705          47.000  
G26  26941485.778   141578486.288       -3243.856          46.000    26941484.702   110320854.430       -2527.599          44.000  
R20  26658660.063   142555911.947       -2070.338          40.000    26658659.048   110876910.166       -1609.911          44.000  
R10  27546499.548   146838388.726       -4549.212          42.000                                                                  
R06  27483999.990   146659925.711        3166.006          42.000                                                                  
R05  26617628.202   142286510.693        -471.321          50.000    26617622.725   110667243.503        -366.503          49.000  
G16  26230036.355   137839780.467        -576.447          48.000                                                                  
G08  29482772.435   154933140.977        2404.167          35.000    29482769.752   120727057.108        1872.832          36.000  
G18  28814934.767   151423865.582       -3241.194          45.000    28814929.835   117992736.928       -2525.353          45.000  
S31  44254680.409   232560054.379        -654.696          44.000  
E30  29713238.159   156144235.812        -287.391          47.000    29713237.962   119642881.430        -220.201          52.000  
R11  26322955.273   140661912.362       -1501.605          51.000    26322950.798   109403810.551       -1167.963          50.000  
R21  26357658.351   141045468.766         331.604          50.000    26357653.927   109701868.006         257.904          48.000  
R12  28975719.656   154783007.408        2216.652          36.000    28975712.658                        1724.452          28.000  
E15  31944515.412   167869613.051         938.473          41.000    31944518.594   128627409.750         718.977          49.000  
G23  26336895.321   138401464.613       -2149.512          46.000    26336890.440   107845329.213       -1674.957          49.000  
E34  29279621.563   153865670.515        -657.074          48.000    29279622.404   117897223.727        -503.419          52.000  
G27  26999057.353   141880969.749        1484.825          47.000    26999054.062   110556693.126        1157.005          45.000  
E09  32934145.389   173070062.526         405.275          35.000    32934147.101   132612170.769         310.774          41.000  
G10  25720014.566   135159715.358         634.044          51.000    25720009.761   105319225.811         494.017          46.000  
> 2024 04 15 07 43 30.0180000  0 24                     
S33  45212844.624   237595287.808        -654.475          42.000  
E02  30019866.055   157755471.570       -2957.226          47.000    30019865.599   120877600.267       -2265.976          51.000  
E05  31361759.801   164807164.278        1722.962          44.000    31361760.061   126280825.280        1320.265          46.000  
E36  30755100.415   161619503.067       -2330.650          46.000    30755102.212   123838534.904       -1785.812          48.000  
G26  26960040.914   141675996.037       -3256.596          46.000    26960040.076   110396836.018       -2537.593          44.000  
R20  26670281.453   142618050.778       -2072.446          41.000    26670278.672   110925240.415       -1611.785          44.000  
R10  27572123.000   146974981.563       -4556.647          42.000                                                                  
R06  27466224.147   146565072.664        3157.358          42.000                                                                  
R05  26620346.011   142301047.144        -497.631          49.000    26620342.888   110678549.604        -387.032          50.000  
R04  29109331.608                3      -3557.442          25.000                                                                  
G16  26233384.820   137857378.173        -596.631          47.000                                                                  
G08  29469046.256   154861017.859        2404.710          34.000    29469046.568   120670857.294        1873.765          36.000  
G18  28833438.545   151521105.657       -3241.401          45.000    28833433.479   118068508.420       -2525.826          44.000  
S31  44258418.106   232579696.338        -654.381          44.000  
E30  29714918.272   156153068.925        -301.198          46.000    29714918.768   119649649.643        -230.778          51.000  
R11  26331458.438   140707346.330       -1527.063          51.000    26331453.810   109439148.052       -1187.714          50.000  
R21  26355810.312   141035578.001         327.985          51.000    26355805.966   109694175.234         254.974          48.000  
R12  28963319.081   154716769.200        2199.490          34.000    28963301.599                1       1710.774          28.000  
E15  31939169.180   167841522.327         934.305          41.000    31939173.213   128605885.737         716.013          49.000  
G23  26349217.567   138466218.686       -2167.273          47.000    26349212.167   107895786.933       -1688.806          48.000  
E34  29283385.892   153885448.205        -661.339          48.000    29283385.865   117912378.051        -506.703          52.000  
G27  26990595.196   141836499.026        1479.970          47.000    26990591.617   110522040.632        1153.060          45.000  
E09  32931863.139   173058061.936         394.885          36.000    32931863.593   132602975.498         302.715          42.000  
G10  25716453.386   135141004.615         613.572          50.000    25716449.978   105304646.023         478.186          46.000  
> 2024 04 15 07 44 00.0180000  0 24                     
S33  45216582.251   237614927.919        -655.005          42.000  
E02  30036775.492   157844334.079       -2966.743          47.000    30036775.855   120945689.706       -2273.184          51.000  
E05  31351926.560   164755497.252        1721.490          42.000    31351928.338   126241236.303        1319.194          46.000  
E36  30768408.619   161689434.679       -2331.279          46.000    30768409.631   123892118.842       -1786.190          48.000  
G26  26978671.475   141773895.489       -3269.772          47.000    26978670.011   110473121.297       -2547.910          45.000  
R20  26681915.973   142680267.731       -2075.217          40.000    26681913.555   110973631.342       -1613.956          43.000  
R10  27597792.024   147111811.838       -4564.754          42.000                                                                  
R06  27448498.708   146470485.822        3148.535          42.000                                                                  
R05  26623214.189   142316380.127        -524.408          49.000    26623210.526   110690475.287        -407.917          49.000  
R04  29129288.652                3      -3575.888          25.000                                                                  
G16  26236848.936   137875583.519        -616.949          47.000                                                                  
G08  29455317.680   154788870.990        2405.373          35.000    29455317.610   120614638.998        1873.985          35.000  
G18  28851945.280   151618358.890       -3241.925          44.000    28851941.749   118144290.129       -2526.197          46.000  
S31  44262156.262   232599341.511        -655.035          44.000  
E30  29716678.906   156162322.044        -315.556          46.000    29716679.468   119656739.676        -241.707          51.000  
R11  26340104.172   140753547.614       -1552.753          51.000    26340099.469   109475082.338       -1207.739          50.000  
R21  26353984.434   141025802.350         323.901          52.000    26353978.849   109686571.964         251.904          48.000  
R12  28951019.993   154651072.857        2180.673          36.000    28951004.166   120284093.3341       1695.678          33.000  
E15  31933848.052   167813558.491         930.049          41.000    31933851.902   128584458.926         712.586          49.000  
G23  26361642.303   138531511.108       -2185.352          47.000    26361637.169   107946664.142       -1702.844          48.000  
E34  29287175.022   153905357.887        -665.892          49.000    29287174.711   117927633.521        -510.213          52.000  
G27  26982162.710   141792185.185        1474.537          47.000    26982158.888   110487510.374        1148.964          45.000  
E09  32929643.971   173046387.492         383.488          38.000    32929641.376   132594030.100         294.210          42.000  
G10  25713010.165   135122911.544         592.777          50.000    25713006.930   105290547.538         461.962          47.000  
> 2024 04 15 07 44 30.0180000  0 24                     
S33  45220320.930   237634576.128        -654.889          41.000  
E02  30053738.295   157933476.431       -2975.991          47.000    30053739.357   121013993.572       -2280.290          51.000  
E05  31342100.459   164703865.928        1720.583          41.000    31342103.622   126201674.695        1318.188          46.000  
E36  30781718.804   161759379.531       -2331.677          46.000    30781719.568   123945712.940       -1786.591          48.000  
G26  26997374.972   141872185.674       -3282.702          47.000    26997374.347   110549711.015       -2557.915          46.000  
R20  26693566.356   142742566.739       -2077.841          39.000    26693563.375   111022086.135       -1616.255          43.000  
R10  27623505.455   147248878.692       -4572.748          42.000                                                                  
R06  27430826.082   146376173.819        3138.881          44.000                                                                  
R05  26626232.510   142332515.007        -551.109          50.000    26626228.799   110703024.644        -428.626          49.000  
G16  26240430.001   137894400.895        -637.347          48.000                                                                  
G08  29441585.128   154716705.385        2405.658          35.000    29441583.761   120558406.119        1874.481          33.000  
G18  28870454.469   151715628.177       -3242.400          43.000    28870450.950   118220084.379       -2526.631          44.000  
S31  44265896.177   232618994.213        -655.059          44.000  
E30  29718520.858   156171999.451        -329.479          47.000    29718521.004   119664154.820        -252.591          51.000  
R11  26348894.022   140800517.952       -1578.467          50.000    26348888.637   109511614.782       -1227.557          49.000  
R21  26352180.037   141016145.332         319.952          51.000    26352174.321   109679060.951         248.920          48.000  
R12  28938824.424   154585925.715        2162.604          36.000    28938810.794                        1681.310          31.000  
E15  31928552.986   167785724.805         925.780          42.000    31928555.522   128563131.816         709.234          49.000  
G23  26374169.372   138597343.620       -2203.375          46.000    26374164.710   107997962.190       -1716.852          49.000  
E34  29290988.822   153925402.466        -670.346          49.000    29290989.206   117942992.357        -513.632          52.000  
G27  26973760.939   141748033.825        1469.027          47.000    26973756.966   110453106.724        1144.877          46.000  
E09  32927482.113   173035044.217         372.233          34.000    32927482.999   132585338.547         285.494          42.000  
G10  25709685.906   135105440.912         572.010          50.000    25709682.578   105276934.081         445.675          47.000  
R04                                                                  29149359.956                3      -2793.848          25.000  
