     3.00           OBSERVATION DATA    M: Mixed            RINEX VERSION / TYPE
CONVBIN 2.4.3                           20240415 165942 UTC PGM / RUN BY / DATE 
format: u-blox UBX                                          COMMENT             
log: /home/regis/git/gnsspwv/obsdata/VERT00CHL/2024-04-15/VECOMMENT             
{self.marker}                                               MARKER NAME         
                                                            MARKER NUMBER       
GEODETIC                                                    MARKER TYPE         
{self.observer}     {self.institution}                      OBSERVER / AGENCY   
UNKNOWN             UBLOX-ZED-F9P                           REC # / TYPE / VERS 
UNKNOWN             TWIVSP6037L                             ANT # / TYPE        
  1713381.0000 -5047934.0000 -3490983.0000                  APPROX POSITION XYZ 
        0.0000        0.0000        0.0000                  ANTENNA: DELTA H/E/N
G    8 C1C L1C D1C S1C C2L L2L D2L S2L                      SYS / # / OBS TYPES 
R    8 C1C L1C D1C S1C C2C L2C D2C S2C                      SYS / # / OBS TYPES 
E    8 C1C L1C D1C S1C C7Q L7Q D7Q S7Q                      SYS / # / OBS TYPES 
S    4 C1C L1C D1C S1C                                      SYS / # / OBS TYPES 
  2024    04    15    16    45   00.0070000     GPS         TIME OF FIRST OBS   
  2024    04    15    16    59   30.0080000     GPS         TIME OF LAST OBS    
                                                            END OF HEADER       
> 2024 04 15 16 45 00.0070000  0 27                     
G03  25886426.210   136033991.8491      -3860.052          44.000    25886439.200   106000522.1101      -3007.971          43.000  
G04  25300309.420   132953976.2461      -3135.004          37.000    25300315.543   103600458.9001      -2442.978          39.000  
G09  23076209.246   121266288.6091      -1627.795          48.000    23076209.499    94493208.1951      -1268.421          45.000  
E27  29824682.837   156729775.0391       1969.631          40.000    29824701.502   120091740.6311       1509.262          43.000  
G11  24665569.929   129618449.6061         23.611          46.000    24665572.297   101001393.2431         18.499          46.000  
R13  23602460.222   126035925.6561       3061.837          40.000    23602465.493    98028028.2021       2381.917          41.000  
R02  22358010.736   119306625.6331       -311.397          52.000    22358012.188    92794048.1211       -242.269          47.000  
R11  24534142.255   131102976.7821      -3944.479          52.000    24534145.721   101968975.8831      -3068.109          48.000  
R03  24557233.096   131456879.6191       1578.390          44.000    24557235.438   102244273.9881       1227.836          44.000  
R01  23709081.229   126738589.9921      -2474.084          45.000    23709087.709    98574455.1581      -1924.557          42.000  
E33  28535654.456   149955820.3981        587.187          39.000    28535659.477   114901279.4291        450.306          42.000  
G07  22001778.456   115620131.5141        169.120          49.000    22001775.701    90093613.8681        131.734          45.000  
S31  40901578.043   214939239.2691       -834.705          42.000  
S33  41851064.554   219928822.1421       -833.891          41.000  
G16  27055070.820   142175380.1751      -1592.099          44.000                                                                  
G20  25573101.375                1       2380.966          33.000                                                                  
R18  24266689.833   129537139.2381       -897.330          49.000    24266693.933   100751178.0971       -698.021          45.000  
R12  22053053.406   117803472.0711        218.102          51.000    22053055.667    91624939.8181        169.673          50.000  
R17  24241512.734   129721194.8271      -3824.438          46.000    24241517.170   100894246.7921      -2974.489          48.000  
E07  25915191.930   136185250.9921       -929.009          48.000    25915196.995   104349751.8601       -711.814          52.000  
E08  28026397.696   147279670.4121      -2397.795          43.000    28026404.915   112850667.9911      -1837.190          47.000  
E13  28252550.941   148468108.3211      -3830.939          45.000    28252561.527   113761293.3181      -2935.337          49.000  
E26  26530120.900   139416715.8191      -1870.954          46.000    26530125.895   106825805.1631      -1433.603          50.000  
G06  23544715.825   123728296.1191      -2454.485          47.000    23544720.317    96411665.7421      -1912.543          47.000  
G30  23866144.324   125417475.7101       1934.846          48.000    23866147.927    97727940.4461       1507.511          44.000  
E30  28017299.987   147231948.6791       1109.481          47.000    28017309.027   112814153.6091        850.078          50.000  
E02  28933580.267   152046961.8461      -1075.096          36.000    28933590.726   116503598.7231       -823.927          35.000  
> 2024 04 15 16 45 30.0070000  0 27                     
G03  25908484.949   136149908.608       -3867.767          46.000    25908497.747   106090846.417       -3013.739          42.000  
G04  25318211.630   133048050.334       -3135.949          38.000    25318216.870   103673763.185       -2444.162          38.000  
G09  23085516.372   121315196.564       -1632.693          49.000    23085516.955    94531318.230       -1272.190          46.000  
E27  29813428.986   156670640.342        1972.879          41.000    29813447.230   120046430.092        1511.394          43.000  
G11  24665487.222   129618018.760           5.060          46.000    24665490.250   101001057.504           3.926          46.000  
R13  23585290.112   125944235.463        3050.866          41.000    23585294.996    97956713.815        2372.855          41.000  
R02  22359776.880   119316048.434        -316.841          52.000    22359777.945    92801376.946        -246.318          48.000  
R11  24556337.016   131221577.876       -3962.112          51.000    24556341.221   102061220.999       -3081.688          49.000  
R03  24548384.942   131409514.818        1579.036          44.000    24548385.390   102207434.739        1228.367          42.000  
R01  23722984.139   126812909.668       -2480.439          45.000    23722989.852    98632259.173       -1929.176          40.000  
E33  28532336.018   149938388.984         574.714          39.000    28532342.350   114887922.940         440.192          42.000  
G07  22000869.858   115615357.512         149.173          48.000    22000867.514    90089893.905         116.177          46.000  
S31  40906342.909   214964276.685        -834.465          44.000  
S33  41855823.326   219953827.218        -833.394          42.000  
G16  27064202.806   142223365.557       -1606.718          44.000                                                                  
G20  25559524.125   134316190.4091       2376.773          35.000                                                                  
R18  24271805.002   129564437.565        -922.466          50.000    24271808.647   100772410.106        -717.514          46.000  
R12  22051902.683   117797319.096         191.952          52.000    22051903.876    91620154.198         149.345          50.000  
R17  24262991.874   129836127.222       -3837.766          46.000    24262995.324   100983638.418       -2984.867          47.000  
E07  25920502.398   136213154.293        -931.306          49.000    25920506.763   104371132.286        -713.512          52.000  
E08  28040085.161   147351599.889       -2397.653          43.000    28040092.677   112905782.692       -1837.217          47.000  
E13  28274430.164   148583083.056       -3834.023          45.000    28274441.064   113849390.592       -2937.745          49.000  
E26  26540839.994   139473047.296       -1884.528          46.000    26540845.438   106868968.157       -1444.000          50.000  
G06  23558777.667   123802189.312       -2471.831          47.000    23558781.539    96469244.744       -1926.047          47.000  
G30  23855133.429   125359615.885        1922.571          47.000    23855137.500    97682854.959        1498.123          44.000  
E30  28010988.000   147198785.103        1101.508          46.000    28010997.777   112788742.677         843.984          49.000  
E02  28939758.860   152079420.820       -1088.422          39.000    28939766.979   116528469.827        -834.548          35.000  
> 2024 04 15 16 46 00.0070000  0 27                     
G03  25930587.325   136266053.739       -3875.073          45.000    25930599.570   106181348.704       -3019.995          41.000  
G04  25336120.468   133142152.543       -3137.107          40.000    25336124.049   103747089.438       -2444.691          36.000  
G09  23094852.222   121364254.441       -1637.759          49.000    23094853.338    94569545.070       -1276.045          47.000  
E27  29802157.733   156611418.804        1975.638          39.000    29802177.756   120001053.074        1513.725          43.000  
G11  24665513.423   129618156.465         -13.992          46.000    24665516.221   101001164.780         -11.036          46.000  
R13  23568182.577   125852886.230        3039.436          40.000    23568188.284    97885664.577        2364.022          41.000  
R02  22361573.906   119325640.442        -322.586          52.000    22361576.135    92808837.362        -250.962          49.000  
R11  24578630.611   131340706.309       -3979.652          51.000    24578635.022   102153876.272       -3095.277          50.000  
R03  24539535.129   131362136.571        1579.564          44.000    24539534.952   102170585.147        1228.620          44.000  
R01  23736924.303   126887426.537       -2487.116          43.000    23736929.566    98690216.599       -1934.364          40.000  
E33  28529091.114   149921342.575         561.879          38.000    28529098.715   114874861.454         430.364          42.000  
G07  22000075.827   115611189.488         128.879          48.000    22000074.442    90086646.143         100.329          46.000  
S31  40911107.479   214989311.898        -834.415          44.000  
S33  41860581.272   219978830.854        -833.428          42.000  
G16  27073420.984   142271805.258       -1622.259          44.000                                                                  
G20  25545967.530   134244951.536        2372.853          35.000                                                                  
R18  24277060.581   129592494.697        -947.883          49.000    24277064.994   100794232.290        -737.198          47.000  
R12  22050898.352   117791959.690         165.399          51.000    22050901.585    91615985.830         128.630          51.000  
R17  24284544.015   129951458.629       -3850.916          45.000    24284548.052   101073340.399       -2995.294          48.000  
E07  25925826.273   136241130.151        -933.705          49.000    25925830.324   104392568.290        -715.355          52.000  
E08  28053773.957   147423533.147       -2397.672          44.000    28053781.477   112960900.245       -1837.269          47.000  
E13  28296327.760   148698154.565       -3837.179          46.000    28296338.483   113937562.034       -2940.316          48.000  
E26  26551637.379   139529787.558       -1898.107          46.000    26551642.846   106912444.403       -1454.321          50.000  
G06  23572939.618   123876608.699       -2489.427          48.000    23572942.808    96527233.793       -1939.744          46.000  
G30  23844194.455   125302131.702        1909.813          47.000    23844197.618    97638062.167        1488.273          43.000  
E30  28004722.726   147165866.514        1093.079          46.000    28004733.223   112763519.453         837.685          49.000  
E02  28946011.467   152112285.112       -1102.159          39.000    28946020.912   116553651.554        -844.507          36.000  
> 2024 04 15 16 46 30.0070000  0 27                     
G03  25952730.269   136382415.694       -3882.159          44.000    25952742.573   106272019.923       -3024.768          41.000  
G04  25354030.758   133236272.484       -3137.535          40.000    25354035.739   103820429.427       -2444.699          39.000  
G09  23104213.674   121413451.600       -1642.086          48.000    23104215.173    94607880.449       -1279.501          47.000  
E27  29790870.110   156552101.931        1978.941          40.000    29790889.877   119955602.956        1516.453          43.000  
G11  24665646.636   129618853.019         -32.161          46.000    24665648.462   101001707.508         -25.148          45.000  
R13  23551137.366   125761871.970        3028.051          39.000    23551143.937    97814875.875        2355.284          40.000  
R02  22363401.455   119335392.044        -327.529          51.000    22363403.654    92816421.919        -254.794          48.000  
R11  24601019.688   131460347.686       -3996.386          49.000    24601023.744   102246930.496       -3108.166          49.000  
R03  24530680.682   131314734.167        1580.649          44.000    24530680.216   102133716.660        1229.456          44.000  
R01  23750899.025   126962131.122       -2493.225          44.000    23750905.514    98748320.001       -1939.016          41.000  
E33  28525918.661   149904671.997         549.702          39.000    28525926.160   114862087.838         421.296          42.000  
G07  21999396.382   115607617.196         109.299          48.000    21999395.322    90083862.559          85.246          47.000  
S31  40915869.708   215014337.498        -833.892          44.000  
S33  41865337.438   220003824.459        -832.948          43.000  
G16  27082722.904   142320688.577       -1636.620          44.000                                                                  
G20  25532434.096   134173832.866        2368.876          34.000                                                                  
R18  24282456.335   129621299.151        -972.354          49.000    24282461.302   100816635.710        -756.276          47.000  
R12  22050042.341   117787384.943         139.520          52.000    22050044.874    91612427.751         108.621          51.000  
R17  24306168.053   130067174.069       -3863.423          45.000    24306171.484   101163341.098       -3004.765          47.000  
E07  25931161.272   136269167.889        -935.397          49.000    25931165.743   104414051.722        -716.669          52.000  
E08  28067461.448   147495459.905       -2397.247          43.000    28067468.528   113016012.797       -1836.858          46.000  
E13  28318241.789   148813310.464       -3839.760          46.000    28318251.836   114025798.112       -2941.966          48.000  
E26  26562510.881   139586925.312       -1911.056          46.000    26562515.750   106956225.218       -1464.274          50.000  
G06  23587198.388   123951541.622       -2506.221          48.000    23587202.063    96585622.991       -1952.756          46.000  
G30  23833324.793   125245014.357        1897.927          47.000    23833328.930    97593555.265        1478.920          43.000  
E30  27998504.741   147133184.475        1085.498          47.000    27998514.210   112738477.473         831.927          50.000  
E02  28952339.938   152145544.627       -1115.187          39.000    28952348.936   116579136.094        -854.339          35.000  
> 2024 04 15 16 47 00.0070000  0 27                     
G03  25974914.335   136498991.430       -3889.679          44.000    25974926.791   106362857.704       -3030.713          41.000  
G04  25371945.508   133330408.009       -3138.341          42.000    25371949.009   103893781.591       -2445.445          37.000  
G09  23113601.671   121462785.822       -1646.807          47.000    23113603.197    94646322.633       -1283.229          47.000  
E27  29779564.797   156492689.618        1981.875          40.000    29779583.480   119910079.715        1518.577          44.000  
G11  24665885.333   129620107.157         -51.287          46.000    24665886.933   101002684.735         -39.975          45.000  
R13  23534157.254   125671194.767        3016.868          40.000    23534162.888    97744349.355        2346.303          41.000  
R02  22365258.255   119345302.481        -333.052          52.000    22365260.861    92824129.975        -259.017          48.000  
R11  24623504.040   131580496.495       -4013.370          48.000    24623508.131   102340379.388       -3121.582          49.000  
R03  24521820.002   131267306.529        1581.226          40.000    24521820.172   102096828.559        1229.784          44.000  
R01  23764909.126   127037022.064       -2499.498          43.000    23764915.875    98806568.350       -1944.213          40.000  
E33  28522818.257   149888376.416         536.938          40.000    28522825.075   114849601.594         411.493          43.000  
G07  21998830.387   115604639.103          89.207          49.000    21998828.079    90081541.994          69.538          46.000  
S31  40920629.853   215039350.829        -833.574          44.000  
S33  41870091.410   220028806.352        -832.805          42.000  
G16  27092108.931   142370013.510       -1651.706          42.000                                                                  
G20  25518921.528   134102834.594        2363.931          34.000                                                                  
R18  24287991.410   129650848.023        -997.416          48.000    24287995.627   100839618.100        -775.918          46.000  
R12  22049332.657   117783594.454         113.158          52.000    22049334.832    91609479.655          88.057          51.000  
R17  24327864.087   130183266.990       -3876.170          48.000    24327865.880   101253635.396       -3014.716          47.000  
E07  25936507.621   136297265.359        -937.656          48.000    25936512.793   104435580.932        -718.435          52.000  
E08  28081146.240   147567378.313       -2397.334          43.000    28081154.396   113071118.998       -1836.775          47.000  
E13  28340170.082   148928546.793       -3842.490          46.000    28340180.534   114114095.872       -2944.264          47.000  
E26  26573459.862   139644457.671       -1924.535          47.000    26573463.972   107000308.366       -1474.484          50.000  
G06  23601554.754   124026983.936       -2523.329          48.000    23601558.009    96644409.100       -1966.245          46.000  
G30  23822525.588   125188263.695        1885.477          46.000    23822529.287    97549334.082        1469.317          43.000  
E30  27992331.264   147100738.978        1077.464          47.000    27992340.127   112713616.760         825.531          50.000  
E02  28958742.909   152179197.398       -1128.429          39.000    28958751.878   116604921.990        -864.721          35.000  
> 2024 04 15 16 47 30.0070000  0 27                     
G03  25997140.775   136615791.421       -3897.101          45.000    25997153.651   106453870.235       -3036.517          42.000  
G04  25389864.031   133424570.716       -3139.166          41.000    25389867.635   103967154.936       -2446.080          38.000  
G09  23123018.012   121512268.624       -1651.945          48.000    23123019.262    94684880.601       -1287.199          46.000  
E27  29768243.000   156433195.466        1984.554          41.000    29768262.019   119864493.791        1520.622          44.000  
G11  24666232.911   129621931.170         -70.194          45.000    24666234.062   101004105.994         -54.895          45.000  
R13  23517242.895   125580870.952        3004.907          41.000    23517247.545    97674097.674        2337.112          40.000  
R02  22367147.642   119355384.612        -339.033          51.000    22367150.583    92831971.585        -263.647          49.000  
R11  24646084.503   131701160.751       -4030.453          45.000    24646088.211   102434229.158       -3134.823          48.000  
R03  24512956.823   131219865.982        1581.407          40.000    24512957.678   102059930.368        1230.215          44.000  
R01  23778956.439   127112112.522       -2506.278          45.000    23778962.838    98864971.841       -1949.334          39.000  
E33  28519791.690   149872468.768         523.917          41.000    28519797.948   114837412.666         401.180          43.000  
G07  21998379.176   115602267.128          68.976          49.000    21998376.156    90079693.713          53.842          45.000  
S31  40925389.069   215064362.947        -833.854          44.000  
S33  41874845.103   220053785.938        -832.500          42.000  
G16  27101581.108   142419791.374       -1666.860          42.000                                                                  
G20  25505433.480   134031970.991        2359.485          32.000                                                                  
R18  24293669.277   129681152.217       -1022.736          51.000    24293673.386   100863187.967        -795.527          48.000  
R12  22048772.617   117780601.775          86.474          52.000    22048774.731    91607152.024          67.260          51.000  
R17  24349630.531   130299744.790       -3888.887          48.000    24349632.828   101344229.040       -3024.799          46.000  
E07  25941867.880   136325434.032        -940.135          48.000    25941873.135   104457164.699        -720.345          52.000  
E08  28094832.035   147639300.303       -2397.468          43.000    28094840.771   113126227.912       -1837.044          46.000  
E13  28362116.365   149043873.312       -3845.649          46.000    28362126.867   114202462.710       -2946.718          47.000  
E26  26584484.422   139702395.288       -1937.973          47.000    26584488.882   107044702.077       -1484.870          50.000  
G06  23616009.715   124102944.980       -2540.665          48.000    23616013.341    96703599.417       -1979.872          46.000  
G30  23811799.658   125131893.186        1872.696          48.000    23811802.261    97505409.093        1459.198          42.000  
E30  27986204.607   147068543.708        1068.919          47.000    27986213.701   112688947.780         819.143          51.000  
E02  28965223.294   152213255.301       -1141.888          39.000    28965233.407   116631018.313        -875.485          35.000  
> 2024 04 15 16 48 00.0070000  0 27                     
G03  26019412.289   136732822.709       -3904.919          46.000    26019424.348   106545062.961       -3042.884          41.000  
G04  25407788.300   133518768.608       -3140.592          41.000    25407794.258   104040555.657       -2447.093          39.000  
G09  23132463.884   121561907.853       -1657.322          48.000    23132465.460    94723560.481       -1291.342          46.000  
E27  29756906.856   156373629.497        1986.499          41.000    29756926.248   119818852.783        1522.246          44.000  
G11  24666689.317   129624333.783         -89.846          45.000    24666691.180   101005978.141         -70.103          45.000  
R13  23500396.019   125490913.099        2992.592          40.000    23500400.919    97604130.616        2327.427          41.000  
R02  22369071.524   119365647.877        -345.217          51.000    22369073.614    92839954.111        -268.476          49.000  
R11  24668762.375   131822344.905       -4048.016          45.000    24668765.921   102528483.284       -3148.548          48.000  
R03  24504093.066   131172420.792        1581.464          42.000    24504095.038   102023028.659        1230.202          45.000  
R01  23793043.650   127187411.195       -2513.489          44.000    23793049.028    98923537.280       -1955.095          39.000  
E33  28516841.093   149856958.353         510.106          43.000    28516846.296   114825528.048         390.973          43.000  
G07  21998044.316   115600509.680          48.313          49.000    21998042.285    90078324.300          37.719          46.000  
S31  40930149.761   215089383.169        -834.176          43.000  
S33  41879599.959   220078775.134        -833.180          42.000  
G16  27111141.477   142470029.866       -1682.421          40.000                                                                  
G20  25491971.897                        2355.188          33.000                                                                  
R18  24299488.315   129712219.149       -1048.325          49.000    24299493.606   100887351.083        -815.324          47.000  
R12  22048363.771   117778416.672          59.277          52.000    22048366.121    91605452.543          46.107          51.000  
R17  24371469.511   130416611.255       -3902.000          47.000    24371472.442   101435124.900       -3034.715          46.000  
E07  25947243.090   136353681.799        -942.852          48.000    25947248.573   104478809.057        -722.572          52.000  
E08  28108521.269   147711234.139       -2398.013          43.000    28108529.185   113181345.913       -1837.401          47.000  
E13  28384080.353   149159296.107       -3849.119          46.000    28384091.455   114290903.312       -2949.340          47.000  
E26  26595588.973   139760745.389       -1952.003          48.000    26595592.823   107089411.825       -1495.687          50.000  
G06  23630565.231   124179430.612       -2558.237          49.000    23630568.053    96763198.515       -1993.412          46.000  
G30  23801146.537   125075912.591        1859.474          48.000    23801149.804    97461787.917        1448.900          43.000  
E30  27980127.268   147036608.715        1060.270          47.000    27980136.505   112664478.220         812.315          51.000  
E02  28971783.501   152247726.526       -1155.942          37.000    28971793.115   116657431.338        -885.907          35.000  
> 2024 04 15 16 48 30.0070000  0 27                     
G03  26041726.561   136850083.627       -3912.616          45.000    26041737.774   106636434.645       -3048.786          40.000  
G04  25425720.314   133613001.116       -3141.960          43.000    25425726.367   104113983.421       -2448.121          38.000  
G09  23141939.892   121611702.842       -1662.338          49.000    23141941.484    94762361.708       -1295.403          47.000  
E27  29745558.597   156313993.078        1989.093          42.000    29745577.042   119773157.805        1524.162          43.000  
G11  24667256.688   129627315.089        -108.867          45.000    24667257.851   101008301.220         -84.848          44.000  
R13  23483619.256   125401325.378        2979.789          40.000    23483623.975    97534451.448        2317.534          41.000  
R02  22371028.296   119376093.112        -351.333          51.000    22371030.243    92848078.171        -273.287          48.000  
R11  24691536.487   131944044.662       -4065.383          41.000    24691540.461   102623138.388       -3161.897          48.000  
R03  24495230.658   131124971.345        1581.733          45.000    24495232.284   101986123.574        1230.167          46.000  
R01  23807168.341   127262918.690       -2520.640          44.000    23807173.468    98982265.156       -1960.658          38.000  
E33  28513965.410   149841845.857         497.133          42.000    28513970.881   114813948.336         380.757          44.000  
G07  21997826.886   115599366.684          27.661          49.000    21997825.001    90077433.676          21.680          46.000  
S31  40934912.141   215114409.831        -834.406          43.000  
S33  41884356.639   220103770.791        -833.359          42.000  
G16  27120790.016   142520728.514       -1697.919          39.000                                                                  
G20  25478542.109   133890680.952        2350.271          35.000                                                                  
R18  24305450.596   129744047.283       -1073.788          49.000    24305456.387   100912106.249        -835.058          47.000  
R12  22048106.355   117777040.379          32.333          52.000    22048108.374    91604382.132          25.117          51.000  
R17  24393381.014   130533861.357       -3914.794          48.000    24393383.025   101526319.211       -3044.780          45.000  
E07  25952634.134   136382007.962        -945.595          48.000    25952638.907   104500513.474        -724.488          52.000  
E08  28122213.009   147783179.492       -2398.503          44.000    28122220.408   113236472.736       -1837.812          47.000  
E13  28406062.809   149274812.789       -3852.195          45.000    28406073.500   114379415.822       -2951.613          47.000  
E26  26606771.043   139819506.446       -1965.550          47.000    26606775.034   107134436.452       -1506.165          51.000  
G06  23645218.337   124256438.083       -2575.524          47.000    23645221.762    96823204.226       -2007.037          46.000  
G30  23790567.697   125020323.125        1846.439          48.000    23790571.122    97418471.551        1438.731          43.000  
E30  27974100.176   147004935.485        1051.279          47.000    27974109.150   112640209.237         805.442          50.000  
E02  28978420.489   152282610.656       -1169.918          36.000    28978432.350   116684160.694        -896.484          37.000  
> 2024 04 15 16 49 00.0070000  0 27                     
G03  26064083.835   136967570.803       -3919.952          45.000    26064095.004   106727982.656       -3054.322          39.000  
G04  25443658.202   133707265.923       -3142.618          42.000    25443664.651   104187436.347       -2449.024          38.000  
G09  23151444.409   121661651.236       -1667.574          48.000    23151445.881    94801282.467       -1299.234          46.000  
E27  29734197.170   156254286.008        1991.399          43.000    29734214.897   119727408.675        1525.877          43.000  
G11  24667933.953   129630873.546        -128.264          46.000    24667935.394   101011074.008         -99.923          45.000  
R13  23466911.192   125312109.764        2967.739          40.000    23466917.317    97465061.688        2308.237          42.000  
R02  22373019.986   119386719.045        -357.146          50.000    22373021.668    92856342.781        -277.827          49.000  
R11  24714407.468   132066254.307       -4082.129          43.000    24714410.223   102718190.135       -3174.913          48.000  
R03  24486367.618   131077515.747        1582.073          47.000    24486367.529   101949213.720        1230.407          45.000  
R01  23821332.428   127338633.558       -2527.357          42.000    23821337.971    99041154.324       -1965.357          37.000  
E33  28511165.054   149827130.309         483.917          42.000    28511170.167   114802672.785         370.879          43.000  
G07  21997725.359   115598836.334           7.653          49.000    21997724.013    90077020.464           5.922          46.000  
S31  40939676.614   215139442.089        -834.403          44.000  
S33  41889113.934   220128770.765        -833.256          42.000  
G16  27130524.759   142571884.892       -1712.963          37.000                                                                  
G20  25465140.912   133820256.404        2345.020          35.000                                                                  
R18  24311554.898   129776633.382       -1098.776          49.000    24311560.204   100937450.926        -854.520          47.000  
R12  22047998.867   117776472.220           5.548          50.000    22048001.604    91603940.253           4.271          51.000  
R17  24415361.658   130651488.442       -3927.016          49.000    24415364.017   101617806.746       -3054.497          46.000  
E07  25958038.488   136410410.152        -948.000          48.000    25958043.632   104522276.160        -726.325          52.000  
E08  28135904.473   147855134.366       -2398.731          44.000    28135913.239   113291606.830       -1837.863          47.000  
E13  28428062.171   149390419.158       -3855.127          46.000    28428072.359   114467997.089       -2953.745          46.000  
E26  26618030.317   139878675.261       -1979.082          47.000    26618034.554   107179773.524       -1516.427          51.000  
G06  23659971.769   124333962.846       -2592.723          48.000    23659974.579    96883613.016       -2020.398          46.000  
G30  23780063.962   124965124.358        1833.469          48.000    23780067.486    97375459.586        1428.732          43.000  
E30  27968120.859   146973523.685        1042.817          44.000    27968131.542   112616140.574         798.942          50.000  
E02  28985137.014   152317905.624       -1183.152          38.000    28985150.780   116711204.802        -906.679          40.000  
> 2024 04 15 16 49 30.0070000  0 27                     
G03  26086482.935   137085278.113       -3927.264          44.000    26086494.722   106819702.129       -3059.870          41.000  
G04  25461601.906   133801557.943       -3143.531          42.000    25461608.921   104260910.411       -2449.619          39.000  
G09  23160977.434   121711747.778       -1672.253          48.000    23160978.676    94840318.682       -1302.979          46.000  
E27  29722820.586   156194505.102        1993.935          43.000    29722838.815   119681602.981        1527.809          44.000  
G11  24668720.200   129635004.605        -147.330          47.000    24668721.434   101014292.999        -114.694          45.000  
R13  23450273.830   125223265.543        2955.507          40.000    23450279.984    97395960.823        2298.430          42.000  
R02  22375044.850   119397521.878        -363.062          51.000    22375046.061    92864745.005        -282.436          49.000  
R11  24737371.474   132188964.506       -4098.599          44.000    24737375.170   102813631.195       -3187.808          48.000  
R03  24477499.232   131030049.304        1582.485          45.000    24477499.939   101912295.424        1230.660          45.000  
R01  23835535.501   127414551.642       -2533.997          45.000    23835540.403    99100201.527       -1970.581          38.000  
E33  28508438.622   149812807.786         470.823          41.000    28508444.682   114791698.390         360.760          44.000  
G07  21997740.396   115598913.504         -12.630          50.000    21997738.421    90077080.607          -9.981          46.000  
S31  40944439.613   215164473.748        -834.442          43.000  
S33  41893871.693   220153771.029        -833.247          42.000  
G16  27140343.985   142623493.660       -1727.599          36.000                                                                  
G20  25451767.884   133749976.368        2340.203          35.000                                                                  
R18  24317800.573   129809971.225       -1123.704          50.000    24317805.704   100963380.310        -874.057          47.000  
R12  22048043.230   117776708.491         -21.312          52.000    22048045.591    91604124.045         -16.575          51.000  
R17  24437412.708   130769482.762       -3939.093          49.000    24437415.632   101709579.856       -3063.720          47.000  
E07  25963455.948   136438883.108        -950.253          47.000    25963461.875   104544093.068        -728.109          52.000  
E08  28149599.254   147927093.902       -2398.827          45.000    28149606.737   113346744.504       -1838.013          47.000  
E13  28450076.458   149506108.237       -3857.583          44.000    28450087.664   114556641.714       -2955.892          46.000  
E26  26629365.819   139938245.817       -1992.413          46.000    26629370.484   107225418.406       -1526.641          51.000  
G06  23674820.657   124411997.522       -2609.716          47.000    23674824.308    96944419.144       -2033.492          46.000  
G30  23769634.268   124910312.887        1820.731          48.000    23769637.537    97332749.440        1418.660          44.000  
E30  27962193.180   146942370.348        1033.956          45.000    27962202.473   112592269.939         792.317          49.000  
E02  28991930.540   152353606.477       -1196.601          38.000    28991944.385   116738559.950        -917.129          41.000  
> 2024 04 15 16 50 00.0070000  0 27                     
G03  26108922.729   137203200.019       -3934.300          42.000    26108935.239   106911588.810       -3065.956          41.000  
G04  25479549.233   133895872.812       -3144.157          42.000    25479553.559   104334402.295       -2449.945          36.000  
G09  23170537.893   121761987.891       -1677.299          48.000    23170539.429    94879466.775       -1306.913          46.000  
E27  29711430.049   156134647.904        1996.507          43.000    29711447.175   119635738.816        1529.708          44.000  
G11  24669614.481   129639704.457        -166.173          47.000    24669616.124   101017955.188        -129.530          46.000  
R13  23433705.946   125134792.857        2942.688          41.000    23433712.016    97327148.863        2288.650          41.000  
R02  22377101.754   119408498.622        -368.898          51.000    22377103.700    92873282.490        -286.777          49.000  
R11  24760426.913   132312167.674       -4115.043          45.000    24760431.374   102909455.652       -3200.505          47.000  
R03  24468628.573   130982568.115        1582.899          45.000    24468629.802   101875365.666        1231.013          44.000  
R01  23849774.321   127490669.485       -2540.652          42.000    23849779.627    99159404.098       -1976.015          38.000  
E33  28505785.505   149798875.041         457.865          40.000    28505793.594   114781022.670         350.860          45.000  
G07  21997870.332   115599594.334         -32.782          49.000    21997867.617    90077611.134         -25.649          46.000  
S31  40949202.043   215189501.048        -834.338          43.000  
S33  41898628.699   220178767.846        -833.149          42.000  
G16  27150249.463   142675550.187       -1743.249          33.000                                                                  
G20  25438421.818   133679838.814        2335.704          37.000                                                                  
R18  24324186.063   129844055.185       -1148.692          49.000    24324190.592   100989890.027        -893.303          47.000  
R12  22048237.854   117777746.162         -48.049          51.000    22048239.890    91604931.139         -37.387          51.000  
R17  24459528.488   130887835.328       -3951.171          48.000    24459532.811   101801631.631       -3073.100          47.000  
E07  25968886.748   136467422.333        -952.549          47.000    25968892.595   104565960.736        -729.751          52.000  
E08  28163292.092   147999053.937       -2398.738          45.000    28163300.188   113401882.563       -1838.064          46.000  
E13  28472107.078   149621873.701       -3860.179          45.000    28472117.597   114645344.828       -2957.742          47.000  
E26  26640776.559   139998212.683       -2005.579          46.000    26640781.959   107271366.966       -1536.690          51.000  
G06  23689766.194   124490535.384       -2626.452          49.000    23689769.469    97005617.370       -2046.628          45.000  
G30  23759277.074   124855885.999        1807.601          47.000    23759280.269    97290338.945        1408.734          44.000  
E30  27956313.064   146911473.002        1025.454          44.000    27956322.954   112568595.423         785.832          50.000  
E02  28998800.819   152389708.806       -1210.188          38.000    28998815.047   116766222.714        -927.141          42.000  
> 2024 04 15 16 50 30.0070000  0 27                     
G03  26131404.349   137321340.315       -3941.269          42.000    26131416.470   107003645.717       -3071.405          40.000  
G04  25497502.133   133990215.488       -3145.001          40.000    25497507.748   104407915.865       -2450.826          37.000  
G09  23180127.266   121812376.594       -1681.920          49.000    23180128.485    94918730.611       -1310.671          47.000  
E27  29700025.546   156074721.487        1998.737          42.000    29700043.382   119589821.614        1531.602          45.000  
G11  24670618.194   129644978.722        -185.386          47.000    24670619.398   101022064.960        -144.440          46.000  
R13  23417208.715   125046701.112        2930.149          39.000    23417214.525    97258633.226        2278.976          41.000  
R02  22379192.514   119419655.680        -374.864          51.000    22379194.676    92881960.169        -291.430          48.000  
R11  24783574.552   132435864.638       -4131.355          46.000    24783580.571   103005664.217       -3213.258          48.000  
R03  24459756.905   130935077.831        1583.262          46.000    24459756.839   101838428.881        1231.361          42.000  
R01  23864052.667   127566992.877       -2547.815          41.000    23864057.932    99218766.633       -1981.435          39.000  
E33  28503210.232   149785338.404         444.599          41.000    28503217.556   114770650.473         340.707          45.000  
G07  21998115.480   115600883.728         -53.082          49.000    21998112.701    90078615.857         -41.333          46.000  
S31  40953964.944   215214530.164        -834.172          43.000  
S33  41903385.029   220203765.224        -833.134          41.000  
G16  27160241.656   142728058.995       -1757.713          34.000                                                                  
G20  25425102.720   133609851.375        2330.388          37.000                                                                  
R18  24330711.910   129878889.267       -1173.576          49.000    24330716.105   101016983.169        -912.770          47.000  
R12  22048583.414   117779591.749         -74.921          52.000    22048585.744    91606366.612         -58.276          51.000  
R17  24481714.389   131006546.721       -3962.835          51.000    24481717.691   101893962.464       -3082.220          48.000  
E07  25974331.871   136496032.668        -954.651          47.000    25974337.027   104587882.911        -731.534          52.000  
E08  28176986.931   148071019.790       -2398.927          44.000    28176995.205   113457025.065       -1838.199          47.000  
E13  28494151.764   149737718.650       -3862.705          45.000    28494163.039   114734108.888       -2959.642          47.000  
E26  26652264.684   140058579.957       -2018.841          47.000    26652268.821   107317622.342       -1546.953          50.000  
G06  23704807.901   124569579.193       -2643.129          48.000    23704811.059    97067209.835       -2059.465          44.000  
G30  23748995.177   124801850.471        1794.673          48.000    23748997.654    97248233.426        1398.446          44.000  
E30  27950483.120   146880838.645        1016.870          44.000    27950493.974   112545122.445         779.097          51.000  
E02  29005750.503   152426217.873       -1223.676          39.000    29005762.060   116794197.130        -937.612          42.000  
> 2024 04 15 16 51 00.0070000  0 27                     
G03  26153925.431   137439689.773       -3948.489          43.000    26153937.856   107095865.597       -3077.003          40.000  
G04  25515458.510   134084577.755       -3145.805          41.000    25515463.906   104481444.651       -2451.108          37.000  
G09  23189742.665   121862905.465       -1686.835          48.000    23189743.936    94958103.687       -1314.414          47.000  
E27  29688607.262   156014719.559        2001.145          42.000    29688624.716   119543846.546        1533.501          45.000  
G11  24671729.829   129650819.641        -204.206          47.000    24671730.763   101026616.286        -159.159          46.000  
R13  23400782.824   124958986.310        2917.296          41.000    23400788.009    97190410.761        2269.091          41.000  
R02  22381315.152   119430985.356        -380.635          50.000    22381317.394    92890772.112        -296.153          48.000  
R11  24806813.464   132560043.379       -4147.426          47.000    24806819.191   103102247.525       -3225.654          47.000  
R03  24450881.327   130887571.084        1583.842          46.000    24450883.040   101801479.234        1231.794          41.000  
R01  23878367.621   127643514.509       -2554.307          40.000    23878373.076    99278283.302       -1986.428          37.000  
E33  28500708.861   149772190.814         431.686          42.000    28500716.024   114760576.348         330.773          46.000  
G07  21998475.106   115602773.658         -73.111          50.000    21998472.952    90080088.567         -57.119          46.000  
S31  40958725.923   215239550.975        -833.890          43.000  
S33  41908140.430   220228755.489        -833.073          42.000  
G16  27170312.915                       -1772.164          31.000                                                                  
G20  25411811.806   133540008.069        2325.544          38.000                                                                  
R18  24337376.296   129914464.077       -1198.274          48.000    24337381.353   101044652.397        -931.975          48.000  
R12  22049077.905   117782238.456        -101.638          51.000    22049081.314    91608425.171         -79.132          51.000  
R17  24503963.631   131125604.269       -3974.329          51.000    24503967.204   101986562.559       -3091.200          49.000  
E07  25979788.252   136524705.813        -956.812          47.000    25979793.441   104609853.219        -733.233          52.000  
E08  28190681.087   148142983.433       -2398.759          44.000    28190689.345   113512165.877       -1838.127          46.000  
E13  28516209.062   149853632.949       -3864.989          44.000    28516220.684   114822926.054       -2961.412          47.000  
E26  26663826.634   140119338.418       -2031.824          47.000    26663830.859   107364177.462       -1556.899          50.000  
G06  23719943.825   124649118.340       -2659.592          48.000    23719946.495    97129188.318       -2072.378          44.000  
G30  23738786.223   124748199.820        1781.921          48.000    23738787.578    97206427.799        1388.250          44.000  
E30  27944702.112   146850461.073        1007.856          44.000    27944713.156   112521846.186         772.458          51.000  
E02  29012772.872   152463125.449       -1236.969          39.000    29012785.027   116822476.885        -947.950          42.000  
> 2024 04 15 16 51 30.0070000  0 27                     
G03  26176486.875   137558250.093       -3955.547          42.000    26176499.188   107188249.739       -3082.074          40.000  
G04  25533419.265   134178962.525       -3146.833          40.000    25533426.015   104554990.982       -2451.847          38.000  
G09  23199384.552   121913577.261       -1691.507          47.000    23199386.622    94997588.129       -1318.122          47.000  
E27  29677175.837   155954646.986        2003.360          42.000    29677193.006   119497817.375        1534.966          45.000  
G11  24672949.874   129657230.649        -223.288          47.000    24672950.024   101031611.836        -174.047          45.000  
R13  23384428.180   124871656.036        2904.490          41.000    23384433.116    97122487.407        2258.948          41.000  
R02  22383472.090   119442492.368        -386.743          52.000    22383473.642    92899722.009        -300.757          49.000  
R11  24830141.965   132684703.161       -4163.541          48.000    24830146.760   103199204.926       -3238.169          45.000  
R03  24442004.018   130840051.044        1583.929          46.000    24442007.018   101764519.308        1231.873          41.000  
R01  23892721.554   127720238.202       -2561.042          43.000    23892725.935    99337957.118       -1991.886          38.000  
E33  28498282.739   149759436.335         418.427          42.000    28498289.189   114750803.457         320.719          46.000  
G07  21998949.701   115605267.525         -93.399          50.000    21998947.820    90082031.848         -72.686          46.000  
S31  40963486.951   215264568.267        -834.094          44.000  
S33  41912895.187   220253741.929        -833.176          42.000  
G16  27180473.821                       -1788.989          30.000                                                                  
G20  25398550.183   133470314.269        2320.675          39.000                                                                  
R18  24344178.829   129950781.220       -1223.109          49.000    24344185.068   101072899.000        -951.345          48.000  
R12  22049724.482   117785690.519        -128.614          51.000    22049727.589    91611110.128        -100.075          52.000  
R17  24526276.937   131245006.318       -3985.914          51.000    24526280.741   102079430.581       -3100.220          49.000  
E07  25985256.383   136553444.502        -959.106          47.000    25985262.500   104631873.748        -734.963          52.000  
E08  28204376.591   148214948.097       -2399.093          45.000    28204383.464   113567307.459       -1838.311          46.000  
E13  28538280.168   149969617.614       -3867.521          44.000    28538291.799   114911797.140       -2963.375          47.000  
E26  26675462.759   140180489.903       -2045.152          46.000    26675467.905   107411033.741       -1567.030          50.000  
G06  23735173.937   124729153.395       -2676.373          49.000    23735176.852    97191553.216       -2085.606          44.000  
G30  23728650.075   124694938.544        1768.594          48.000    23728651.643    97164925.592        1378.382          43.000  
E30  27938971.976   146820345.082         999.258          45.000    27938982.392   112498770.414         765.653          51.000  
E02  29019873.756   152500434.594       -1250.788          36.000    29019884.673   116851064.251        -957.945          42.000  
> 2024 04 15 16 52 00.0070000  0 27                     
G03  26199088.456   137677018.620       -3962.355          43.000    26199101.461   107280796.159       -3087.844          41.000  
G04  25551384.811   134273368.200       -3147.212          40.000    25551390.365   104628553.627       -2452.289          38.000  
G09  23209054.576   121964390.399       -1695.741          49.000    23209055.923    95037182.704       -1321.660          47.000  
E27  29665730.489   155894504.213        2005.969          43.000    29665747.423   119451734.404        1536.907          44.000  
G11  24674277.791   129664210.657        -242.256          47.000    24674278.749   101037050.764        -188.848          45.000  
R13  23368147.380   124784713.087        2891.342          43.000    23368151.157    97054865.265        2249.096          40.000  
R02  22385661.945   119454176.312        -392.364          52.000    22385663.798    92908809.489        -305.136          49.000  
R11  24853560.631   132809838.466       -4179.071          49.000    24853563.609   103296532.207       -3250.407          45.000  
R03  24433123.847   130792516.959        1584.791          45.000    24433125.272   101727548.492        1232.653          38.000  
R01  23907110.416   127797163.295       -2567.392          40.000    23907116.385    99397787.601       -1997.289          37.000  
E33  28495930.772   149747074.553         405.429          43.000    28495936.750   114741331.447         310.720          47.000  
G07  21999538.631   115608363.689        -113.211          49.000    21999536.695    90084444.418         -88.209          46.000  
S31  40968246.459   215289580.495        -833.469          44.000  
S33  41917648.730   220278722.590        -832.500          42.000  
G16  27190722.660   142888254.415       -1802.182          32.000                                                                  
G20  25385316.435   133400770.838        2315.329          40.000                                                                  
R18  24351121.489   129987837.932       -1247.569          50.000    24351126.978   101101720.838        -970.303          48.000  
R12  22050521.327   117789947.527        -155.415          51.000    22050524.556    91614421.118        -120.759          51.000  
R17  24548653.807   131364746.946       -3997.012          50.000    24548656.824   102172561.909       -3108.695          48.000  
E07  25990737.784   136582247.098        -961.032          48.000    25990743.518   104653943.242        -736.366          52.000  
E08  28218071.396   148286912.431       -2398.787          45.000    28218077.999   113622448.811       -1838.131          45.000  
E13  28560365.596   150085669.146       -3869.492          45.000    28560375.999   115000719.459       -2964.920          47.000  
E26  26687173.444   140242031.841       -2057.862          46.000    26687179.458   107458189.184       -1576.876          51.000  
G06  23750497.945   124809680.377       -2692.361          49.000    23750500.969    97254301.377       -2097.899          44.000  
G30  23718587.645   124642066.799        1755.946          47.000    23718591.505    97123726.954        1368.260          45.000  
E30  27933291.962   146790491.147         990.628          46.000    27933300.860   112475895.410         759.139          50.000  
E02  29027048.699   152538143.613       -1263.570          37.000    29027060.606   116879958.097        -968.165          42.000  
> 2024 04 15 16 52 30.0070000  0 27                     
G03  26221726.719   137795976.660       -3968.701          43.000    26221739.767   107373490.188       -3092.450          41.000  
G04  25569350.652   134367777.363       -3146.562          39.000    25569357.200   104702119.008       -2452.393          40.000  
G09  23218747.696   122015327.208       -1700.347          49.000    23218748.670    95076873.639       -1324.703          47.000  
E27  29654268.731   155834275.751        2008.814          42.000    29654285.537   119405585.741        1539.057          43.000  
G11  24675711.660   129671742.637        -260.427          47.000    24675712.435   101042919.784        -202.889          45.000  
R13  23351935.354   124698143.926        2879.191          43.000    23351938.538    96987533.849        2239.181          39.000  
R02  22387881.778   119466020.641        -397.763          51.000    22387883.619    92918021.708        -309.334          49.000  
R11  24877063.467   132935428.024       -4194.230          49.000    24877066.555   103394212.805       -3262.079          46.000  
R03  24424239.457   130744951.151        1585.873          46.000    24424238.803   101690552.905        1233.478          39.000  
R01  23921535.608   127874272.864       -2573.613          41.000    23921541.871    99457761.522       -2001.552          38.000  
E33  28493648.542   149735089.161         392.852          40.000    28493655.877   114732147.829         301.198          47.000  
G07  22000239.436   115612044.981        -132.855          49.000    22000237.400    90087312.925        -103.386          46.000  
S31  40973001.919   215314568.901        -832.794          43.000  
S33  41922398.359   220303680.352        -831.789          42.000  
G16  27201054.201                       -1816.914          28.000                                                                  
G20  25372108.364   133331362.945        2311.062          39.000                                                                  
R18  24358198.927   130025615.231       -1271.387          50.000    24358202.909   101131103.178        -988.887          47.000  
R12  22051466.341   117794993.031        -181.568          51.000    22051468.998    91618345.405        -141.191          51.000  
R17  24571087.775   131484803.804       -4007.357          49.000    24571091.915   102265939.214       -3116.866          48.000  
E07  25996227.397   136611095.957        -962.582          47.000    25996233.367   104676048.187        -737.523          52.000  
E08  28231762.030   148358859.248       -2398.214          45.000    28231769.421   113677576.701       -1837.451          46.000  
E13  28582458.207   150201768.088       -3870.837          45.000    28582469.367   115089678.124       -2966.001          47.000  
E26  26698956.205   140303945.691       -2070.202          46.000    26698961.541   107505629.586       -1586.219          51.000  
G06  23765911.882   124890679.406       -2707.833          49.000    23765915.809    97317417.434       -2110.114          45.000  
G30  23708597.864   124589568.774        1743.322          48.000    23708600.903    97082819.459        1358.543          44.000  
E30  27927656.591   146760883.648         982.693          44.000    27927666.732   112453209.253         752.881          50.000  
E02  29034299.883   152576235.204       -1276.288          38.000    29034309.022   116909145.079        -977.834          42.000  
> 2024 04 15 16 53 00.0070000  0 27                     
G03  26244402.681   137915134.166       -3975.290          45.000    26244415.165   107466339.624       -3097.565          41.000  
G04  25587319.598   134462201.076       -3147.343          37.000    25587326.784   104775695.708       -2453.183          41.000  
G09  23228466.682   122066398.768       -1704.713          50.000    23228467.246    95116669.593       -1328.316          46.000  
E27  29642793.573   155773974.757        2010.926          41.000    29642810.035   119359381.448        1540.963          43.000  
G11  24677252.782   129679838.161        -279.451          47.000    24677252.595   101049227.935        -217.583          45.000  
R13  23335795.766   124611964.388        2865.882          41.000    23335799.643    96920505.446        2229.094          40.000  
R02  22390133.403   119478037.854        -403.654          52.000    22390135.196    92927368.426        -313.877          49.000  
R11  24900651.979   133061479.292       -4209.454          51.000    24900655.323   103492252.465       -3274.159          45.000  
R03  24415349.994   130697365.820        1586.387          45.000    24415348.814   101653542.154        1234.191          39.000  
R01  23935997.142   127951579.449       -2580.342          41.000    23936004.006    99517888.695       -2006.634          37.000  
E33  28491443.005   149723492.407         379.902          41.000    28491449.264   114723261.983         291.048          47.000  
G07  22001053.107   115616322.342        -152.649          48.000    22001051.670    90090645.923        -118.978          46.000  
S31  40977754.296   215339546.410        -832.346          44.000  
S33  41927145.515   220328626.790        -831.559          42.000  
G16  27211463.986                       -1830.149          30.000                                                                  
G20  25358928.585   133262104.177        2305.811          39.000                                                                  
R18  24365413.186   130064123.054       -1295.892          50.000    24365416.600   101161053.661       -1007.903          47.000  
R12  22052560.413   117800839.616        -208.387          51.000    22052563.263    91622892.732        -162.003          51.000  
R17  24593584.449   131605183.629       -4018.187          49.000    24593588.181   102359567.749       -3125.104          46.000  
E07  26001728.188   136640002.160        -964.578          47.000    26001733.600   104698197.068        -739.098          52.000  
E08  28245451.698   148430799.888       -2398.112          45.000    28245459.210   113732699.898       -1837.488          46.000  
E13  28604562.462   150317923.792       -3872.921          45.000    28604573.558   115178680.255       -2967.590          47.000  
E26  26710812.073   140366241.603       -2083.016          47.000    26710815.749   107553362.733       -1596.153          51.000  
G06  23781417.020   124972159.256       -2724.060          49.000    23781421.003    97380908.122       -2122.660          46.000  
G30  23698680.612   124537457.256        1730.477          48.000    23698684.358    97042213.167        1348.374          44.000  
E30  27922072.134   146731535.772         973.703          45.000    27922082.001   112430721.978         746.111          50.000  
E02  29041621.331   152614720.537       -1289.334          35.000    29041633.246   116938633.747        -988.100          43.000  
> 2024 04 15 16 53 30.0070000  0 27                     
G03  26267117.140   138034497.509       -3982.501          45.000    26267129.360   107559349.457       -3103.055          39.000  
G04  25605291.455   134556647.026       -3148.860          38.000    25605299.056   104849289.678       -2453.394          40.000  
G09  23238212.016   122117612.536       -1709.822          49.000    23238212.319    95156576.372       -1332.341          45.000  
E27  29631307.132   155713610.698        2012.947          42.000    29631322.968   119313128.874        1542.496          44.000  
G11  24678902.488   129688505.126        -298.647          46.000    24678901.304   101055981.397        -232.645          44.000  
R13  23319732.941   124526186.611        2852.198          42.000    23319736.518    96853789.544        2218.602          40.000  
R02  22392419.722   119490237.129        -410.001          52.000    22392421.441    92936856.731        -318.925          48.000  
R11  24924327.952   133187996.195       -4225.291          51.000    24924331.196   103590654.326       -3286.167          46.000  
R03  24406458.226   130649769.334        1586.594          43.000    24406457.911   101616522.820        1233.771          41.000  
R01  23950499.484   128029091.339       -2587.442          45.000    23950503.857    99578175.560       -2012.625          37.000  
E33  28489311.365   149712292.923         366.388          41.000    28489318.030   114714680.545         280.887          47.000  
G07  22001981.699   115621203.560        -173.117          48.000    22001981.624    90094449.447        -134.806          47.000  
S31  40982506.787   215364519.211        -832.616          44.000  
S33  41931892.078   220353569.487        -831.492          42.000  
G16  27221957.975   143052385.701       -1846.088          30.000                                                                  
G20  25345779.324   133193004.482        2300.033          40.000                                                                  
R18  24372764.286   130103367.789       -1320.709          49.000    24372769.732   101191577.273       -1027.226          49.000  
R12  22053806.156   117807496.150        -235.627          51.000    22053809.526    91628070.045        -183.364          51.000  
R17  24616141.353   131725889.689       -4029.226          49.000    24616145.238   102453449.979       -3133.698          46.000  
E07  26007240.811   136668973.117        -966.948          47.000    26007246.745   104720395.566        -740.900          52.000  
E08  28259142.514   148502742.280       -2398.263          45.000    28259149.740   113787824.393       -1837.554          46.000  
E13  28626677.899   150434141.846       -3875.085          45.000    28626689.264   115267730.157       -2969.313          46.000  
E26  26722741.062   140428925.978       -2096.078          48.000    26722744.383   107601393.526       -1606.118          50.000  
G06  23797014.420   125054124.973       -2740.521          48.000    23797018.744    97444777.430       -2135.564          45.000  
G30  23688839.319   124485741.412        1717.106          47.000    23688843.057    97001915.136        1338.062          44.000  
E30  27916538.939   146702456.967         964.636          45.000    27916548.721   112408440.890         739.088          51.000  
E02  29049018.979   152653607.058       -1302.995          36.000    29049033.059   116968429.882        -998.631          43.000  
> 2024 04 15 16 54 00.0070000  0 27                     
G03  26289872.614   138154077.289       -3989.570          44.000    26289884.132   107652527.957       -3108.275          37.000  
G04  25623271.595   134651127.016       -3149.459          35.000    25623278.985   104922910.231       -2454.530          41.000  
G09  23247986.369   122168980.268       -1714.844          48.000    23247987.260    95196603.081       -1336.286          46.000  
E27  29619810.741   155653197.435        2014.569          43.000    29619827.059   119266838.595        1543.704          45.000  
G11  24680661.889   129697755.739        -318.181          45.000    24680662.004   101063189.657        -247.744          45.000  
R13  23303747.892   124440826.936        2838.580          42.000    23303751.416    96787398.885        2207.576          41.000  
R02  22394742.413   119502631.900        -416.381          53.000    22394744.221    92946497.102        -323.722          47.000  
R11  24948092.412   133314986.935       -4240.775          51.000    24948096.621   103689424.719       -3298.293          46.000  
R03  24397566.278   130602174.354        1586.137          40.000    24397568.465   101579504.541        1233.845          43.000  
R01  23965039.987   128106821.485       -2594.692          44.000    23965046.771    99638632.123       -2017.603          38.000  
E33  28487258.943   149701503.659         352.841          42.000    28487264.841   114706413.447         270.543          47.000  
G07  22003028.722   115626700.458        -193.453          49.000    22003026.866    90098732.718        -150.702          46.000  
S31  40987261.110   215389500.871        -832.862          44.000  
S33  41936639.905   220378520.464        -831.630          42.000  
G16  27232539.615   143107994.511       -1861.796          33.000                                                                  
G20  25332662.444   133124078.126        2294.827          40.000                                                                  
R18  24380255.811   130143359.789       -1345.480          49.000    24380261.162   101222682.104       -1046.435          48.000  
R12  22055207.504   117814975.605        -263.083          52.000    22055209.286    91633887.373        -204.518          51.000  
R17  24638760.430   131846929.501       -4040.116          48.000    24638764.031   102547591.816       -3142.290          46.000  
E07  26012768.665   136698020.542        -969.522          47.000    26012774.420   104742652.664        -742.784          52.000  
E08  28272834.301   148574698.402       -2398.728          44.000    28272842.264   113842959.406       -1837.979          45.000  
E13  28648807.307   150550432.124       -3877.645          45.000    28648818.560   115356835.413       -2971.162          46.000  
E26  26734745.500   140492009.565       -2109.333          48.000    26734748.753   107649730.218       -1616.269          50.000  
G06  23812706.306   125136585.950       -2756.741          49.000    23812709.993    97509032.632       -2148.238          45.000  
G30  23679076.882   124434434.656        1703.268          47.000    23679079.930    96961935.919        1327.288          45.000  
E30  27911059.950   146673660.962         955.240          46.000    27911069.022   112386376.512         731.898          51.000  
E02  29056498.591   152692906.645       -1316.798          38.000    29056511.727   116998542.527       -1009.011          42.000  
> 2024 04 15 16 54 30.0070000  0 27                     
G03  26312668.679   138273871.562       -3997.064          44.000    26312681.593   107745873.635       -3114.677          39.000  
G04  25641250.271                3      -3150.000          24.000    25641263.885   104996556.687       -2455.629          41.000  
G09  23257790.980   122220501.103       -1720.213          48.000    23257792.118    95236749.123       -1340.460          47.000  
E27  29608305.382   155592736.202        2015.755          43.000    29608321.891   119220511.542        1544.563          46.000  
G11  24682532.447   129707589.591        -337.891          46.000    24682533.802   101070852.354        -263.054          45.000  
R13  23287841.451   124355889.012        2823.868          42.000    23287845.550    96721336.198        2196.302          41.000  
R02  22397102.308   119515222.708        -423.340          52.000    22397103.554    92956289.943        -329.178          49.000  
R11  24971944.200   133442446.805       -4256.706          50.000    24971949.594   103788560.002       -3310.811          45.000  
R03  24388674.726   130554580.825        1585.722          40.000    24388677.517   101542487.315        1233.845          43.000  
R01  23979622.074   128184769.985       -2602.250          44.000    23979628.860    99699258.571       -2024.069          39.000  
E33  28485282.922   149691124.921         338.719          41.000    28485289.281   114698460.928         259.518          47.000  
G07  22004191.905   115632812.307        -214.266          49.000    22004189.482    90103495.174        -166.943          46.000  
S31  40992015.692   215414489.043        -833.294          43.000  
S33  41941389.216   220403478.347        -832.477          42.000  
G16  27243208.695   143164057.969       -1876.643          31.000                                                                  
G20  25319579.509   133055327.056        2288.291          41.000                                                                  
R18  24387887.692   130184097.009       -1370.721          50.000    24387892.862   101254366.548       -1066.167          48.000  
R12  22056761.806   117823278.429        -290.819          52.000    22056762.851    91640345.089        -226.104          50.000  
R17  24661440.917   131968297.742       -4051.400          49.000    24661446.046   102641989.075       -3150.944          48.000  
E07  26018310.907   136727143.585        -972.323          47.000    26018316.458   104764967.701        -744.984          52.000  
E08  28286530.618   148646667.812       -2399.437          44.000    28286537.882   113898104.576       -1838.748          46.000  
E13  28670948.818   150666791.947       -3880.173          44.000    28670961.307   115445993.921       -2973.037          45.000  
E26  26746824.241   140555490.513       -2122.941          46.000    26746828.926   107698371.378       -1626.710          50.000  
G06  23828492.159   125219538.939       -2773.473          49.000    23828495.062    97573671.194       -2161.057          46.000  
G30  23669391.562   124383537.782        1689.249          47.000    23669394.208    96922276.087        1316.511          45.000  
E30  27905634.063   146645148.951         945.208          45.000    27905643.445   112364529.714         724.268          51.000  
E02  29064056.878   152732618.564       -1330.865          38.000    29064068.841   117028971.023       -1019.792          43.000  
> 2024 04 15 16 55 00.0070000  0 27                     
G03  26335506.032   138393877.133       -4004.055          45.000    26335519.059   107839383.872       -3119.802          37.000  
G04  25659252.103                       -3152.197          27.000    25659254.503   105070227.498       -2456.460          40.000  
G09  23267623.882   122272172.942       -1725.344          47.000    23267625.322    95277012.810       -1344.337          47.000  
E27  29596790.492   155532226.910        2017.388          43.000    29596806.924   119174147.649        1545.793          46.000  
G11  24684515.496   129718005.015        -357.303          46.000    24684516.129   101078968.235        -278.413          46.000  
R13  23272014.236   124271374.970        2809.790          41.000    23272018.186    96655603.197        2185.252          41.000  
R02  22399498.415   119528008.446        -429.812          53.000    22399499.712    92966234.389        -334.398          48.000  
R11  24995883.748   133570369.948       -4272.167          51.000    24995888.801   103888055.598       -3322.706          47.000  
R03  24379784.863   130506987.406        1586.113          43.000    24379785.615   101505470.389        1233.605          43.000  
R01  23994243.846   128262935.765       -2609.472          43.000    23994252.093    99760053.996       -2029.948          39.000  
E33  28483384.465   149681155.777         325.057          39.000    28483392.200   114690822.261         249.089          47.000  
G07  22005471.396   115639537.222        -234.671          49.000    22005469.131    90108735.313        -182.853          46.000  
S31  40996771.854   215439482.816        -833.416          43.000  
S33  41946139.667   220428441.496        -832.702          42.000  
G16  27253964.144   143220573.609       -1891.546          32.000                                                                  
G20  25306529.422   132986751.547        2282.629          41.000                                                                  
R18  24395658.231   130225575.975       -1395.367          50.000    24395663.031   101286627.872       -1085.222          48.000  
R12  22058469.138   117832403.470        -318.281          52.000    22058471.322    91647442.331        -247.513          50.000  
R17  24684183.171   132089987.894       -4061.936          49.000    24684188.129   102736636.688       -3159.384          48.000  
E07  26023866.529   136756340.123        -974.726          48.000    26023872.132   104787339.055        -746.899          52.000  
E08  28300227.925   148718648.759       -2399.818          45.000    28300235.946   113953258.628       -1838.874          46.000  
E13  28693105.446   150783217.404       -3882.316          44.000    28693116.387   115535202.730       -2974.633          45.000  
E26  26758978.745   140619365.701       -2136.085          46.000    26758983.964   107747314.601       -1636.704          50.000  
G06  23844370.879   125302979.438       -2789.825          49.000    23844374.294    97638689.643       -2174.035          46.000  
G30  23659784.866   124333050.398        1675.735          48.000    23659785.908    96882935.363        1305.804          44.000  
E30  27900260.590   146616920.761         935.966          44.000    27900271.646   112342900.446         717.088          51.000  
E02  29071691.245   152772740.518       -1344.398          39.000    29071702.958   117059713.840       -1030.375          40.000  
> 2024 04 15 16 55 30.0070000  0 27                     
G03  26358383.430   138514097.076       -4011.109          45.000    26358397.937   107933061.176       -3125.113          40.000  
G04  25677229.239                3      -3153.051          28.000    25677251.696   105143926.117       -2457.101          38.000  
G09  23277486.085   122324000.056       -1730.167          48.000    23277487.555    95317397.513       -1348.316          47.000  
E27  29585266.884   155471676.009        2018.975          43.000    29585284.086   119127751.894        1546.987          47.000  
G11  24686608.886   129729006.606        -376.434          46.000    24686609.438   101087540.873        -293.232          45.000  
R13  23256268.359   124187294.004        2795.396          41.000    23256272.820    96590207.024        2173.990          41.000  
R02  22401932.370   119540995.132        -436.245          52.000    22401933.689    92976335.072        -339.327          49.000  
R11  25019910.195   133698756.882       -4287.217          51.000    25019914.996   103987911.962       -3334.475          47.000  
R03  24370895.993   130459399.303        1586.223          41.000    24370896.034   101468457.514        1233.786          44.000  
R01  24008909.093   128341324.020       -2616.827          44.000    24008914.622    99821022.466       -2035.344          35.000  
E33  28481566.866   149671601.695         311.548          39.000    28481574.656   114683501.611         238.637          47.000  
G07  22006868.426   115646879.345        -255.024          49.000    22006865.645    90114456.421        -198.663          45.000  
S31  41001530.272   215464486.848        -833.583          43.000  
S33  41950892.386   220453415.873        -832.842          42.000  
G16  27264805.809   143277546.266       -1906.528          33.000                                                                  
G20  25293514.220   132918358.584        2276.805          41.000                                                                  
R18  24403568.489   130267799.446       -1419.801          51.000    24403572.808   101319468.290       -1104.290          47.000  
R12  22060333.201   117842356.174        -345.558          52.000    22060335.244    91655183.303        -268.762          51.000  
R17  24706984.055   132211999.726       -4072.304          48.000    24706987.869   102831534.539       -3167.471          46.000  
E07  26029437.455   136785614.447        -977.036          47.000    26029442.787   104809769.996        -748.595          51.000  
E08  28313928.398   148790645.968       -2400.112          44.000    28313936.865   114008425.104       -1839.010          46.000  
E13  28715273.167   150899710.902       -3884.105          44.000    28715284.886   115624463.679       -2976.104          46.000  
E26  26771210.403   140683638.363       -2148.993          46.000    26771214.858   107796562.384       -1646.617          50.000  
G06  23860341.926   125386909.234       -2805.882          48.000    23860345.749    97704089.395       -2186.338          46.000  
G30  23650256.133   124282978.449        1662.101          49.000    23650257.959    96843918.332        1295.225          44.000  
E30  27894945.226   146588982.735         926.440          46.000    27894955.058   112321493.502         709.889          51.000  
E02  29079405.661   152813277.056       -1358.137          40.000    29079416.175   117090774.215       -1040.879          39.000  
> 2024 04 15 16 56 00.0070000  0 27                     
G03  26381297.460   138634513.306       -4017.247          43.000    26381313.501   108026891.438       -3130.000          41.000  
G04  25695246.936   135029330.9291      -3153.350          33.000    25695254.474   105217639.374       -2457.055          39.000  
G09  23287375.139   122375965.482       -1734.461          47.000    23287376.464    95357889.978       -1351.514          47.000  
E27  29573733.244   155411068.530        2021.304          42.000    29573750.433   119081312.774        1548.837          47.000  
G11  24688810.444   129740577.724        -395.096          45.000    24688810.721   101096557.339        -307.974          45.000  
R13  23240601.732   124103632.988        2782.062          42.000    23240605.370    96525137.483        2163.773          41.000  
R02  22404400.792   119554167.041        -442.043          53.000    22404402.581    92986579.850        -343.770          49.000  
R11  25044019.291   133827586.581       -4301.498          51.000    25044024.250   104088112.653       -3345.515          47.000  
R03  24362004.413   130411800.225        1586.890          42.000    24362004.671   101431436.045        1234.505          43.000  
R01  24023610.750   128419918.197       -2623.101          42.000    24023618.496    99882151.089       -2040.192          39.000  
E33  28479824.722   149662446.850         298.741          40.000    28479832.268   114676486.837         228.849          47.000  
G07  22008379.995   115654821.688        -274.646          48.000    22008377.701    90120645.245        -213.982          46.000  
S31  41006287.362   215489483.558        -833.184          44.000  
S33  41955643.142   220478382.665        -832.094          42.000  
G16  27275733.764   143334957.245       -1920.738          28.000                                                                  
G20  25280531.540   132850133.632        2271.443          41.000                                                                  
R18  24411614.233   130310748.768       -1443.548          50.000    24411619.074   101352873.238       -1122.803          48.000  
R12  22062348.601   117853120.334        -372.254          53.000    22062350.469    91663555.426        -289.449          51.000  
R17  24729840.799   132334311.516       -4081.875          48.000    24729844.185   102926665.639       -3174.687          45.000  
E07  26035019.844   136814949.523        -978.686          48.000    26035025.200   104832247.509        -749.777          51.000  
E08  28327628.858   148862642.723       -2399.606          45.000    28327637.201   114063591.283       -1838.692          46.000  
E13  28737450.815   151016253.654       -3885.355          44.000    28737462.574   115713762.337       -2976.954          46.000  
E26  26783513.777   140748290.401       -2161.251          47.000    26783517.806   107846100.872       -1655.897          50.000  
G06  23876402.577   125471308.930       -2820.921          48.000    23876406.464    97769855.281       -2198.155          46.000  
G30  23640803.126   124233306.506        1649.183          48.000    23640805.019    96805213.000        1285.145          43.000  
E30  27889681.467   146561319.867         917.540          46.000    27889690.317   112300297.348         703.129          51.000  
E02  29087195.610   152854211.118       -1370.871          42.000    29087206.025   117122139.208       -1050.309          39.000  
> 2024 04 15 16 56 30.0070000  0 27                     
G03  26404249.204   138755120.983       -4023.304          44.000    26404264.559   108120870.852       -3135.269          40.000  
G04  25713253.207   135123945.284       -3154.046          34.000    25713259.087   105291364.617       -2457.926          37.000  
G09  23297289.564   122428065.559       -1738.850          48.000    23297291.133    95398487.382       -1354.962          47.000  
E27  29562187.794   155350402.905        2023.034          41.000    29562205.949   119034829.071        1550.167          47.000  
G11  24691119.869   129752715.008        -413.916          46.000    24691121.186   101106014.957        -322.422          46.000  
R13  23225012.612   124020392.688        2767.435          41.000    23225016.617    96460395.157        2152.484          41.000  
R02  22406903.720   119567521.625        -448.102          53.000    22406905.249    92996966.703        -348.529          50.000  
R11  25068209.532   133956851.694       -4316.007          50.000    25068214.202   104188652.012       -3356.882          46.000  
R03  24353107.883   130364186.559        1587.492          40.000    24353110.224   101394403.200        1234.693          45.000  
R01  24038351.553   128498716.189       -2630.180          44.000    24038360.065    99943438.220       -2045.744          38.000  
E33  28478158.834   149653688.629         285.555          40.000    28478165.668   114669775.966         218.541          46.000  
G07  22010004.052   115663360.642        -294.483          48.000    22010003.387    90127298.951        -229.519          46.000  
S31  41011042.216   215514470.703        -832.749          44.000  
S33  41960392.138   220503339.738        -831.393          42.000  
G16  27286737.329                       -1935.720          30.000                                                                  
G20  25267580.660   132782075.816        2265.671          41.000                                                                  
R18  24419794.537   130354418.556       -1467.595          50.000    24419799.859   101386838.526       -1141.323          48.000  
R12  22064514.658   117864693.216        -399.210          52.000    22064516.912    91672556.534        -310.433          51.000  
R17  24752751.949   132456915.339       -4091.458          47.000    24752756.992   103022023.871       -3182.301          46.000  
E07  26040612.829   136844341.693        -980.620          48.000    26040618.542   104854768.779        -751.336          51.000  
E08  28341328.223   148934635.787       -2399.670          44.000    28341337.529   114118754.630       -1838.793          46.000  
E13  28759636.897   151132840.119       -3886.837          44.000    28759648.616   115803094.495       -2978.249          46.000  
E26  26795887.034   140813317.095       -2173.775          46.000    26795891.947   107895926.436       -1665.598          50.000  
G06  23892552.063   125556172.399       -2836.401          47.000    23892554.943    97835982.545       -2210.046          45.000  
G30  23631426.280   124184032.617        1635.909          48.000    23631428.423    96766817.838        1274.699          43.000  
E30  27884468.987   146533930.428         908.461          45.000    27884477.840   112279310.708         696.141          50.000  
E02  29095060.333   152895539.023       -1384.027          44.000    29095070.203   117153805.952       -1060.404          39.000  
> 2024 04 15 16 57 00.0070000  0 27                     
G03  26427234.073   138875905.410       -4028.795          44.000    26427249.439   108214987.997       -3139.189          40.000  
G04  25731260.179   135218561.466       -3153.573          35.000    25731264.665   105365091.269       -2457.177          38.000  
G09  23307226.592   122480286.804       -1742.490          47.000    23307228.593    95439179.189       -1357.717          47.000  
E27  29550630.383   155289667.739        2025.978          42.000    29550648.052   118988292.072        1552.453          47.000  
G11  24693535.561   129765405.219        -431.874          47.000    24693536.615   101115903.403        -336.588          46.000  
R13  23209501.440   123937563.710        2754.140          42.000    23209505.451    96395972.724        2142.151          41.000  
R02  22409437.564   119581046.790        -453.428          53.000    22409440.282    93007486.230        -352.639          49.000  
R11  25092477.358   134086534.467       -4329.307          50.000    25092482.224   104289516.271       -3367.398          47.000  
R03  24344210.383   130316545.514        1588.663          44.000    24344210.312   101357349.191        1235.685          44.000  
R01  24053127.317   128577704.698       -2635.846          42.000    24053135.936   100004873.510       -2049.869          39.000  
E33  28476565.925   149645314.574         273.053          41.000    28476571.706   114663359.453         209.275          46.000  
G07  22011739.961   115672482.512        -313.467          48.000    22011739.108    90134406.846        -244.206          46.000  
S31  41015792.580   215539433.838        -831.452          44.000  
S33  41965136.565   220528272.282        -830.405          42.000  
G16  27297824.996   143451069.722       -1949.302          31.000                                                                  
G20  25254659.310   132714173.910        2261.097          43.000                                                                  
R18  24428108.319   130398793.638       -1490.581          52.000    24428112.744   101421352.403       -1159.393          48.000  
R12  22066830.021   117877061.878        -425.171          51.000    22066832.536    91682176.592        -330.681          51.000  
R17  24775715.136   132579792.745       -4100.049          46.000    24775719.390   103117594.913       -3189.126          44.000  
E07  26046214.212   136873777.446        -981.605          48.000    26046220.270   104877323.426        -752.047          52.000  
E08  28355026.106   149006611.992       -2398.540          44.000    28355034.884   114173905.000       -1837.799          47.000  
E13  28781827.795   151249454.948       -3887.323          44.000    28781839.478   115892448.366       -2978.469          46.000  
E26  26808329.833   140878703.828       -2185.206          46.000    26808334.994   107946027.867       -1674.393          50.000  
G06  23908786.019   125641483.616       -2850.847          47.000    23908789.143    97902458.717       -2221.582          45.000  
G30  23622123.200   124135144.795        1623.402          47.000    23622125.721    96728723.509        1265.064          44.000  
E30  27879305.674   146506802.774         900.222          45.000    27879315.226   112258524.672         689.778          50.000  
E02  29102996.317   152937247.224       -1396.157          44.000    29103006.457   117185764.171       -1069.926          38.000  
> 2024 04 15 16 57 30.0070000  0 27                     
G03  26450250.067   138996853.915       -4034.917          42.000    26450265.665   108309232.971       -3143.790          41.000  
G04  25749262.838   135313168.036       -3153.822          35.000    25749270.125   105438810.510       -2457.669          39.000  
G09  23317185.706   122532617.781       -1746.704          48.000    23317186.859    95479956.503       -1361.088          47.000  
E27  29539058.217   155228853.618        2028.095          42.000    29539075.038   118941694.573        1553.994          48.000  
G11  24696053.786   129778637.154        -450.460          47.000    24696054.517   101126213.974        -350.984          46.000  
R13  23194066.322   123855138.885        2740.152          43.000    23194069.917    96331864.671        2131.377          41.000  
R02  22412002.169   119594732.533        -459.261          52.000    22412004.479    93018130.656        -357.155          50.000  
R11  25116820.391   134216619.629       -4343.191          49.000    25116826.208   104390693.399       -3378.147          46.000  
R03  24335302.246   130268866.680        1589.356          43.000    24335302.517   101320265.658        1236.382          44.000  
R01  24067939.187   128656873.029       -2642.379          45.000    24067946.679   100066448.670       -2055.121          40.000  
E33  28475044.991   149637314.361         260.208          41.000    28475049.047   114657229.414         199.225          45.000  
G07  22013584.952   115682175.831        -333.067          49.000    22013583.523    90141960.024        -259.393          45.000  
S31  41020536.114   215564362.108        -830.781          44.000  
S33  41969874.894   220553170.914        -829.710          42.000  
G16  27308992.431   143509745.312       -1962.857          33.000                                                                  
G20  25241765.880   132646419.152        2255.681          43.000                                                                  
R18  24436550.980   130443860.722       -1514.169          52.000    24436554.623   101456404.505       -1177.626          48.000  
R12  22069291.864   117890215.558        -451.989          52.000    22069293.974    91692407.231        -351.535          50.000  
R17  24798725.682   132702927.801       -4109.208          47.000    24798730.678   103213366.335       -3196.011          44.000  
E07  26051822.262   136903245.337        -983.171          47.000    26051827.850   104899902.692        -753.399          52.000  
E08  28368717.954   149078560.222       -2398.404          43.000    28368725.929   114229033.934       -1837.569          47.000  
E13  28804022.010   151366084.814       -3888.409          43.000    28804033.683   115981813.773       -2979.378          46.000  
E26  26820838.282   140944438.048       -2197.192          46.000    26820843.927   107996395.561       -1683.679          50.000  
G06  23925102.680   125727228.589       -2865.818          46.000    23925106.566    97969272.856       -2233.186          45.000  
G30  23612891.232   124086633.164        1610.217          47.000    23612894.898    96690922.321        1254.675          45.000  
E30  27874192.487   146479927.522         891.248          45.000    27874200.956   112237932.018         682.908          50.000  
E02  29111002.478   152979324.219       -1409.126          44.000    29111013.982   117218004.973       -1079.599          39.000  
> 2024 04 15 16 58 00.0070000  0 27                     
G03  26473300.726   139117987.079       -4040.540          43.000    26473316.235   108403621.854       -3148.420          41.000  
G04  25767265.991   135407787.158       -3154.206          35.000    25767276.089   105512539.427       -2457.383          37.000  
G09  23327168.839   122585080.226       -1750.708          48.000    23327170.568    95520836.269       -1364.081          48.000  
E27  29527475.511   155167984.353        2030.083          43.000    29527491.744   118895054.821        1555.561          47.000  
G11  24698679.045   129792432.770        -468.967          47.000    24698679.620   101136963.775        -365.517          46.000  
R13  23178711.275   123773144.502        2726.091          43.000    23178715.052    96268091.395        2120.332          41.000  
R02  22414601.127   119608601.891        -465.268          52.000    22414603.593    93028917.881        -361.862          49.000  
R11  25141243.791   134347125.461       -4357.127          49.000    25141248.814   104492197.765       -3388.632          46.000  
R03  24326391.554   130221172.528        1590.220          44.000    24326392.940   101283170.265        1236.997          45.000  
R01  24082785.766   128736244.267       -2648.800          42.000    24082794.852   100128181.631       -2060.439          39.000  
E33  28473596.887   149629710.773         247.135          40.000    28473602.100   114651403.262         189.339          45.000  
G07  22015542.462   115692462.423        -352.638          48.000    22015540.956    90149975.519        -274.761          45.000  
S31  41025277.326   215589277.436        -830.020          44.000  
S33  41974610.257   220578056.816        -829.261          42.000  
G16  27320238.332   143568851.316       -1977.405          34.000                                                                  
G20  25228904.987   132578835.683        2250.007          43.000                                                                  
R18  24445126.164   130489640.200       -1537.505          50.000    24445131.354   101492010.641       -1195.902          47.000  
R12  22071906.725   117904177.285        -478.707          53.000    22071907.804    91703266.331        -372.201          50.000  
R17  24821786.323   132826337.895       -4117.931          45.000    24821793.769   103309351.710       -3202.868          44.000  
E07  26057441.333   136932767.056        -984.603          48.000    26057445.570   104922523.195        -754.513          51.000  
E08  28382408.046   149150502.615       -2397.636          42.000    28382416.302   114284158.420       -1837.156          47.000  
E13  28826223.277   151482749.609       -3889.061          43.000    28826234.638   116071205.929       -2979.990          46.000  
E26  26833417.592   141010540.342       -2209.251          46.000    26833422.738   108047045.300       -1692.795          50.000  
G06  23941505.241   125813426.521       -2880.550          47.000    23941509.011    98036439.987       -2244.698          44.000  
G30  23603735.821   124038521.039        1597.333          47.000    23603738.958    96653432.399        1244.741          44.000  
E30  27869130.607   146453328.264         882.269          45.000    27869139.728   112217550.880         676.007          50.000  
E02  29119084.171   153021791.646       -1421.812          45.000    29119095.344   117250544.972       -1089.304          40.000  
> 2024 04 15 16 58 30.0070000  0 27                     
G03  26496385.339   139239292.192       -4046.247          44.000    26496400.113   108498144.687       -3153.002          40.000  
G04  25785272.444   135502407.381       -3153.412          37.000    25785280.265   105586269.256       -2458.020          34.000  
G09  23337174.601   122637662.726       -1754.629          47.000    23337176.670    95561809.588       -1367.252          48.000  
E27  29515879.900   155107050.603        2032.145          43.000    29515895.981   118848365.657        1557.186          47.000  
G11  24701409.077   129806780.816        -487.326          47.000    24701410.214   101148144.036        -379.957          46.000  
R13  23163435.167   123691573.557        2711.923          42.000    23163439.360    96204647.457        2109.108          42.000  
R02  22417232.372   119622644.903        -470.990          52.000    22417235.673    93039840.219        -366.246          50.000  
R11  25165742.049   134478036.155       -4370.225          48.000    25165747.307   104594017.021       -3399.133          46.000  
R03  24317477.415   130173452.425        1591.199          45.000    24317478.044   101246054.734        1237.630          46.000  
R01  24097669.780   128815807.761       -2655.282          43.000    24097677.578   100190064.159       -2065.412          41.000  
E33  28472222.112   149622493.423         234.254          39.000    28472228.850   114645873.059         179.482          45.000  
G07  22017610.222   115703330.658        -371.755          48.000    22017609.430    90158444.236        -289.594          46.000  
S31  41030013.971   215614168.411        -829.265          44.000  
S33  41979341.237   220602918.291        -828.132          42.000  
G16  27331566.259   143628375.029       -1991.175          35.000                                                                  
G20  25216074.610   132511415.269        2244.636          43.000                                                                  
R18  24453833.283   130536118.833       -1560.866          49.000    24453839.135   101528160.601       -1213.945          48.000  
R12  22074669.462   117918936.055        -505.152          52.000    22074671.084    91714745.355        -392.864          50.000  
R17  24844897.827   132950007.285       -4126.575          46.000    24844903.862   103405538.702       -3209.318          42.000  
E07  26063066.983   136962331.186        -986.039          48.000    26063071.302   104945176.201        -755.542          51.000  
E08  28396095.277   149222428.067       -2397.256          43.000    28396103.361   114339269.923       -1836.788          47.000  
E13  28848428.335   151599436.090       -3889.810          43.000    28848439.805   116160614.688       -2980.508          46.000  
E26  26846063.706   141076998.160       -2221.021          46.000    26846069.135   108097967.471       -1701.896          50.000  
G06  23957992.444   125900063.457       -2895.160          48.000    23957995.094    98103949.181       -2256.012          44.000  
G30  23594654.615   123990798.507        1584.376          47.000    23594657.689    96616246.090        1234.664          45.000  
E30  27864119.304   146426995.493         873.393          45.000    27864128.761   112197373.936         669.192          51.000  
E02  29127237.826   153064638.022       -1434.566          45.000    29127249.667   117283375.305       -1099.173          42.000  
> 2024 04 15 16 59 00.0070000  0 27                     
G03  26519502.612   139360774.766       -4052.626          42.000    26519518.730   108592805.793       -3157.979          40.000  
G04  25803280.183   135597035.501       -3154.236          39.000    25803287.266   105660005.095       -2457.751          32.000  
G09  23347205.079   122690371.983       -1759.265          47.000    23347206.672    95602881.661       -1370.783          48.000  
E27  29504273.678   155046061.148        2033.650          43.000    29504289.805   118801633.809        1558.441          47.000  
G11  24704245.442   129821688.164        -506.384          46.000    24704247.459   101159760.128        -394.668          46.000  
R13  23148240.696   123610437.262        2697.321          42.000    23148245.765    96141541.554        2097.803          42.000  
R02  22419898.673   119636869.855        -477.328          52.000    22419901.198    93050904.075        -371.279          51.000  
R11  25190317.150   134609355.041       -4384.319          48.000    25190322.336   104696153.726       -3409.827          47.000  
R03  24308558.449   130125713.561        1591.367          46.000    24308560.482   101208924.609        1237.809          46.000  
R01  24112592.624   128895571.005       -2662.417          43.000    24112600.157   100252101.981       -2070.541          41.000  
E33  28470924.880   149615670.046         220.729          40.000    28470930.651   114640644.735         169.214          45.000  
G07  22019790.539   115714786.741        -391.846          48.000    22019788.963    90167371.062        -305.227          45.000  
S31  41034747.547   215639042.379        -829.172          44.000  
S33  41984068.902   220627762.753        -827.846          42.000  
G16  27342973.981   143688323.277       -2005.811          34.000                                                                  
G20  25203277.661   132444166.909        2238.794          43.000                                                                  
R18  24462672.746   130583301.447       -1584.579          50.000    24462678.414   101564858.122       -1232.398          49.000  
R12  22077582.387   117934499.435        -532.375          52.000    22077584.543    91726850.195        -414.024          51.000  
R17  24868059.275   133073937.775       -4135.447          46.000    24868063.575   103501928.787       -3216.632          43.000  
E07  26068701.728   136991944.393        -988.028          48.000    26068706.431   104967866.814        -756.903          51.000  
E08  28409779.355   149294343.677       -2397.134          41.000    28409788.225   114394373.876       -1836.662          46.000  
E13  28870637.806   151716149.032       -3890.917          43.000    28870650.272   116250043.748       -2981.420          47.000  
E26  26858779.406   141143817.049       -2233.479          46.000    26858784.778   108149166.272       -1711.306          50.000  
G06  23974563.068   125987143.482       -2910.057          48.000    23974567.015    98171803.635       -2267.580          44.000  
G30  23585649.214   123943473.823        1570.795          48.000    23585651.991    96579369.791        1223.827          44.000  
E30  27859160.364   146400937.845         863.804          45.000    27859170.187   112177407.779         661.936          50.000  
E02  29135464.635   153107869.896       -1447.596          45.000    29135476.853   117316501.025       -1109.277          43.000  
> 2024 04 15 16 59 30.0080000  0 27                     
G03  26542653.702   139482434.317       -4058.051          41.000    26542669.504   108687604.768       -3161.456          39.000  
G04  25821290.208   135691671.487       -3154.338          40.000    25821295.348                       -2456.897          31.000  
G09  23357258.695   122743206.462       -1763.373          48.000    23357261.041    95644051.323       -1373.981          48.000  
E27  29492655.770   154985012.696        2035.669          43.000    29492672.294   118754856.761        1559.873          47.000  
G11  24707188.212   129837152.109        -524.641          45.000    24707190.191   101171809.895        -408.927          47.000  
R13  23133126.872   123529733.463        2682.697          42.000    23133131.482    96078772.052        2086.432          41.000  
R02  22422597.925   119651275.358        -483.125          52.000    22422600.680    93062108.309        -375.910          50.000  
R11  25214967.836   134741079.298       -4397.346          48.000    25214972.393   104798605.730       -3420.115          46.000  
R03  24299638.570   130077952.383        1592.271          47.000    24299638.977   101171777.037        1238.549          47.000  
R01  24127552.657   128975534.322       -2668.715          43.000    24127559.829   100314295.431       -2075.554          42.000  
E33  28469701.484   149609238.050         207.926          41.000    28469707.114   114635716.321         159.302          46.000  
G07  22022082.597   115726827.697        -411.169          49.000    22022079.671    90176753.627        -320.408          45.000  
S31  41039477.020   215663897.075        -828.210          43.000  
S33  41988793.163   220652586.632        -826.928          42.000  
G16  27354461.482   143748694.052       -2019.380          34.000                                                                  
G20  25190513.180   132377087.303        2233.228          43.000                                                                  
R18  24471642.926   130631184.578       -1607.658          50.000    24471648.441   101602100.484       -1250.425          49.000  
R12  22080646.124   117950865.303        -558.900          52.000    22080648.226    91739579.170        -434.768          50.000  
R17  24891267.505   133198126.063       -4143.608          46.000    24891271.707   103598519.368       -3222.944          41.000  
E07  26074345.374   137021604.345        -989.582          47.000    26074350.625   104990593.255        -758.165          51.000  
E08  28423463.446   149366248.825       -2396.558          41.000    28423471.420   114449469.856       -1836.310          46.000  
E13  28892852.571   151832887.138       -3891.532          42.000    28892865.588   116339492.079       -2981.732          47.000  
E26  26871563.353   141210994.685       -2245.112          46.000    26871568.165   108200639.954       -1720.404          50.000  
G06  23991217.733   126074663.622       -2924.518          47.000    23991221.955    98240001.058       -2279.023          45.000  
G30  23576719.266   123896543.547        1557.656          49.000    23576721.191    96542800.815        1213.866          44.000  
E30  27854254.422   146375152.941         854.818          45.000    27854263.425   112157650.619         655.057          50.000  
E02  29143764.773   153151485.302       -1460.172          44.000    29143776.124   117349920.586       -1118.915          43.000  
