     3.00           OBSERVATION DATA    M: Mixed            RINEX VERSION / TYPE
CONVBIN 2.4.3                           20240415 184442 UTC PGM / RUN BY / DATE 
format: u-blox UBX                                          COMMENT             
log: /home/regis/git/gnsspwv/obsdata/VERT00CHL/2024-04-15/VECOMMENT             
{self.marker}                                               MARKER NAME         
                                                            MARKER NUMBER       
GEODETIC                                                    MARKER TYPE         
{self.observer}     {self.institution}                      OBSERVER / AGENCY   
UNKNOWN             UBLOX-ZED-F9P                           REC # / TYPE / VERS 
UNKNOWN             TWIVSP6037L                             ANT # / TYPE        
  1713381.0000 -5047934.0000 -3490983.0000                  APPROX POSITION XYZ 
        0.0000        0.0000        0.0000                  ANTENNA: DELTA H/E/N
G    8 C1C L1C D1C S1C C2L L2L D2L S2L                      SYS / # / OBS TYPES 
R    8 C1C L1C D1C S1C C2C L2C D2C S2C                      SYS / # / OBS TYPES 
E    8 C1C L1C D1C S1C C7Q L7Q D7Q S7Q                      SYS / # / OBS TYPES 
S    4 C1C L1C D1C S1C                                      SYS / # / OBS TYPES 
  2024    04    15    18    30   00.4890000     GPS         TIME OF FIRST OBS   
  2024    04    15    18    44   30.4900000     GPS         TIME OF LAST OBS    
                                                            END OF HEADER       
> 2024 04 15 18 30 00.4890000  0 25                     
G05  19742462.125   103747311.3001       2002.509          44.000    19742465.529    80842055.0481       1560.660          41.000  
G09  19340558.419   101635225.2431      -2689.202          46.000    19340562.335    79196254.6341      -2095.527          41.000  
E27  21349108.593   112190484.8331       1189.171          46.000    21349118.112    85964272.1471        911.122          52.000  
G11  20525523.812   107862254.3541      -3190.924          37.000    20525533.338    84048486.6271      -2486.542          39.000  
R13  16094666.955    85944775.0211      -1526.149          41.000    16094668.392    66846033.9001      -1187.254          40.000  
R02  17495247.924    93357938.1271      -2446.747          52.000    17495252.700    72611722.1091      -1902.893          48.000  
R04  19672734.662   105346601.1781       2583.677          35.000    19672691.855                3       2009.546          22.000  
R03  16624692.333    88993404.4321        781.546          52.000    16624691.923    69217135.6651        607.857          49.000  
E33  23271017.076   122289913.4411      -2239.500          43.000    23271025.755    93702713.5521      -1715.900          48.000  
G07  17778704.317    93427696.1511      -3201.033          48.000    17778705.085    72800799.1891      -2494.435          46.000  
S31  35592807.649   187041409.5721       -814.313          44.000  
S33  36541427.140   192026437.1501       -813.950          42.000  
G14  18380836.357    96592109.9761       1944.767          47.000    18380842.028    75266687.9851       1515.331          48.000  
G20  17642046.031    92709643.7021       -203.363          48.000                                                                  
R12  18602011.754    99368575.1121      -4459.104          50.000    18602015.129    77286675.6991      -3468.215          49.000  
R14  17952655.989    95697911.1851       2733.528          54.000    17952663.512    74431863.6791       2126.088          50.000  
E07  21011486.426   110416074.9401      -1444.679          48.000    21011494.679    84604529.9521      -1106.810          51.000  
E08  24681106.388   129699872.6711      -2613.281          39.000    24681126.112    99380385.8651      -2002.154          43.000  
G13  20392766.865   107164724.6391       1460.199          44.000                                                                  
E26  23727584.160   124689265.1361      -3485.246          39.000    23727600.288    95540979.7541      -2670.472          40.000  
G06  21537525.397                       -3924.189          25.000    21537548.925                       -3057.738          27.000  
G22  20473841.770   107590880.3531       2826.514          45.000                                                                  
G30  17075479.404    89732308.0451      -1131.010          50.000    17075481.528    69921320.9591       -881.341          46.000  
E21  24632097.527   129442571.8351       2283.312          40.000    24632121.902    99183369.8141       1749.504          42.000  
E30  21820884.701   114669605.6851      -1480.429          45.000    21820893.304    87863795.3851      -1134.353          51.000  
> 2024 04 15 18 30 30.4890000  0 25                     
G05  19731058.570   103687382.694        1992.593          45.000    19731061.017    80795357.482        1552.512          41.000  
G09  19355926.619   101715983.453       -2694.803          45.000    19355931.849    79259182.903       -2099.748          43.000  
E27  21342348.479   112154961.122        1179.182          46.000    21342358.312    85937052.766         903.558          53.000  
G11  20543759.295   107958085.302       -3197.241          36.000    20543770.087    84123159.885       -2491.852          38.000  
R13  16103308.723    85990921.983       -1550.610          42.000    16103309.295    66881925.968       -1205.798          39.000  
R02  17509042.064    93431548.010       -2460.632          51.000    17509046.802    72668974.090       -1913.782          47.000  
R04  19658258.800   105269066.599        2585.885          35.000    19658240.401                1       2011.210          28.000  
R03  16620343.339    88970121.998         770.573          52.000    16620342.388    69199027.111         599.329          49.000  
E33  23283830.660   122357250.970       -2249.666          42.000    23283839.363    93754309.673       -1723.896          47.000  
G07  17797003.557    93523855.265       -3209.668          49.000    17797003.650    72875728.282       -2501.007          46.000  
S31  35597454.081   187065827.091        -813.687          44.000  
S33  36546071.432   192050844.034        -813.407          41.000  
G14  18369767.655    96533946.130        1932.847          47.000    18369773.678    75221365.663        1506.083          48.000  
G20  17643260.088    92716023.546        -221.906          47.000                                                                  
R12  18627084.929    99502510.806       -4469.876          50.000    18627087.866    77390847.796       -3476.679          48.000  
R14  17937311.834    95616119.616        2719.224          53.000    17937319.117    74368248.176        2114.925          49.000  
E07  21019743.275   110459462.922       -1447.895          48.000    21019751.087    84637775.247       -1109.417          51.000  
E08  24696029.251   129778293.218       -2614.649          39.000    24696049.451    99440474.074       -2003.567          44.000  
G13  20384428.700   107120906.077        1460.800          45.000                                                                  
E26  23747481.166   124793828.665       -3485.729          39.000    23747498.142    95621099.369       -2670.460          39.000  
G22  20457709.374   107506104.901        2824.945          45.000                                                                  
G30  17081972.154    89766428.841       -1143.650          50.000    17081974.586    69947908.583        -891.297          46.000  
E21  24619058.804   129374054.227        2284.395          40.000    24619082.849    99130869.951        1750.274          43.000  
E30  21829375.219   114714215.154       -1493.627          46.000    21829382.230    87897976.657       -1144.378          51.000  
G06                                                                  21559966.238                3      -3053.833          23.000  
> 2024 04 15 18 31 00.4890000  0 25                     
G05  19719710.222   103627748.546        1982.532          45.000    19719712.187    80748889.354        1544.639          40.000  
G09  19371326.032   101796906.095       -2700.256          46.000    19371330.794    79322239.320       -2103.982          42.000  
E27  21335645.077   112119731.185        1169.110          46.000    21335654.307    85910058.507         895.837          53.000  
G11  20562034.025   108054115.157       -3204.529          36.000    20562043.615    84197987.940       -2496.936          38.000  
R13  16112087.741    86037796.336       -1574.709          43.000    16112087.307    66918383.789       -1224.788          40.000  
R02  17522913.239    93505569.323       -2474.396          51.000    17522919.042    72726546.063       -1924.579          47.000  
R04  19643760.968   105191416.7661       2587.061          34.000    19643758.998    81815502.6101       2012.157          35.000  
R03  16616054.780    88947164.579         759.586          52.000    16616054.350    69181171.337         590.863          50.000  
E33  23296701.352   122424895.058       -2260.059          42.000    23296711.675    93806140.697       -1731.885          46.000  
G07  17815348.564    93620261.328       -3217.774          48.000    17815349.356    72950849.771       -2507.349          46.000  
S31  35602097.384   187090227.513        -813.170          44.000  
S33  36550713.198   192075234.023        -813.195          42.000  
G14  18358766.332    96476132.779        1921.062          47.000    18358771.745    75176316.417        1496.790          48.000  
G20  17644580.308    92722958.174        -240.723          48.000                                                                  
R12  18652216.505    99636761.337       -4480.543          50.000    18652220.513    77495264.728       -3484.924          48.000  
R14  17922046.801    95534754.745        2704.762          53.000    17922054.940    74304964.542        2103.690          50.000  
E07  21028018.732   110502947.426       -1451.471          48.000    21028025.799    84671094.494       -1112.100          51.000  
E08  24710962.966   129856770.243       -2617.266          38.000    24710983.372    99500605.494       -2005.262          44.000  
G13  20376085.796   107077064.502        1461.554          45.000                                                                  
E26  23767378.894   124898390.973       -3485.862          38.000    23767395.999    95701218.100       -2670.958          41.000  
G22  20441586.054   107421376.992        2823.206          45.000                                                                  
G30  17088536.497    89800925.624       -1156.417          49.000    17088538.797    69974789.186        -901.051          46.000  
E21  24606012.955   129305504.610        2285.294          39.000    24606037.556    99078345.530        1751.001          44.000  
E30  21837937.424   114759217.963       -1506.828          45.000    21837946.070    87932459.315       -1154.574          51.000  
G06                                                                  21582329.707                3      -3042.562          21.000  
> 2024 04 15 18 31 30.4890000  0 25                     
G05  19708419.453   103568417.288        1972.473          44.000    19708421.548    80702657.232        1537.094          40.000  
G09  19386757.265   101877999.543       -2706.054          45.000    19386762.351    79385428.881       -2108.607          43.000  
E27  21328997.275   112084802.604        1158.998          46.000    21329007.634    85883295.160         888.111          53.000  
G11  20580346.780   108150346.518       -3211.407          38.000    20580355.499    84272973.137       -2501.886          37.000  
R13  16121002.842    86085401.992       -1599.223          42.000    16121003.593    66955410.414       -1243.689          41.000  
R02  17536864.117    93580008.684       -2488.452          52.000    17536869.537    72784443.174       -1935.498          47.000  
R04  19629261.454   105113761.138        2589.344          37.000    19629258.338    81755103.815        2014.312          34.000  
R03  16611829.220    88924541.264         748.276          53.000    16611828.073    69163575.421         581.985          50.000  
E33  23309632.342   122492850.123       -2270.468          41.000    23309643.027    93858209.940       -1739.746          46.000  
G07  17833741.855    93716918.194       -3226.218          48.000    17833742.318    73026166.753       -2513.905          46.000  
S31  35606739.049   187114617.819        -813.050          44.000  
S33  36555352.488   192099613.407        -812.785          42.000  
G14  18347833.518    96418678.771        1908.909          47.000    18347838.109    75131547.179        1487.544          48.000  
G20  17646006.949    92730454.571        -259.399          48.000                                                                  
R12  18677408.065    99771329.044       -4491.016          49.000    18677412.281    77599928.348       -3492.948          49.000  
R14  17906864.676    95453825.947        2690.128          53.000    17906872.164    74242020.080        2092.360          49.000  
E07  21036313.154   110546535.062       -1454.771          48.000    21036319.965    84704492.766       -1114.758          50.000  
E08  24725908.255   129935309.956       -2619.330          38.000    24725929.147    99560784.977       -2006.944          44.000  
G13  20367739.757   107033206.230        1461.821          45.000                                                                  
E26  23787277.607   125002956.022       -3485.588          38.000    23787294.671    95781338.876       -2670.929          42.000  
G22  20425474.070   107336705.486        2821.197          45.000                                                                  
G30  17095173.648    89835803.085       -1169.149          50.000    17095175.426    70001966.433        -910.994          45.000  
E21  24592963.883   129236930.612        2286.135          39.000    24592988.106    99025802.458        1751.531          43.000  
E30  21846576.643   114804619.534       -1520.125          45.000    21846585.729    87967247.525       -1164.846          51.000  
G06                                                                  21604636.604                3      -3049.260          20.000  
> 2024 04 15 18 32 00.4890000  0 25                     
G05  19697186.962   103509390.818        1962.270          45.000    19697189.310    80656662.587        1528.928          40.000  
G09  19402221.160   101959263.014       -2711.866          46.000    19402227.179    79448750.877       -2113.024          43.000  
E27  21322408.931   112050175.828        1149.093          47.000    21322418.318    85856763.070         880.483          53.000  
G11  20598697.805   108246775.479       -3217.487          36.000    20598703.808    84348112.296       -2507.227          34.000  
R13  16130053.826    86133736.049       -1623.644          42.000    16130055.890    66993003.592       -1262.643          42.000  
R02  17550893.137    93654865.598       -2502.338          53.000    17550897.134    72842665.101       -1946.289          47.000  
R04  19614751.390   105036049.738        2591.166          40.000    19614748.836    81694661.726        2015.230          37.000  
R03  16607665.285    88902253.358         737.205          53.000    16607664.449    69146240.378         573.427          50.000  
E33  23322621.834   122561113.361       -2280.725          40.000    23322633.782    93910515.340       -1747.582          47.000  
G07  17852181.127    93813822.679       -3234.485          46.000    17852182.817    73101676.664       -2520.297          47.000  
S31  35611377.930   187138995.804        -812.470          44.000  
S33  36559989.956   192123982.654        -811.930          42.000  
G14  18336969.468    96361585.912        1896.954          48.000    18336974.086    75087059.393        1478.137          48.000  
G20  17647540.374    92738512.542        -278.064          48.000                                                                  
R12  18702657.503    99906208.685       -4501.296          48.000    18702662.485    77704834.585       -3501.086          49.000  
R14  17891765.797    95373335.215        2675.622          54.000    17891772.352    74179416.322        2081.001          49.000  
E07  21044627.412   110590225.379       -1458.110          48.000    21044633.815    84737969.711       -1117.281          50.000  
E08  24740865.898   130013911.706       -2621.300          40.000    24740887.320    99621012.033       -2008.441          45.000  
G13  20359389.816   106989330.213        1462.576          45.000                                                                  
E26  23807179.918   125107520.699       -3485.490          40.000    23807193.365    95861459.346       -2670.851          42.000  
G22  20409371.896   107252091.906        2819.257          44.000                                                                  
G30  17101883.088    89871058.866       -1181.693          49.000    17101884.285    70029438.452        -920.760          45.000  
E21  24579909.281   129168333.004        2286.920          40.000    24579933.920    98973241.240        1752.350          44.000  
E30  21855292.097   114850418.259       -1533.242          44.000    21855300.802    88002340.034       -1174.858          51.000  
G06                                                                  21626936.579                3      -3038.650          18.000  
> 2024 04 15 18 32 30.4890000  0 24                     
G05  19686012.460   103450669.139        1952.030          45.000    19686015.145    80610905.448        1521.182          40.000  
G09  19417717.600   102040693.941       -2717.314          47.000    19417723.239    79512203.392       -2117.424          43.000  
E27  21315876.434   112015849.592        1139.056          47.000    21315886.014    85830461.250         872.744          53.000  
G11  20617083.165   108343396.039       -3224.280          37.000    20617089.265    84423400.711       -2512.000          34.000  
R13  16139240.991    86182793.728       -1647.322          42.000    16139243.426    67031159.569       -1281.468          43.000  
R02  17564998.070    93730137.266       -2516.187          51.000    17565002.125    72901209.540       -1957.049          46.000  
R04  19600226.630   104958281.769        2593.036          42.000    19600227.684    81634175.556        2016.904          40.000  
R03  16603564.182    88880301.623         725.937          52.000    16603563.313    69129166.788         564.624          50.000  
E33  23335669.704   122629680.301       -2290.772          41.000    23335681.834    93963053.435       -1755.391          47.000  
G07  17870667.786    93910969.521       -3242.472          46.000    17870669.245    73177375.385       -2526.545          47.000  
S31  35616013.915   187163359.437        -812.159          44.000  
S33  36564623.518   192148335.371        -811.584          42.000  
G14  18326173.555    96304854.219        1884.792          48.000    18326177.650    75042853.014        1468.801          47.000  
G20  17649179.294    92747130.147        -296.771          46.000                                                                  
R12  18727964.809   100041393.561       -4511.340          49.000    18727969.453    77809978.213       -3508.845          49.000  
R14  17876747.791    95293282.702        2660.867          53.000    17876754.348    74117153.430        2069.539          48.000  
E07  21052959.421   110634016.194       -1461.619          48.000    21052967.252    84771523.651       -1119.990          50.000  
E08  24755836.250   130092573.053       -2623.134          42.000    24755856.089    99681284.771       -2010.150          44.000  
G13  20351036.397   106945434.000        1463.349          45.000                                                                  
E26  23827074.274   125212080.034       -3485.449          37.000    23827090.278    95941575.735       -2670.625          42.000  
G22  20393281.494   107167536.535        2817.273          44.000                                                                  
G30  17108662.706    89906688.758       -1193.913          49.000    17108664.288    70057201.998        -930.439          45.000  
E21  24566850.812   129099710.726        2287.531          40.000    24566875.165    98920661.130        1752.833          45.000  
E30  21864082.598   114896610.629       -1546.519          45.000    21864090.938    88037734.177       -1185.034          51.000  
> 2024 04 15 18 33 00.4890000  0 24                     
G05  19674897.066   103392258.404        1941.731          45.000    19674900.044    80565390.628        1513.115          41.000  
G09  19433246.505   102122296.635       -2723.051          47.000    19433251.878    79575789.685       -2121.906          43.000  
E27  21309402.007   111981829.297        1128.875          47.000    21309412.132    85804393.863         864.987          53.000  
G11  20635506.925   108440209.058       -3230.310          36.000    20635512.631    84498839.059       -2517.151          36.000  
R13  16148563.524    86232577.057       -1671.616          41.000    16148566.297    67069879.907       -1300.209          43.000  
R02  17579181.865    93805828.373       -2530.103          51.000    17579186.296    72960080.219       -1967.932          46.000  
R04  19585693.730   104880463.113        2594.825          44.000    19585695.355    81573650.020        2018.014          37.000  
R03  16599527.256    88858692.093         714.556          52.000    16599526.657    69112359.365         555.699          50.000  
E33  23348778.016   122698553.195       -2300.821          43.000    23348788.094    94015825.932       -1763.022          48.000  
G07  17889201.412    94008360.523       -3250.284          47.000    17889202.451    73253264.395       -2532.764          46.000  
S31  35620648.656   187187712.056        -811.762          44.000  
S33  36569256.322   192172678.618        -811.404          42.000  
G14  18315447.049    96248490.442        1872.552          47.000    18315451.690    74998933.329        1459.194          47.000  
G20  17650926.667    92756311.474        -315.521          47.000                                                                  
R12  18753328.819   100176883.448       -4521.287          49.000    18753333.536    77915359.123       -3516.651          48.000  
R14  17861813.213    95213675.394        2646.087          53.000    17861818.113    74055236.807        2058.010          47.000  
E07  21061313.349   110677912.024       -1464.775          48.000    21061320.616    84805158.048       -1122.342          50.000  
E08  24770817.271   130171298.298       -2625.164          42.000    24770836.637    99741606.444       -2011.518          43.000  
G13  20342680.108   106901521.635        1463.883          44.000                                                                  
E26  23846971.002   125316635.907       -3485.105          36.000    23846987.877    96021689.451       -2670.534          44.000  
G22  20377204.069   107083046.173        2815.189          45.000                                                                  
G30  17115514.312    89942695.344       -1206.466          49.000    17115516.423    70085259.079        -940.126          45.000  
E21  24553788.389   129031069.386        2288.396          41.000    24553812.105    98868066.448        1753.345          45.000  
E30  21872946.568   114943199.915       -1559.512          44.000    21872956.250    88073432.470       -1194.973          51.000  
> 2024 04 15 18 33 30.4890000  0 24                     
G05  19663840.560   103334155.896        1931.116          45.000    19663843.002    80520115.992        1504.757          40.000  
G09  19448806.395   102204065.694       -2728.851          47.000    19448811.999    79639505.647       -2126.372          43.000  
E27  21302986.307   111948110.897        1118.514          47.000    21302995.786    85778557.787         856.978          53.000  
G11  20653965.587   108537206.058       -3236.768          36.000    20653973.194    84574420.695       -2521.912          35.000  
R13  16158020.122    86283078.086       -1695.998          40.000    16158023.135    67109158.446       -1318.803          43.000  
R02  17593443.969    93881933.510       -2544.116          51.000    17593449.944    73019272.961       -1978.918          46.000  
R04  19571150.156   104802589.952        2596.120          42.000    19571154.077    81513082.073        2019.216          38.000  
R03  16595554.315    88837421.440         702.849          52.000    16595553.508    69095815.521         546.663          50.000  
E33  23361941.027   122767724.748       -2311.234          43.000    23361951.080    94068827.273       -1770.822          48.000  
G07  17907779.978    94105987.872       -3258.745          46.000    17907780.969    73329337.521       -2539.097          47.000  
S31  35625279.676   187212048.885        -811.425          44.000  
S33  36573885.786   192197006.150        -811.292          42.000  
G14  18304791.132    96192491.849        1859.977          48.000    18304795.932    74955298.161        1449.416          48.000  
G20  17652780.758    92766052.150        -334.424          47.000                                                                  
R12  18778748.037   100312668.856       -4531.492          50.000    18778752.977    78020969.846       -3524.549          48.000  
R14  17846961.250    95134511.249        2630.858          52.000    17846967.544    73993664.849        2046.209          47.000  
E07  21069685.709   110721907.923       -1468.700          48.000    21069692.647    84838869.123       -1125.268          50.000  
E08  24785809.154   130250082.125       -2627.524          42.000    24785828.873    99801973.027       -2013.317          44.000  
G13  20334319.292   106857587.484        1464.255          44.000                                                                  
E26  23866866.675   125421180.652       -3484.987          36.000    23866882.460    96101794.578       -2670.406          44.000  
G22  20361137.736   106998617.509        2812.742          46.000                                                                  
G30  17122437.002    89979071.680       -1219.068          49.000    17122439.207    70113604.249        -949.946          46.000  
E21  24540721.282   128962405.152        2288.894          40.000    24540745.526    98815454.200        1753.635          45.000  
E30  21881887.058   114990179.962       -1572.901          44.000    21881896.239    88109430.154       -1205.215          51.000  
> 2024 04 15 18 34 00.4890000  0 24                     
G05  19652845.249   103276370.770        1920.922          46.000    19652847.081    80475088.617        1496.767          41.000  
G09  19464399.752   102286008.054       -2734.254          47.000    19464405.799    79703356.615       -2130.806          43.000  
E27  21296628.629   111914702.467        1108.388          46.000    21296638.175    85752959.221         849.270          53.000  
G11  20672460.046   108634390.359       -3242.474          37.000    20672466.405    84650148.373       -2526.306          36.000  
R13  16167612.527    86334301.629       -1719.369          41.000    16167614.952    67148998.990       -1337.312          42.000  
R02  17607786.198    93958459.978       -2557.825          52.000    17607790.741    73078793.406       -1989.508          46.000  
R04  19556598.216   104724670.779        2598.271          42.000    19556603.539    81452478.356        2020.836          39.000  
R03  16591646.164    88816500.293         691.663          53.000    16591644.896    69079543.496         537.838          50.000  
E33  23375161.044   122837199.888       -2320.946          41.000    23375171.973    94122061.228       -1778.380          48.000  
G07  17926403.359    94203855.509       -3266.198          46.000    17926404.529    73405597.935       -2545.072          47.000  
S31  35629909.324   187236376.382        -810.745          44.000  
S33  36578512.982   192221323.533        -810.061          41.000  
G14  18294206.298    96136867.808        1847.942          47.000    18294210.327    74911954.879        1439.897          47.000  
G20  17654741.709    92776359.643        -353.040          46.000                                                                  
R12  18804223.826   100448752.318       -4541.060          51.000    18804228.139    78126812.398       -3531.910          48.000  
R14  17832193.832    95055799.436        2616.210          51.000    17832201.324    73932444.714        2034.842          47.000  
E07  21078077.559   110766011.042       -1471.766          48.000    21078085.504    84872662.368       -1127.801          50.000  
E08  24800813.681   130328931.533       -2629.360          42.000    24800833.935    99862389.829       -2014.756          45.000  
G13  20325955.963   106813638.522        1465.246          44.000                                                                  
E26  23886759.994   125525718.628       -3484.357          37.000    23886776.409    96181894.603       -2669.701          45.000  
G22  20345084.525   106914260.461        2810.637          46.000                                                                  
G30  17129431.245    90015823.013       -1231.306          49.000    17129433.049    70142241.598        -959.425          46.000  
E21  24527651.032   128893726.408        2289.455          40.000    24527676.014    98762830.792        1754.291          46.000  
E30  21890903.212   115037556.673       -1585.724          44.000    21890912.036    88145731.785       -1215.143          51.000  
> 2024 04 15 18 34 30.4890000  0 24                     
G05  19641908.986   103218899.690        1910.307          46.000    19641910.400    80430305.999        1488.163          41.000  
G09  19480024.730   102368118.187       -2739.965          47.000    19480029.802    79767338.341       -2134.778          41.000  
E27  21290328.595   111881599.623        1098.181          45.000    21290338.518    85727594.821         841.404          53.000  
G11  20690986.143                       -3246.945          35.000    20690994.556    84726015.192       -2531.655          35.000  
R13  16177340.051    86386239.619       -1743.097          42.000    16177340.710    67189395.218       -1355.981          42.000  
R02  17622205.138    94035401.722       -2571.857          52.000    17622208.955    73138636.824       -2000.275          46.000  
R04  19542037.382   104646701.906        2599.676          42.000    19542043.075    81391835.974        2022.024          36.000  
R03  16587802.543    88795924.976         679.886          53.000    16587801.164    69063540.449         528.769          50.000  
E33  23388440.285   122906971.066       -2330.717          43.000    23388449.330    94175522.054       -1785.932          48.000  
G07  17945071.092    94301955.566       -3274.052          46.000    17945072.060    73482039.445       -2551.241          47.000  
S31  35634535.392   187260687.907        -810.125          44.000  
S33  36583137.868   192245626.874        -809.838          42.000  
G14  18283692.062    96081615.319        1835.299          47.000    18283695.442    74868901.090        1430.071          47.000  
G20  17656809.380    92787228.813        -371.936          45.000                                                                  
R12  18829753.032   100585124.007       -4550.690          52.000    18829757.572    78232879.126       -3539.325          48.000  
R14  17817511.038    94977537.477        2601.072          51.000    17817518.976    73871574.478        2022.869          47.000  
E07  21086490.088   110810216.229       -1475.387          48.000    21086497.495    84906533.804       -1130.482          51.000  
E08  24815829.887   130407840.971       -2631.290          42.000    24815849.977    99922852.637       -2016.471          45.000  
G13  20317589.330   106769668.933        1465.758          44.000                                                                  
E26  23906649.686   125630242.133       -3484.084          36.000    23906667.528    96261983.490       -2669.452          45.000  
G22  20329044.749   106829971.896        2808.330          46.000                                                                  
G30  17136494.343    90052942.139       -1243.599          49.000    17136496.530    70171165.581        -968.989          46.000  
E21  24514578.352   128825028.964        2290.071          41.000    24514602.828    98710193.105        1754.703          46.000  
E30  21899994.602   115085323.618       -1598.719          45.000    21900001.903    88182332.389       -1225.034          51.000  
> 2024 04 15 18 35 00.4890000  0 24                     
G05  19631034.337   103161752.705        1899.586          46.000    19631036.106    80385775.882        1480.124          41.000  
G09  19495683.927   102450403.201       -2745.822          47.000    19495689.024    79831456.342       -2139.596          42.000  
E27  21284088.926   111848810.783        1087.789          45.000    21284098.987    85702471.004         833.428          53.000  
G11  20709546.347                1      -3255.372          33.000    20709558.132    84802024.008       -2535.881          37.000  
R13  16187200.991    86438896.988       -1767.090          42.000    16187201.180    67230350.932       -1374.467          41.000  
R02  17636703.610    94112766.541       -2585.889          52.000    17636707.862    73198809.277       -2011.243          46.000  
R04  19527468.240   104568692.401        2600.784          42.000    19527474.845    81331162.029        2023.661          35.000  
R03  16584025.614    88775705.340         668.054          52.000    16584023.781    69047814.056         519.491          50.000  
E33  23401773.900   122977043.452       -2340.592          43.000    23401784.087    94229213.674       -1793.447          49.000  
G07  17963784.357    94400292.736       -3281.834          47.000    17963785.269    73558665.716       -2557.272          47.000  
S31  35639160.459   187284991.569        -810.045          44.000  
S33  36587760.851   192269920.751        -809.652          42.000  
G14  18273249.937    96026744.037        1822.686          47.000    18273253.574    74826144.379        1420.397          47.000  
G20  17658987.143    92798667.030        -390.857          46.000                                                                  
R12  18855335.469   100721786.937       -4560.376          51.000    18855341.128    78339172.399       -3546.797          48.000  
R14  17802916.271    94899734.947        2585.709          52.000    17802924.586    73811061.558        2011.198          49.000  
E07  21094922.196   110854530.991       -1478.934          48.000    21094930.393    84940489.218       -1133.209          51.000  
E08  24830859.065   130486817.740       -2633.830          42.000    24830879.231    99983367.005       -2018.093          45.000  
G13  20309219.566   106725685.843        1466.296          44.000                                                                  
E26  23926538.447   125734755.864       -3483.626          38.000    23926556.317    96342064.911       -2669.280          45.000  
G22  20313019.528   106745761.619        2805.768          45.000                                                                  
G30  17143628.524    90090434.603       -1255.890          49.000    17143630.619    70200380.487        -978.521          45.000  
E21  24501503.949   128756321.588        2290.320          42.000    24501527.447    98657547.735        1755.071          46.000  
E30  21909159.875   115133486.971       -1612.052          45.000    21909166.925    88219236.741       -1235.213          51.000  
> 2024 04 15 18 35 30.4900000  0 24                     
G05  19620221.897   103104932.638        1888.622          46.000    19620223.820    80341500.543        1471.326          41.000  
G09  19511375.841   102532868.528       -2751.776          47.000    19511381.953    79895714.766       -2144.346          42.000  
E27  21277909.658   111816338.594        1077.074          46.000    21277919.918    85677589.835         825.315          53.000  
G11  20728144.503   108927130.1321      -3260.785          35.000    20728154.686    84878176.793       -2540.271          35.000  
R13  16197196.819    86492275.614       -1791.125          40.000    16197197.677    67271867.619       -1393.217          42.000  
R02  17651282.906    94190559.358       -2600.085          53.000    17651287.235    73259314.601       -2022.346          46.000  
R04  19512894.925   104490643.989        2602.293          42.000    19512901.214    81270457.924        2023.845          37.000  
R03  16580315.115    88755846.029         655.839          53.000    16580313.580    69032367.887         510.206          49.000  
E33  23415165.056   123047419.967       -2350.948          42.000    23415176.646    94283138.315       -1801.185          49.000  
G07  17982542.783    94498870.427       -3289.709          47.000    17982544.238    73635479.383       -2563.440          47.000  
S31  35643784.061   187309289.848        -809.822          43.000  
S33  36592382.965   192294210.260        -809.637          41.000  
G14  18262881.548    95972257.296        1809.656          47.000    18262885.918    74783687.286        1410.247          47.000  
G20  17661272.621    92810677.394        -409.833          47.000                                                                  
R12  18880973.962   100858744.239       -4569.820          50.000    18880980.022    78445694.629       -3554.292          48.000  
R14  17788407.448    94822395.010        2570.221          52.000    17788415.779    73750908.438        1998.944          48.000  
E07  21103377.321   110898959.683       -1482.747          48.000    21103384.942    84974531.914       -1136.155          50.000  
E08  24845900.423   130565867.038       -2635.963          40.000    24845921.381   100043936.963       -2019.736          43.000  
G13  20300847.304   106681690.335        1466.558          45.000                                                                  
E26  23946425.752   125839263.553       -3483.405          37.000    23946443.126    96422141.688       -2669.040          44.000  
G22  20297010.008   106661632.003        2802.925          46.000                                                                  
G30  17150834.088    90128302.507       -1268.390          49.000    17150835.930    70229887.951        -988.500          45.000  
E21  24488427.928   128687605.914        2290.582          43.000    24488450.303    98604896.066        1755.139          46.000  
E30  21918400.643   115182049.904       -1625.375          45.000    21918408.421    88256447.285       -1245.397          51.000  
> 2024 04 15 18 36 00.4900000  0 24                     
G05  19609472.966   103048446.593        1877.324          47.000    19609474.712    80297485.421        1462.762          41.000  
G09  19527102.313   102615509.977       -2757.735          46.000    19527108.184    79960110.500       -2148.925          42.000  
E27  21271791.886   111784187.824        1066.375          46.000    21271801.763    85652954.940         817.084          53.000  
G11  20746776.743   109025036.347       -3266.083          35.000    20746784.941    84954466.980       -2544.867          36.000  
R13  16207326.073    86546370.818       -1815.000          40.000    16207328.744    67313941.641       -1411.713          43.000  
R02  17665939.537    94268776.489       -2614.307          52.000    17665946.073    73320150.014       -2033.332          48.000  
R04  19498314.244   104412564.819        2603.324          41.000    19498319.373                        2024.389          30.000  
R03  16576674.069    88736351.715         643.843          53.000    16576672.952    69017205.642         500.636          49.000  
E33  23428615.378   123118095.312       -2360.862          43.000    23428625.618    94337291.933       -1808.905          48.000  
G07  18001346.663    94597680.728       -3297.502          49.000    18001346.910    73712474.330       -2569.507          47.000  
S31  35648406.505   187333582.134        -809.348          44.000  
S33  36597003.808   192318492.649        -809.343          41.000  
G14  18252587.838    95918162.556        1796.808          47.000    18252592.290    74741535.700        1400.013          48.000  
G20  17663666.762    92823261.122        -428.938          46.000                                                                  
R12  18906664.819   100995983.672       -4579.205          50.000    18906671.510    78552436.281       -3561.710          47.000  
R14  17773987.680    94745526.788        2554.510          53.000    17773995.805    73691122.181        1986.774          49.000  
E07  21111853.217   110943501.138       -1486.625          48.000    21111860.785    85008661.016       -1139.085          50.000  
E08  24860956.172   130644985.098       -2638.426          40.000    24860976.897   100104559.591       -2021.763          43.000  
G13  20292473.989   106637686.669        1466.969          45.000                                                                  
E26  23966310.981   125943757.352       -3483.291          38.000    23966328.143    96502207.750       -2668.575          43.000  
G22  20281017.465   106577592.585        2799.929          46.000                                                                  
G30  17158110.901    90166543.150       -1280.708          48.000    17158113.195    70259685.834        -997.999          45.000  
E21  24475351.082   128618889.502        2290.740          44.000    24475373.839    98552243.776        1755.088          46.000  
E30  21927716.503   115231009.640       -1638.386          44.000    21927725.049    88293961.872       -1255.658          51.000  
> 2024 04 15 18 36 30.4900000  0 24                     
G05  19598787.439   102992294.917        1866.258          45.000    19598789.033    80253730.836        1454.109          41.000  
G09  19542862.401   102698329.585       -2763.561          46.000    19542868.541    80024645.070       -2153.292          43.000  
E27  21265734.873   111752357.850        1055.763          47.000    21265744.344    85628565.825         808.993          53.000  
G11  20765441.814   109123118.113       -3272.748          34.000    20765449.277    85030893.939       -2550.146          35.000  
R13  16217590.435    86601181.033       -1838.866          40.000    16217593.686    67356571.789       -1430.229          43.000  
R02  17680677.424    94347419.972       -2628.437          51.000    17680683.087    73381317.044       -2044.306          47.000  
R04  19483726.374   104334453.519        2604.390          40.000    19483730.901                        2025.138          32.000  
R03  16573100.389    88717224.153         631.523          53.000    16573099.426    69002328.612         491.156          50.000  
E33  23442121.578   123189069.102       -2370.730          42.000    23442132.132    94391674.223       -1816.424          49.000  
G07  18020193.511    94696723.904       -3305.282          49.000    18020194.083    73789650.752       -2575.575          47.000  
S31  35653028.113   187357868.869        -809.299          44.000  
S33  36601623.911   192342770.666        -808.852          41.000  
G14  18242368.331    95864459.825        1783.681          47.000    18242373.161    74699689.554        1389.799          48.000  
G20  17666169.688    92836417.992        -448.184          45.000                                                                  
R12  18932410.025   101133504.797       -4588.636          52.000    18932416.265    78659397.021       -3568.810          48.000  
R14  17759655.977    94669129.775        2538.824          53.000    17759663.665    73631702.481        1974.689          49.000  
E07  21120351.849   110988156.438       -1490.313          49.000    21120358.651    85042877.340       -1141.962          51.000  
E08  24876025.171   130724173.965       -2640.727          39.000    24876047.130   100165236.443       -2023.392          44.000  
G13  20284098.977   106593672.506        1467.226          46.000                                                                  
E26  23986194.109   126048237.559       -3482.397          39.000    23986210.281    96582263.455       -2668.389          41.000  
G22  20265042.536   106493642.538        2796.886          47.000                                                                  
G30  17165458.314    90205155.399       -1293.109          48.000    17165461.459    70289773.291       -1007.754          46.000  
E21  24462273.717   128550170.739        2291.027          43.000    24462296.328    98499589.680        1755.350          46.000  
E30  21937109.145   115280366.093       -1651.792          45.000    21937117.208    88331780.408       -1265.605          51.000  
> 2024 04 15 18 37 00.4900000  0 24                     
G05  19588163.931   102936469.644        1855.824          46.000    19588165.691    80210230.616        1446.062          42.000  
G09  19558655.609   102781317.448       -2768.796          47.000    19558661.303    80089310.745       -2157.512          43.000  
E27  21259737.192   111720839.859        1045.785          46.000    21259746.772    85604415.760         801.160          53.000  
G11  20784138.162   109221361.942       -3277.484          37.000    20784145.942    85107447.224       -2553.473          37.000  
R13  16227986.248    86656693.596       -1861.775          41.000    16227989.022    67399748.220       -1447.881          43.000  
R02  17695493.876    94426479.406       -2641.931          52.000    17695499.380    73442807.550       -2054.822          48.000  
R04  19469132.586   104256301.799        2605.949          40.000    19469136.497                        2026.956          32.000  
R03  16569593.758    88698455.266         619.969          52.000    16569593.534    68987730.562         482.162          50.000  
E33  23455682.851   123260329.304       -2379.696          44.000    23455693.026    94446275.978       -1823.499          49.000  
G07  18039082.564    94795987.426       -3312.145          49.000    18039083.623    73866998.879       -2580.945          47.000  
S31  35657646.531   187382139.395        -808.512          42.000  
S33  36606241.118   192367031.185        -808.454          41.000  
G14  18232221.879    95811141.559        1771.102          46.000    18232225.602    74658142.992        1380.032          47.000  
G20  17668781.132    92850138.520        -466.370          45.000                                                                  
R12  18958205.049   101271293.580       -4597.096          52.000    18958210.767    78766565.976       -3575.597          48.000  
R14  17745409.864    94593196.096        2523.651          52.000    17745418.670    73572643.121        1962.793          49.000  
E07  21128869.929   111032915.969       -1493.348          49.000    21128876.201    85077173.526       -1144.297          51.000  
E08  24891107.318   130803423.629       -2642.500          40.000    24891128.462   100225959.930       -2024.645          44.000  
G13  20275718.813   106549637.748        1468.324          45.000                                                                  
E26  24006071.435   126152691.935       -3481.066          39.000    24006088.009    96662299.346       -2667.388          40.000  
G22  20249082.434   106409774.310        2794.473          46.000                                                                  
G30  17172874.476    90244127.565       -1304.738          49.000    17172878.687    70320141.190       -1016.641          47.000  
E21  24449194.365   128481441.157        2291.372          43.000    24449216.970    98446927.254        1755.851          46.000  
E30  21946573.569   115330108.253       -1664.088          44.000    21946582.400    88369894.507       -1275.086          50.000  
> 2024 04 15 18 37 30.4900000  0 24                     
G05  19577603.255   102880971.837        1844.452          47.000    19577605.236    80166985.568        1437.290          42.000  
G09  19574478.594   102864471.973       -2774.673          46.000    19574486.257    80154106.257       -2162.177          44.000  
E27  21253799.042   111689633.519        1035.073          46.000    21253808.150    85580504.481         792.981          52.000  
G11  20802865.960   109319763.160       -3282.257          39.000    20802872.086    85184123.147       -2557.886          40.000  
R13  16238513.641    86712904.688       -1885.345          41.000    16238515.737    67443467.949       -1466.437          44.000  
R02  17710386.710    94505953.459       -2656.134          52.000    17710393.279    73504620.515       -2065.741          48.000  
R04  19454530.702   104178109.628        2607.234          41.000    19454543.717                3       2026.547          24.000  
R03  16566155.095    88680046.148         607.579          52.000    16566154.124    68973412.319         472.532          50.000  
E33  23469295.914   123331872.442       -2389.604          43.000    23469307.103    94501094.501       -1830.822          49.000  
G07  18058012.610    94895467.205       -3319.875          48.000    18058013.582    73944515.502       -2586.678          46.000  
S31  35662261.995   187406391.516        -807.947          44.000  
S33  36610854.197   192391274.907        -808.021          42.000  
G14  18222149.032    95758208.738        1758.051          46.000    18222153.675    74616896.789        1369.726          48.000  
G20  17671499.217    92864421.593        -485.562          45.000                                                                  
R12  18984048.378   101409344.178       -4606.109          53.000    18984053.874    78873938.570       -3582.632          47.000  
R14  17731253.036    94517727.068        2507.831          54.000    17731260.845    73513945.178        1950.494          49.000  
E07  21137406.436   111077778.573       -1497.215          49.000    21137413.499    85111548.693       -1147.288          51.000  
E08  24906199.628   130882732.747       -2644.580          40.000    24906220.647   100286728.936       -2026.547          44.000  
G13  20267335.134   106505580.896        1468.800          45.000                                                                  
E26  24025942.650   126257116.629       -3480.296          38.000    24025959.679    96742312.495       -2666.693          37.000  
G22  20233138.382   106325988.938        2791.279          45.000                                                                  
G30  17180359.419    90283456.500       -1316.806          49.000    17180362.531    70350787.087       -1026.157          46.000  
E21  24436112.924   128412700.695        2291.563          42.000    24436135.611    98394256.507        1755.835          46.000  
E30  21956112.499   115380233.696       -1677.351          44.000    21956120.921    88408302.247       -1285.173          50.000  
> 2024 04 15 18 38 00.4900000  0 24                     
G05  19567106.285   102825810.247        1833.147          47.000    19567108.263    80124002.508        1428.373          42.000  
G09  19590335.406   102947800.353       -2780.550          46.000    19590341.486    80219037.256       -2166.571          43.000  
E27  21247921.375   111658747.121        1024.352          46.000    21247930.560    85556838.351         784.833          52.000  
G11  20821622.550   109418325.549       -3287.994          39.000    20821627.327    85260924.638       -2561.896          42.000  
R13  16249171.350    86769818.725       -1908.634          41.000    16249173.814    67487734.381       -1484.521          44.000  
R02  17725359.385    94585849.152       -2670.209          52.000    17725365.311    73566761.426       -2076.727          47.000  
R04  19439924.135   104099886.472        2607.918          41.000                                                                  
R03  16562785.661    88662006.763         595.176          52.000    16562783.924    68959381.693         462.864          50.000  
E33  23482966.744   123403703.676       -2399.036          44.000    23482975.975    94556133.755       -1838.297          48.000  
G07  18076985.336    94995167.770       -3326.940          49.000    18076985.996    74022204.179       -2592.558          46.000  
S31  35666875.197   187430633.429        -807.872          44.000  
S33  36615465.713   192415508.354        -807.470          42.000  
G14  18212151.325    95705671.007        1744.705          46.000    18212155.889    74575958.419        1359.531          48.000  
G20  17674325.237    92879274.516        -504.482          46.000                                                                  
R12  19009941.680   101547659.552       -4614.781          53.000    19009946.414    78981517.066       -3589.208          47.000  
R14  17717184.501    94442733.246        2491.913          54.000    17717191.819    73455616.822        1938.159          50.000  
E07  21145964.415   111122751.763       -1500.838          49.000    21145971.877    85146008.577       -1149.975          51.000  
E08  24921305.406   130962108.464       -2646.702          41.000    24921325.582   100347548.969       -2028.011          44.000  
G13  20258948.074   106461509.129        1469.154          44.000                                                                  
E26  24045810.727   126361516.495       -3479.427          38.000    24045825.818    96822306.605       -2666.178          35.000  
G22  20217211.549   106242296.360        2788.210          44.000                                                                  
G30  17187913.145    90323147.646       -1328.922          50.000    17187914.773    70381715.218       -1035.487          45.000  
E21  24423031.356   128343958.018        2291.579          42.000    24423053.840    98341584.046        1755.944          47.000  
E30  21965726.297   115430748.532       -1690.231          44.000    21965733.787    88447008.386       -1295.147          50.000  
> 2024 04 15 18 38 30.4900000  0 24                     
G05  19556674.689   102770989.953        1821.703          47.000    19556676.059    80081285.395        1419.372          42.000  
G09  19606225.620   103031304.456       -2786.112          46.000    19606231.849    80284105.173       -2170.834          42.000  
E27  21242105.558   111628183.674        1013.473          47.000    21242114.117    85533419.688         776.594          52.000  
G11  20840407.683   109517047.645       -3293.408          37.000    20840414.848    85337850.612       -2566.125          42.000  
R13  16259960.925    86827434.878       -1932.008          40.000    16259963.090    67532546.887       -1502.728          44.000  
R02  17740411.589    94666168.700       -2684.247          53.000    17740417.521    73629232.048       -2087.714          48.000  
R04  19425310.527   104021635.816        2608.951          39.000    19425358.524                        2028.971          28.000  
R03  16559485.300    88644341.967         582.696          53.000    16559484.393    68945642.404         453.187          50.000  
E33  23496689.718   123475822.738       -2408.627          43.000    23496700.076    94611393.577       -1845.615          48.000  
G07  18096000.338    95095088.609       -3334.104          49.000    18096000.431    74100064.476       -2598.142          46.000  
S31  35671486.357   187454865.796        -807.403          44.000  
S33  36620075.546   192439731.149        -807.001          42.000  
G14  18202229.208    95653532.621        1731.427          46.000    18202233.913    74535331.267        1349.054          47.000  
G20  17677260.780    92894699.428        -523.672          46.000                                                                  
R12  19035883.632   101686237.321       -4623.491          52.000    19035889.416    79089299.684       -3596.129          48.000  
R14  17703205.090    94368218.663        2475.940          53.000    17703213.230    73397661.201        1925.751          50.000  
E07  21154543.535   111167837.806       -1504.684          48.000    21154551.527    85180554.949       -1152.907          51.000  
E08  24936423.933   131041552.719       -2649.367          42.000    24936443.932   100408421.536       -2029.878          45.000  
G13  20250558.974   106417424.339        1469.686          45.000                                                                  
E26  24065672.767   126465891.056       -3478.719          38.000    24065688.709    96902281.300       -2665.215          34.000  
G22  20201303.607   106158701.009        2784.932          45.000                                                                  
G30  17195534.528    90363201.227       -1341.105          49.000    17195536.334    70412925.757       -1045.031          45.000  
E21  24409950.562   128275216.472        2291.612          42.000    24409971.726    98288912.457        1755.852          46.000  
E30  21975412.234   115481653.576       -1703.098          45.000    21975420.576    88486013.533       -1305.167          49.000  
> 2024 04 15 18 39 00.4900000  0 24                     
G05  19546307.188   102716506.366        1810.732          47.000    19546307.525    80038830.658        1410.916          42.000  
G09  19622147.994   103114977.477       -2791.594          46.000    19622155.273    80349304.722       -2175.324          42.000  
E27  21236349.464   111597937.520        1003.274          47.000    21236358.368    85510244.143         768.615          52.000  
G11  20859223.439   109615919.270       -3297.937          39.000    20859229.960    85414893.047       -2569.873          42.000  
R13  16270880.088    86885743.871       -1954.530          40.000    16270883.002    67577898.305       -1520.527          44.000  
R02  17755542.050    94746904.823       -2697.894          53.000    17755547.525    73692026.648       -2098.413          48.000  
R04  19410690.236   103943352.459        2610.589          36.000    19410715.952    80845077.6411       2029.727          34.000  
R03  16556254.212    88627046.138         570.544          53.000    16556253.008    68932190.090         443.808          50.000  
E33  23510467.185   123548220.840       -2417.570          44.000    23510476.969    94666867.208       -1852.462          48.000  
G07  18115054.574    95195220.424       -3340.997          49.000    18115054.547    74178089.177       -2603.372          46.000  
S31  35676094.351   187479081.617        -806.783          44.000  
S33  36624682.060   192463938.476        -806.182          42.000  
G14  18192382.679    95601789.259        1718.380          47.000    18192387.356    74495011.900        1338.944          48.000  
G20  17680304.331    92910689.606        -542.164          47.000                                                                  
R12  19061872.628   101825066.612       -4631.489          52.000    19061878.280    79197277.908       -3602.305          48.000  
R14  17689316.519    94294179.180        2460.248          54.000    17689323.816    73340075.121        1913.483          50.000  
E07  21163143.114   111213030.248       -1507.967          48.000    21163151.505    85215182.854       -1155.465          52.000  
E08  24951554.064   131121058.752       -2650.889          41.000    24951574.094   100469341.414       -2031.330          45.000  
G13  20242165.349   106373319.733        1470.616          44.000                                                                  
E26  24085529.005   126570231.236       -3477.330          38.000    24085543.999    96982229.606       -2664.590          32.000  
G22  20185413.799   106075198.604        2782.173          44.000                                                                  
G30  17203223.405    90403608.728       -1352.503          49.000    17203225.586    70444412.112       -1053.989          45.000  
E21  24396868.067   128206470.739        2291.705          42.000    24396889.362    98236237.655        1756.043          46.000  
E30  21985171.545   115532940.990       -1715.772          44.000    21985180.287    88525311.636       -1314.674          49.000  
> 2024 04 15 18 39 30.4900000  0 24                     
G05  19536003.827   102662363.046        1799.211          47.000    19536004.001    79996641.060        1402.132          42.000  
G09  19638103.288   103198821.138       -2797.356          45.000    19638109.927    80414637.249       -2179.656          42.000  
E27  21230655.232   111568011.556         992.431          47.000    21230663.373    85487313.905         760.398          52.000  
G11  20878065.911   109714938.927       -3302.795          39.000    20878073.440    85492050.813       -2573.584          42.000  
R13  16281928.813    86944744.607       -1977.843          40.000    16281931.809    67623787.755       -1538.581          44.000  
R02  17770750.789    94828059.356       -2711.945          52.000    17770755.384    73755146.689       -2109.290          48.000  
R04  19396068.589   103865040.540        2611.120          36.000    19396087.026    80784168.414        2030.739          35.000  
R03  16553092.923    88610124.223         557.984          52.000    16553091.723    68919028.558         434.136          50.000  
E33  23524296.271   123620897.632       -2426.964          43.000    23524307.714    94722554.382       -1859.588          48.000  
G07  18134149.156    95295562.702       -3348.019          50.000    18134149.513    74256277.891       -2608.791          46.000  
S31  35680699.829   187503283.238        -806.212          44.000  
S33  36629285.795   192488132.055        -805.974          42.000  
G14  18182612.490    95550445.110        1704.942          47.000    18182616.734    74455003.630        1328.530          48.000  
G20  17683455.783    92927247.116        -561.294          47.000                                                                  
R12  19087908.763   101964144.874       -4639.720          52.000    19087913.786    79305449.779       -3608.691          48.000  
R14  17675514.534    94220619.064        2444.207          53.000    17675523.692    73282861.883        1901.123          49.000  
E07  21171764.492   111258331.248       -1511.655          49.000    21171772.066    85249893.919       -1158.255          51.000  
E08  24966695.453   131200628.445       -2652.990          41.000    24966715.707   100530310.108       -2032.874          44.000  
G13  20233769.151   106329196.707        1471.240          44.000                                                                  
E26  24105377.690   126674536.542       -3476.154          37.000    24105392.551    97062151.124       -2663.091          32.000  
G22  20169542.410   105991793.564        2778.672          46.000                                                                  
G30  17210980.856    90444370.240       -1364.324          49.000    17210982.385    70476174.283       -1063.223          45.000  
E21  24383785.438   128137724.072        2292.119          41.000    24383807.103    98183562.111        1756.031          46.000  
E30  21995004.447   115584611.485       -1728.621          44.000    21995012.983    88564903.273       -1324.328          49.000  
> 2024 04 15 18 40 00.4900000  0 24                     
G05  19525765.503   102608562.578        1787.670          46.000    19525766.018    79954718.651        1392.499          42.000  
G09  19654090.853   103282835.117       -2803.311          45.000    19654098.022    80480102.449       -2184.506          43.000  
E27  21225021.371   111538406.594         981.417          47.000    21225030.017    85464629.607         752.011          52.000  
G11  20896935.923   109814102.891       -3307.770          38.000    20896942.469    85569321.002       -2577.399          40.000  
R13  16293107.782    87004433.899       -2001.135          41.000    16293109.937    67670212.708       -1556.429          44.000  
R02  17786036.237    94909631.726       -2726.099          51.000    17786042.584    73818591.670       -2120.343          48.000  
R04  19381441.859   103786700.948        2611.655          39.000    19381454.000                3       2031.597          27.000  
R03  16550001.481    88593578.483         545.149          52.000    16550000.723    68906159.645         424.056          49.000  
E33  23538178.878   123693850.757       -2436.303          42.000    23538190.255    94778453.283       -1866.866          48.000  
G07  18153283.088    95396112.668       -3355.283          49.000    18153283.871    74334628.413       -2614.255          47.000  
S31  35685302.458   187527469.216        -806.187          43.000  
S33  36633886.987   192512309.894        -805.612          42.000  
G14  18172918.717    95499502.244        1691.263          47.000    18172922.030    74415308.016        1317.973          47.000  
G20  17686714.092    92944372.170        -580.274          46.000                                                                  
R12  19113990.308   102103467.689       -4648.234          51.000    19113995.867    79413811.855       -3615.183          49.000  
R14  17661806.770    94147540.433        2427.891          54.000    17661813.964    73226023.061        1888.297          49.000  
E07  21180405.701   111303740.770       -1515.495          49.000    21180413.239    85284688.163       -1161.291          51.000  
E08  24981847.856   131280261.466       -2655.572          41.000    24981868.979   100591327.336       -2034.794          44.000  
G13  20225369.466   106285055.051        1471.461          44.000                                                                  
E26  24125219.636   126778804.173       -3475.196          37.000    24125234.758    97142043.899       -2662.981          33.000  
G22  20153689.813   105908488.285        2775.057          46.000                                                                  
G30  17218804.203    90485483.680       -1376.408          49.000    17218806.017    70508210.677       -1072.383          45.000  
E21  24370703.505   128068977.686        2291.427          41.000    24370724.566    98130886.787        1755.803          46.000  
E30  22004909.469   115636663.637       -1741.567          45.000    22004918.330    88604787.356       -1334.324          49.000  
> 2024 04 15 18 40 30.4900000  0 24                     
G05  19515594.307   102555114.785        1775.765          46.000    19515595.583    79913071.050        1383.695          43.000  
G09  19670113.002   103367027.186       -2809.329          46.000    19670119.085    80545706.440       -2189.248          43.000  
E27  21219449.773   111509131.558         970.417          46.000    21219459.320    85442198.111         743.592          53.000  
G11  20915834.806   109913415.568       -3312.555          39.000    20915841.741    85646707.212       -2581.335          39.000  
R13  16304415.048    87064817.064       -2023.939          41.000    16304418.078    67717177.354       -1574.400          45.000  
R02  17801403.200    94991629.985       -2740.290          52.000    17801409.199    73882367.913       -2131.342          47.000  
R04  19366810.146   103708344.262        2612.006          35.000    19366804.722                3       2032.006          31.000  
R03  16546984.041    88577419.413         532.300          53.000    16546982.144    68893591.454         413.961          50.000  
E33  23552115.164   123767085.924       -2445.653          43.000    23552126.873    94834568.319       -1873.951          48.000  
G07  18172457.770    95496875.331       -3362.090          49.000    18172458.569    74413144.686       -2619.893          47.000  
S31  35689903.610   187551647.063        -805.515          43.000  
S33  36638486.288   192536480.181        -805.517          42.000  
G14  18163302.170    95448970.897        1677.634          46.000    18163305.606    74375933.108        1307.171          47.000  
G20  17690082.391    92962071.845        -599.377          46.000                                                                  
R12  19140119.014   102243038.730       -4656.354          52.000    19140123.002    79522367.021       -3621.582          48.000  
R14  17648189.309    94074954.071        2411.481          52.000    17648198.328    73169567.122        1875.598          50.000  
E07  21189068.246   111349267.074       -1519.388          49.000    21189076.686    85319571.873       -1164.211          51.000  
E08  24997016.312   131359965.703       -2657.737          41.000    24997036.232   100652399.155       -2036.417          43.000  
G13  20216967.817   106240902.951        1471.929          45.000                                                                  
E26  24145055.219   126883039.730       -3474.208          37.000    24145073.084    97221912.104       -2661.929          37.000  
G22  20137858.250   105825293.036        2771.387          45.000                                                                  
G30  17226695.818    90526955.231       -1388.146          49.000    17226697.812    70540526.135       -1081.583          46.000  
E21  24357623.488   128000240.884        2291.051          42.000    24357644.050    98078218.801        1755.497          46.000  
E30  22014889.498   115689104.224       -1754.406          46.000    22014897.185    88644969.075       -1344.336          48.000  
> 2024 04 15 18 41 00.4900000  0 24                     
G05  19505492.144   102502026.525        1763.531          46.000    19505493.913    79871703.547        1374.286          43.000  
G09  19686168.357   103451401.381       -2815.596          45.000    19686174.529    80611452.371       -2193.924          42.000  
E27  21213942.702   111480191.548         959.068          46.000    21213952.483    85420023.344         734.843          53.000  
G11  20934760.506   110012877.850       -3317.609          37.000    20934768.258    85724209.920       -2585.144          38.000  
R13  16315852.428    87125895.569       -2047.623          40.000    16315856.105    67764682.781       -1592.431          45.000  
R02  17816850.895    95074057.753       -2754.810          52.000    17816855.722    73946478.241       -2142.633          48.000  
R04  19352176.838   103629976.259        2612.057          32.000    19352164.271    80601104.5821       2031.584          38.000  
R03  16544039.120    88561653.677         518.846          52.000    16544037.929    68881329.199         403.585          50.000  
E33  23566106.098   123840605.240       -2455.326          44.000    23566117.469    94890901.048       -1881.385          48.000  
G07  18191673.314    95597852.583       -3369.501          50.000    18191673.783    74491828.140       -2625.510          46.000  
S31  35694503.433   187575820.982        -805.583          44.000  
S33  36643085.104   192560646.083        -805.583          41.000  
G14  18153766.035    95398857.551        1663.382          47.000    18153768.930    74336883.858        1296.194          47.000  
G20  17693559.985    92980350.743        -619.073          45.000                                                                  
R12  19166293.264   102382858.139       -4664.796          50.000    19166297.725    79631115.318       -3628.147          49.000  
R14  17634665.735    94002866.519        2394.493          51.000    17634673.541    73113499.244        1862.364          49.000  
E07  21197755.366   111394914.574       -1523.668          49.000    21197763.086    85354548.441       -1167.383          51.000  
E08  25012199.419   131439745.278       -2660.631          42.000    25012218.448   100713528.690       -2038.511          44.000  
G13  20208565.322   106196744.092        1471.940          45.000                                                                  
E26  24164884.258   126987244.999       -3473.058          35.000    24164902.780    97301757.075       -2661.226          37.000  
G22  20122048.610   105742214.550        2767.407          45.000                                                                  
G30  17234656.451    90568787.213       -1400.411          49.000    17234658.106    70573122.477       -1091.326          45.000  
E21  24344544.433   127931519.252        2290.479          41.000    24344566.201    98025562.418        1755.017          46.000  
E30  22024943.777   115741936.270       -1767.548          46.000    22024950.690    88685450.732       -1354.405          48.000  
> 2024 04 15 18 41 30.4900000  0 24                     
G05  19495458.543   102449301.506        1751.373          45.000    19495460.635    79830619.118        1364.873          43.000  
G09  19702259.581   103535959.525       -2821.722          46.000    19702267.197    80677341.609       -2198.795          44.000  
E27  21208499.686   111451589.531         947.772          46.000    21208509.812    85398107.564         726.155          53.000  
G11  20953715.864   110112488.128       -3322.626          38.000    20953724.640    85801827.974       -2589.350          39.000  
R13  16327420.595    87187668.457       -2070.609          40.000    16327424.166    67812728.316       -1610.617          45.000  
R02  17832379.274    95156916.733       -2769.104          53.000    17832383.569    74010923.946       -2153.754          48.000  
R04  19337534.103                1       2613.309          31.000    19337536.286    80540145.903        2032.092          41.000  
R03  16541167.126    88546285.527         505.588          52.000    16541167.590    68869376.191         393.243          51.000  
E33  23580150.021   123914408.350       -2464.747          44.000    23580161.830    94947451.218       -1888.590          48.000  
G07  18210929.304    95699043.715       -3376.524          50.000    18210930.107    74570678.300       -2631.087          47.000  
S31  35699103.406   187599992.653        -805.554          44.000  
S33  36647683.296   192584809.742        -805.524          42.000  
G14  18144309.776    95349166.303        1649.243          47.000    18144313.869    74298163.574        1285.264          48.000  
G20  17697148.581    92999210.884        -638.403          45.000                                                                  
R12  19192513.397   102522923.429       -4672.826          49.000    19192518.374    79740054.851       -3634.448          49.000  
R14  17621235.344    93931281.988        2377.740          52.000    17621244.735    73057822.517        1849.371          50.000  
E07  21206464.941   111440685.415       -1527.812          48.000    21206473.070    85389619.529       -1170.651          52.000  
E08  25027395.773   131519602.006       -2663.283          42.000    25027415.701   100774717.354       -2040.726          45.000  
G13  20200160.671   106152580.479        1472.149          43.000                                                                  
E26  24184705.446   127091419.583       -3472.738          32.000    24184726.592    97381578.508       -2660.644          38.000  
G22  20106262.189   105659257.191        2763.108          45.000                                                                  
G30  17242685.500    90610979.750       -1412.340          49.000    17242687.702    70605999.773       -1100.742          45.000  
E21  24331469.848   127862816.089        2290.061          41.000    24331492.329    97972920.201        1754.432          46.000  
E30  22035071.384   115795160.428       -1780.756          46.000    22035078.730    88726232.851       -1364.402          48.000  
> 2024 04 15 18 42 00.4900000  0 24                     
G05  19485496.033   102396947.142        1739.240          45.000    19485498.702    79789823.499        1355.370          43.000  
G09  19718387.256   103620706.770       -2827.834          46.000    19718393.825    80743378.190       -2203.441          43.000  
E27  21203122.182   111423331.789         936.605          46.000    21203132.111    85376455.565         717.658          53.000  
G11  20972700.551   110212248.266       -3327.380          41.000    20972709.507    85879562.771       -2593.011          39.000  
R13  16339119.125    87250137.941       -2093.333          39.000    16339122.664    67861315.643       -1628.216          45.000  
R02  17847988.132    95240212.359       -2783.319          53.000    17847994.562    74075709.238       -2164.825          48.000  
R04  19322907.146   103473246.6401       2613.351          37.000    19322900.849    80479187.068        2032.293          40.000  
R03  16538372.106    88531323.040         492.374          53.000    16538372.459    68857738.670         382.972          51.000  
E33  23594249.452   123988498.353       -2474.128          44.000    23594260.725    95004221.236       -1895.714          48.000  
G07  18230226.719    95800451.506       -3383.458          51.000    18230227.993    74649697.252       -2636.507          47.000  
S31  35703703.801   187624166.883        -805.610          43.000  
S33  36652282.079   192608976.455        -805.240          41.000  
G14  18134935.384    95299904.816        1635.339          47.000    18134938.949    74259778.118        1274.223          47.000  
G20  17700849.313    93018657.445        -657.733          45.000                                                                  
R12  19218780.803   102663235.865       -4680.783          49.000    19218785.250    79849186.612       -3640.604          49.000  
R14  17607903.525    93860208.466        2360.956          53.000    17607911.228    73002543.323        1836.334          51.000  
E07  21215199.791   111486585.193       -1531.749          49.000    21215207.381    85424789.401       -1173.734          51.000  
E08  25042604.421   131599541.133       -2665.724          39.000    25042628.476   100835969.102       -2042.420          45.000  
G13  20191756.429   106108417.449        1472.352          43.000                                                                  
E26  24204529.752   127195566.198       -3470.123          35.000    24204546.716    97461378.504       -2659.361          40.000  
G22  20090499.923   105576428.895        2759.283          45.000                                                                  
G30  17250784.108    90653536.334       -1424.130          49.000    17250786.035    70639160.678       -1109.710          45.000  
E21  24318400.630   127794138.058        2289.230          41.000    24318422.715    97920297.246        1754.107          46.000  
E30  22045275.377   115848780.808       -1793.585          46.000    22045282.507    88767318.572       -1374.249          47.000  
> 2024 04 15 18 42 30.4900000  0 24                     
G05  19475603.657   102344958.864        1726.777          46.000    19475604.340    79749313.154        1345.651          42.000  
G09  19734548.806   103705636.339       -2834.047          46.000    19734555.657    80809556.882       -2208.064          43.000  
E27  21197809.010   111395412.622         925.128          45.000    21197819.516    85355062.986         708.775          53.000  
G11  20991710.687   110312148.191       -3332.154          41.000    20991721.043    85957406.485       -2596.417          41.000  
R13  16350946.504    87313294.500       -2116.416          40.000    16350949.630    67910437.393       -1646.384          44.000  
R02  17863678.764    95323937.321       -2797.888          53.000    17863685.011    74140828.480       -2176.056          48.000  
R04  19308270.726                        2612.958          32.000    19308264.068    80418224.290        2032.348          43.000  
R03  16535652.132    88516761.513         478.759          53.000    16535651.743    68846413.018         372.305          50.000  
E33  23608401.445   124062866.419       -2483.495          44.000    23608412.860    95061204.303       -1902.922          48.000  
G07  18249564.174    95902066.710       -3390.506          51.000    18249564.234    74728877.851       -2641.826          46.000  
S31  35708302.802   187648336.750        -805.414          44.000  
S33  36656879.907   192633138.102        -805.113          42.000  
G14  18125642.521    95251068.645        1620.723          48.000    18125645.792    74221724.091        1263.041          47.000  
G20  17704660.497    93038683.691        -676.971          45.000                                                                  
R12  19245090.702   102803784.382       -4688.714          45.000    19245097.258    79958501.985       -3646.803          49.000  
R14  17594665.609    93789641.479        2343.761          53.000    17594672.482    72947658.023        1822.813          50.000  
E07  21223957.572   111532607.526       -1535.956          49.000    21223965.252    85460053.203       -1177.014          51.000  
E08  25057831.957   131679556.005       -2668.278          40.000    25057854.180   100897278.913       -2044.487          45.000  
G13  20183350.772   106064247.890        1472.386          43.000                                                                  
E26  24224339.062   127299675.852       -3468.932          33.000    24224358.267    97541150.255       -2658.354          41.000  
G22  20074762.026   105493725.585        2754.692          46.000                                                                  
G30  17258949.374    90696448.492       -1436.232          48.000    17258952.219    70672598.710       -1119.116          46.000  
E21  24305334.717   127725479.967        2288.376          40.000    24305357.249    97867689.533        1753.411          46.000  
E30  22055553.423   115902789.552       -1806.704          47.000    22055559.842    88808701.889       -1384.406          47.000  
> 2024 04 15 18 43 00.4900000  0 24                     
G05  19465781.208   102293339.410        1714.535          47.000    19465780.815    79709090.243        1335.852          42.000  
G09  19750744.343   103790748.271       -2840.106          45.000    19750753.106    80875877.657       -2213.026          44.000  
E27  21192561.287   111367833.200         913.733          46.000    21192571.344    85333930.734         700.073          53.000  
G11  21010747.584   110412184.648       -3336.646          42.000    21010757.310    86035356.572       -2600.059          41.000  
R13  16362901.585    87377135.056       -2139.473          40.000    16362904.614    67960091.099       -1663.863          44.000  
R02  17879449.161    95408091.595       -2812.238          53.000    17879455.051    74206281.611       -2187.292          47.000  
R04  19293629.349   103316481.715        2612.993          36.000    19293626.600    80357259.024        2032.222          44.000  
R03  16533006.834    88502603.470         465.244          52.000    16533006.387    68835401.203         361.812          50.000  
E33  23622605.788   124137510.540       -2492.760          43.000    23622617.123    95118398.888       -1910.008          47.000  
G07  18268939.783    96003887.350       -3397.323          51.000    18268940.513    74808218.533       -2647.347          46.000  
S31  35712901.582   187672502.109        -805.557          43.000  
S33  36661477.221   192657296.372        -805.100          42.000  
G14  18116431.239    95202660.260        1605.974          48.000    18116434.189    74184003.350        1251.870          48.000  
G20  17708582.019    93059289.734        -696.631          45.000                                                                  
R12  19271444.886   102944565.089       -4696.533          45.000    19271451.944    80067997.951       -3652.800          50.000  
R14  17581520.757    93719583.840        2326.689          52.000    17581528.855    72893168.898        1809.710          49.000  
E07  21232738.339   111578752.938       -1540.205          49.000    21232746.529    85495411.300       -1180.170          52.000  
E08  25073072.550   131759646.773       -2670.878          39.000    25073095.562   100958646.865       -2046.528          46.000  
G13  20174944.636   106020072.327        1472.806          43.000                                                                  
E26  24244144.134                       -3468.232          30.000    24244162.506    97620892.010       -2657.447          41.000  
G22  20059047.461   105411149.922        2750.311          45.000                                                                  
G30  17267182.111    90739714.598       -1448.163          48.000    17267185.255    70706312.520       -1128.309          46.000  
E21  24292273.430   127656843.322        2287.314          41.000    24292295.849    97815098.300        1752.731          46.000  
E30  22065904.009   115957185.588       -1819.500          47.000    22065910.882    88850381.947       -1394.101          46.000  
> 2024 04 15 18 43 30.4900000  0 24                     
G05  19456029.474   102242097.419        1701.674          46.000    19456029.391    79669161.458        1326.051          41.000  
G09  19766977.422   103876048.747       -2846.632          46.000    19766984.180    80942345.322       -2218.053          43.000  
E27  21187379.313   111340600.741         902.020          46.000    21187388.664    85313064.341         691.130          52.000  
G11  21029810.643   110512360.543       -3341.440          42.000    21029820.392    86113415.323       -2603.971          42.000  
R13  16374985.907    87441663.132       -2162.591          41.000    16374989.014    68010279.547       -1681.901          45.000  
R02  17895300.836    95492681.367       -2826.935          53.000    17895307.534    74272073.446       -2198.663          48.000  
R04  19278990.105   103238103.015        2612.667          35.000    19278988.668    80296297.846        2031.956          44.000  
R03  16530440.045    88488857.882         451.236          53.000    16530438.314    68824710.193         351.008          50.000  
E33  23636862.720   124212434.741       -2502.041          43.000    23636874.982    95175808.098       -1917.230          46.000  
G07  18288355.422    96105917.021       -3404.504          50.000    18288356.285    74887722.052       -2652.733          47.000  
S31  35717500.141   187696669.015        -805.460          44.000  
S33  36666074.598   192681455.511        -805.190          42.000  
G14  18107301.741    95154688.098        1592.152          46.000    18107305.696    74146622.558        1240.426          48.000  
G20  17712614.864    93080481.690        -716.254          45.000                                                                  
R12  19297843.563   103085580.020       -4704.447          45.000    19297849.887    80177676.091       -3658.971          48.000  
R14  17568475.336    93650044.122        2309.325          51.000    17568482.762    72839082.614        1796.135          48.000  
E07  21241545.109   111625027.934       -1544.603          49.000    21241552.537    85530868.677       -1183.550          52.000  
E08  25088329.886   131839819.587       -2673.689          40.000    25088351.725   101020077.616       -2048.658          46.000  
G13  20166538.817   105975896.918        1472.358          43.000                                                                  
E26  24263935.741                       -3467.502          27.000    24263960.473    97700606.834       -2656.590          41.000  
G22  20043359.781   105328710.708        2745.807          46.000                                                                  
G30  17275484.377    90783339.097       -1460.179          48.000    17275486.485    70740305.601       -1137.829          45.000  
E21  24279218.485   127588235.831        2286.615          41.000    24279239.749    97762529.381        1751.905          46.000  
E30  22076329.633   116011973.941       -1832.792          47.000    22076336.929    88892362.633       -1404.510          46.000  
> 2024 04 15 18 44 00.4900000  0 24                     
G05  19446350.829   102191239.354        1688.782          45.000    19446351.905    79629531.829        1315.880          42.000  
G09  19783246.772   103961541.839       -2853.062          45.000    19783253.473    81008963.115       -2223.126          43.000  
E27  21182264.860   111313720.480         890.073          47.000    21182273.338    85292467.817         682.064          52.000  
G11  21048900.457   110612676.725       -3346.091          43.000    21048910.653    86191583.338       -2607.497          42.000  
R13  16387199.397    87506880.038       -2185.282          42.000    16387202.441    68061003.771       -1699.654          44.000  
R02  17911236.341    95577710.138       -2841.669          53.000    17911241.578    74338206.748       -2210.095          48.000  
R04  19264353.497   103159735.554        2611.980          40.000    19264353.480    80235345.423        2031.786          45.000  
R03  16527950.096    88475531.393         437.177          53.000    16527948.951    68814345.147         340.081          50.000  
E33  23651174.559   124287641.204       -2511.417          42.000    23651187.255    95233433.581       -1924.460          47.000  
G07  18307811.336    96208157.292       -3411.648          51.000    18307811.612    74967389.714       -2658.428          45.000  
S31  35722100.189   187720841.694        -806.086          43.000  
S33  36670673.297   192705621.112        -805.667          42.000  
G14  18098257.063    95107158.769        1576.855          46.000    18098261.433    74109586.826        1228.710          48.000  
G20  17716760.067    93102264.268        -735.992          45.000                                                                  
R12  19324285.292   103226829.383       -4712.450          43.000    19324292.941    80287536.513       -3665.053          48.000  
R14  17555528.201    93581028.992        2291.709          51.000    17555535.035    72785404.310        1782.463          48.000  
E07  21250376.475   111671437.083       -1549.254          49.000    21250384.185    85566428.859       -1187.050          52.000  
E08  25103601.994   131920078.667       -2676.612          38.000    25103624.648   101081574.496       -2051.083          45.000  
G13  20158132.643   105931725.705        1472.137          43.000                                                                  
E26  24283733.776   127611783.948       -3465.967          32.000    24283752.220    97780296.088       -2655.763          41.000  
G22  20027699.225   105246414.848        2740.906          46.000                                                                  
G30  17283854.530    90827324.443       -1472.127          49.000    17283856.458    70774579.876       -1147.258          45.000  
E21  24266169.448   127519663.233        2285.097          41.000    24266190.367    97709987.178        1751.055          46.000  
E30  22086830.800   116067157.663       -1845.968          47.000    22086838.636    88934646.232       -1414.293          47.000  
> 2024 04 15 18 44 30.4900000  0 24                     
G05  19436746.684   102140766.875        1676.118          45.000    19436747.947    79590202.642        1305.936          43.000  
G09  19799552.099   104047227.073       -2859.302          44.000    19799558.524    81075730.607       -2228.017          42.000  
E27  21177217.101   111287192.980         878.409          47.000    21177225.219    85272141.595         673.032          52.000  
G11  21068017.174   110713129.316       -3350.312          44.000    21068025.663    86269857.697       -2610.834          40.000  
R13  16399541.341    87572782.291       -2207.942          42.000    16399543.423    68112261.068       -1717.408          44.000  
R02  17927253.053    95663177.581       -2856.091          53.000    17927257.563    74404681.242       -2221.356          47.000  
R04  19249719.402   103081381.410        2611.471          41.000    19249720.843    80174403.454        2031.259          45.000  
R03  16525539.476    88462626.160         423.154          53.000    16525538.456    68804307.735         329.136          50.000  
E33  23665539.186   124363127.282       -2520.818          42.000    23665551.822    95291273.283       -1931.557          48.000  
G07  18327306.331    96310605.350       -3418.298          51.000    18327306.698    75047219.309       -2663.657          46.000  
S31  35726701.137   187745018.513        -806.024          44.000  
S33  36675272.475   192729790.527        -805.468          42.000  
G14  18089297.039    95060074.020        1562.130          47.000    18089300.749    74072897.499        1217.347          48.000  
G20  17721016.995    93124635.989        -755.627          44.000                                                                  
R12  19350770.856   103368308.657       -4719.670          42.000    19350777.604    80397575.812       -3670.951          48.000  
R14  17542680.507    93512540.511        2274.194          53.000    17542687.056    72732135.625        1768.626          47.000  
E07  21259232.831   111717980.298       -1553.693          49.000    21259241.035    85602091.757       -1190.432          52.000  
E08  25118892.762   132000423.555       -2679.505          40.000    25118914.074   101143137.142       -2053.123          45.000  
G13  20149727.831   105887558.413        1472.055          43.000                                                                  
E26  24303519.399   127715750.111       -3465.248          35.000    24303536.794    97859957.824       -2654.850          41.000  
G22  20012066.218   105164264.293        2735.779          44.000                                                                  
G30  17292292.547    90871668.401       -1484.003          49.000    17292295.161    70809133.599       -1156.511          46.000  
E21  24253126.993   127451126.483        2284.106          42.000    24253148.036    97657472.467        1750.053          46.000  
E30  22097406.506   116122735.166       -1859.123          46.000    22097414.745    88977231.579       -1424.501          47.000  
