     3.00           OBSERVATION DATA    M: Mixed            RINEX VERSION / TYPE
CONVBIN 2.4.3                           20240415 072942 UTC PGM / RUN BY / DATE 
format: u-blox UBX                                          COMMENT             
log: /home/regis/git/gnsspwv/obsdata/VERT00CHL/2024-04-15/VECOMMENT             
{self.marker}                                               MARKER NAME         
                                                            MARKER NUMBER       
GEODETIC                                                    MARKER TYPE         
{self.observer}     {self.institution}                      OBSERVER / AGENCY   
UNKNOWN             UBLOX-ZED-F9P                           REC # / TYPE / VERS 
UNKNOWN             TWIVSP6037L                             ANT # / TYPE        
  1713381.0000 -5047934.0000 -3490983.0000                  APPROX POSITION XYZ 
        0.0000        0.0000        0.0000                  ANTENNA: DELTA H/E/N
G    8 C1C L1C D1C S1C C2L L2L D2L S2L                      SYS / # / OBS TYPES 
R    8 C1C L1C D1C S1C C2C L2C D2C S2C                      SYS / # / OBS TYPES 
E    8 C1C L1C D1C S1C C7Q L7Q D7Q S7Q                      SYS / # / OBS TYPES 
S    4 C1C L1C D1C S1C                                      SYS / # / OBS TYPES 
  2024    04    15    07    15   00.0180000     GPS         TIME OF FIRST OBS   
  2024    04    15    07    29   30.0180000     GPS         TIME OF LAST OBS    
                                                            END OF HEADER       
> 2024 04 15 07 15 00.0180000  0 24                     
S33  44998581.823   236469325.1101       -659.935          42.000  
E02  29149367.006   153180980.1691      -2367.440          46.000    29149367.785   117372471.5371      -1814.004          51.000  
E36  30001338.848   157658456.1951      -2286.153          47.000    30001339.875   120803447.2121      -1751.708          52.000  
G26  26033354.116   136806228.6791      -2394.414          47.000    26033353.430   106602213.5451      -1865.950          46.000  
R20  26029830.174   139193268.3951      -1925.037          42.000    26029827.156   108261520.9411      -1497.279          45.000  
R10  26207035.723   139698305.5791      -3868.915          47.000                                                                  
R06  28530602.217   152244768.2371       3407.853          39.000                                                                  
R05  26692530.756   142686909.7201        914.371          51.000    26692525.196   110978664.4281        711.132          46.000  
R04  28153810.008   150762324.6301      -2374.077          49.000    28153804.531   117259660.4061      -1846.361          46.000  
G16  26220992.892   137792263.8161        504.333          46.000                                                                  
G18  27786149.978   146017573.3681      -3173.165          44.000    27786144.071   113780042.1811      -2472.394          43.000  
G29  30142770.042   158401730.2111      -3163.201          40.000    30142766.325   123430188.5601      -2464.375          38.000  
S31  44044116.768   231453533.8141       -659.941          44.000  
E30  29740585.822   156287952.8451        446.564          47.000    29740585.959   119753002.5401        342.164          50.000  
R11  26081010.521   139369034.6231        -24.446          51.000    26081006.310   108398239.7901        -18.971          50.000  
R21  26496093.462   141786257.0191        563.493          51.000    26496089.264   110278035.3531        438.363          48.000  
E15  32282341.775   169644888.5221       1183.008          44.000    32282345.242   129987682.4761        906.403          48.000  
G23  25818442.650   135676976.6921      -1066.358          48.000    25818437.623   105722351.6011       -830.976          48.000  
E34  29111807.954   152983802.6891       -374.938          48.000    29111809.269   117221506.4491       -287.197          52.000  
G27  27508306.480   144557091.6721       1675.771          47.000    27508304.221   112641982.3621       1305.925          43.000  
E09  33149933.215   174204131.5061        918.690          36.000    33149933.565   133481052.5111        703.804          40.000  
G10  26096510.577   137138210.8961       1693.152          50.000    26096507.206   106860909.5811       1319.202          47.000  
E25  32626765.801   171455085.8721      -3720.748          39.000    32626769.651   131374822.3951      -2850.800          46.000  
R09                                                                  28954835.569                3      -3889.278          18.000  
> 2024 04 15 07 15 30.0180000  0 24                     
S33  45002350.741   236489132.111        -660.352          42.000  
E02  29162917.475   153252184.410       -2379.266          47.000    29162917.706   117427030.618       -1823.021          52.000  
E36  30014396.158   157727075.737       -2288.053          48.000    30014397.809   120856025.834       -1753.258          52.000  
G26  26047075.322   136878335.664       -2412.191          47.000    26047074.602   106658400.790       -1879.566          46.000  
R20  26040639.276   139251072.272       -1928.081          41.000    26040636.266   108306479.514       -1499.770          44.000  
R10  26228857.434   139814622.541       -3885.382          47.000                                                                  
R06  28511446.786   152142552.199        3406.909          38.000                                                                  
R05  26687463.607   142659825.187         891.565          50.000    26687459.391   110957598.729         693.185          47.000  
R04  28167177.064   150833903.843       -2397.581          49.000    28167170.486   117315333.133       -1864.792          44.000  
G16  26218166.777   137777412.670         485.931          46.000                                                                  
G18  27804272.986   146112810.523       -3175.741          44.000    27804266.339   113854252.957       -2474.577          42.000  
G29  30160839.828   158496686.852       -3167.477          41.000    30160837.834   123504180.710       -2467.917          40.000  
S31  44047886.135   231473343.038        -660.611          44.000  
E30  29738074.239   156274751.006         433.933          48.000    29738073.581   119742886.844         332.539          50.000  
R11  26081224.419   139370174.101         -51.383          52.000    26081218.744   108399126.042         -39.845          49.000  
R21  26492950.334   141769434.833         558.208          51.000    26492945.706   110264951.428         434.313          48.000  
E15  32275603.789   169609479.478        1177.976          44.000    32275607.124   129960550.961         902.594          48.000  
G23  25824590.603   135709285.943       -1087.215          48.000    25824585.712   105747527.646        -847.237          48.000  
E34  29113967.250   152995148.643        -381.094          48.000    29113968.286   117230200.112        -292.011          52.000  
G27  27498748.356   144506858.275        1673.305          48.000    27498745.564   112602839.464        1303.704          44.000  
E09  33144714.521   174176699.569         910.729          36.000    33144714.550   133460033.265         697.628          42.000  
G10  26086894.662   137087682.299        1675.873          50.000    26086891.606   106821536.682        1305.780          46.000  
E25  32648014.718   171566743.156       -3722.780          40.000    32648017.210   131460377.916       -2852.540          46.000  
R09                                                                  28982879.037                3      -3884.944          18.000  
> 2024 04 15 07 16 00.0180000  0 24                     
S33  45006120.999   236508944.531        -660.577          42.000  
E02  29176533.885   153323739.204       -2390.839          47.000    29176534.546   117481858.310       -1831.989          52.000  
E36  30027464.463   157795747.896       -2289.920          48.000    30027465.779   120908644.762       -1754.584          52.000  
G26  26060895.931   136950963.307       -2429.539          47.000    26060894.601   106714993.745       -1893.130          45.000  
R20  26051467.160   139308973.199       -1931.490          42.000    26051464.600   108351513.557       -1502.266          43.000  
R10  26250771.409   139931433.414       -3901.843          48.000                                                                  
R09  29010872.770                3      -4998.614          17.000                                                                  
R06  28492294.987   152040355.086        3406.071          39.000                                                                  
R05  26682524.030   142633425.323         868.667          48.000    26682520.311   110937065.489         675.609          47.000  
R04  28180674.783   150906182.750       -2420.872          49.000    28180668.483   117371550.073       -1883.013          45.000  
G16  26215446.039   137763114.790         467.432          46.000                                                                  
G18  27822411.072   146208123.637       -3178.237          43.000    27822403.881   113928522.868       -2476.625          43.000  
G29  30178935.670   158591776.789       -3171.866          42.000    30178934.128   123578276.738       -2471.669          40.000  
S31  44051656.788   231493156.887        -660.421          44.000  
E30  29735632.861   156261924.395         421.441          48.000    29735632.793   119733058.668         322.971          50.000  
R11  26081587.697   139372117.892         -78.190          51.000    26081581.653   108400637.854         -60.832          48.000  
R21  26489836.253   141752762.545         553.336          52.000    26489829.885   110251984.131         430.354          48.000  
E15  32268893.085   169574216.066        1173.087          44.000    32268896.560   129933531.055         898.845          48.000  
G23  25830857.041   135742215.875       -1107.907          47.000    25830851.833   105773187.336        -863.290          47.000  
E34  29116160.907   153006676.786        -387.166          49.000    29116162.031   117239033.376        -296.703          52.000  
G27  27489202.969   144456693.601        1670.999          49.000    27489199.645   112563750.116        1302.006          44.000  
E09  33139541.322   174149503.832         903.253          34.000    33139539.114   133439194.922         691.635          43.000  
G10  26077379.012   137037675.478        1658.243          50.000    26077375.566   106782570.350        1292.211          46.000  
E25  32669273.453   171678461.661       -3724.911          40.000    32669276.446   131545980.334       -2854.082          45.000  
> 2024 04 15 07 16 30.0180000  0 23                     
S33  45009890.172   236528752.381        -659.963          42.000  
E02  29190215.358   153395635.466       -2401.901          47.000    29190215.922   117536947.636       -1840.375          52.000  
E36  30040541.335   157864463.635       -2290.948          49.000    30040542.117   120961297.076       -1755.408          52.000  
G26  26074813.545   137024101.682       -2446.052          47.000    26074812.902   106771984.633       -1906.068          46.000  
R20  26062310.888   139366961.935       -1934.106          40.000    26062308.009   108396615.898       -1504.316          43.000  
R10  26272774.383   140048725.792       -3917.383          48.000                                                                  
R06  28473145.481   151938172.768        3406.215          39.000                                                                  
R05  26677713.393   142607704.942         846.467          49.000    26677708.645   110917060.770         658.348          47.000  
R04  28194301.237   150979151.291       -2443.437          50.000    28194294.663   117428303.380       -1900.487          44.000  
G16  26212830.225   137749363.499         449.554          47.000                                                                  
G18  27840560.920   146303503.238       -3180.112          43.000    27840554.972   114002844.628       -2477.897          44.000  
G29  30197054.748   158686991.761       -3175.538          43.000    30197052.493   123652470.210       -2474.541          40.000  
S31  44055426.667   231512967.195        -659.818          44.000  
E30  29733262.001   156249466.064         409.467          47.000    29733262.480   119723512.683         313.721          50.000  
R11  26082100.897   139374858.954        -104.285          52.000    26082093.853   108402769.783         -81.110          47.000  
R21  26486746.813   141736230.929         549.050          52.000    26486739.934   110239126.246         427.053          48.000  
E15  32262208.450   169539090.035        1169.011          43.000    32262212.151   129906616.407         895.689          48.000  
G23  25837239.512   135775757.635       -1127.937          47.000    25837234.326   105799323.774        -878.821          47.000  
E34  29118387.743   153018378.153        -392.597          49.000    29118388.541   117247999.357        -300.830          52.000  
G27  27479668.402   144406590.905        1669.385          49.000    27479665.243   112524709.077        1300.931          44.000  
E09  33134408.475   174122538.029         895.389          34.000    33134407.986   133418532.785         686.142          44.000  
G10  26067961.127   136988184.611        1641.362          50.000    26067958.042   106744006.069        1279.015          46.000  
E25  32690542.295   171790231.747       -3726.473          40.000    32690545.608   131631622.258       -2855.038          45.000  
> 2024 04 15 07 17 00.0180000  0 23                     
S33  45013659.491   236548559.854        -660.062          42.000  
E02  29203962.121   153467875.295       -2413.672          47.000    29203962.555   117592300.217       -1849.396          52.000  
E36  30053626.619   157933225.206       -2292.909          48.000    30053626.887   121013984.493       -1756.844          52.000  
G26  26088829.140   137097751.963       -2463.550          48.000    26088828.192   106829374.465       -1919.800          46.000  
R20  26073171.820   139425040.784       -1937.464          41.000    26073169.057   108441788.354       -1506.891          42.000  
R10  26294869.641   140166498.709       -3933.667          49.000                                                                  
R06  28454000.073   151836012.469        3404.874          40.000                                                                  
R05  26673028.826   142582670.243         822.918          47.000    26673025.669   110897589.318         640.239          48.000  
R04  28208056.771   151052810.419       -2466.736          49.000    28208049.362   117485593.834       -1918.642          43.000  
G16  26210318.461   137736163.218         430.957          48.000                                                                  
G18  27858723.227   146398951.037       -3182.800          42.000    27858719.473   114077219.573       -2480.271          45.000  
G29  30215199.473   158782334.820       -3180.354          45.000    30215194.312   123726763.485       -2477.875          39.000  
S31  44059196.104   231532777.192        -660.296          44.000  
E30  29730961.985   156237380.218         396.645          48.000    29730962.744   119714252.111         303.894          51.000  
R11  26082763.060   139378400.763        -131.335          51.000    26082757.501   108405524.537        -102.246          49.000  
R21  26483683.406   141719842.286         543.936          51.000    26483678.699   110226379.546         423.013          49.000  
E15  32255551.983   169504104.315        1163.952          44.000    32255554.429   129879809.245         891.720          48.000  
G23  25843739.263   135809913.521       -1148.707          48.000    25843733.856   105825938.768        -895.100          47.000  
E34  29120647.803   153030254.948        -398.841          48.000    29120648.467   117257099.749        -305.644          52.000  
G27  27470146.401   144356554.732        1666.655          48.000    27470143.199   112485719.860        1298.617          43.000  
E09  33129321.114   174095807.025         886.958          35.000    33129321.348   133398050.602         679.833          45.000  
G10  26058641.780   136939215.148        1623.564          49.000    26058639.831   106705848.096        1265.087          47.000  
E25  32711821.725   171902054.919       -3728.340          40.000    32711824.718   131717304.879       -2856.628          45.000  
> 2024 04 15 07 17 30.0180000  0 24                     
S33  45017428.811   236568368.463        -660.127          41.000  
E02  29217774.875   153540459.337       -2425.180          47.000    29217774.701   117647916.535       -1858.257          52.000  
E36  30066720.565   158002033.328       -2294.423          48.000    30066720.446   121066707.590       -1758.073          51.000  
G26  26102942.175   137171913.975       -2480.536          49.000    26102941.012   106887163.016       -1932.825          46.000  
R20  26084050.303   139483210.912       -1940.411          42.000    26084047.812   108487031.788       -1509.192          44.000  
R10  26317052.705   140284748.884       -3949.573          49.000                                                                  
R06  28434860.882   151733880.397        3403.797          40.000                                                                  
R05  26668474.994   142558326.113         799.810          48.000    26668471.687   110878655.019         622.272          48.000  
R04  28221940.561   151127159.751       -2489.681          49.000    28221933.247   117543421.099       -1936.707          43.000  
G16  26207912.065   137723517.405         412.244          47.000                                                                  
G18  27876898.784   146494467.374       -3184.849          41.000    27876895.362   114151647.893       -2481.976          45.000  
G29  30233366.986   158877807.448       -3184.486          43.000    30233363.544   123801157.696       -2481.484          39.000  
S31  44062966.024   231552587.514        -660.393          43.000  
E30  29728733.446   156225669.614         384.102          47.000    29728734.586   119705279.050         294.160          51.000  
R11  26083576.189   139382745.235        -158.148          51.000    26083571.471   108408903.548        -123.041          50.000  
R21  26480646.958   141703597.539         538.956          51.000    26480643.495   110213744.781         419.259          48.000  
E15  32248921.903   169469260.304        1159.053          45.000    32248924.264   129853110.667         888.170          48.000  
G23  25850356.357   135844684.323       -1169.319          47.000    25850350.485   105853032.896        -911.178          47.000  
E34  29122941.462   153042307.908        -404.705          48.000    29122942.032   117266335.128        -310.158          52.000  
G27  27460637.918   144306588.049        1664.227          49.000    27460634.852   112446784.801        1296.656          43.000  
E09  33124276.428   174069314.265         879.138          33.000    33124279.284   133377751.019         673.626          44.000  
G10  26049423.279   136890771.072        1605.856          50.000    26049421.917   106668099.499        1251.242          47.000  
E25  32733110.483   172013931.273       -3730.054          40.000    32733114.304   131803028.252       -2858.187          46.000  
E05                                                                  31870000.369   128327283.2881       1282.253          34.000  
> 2024 04 15 07 18 00.0180000  0 24                     
S33  45021197.927   236588175.073        -660.242          41.000  
E02  29231651.813   153613383.790       -2436.394          47.000    29231651.674   117703793.694       -1866.767          52.000  
E36  30079821.643   158070884.390       -2295.539          48.000    30079822.412   121119463.592       -1758.950          51.000  
G26  26117151.932   137246583.065       -2497.113          49.000    26117149.848   106945346.708       -1945.862          46.000  
R20  26094944.673   139541468.758       -1943.280          42.000    26094941.898   108532343.435       -1511.292          44.000  
R10  26339322.749   140403469.201       -3965.051          47.000                                                                  
R06  28415726.381   151631777.672        3402.832          41.000                                                                  
R05  26664050.506   142534672.678         777.069          48.000    26664047.143   110860257.917         604.397          48.000  
R04  28235952.411   151202194.439       -2512.482          49.000    28235944.977   117601781.420       -1954.340          40.000  
G16  26205610.477   137711424.529         393.970          46.000                                                                  
G18  27895086.708   146590048.229       -3186.943          41.000    27895083.338   114226126.446       -2483.248          43.000  
G29  30251558.720   158973406.962       -3188.635          44.000    30251555.161   123875650.760       -2484.521          39.000  
S31  44066735.591   231572397.167        -660.243          43.000  
E30  29726576.699   156214332.623         371.810          48.000    29726577.149   119696592.255         284.909          51.000  
R11  26084539.452   139387890.283        -184.747          51.000    26084534.723   108412905.270        -143.665          50.000  
R21  26477638.458   141687493.133         534.564          52.000    26477633.395   110201219.147         415.801          48.000  
E15  32242316.852   169434555.094        1154.738          44.000    32242319.835   129826518.451         884.820          48.000  
G23  25857089.584   135880066.443       -1189.578          48.000    25857084.182   105880603.377        -926.827          48.000  
E34  29125267.478   153054533.515        -410.123          48.000    29125268.545   117275702.811        -314.338          52.000  
G27  27451142.575   144256689.472        1662.298          48.000    27451138.712   112407902.787        1295.166          42.000  
E09  33119280.407   174043059.117         870.981          32.000    33119283.005   133357633.372         667.709          44.000  
G10  26040305.167   136842851.945        1588.676          50.000    26040302.756   106630759.926        1237.889          47.000  
E25  32754409.586   172125856.518       -3731.370          40.000    32754413.249   131888789.071       -2859.087          46.000  
E05                                                                  31860438.939   128288787.783        1284.715          32.000  
> 2024 04 15 07 18 30.0180000  0 24                     
S33  45024967.416   236607984.047        -660.406          42.000  
E02  29245593.740   153686650.479       -2447.900          47.000    29245593.860   117759933.087       -1875.682          51.000  
E36  30092931.966   158139780.392       -2297.267          48.000    30092933.165   121172254.028       -1760.293          51.000  
G26  26131457.218   137321760.230       -2514.276          48.000    26131455.532   107003926.308       -1958.984          46.000  
R20  26105856.143   139599817.288       -1946.411          42.000    26105853.215   108577725.627       -1513.867          43.000  
R10  26361682.002   140522658.496       -3980.713          46.000                                                                  
R06  28396599.652   151529711.640        3401.511          42.000                                                                  
R05  26659756.423   142511715.647         753.683          49.000    26659751.492   110842402.483         586.213          47.000  
R04  28250092.333   151277915.568       -2535.345          49.000    28250085.271   117660675.699       -1971.921          40.000  
G16  26203415.492   137699889.756         375.214          47.000                                                                  
G18  27913289.028   146685695.117       -3189.450          42.000    27913284.649   114300656.459       -2485.042          44.000  
G29  30269775.553   159069135.974       -3193.028          44.000    30269771.473   123950244.801       -2488.278          39.000  
S31  44070505.459   231592207.399        -660.013          43.000  
E30  29724490.944   156203373.231         359.022          48.000    29724491.484   119688194.793         275.067          51.000  
R11  26085652.802   139393839.277        -211.658          51.000    26085647.949   108417532.252        -164.581          49.000  
R21  26474655.390   141671531.274         529.718          51.000    26474648.738   110188804.388         412.164          47.000  
E15  32235739.945   169399991.351        1149.861          44.000    32235742.503   129800034.617         881.058          48.000  
G23  25863939.051   135916061.893       -1209.863          48.000    25863934.591   105908651.794        -942.915          48.000  
E34  29127627.072   153066933.728        -416.261          48.000    29127628.280   117285204.269        -318.970          52.000  
G27  27441661.069   144206863.272        1659.782          49.000    27441657.224   112369077.193        1293.211          42.000  
E09  33114332.743   174017045.938         862.910          34.000    33114331.976   133337701.203         661.465          41.000  
G10  26031287.572   136795462.857        1570.917          50.000    26031283.859   106593833.395        1224.072          46.000  
E25  32775717.776   172237831.953       -3733.123          40.000    32775721.583   131974588.364       -2860.575          47.000  
E05                                                                  31850860.818                3       1289.842          18.000  
> 2024 04 15 07 19 00.0180000  0 24                     
S33  45028736.221   236627789.370        -660.104          42.000  
E02  29259600.387   153760255.030       -2459.096          47.000    29259600.372   117816331.369       -1884.200          52.000  
E36  30106050.779   158208717.132       -2298.534          49.000    30106051.253   121225075.680       -1761.214          51.000  
G26  26145858.295   137397440.201       -2531.091          48.000    26145857.194   107062897.724       -1972.235          46.000  
R20  26116783.580   139658251.856       -1949.066          42.000    26116780.452   108623174.727       -1516.003          43.000  
R10  26384127.861   140642308.848       -3995.918          46.000                                                                  
R06  28377479.642   151427683.208        3400.336          42.000                                                                  
R05  26655591.607   142489454.546         730.281          49.000    26655586.830   110825088.287         568.109          47.000  
R04  28264360.319   151354317.384       -2558.221          50.000    28264353.268   117720099.294       -1989.592          42.000  
G16  26201326.417   137688910.906         356.610          47.000                                                                  
G18  27931502.703   146781403.331       -3191.324          42.000    27931498.823   114375234.308       -2486.658          46.000  
G29  30288016.899   159164991.321       -3197.414          43.000    30288011.674   124024937.200       -2491.304          39.000  
S31  44074274.524   231612015.091        -660.191          43.000  
E30  29722476.774   156192789.168         346.535          47.000    29722477.265   119680084.920         265.536          51.000  
R11  26086916.063   139400589.335        -238.361          51.000    26086910.882   108422782.259        -185.461          50.000  
R21  26471697.517   141655707.979         525.125          50.000    26471692.062   110176497.448         408.414          47.000  
E15  32229188.632   169365565.548        1145.047          44.000    32229191.329   129773656.492         877.529          48.000  
G23  25870904.545   135952666.439       -1230.337          48.000    25870899.650   105937174.805        -958.545          47.000  
E34  29130019.346   153079504.365        -421.883          48.000    29130020.382   117294836.320        -323.249          52.000  
G27  27432192.370   144157107.542        1657.419          48.000    27432189.452   112330306.489        1291.410          43.000  
E09  33109428.193   173991273.272         854.890          33.000    33109427.525   133317953.344         655.188          40.000  
G10  26022370.507   136748602.801        1553.190          50.000    26022366.794   106557319.078        1210.233          46.000  
E25  32797035.250   172349852.715       -3734.781          41.000    32797038.817   132060422.375       -2861.577          47.000  
E05                                                                  31841274.431                3       1288.261          24.000  
> 2024 04 15 07 19 30.0180000  0 24                     
S33  45032504.864   236647591.783        -659.905          42.000  
E02  29273671.023   153834194.468       -2470.176          47.000    29273670.792   117872986.256       -1892.841          52.000  
E36  30119176.055   158277691.889       -2299.834          49.000    30119176.759   121277926.463       -1762.218          50.000  
G26  26160355.109   137473619.118       -2547.528          48.000    26160353.241   107122257.873       -1985.059          46.000  
R20  26127726.622   139716770.375       -1951.825          42.000    26127723.990   108668689.137       -1518.225          44.000  
R10  26406659.983   140762413.949       -4010.958          46.000                                                                  
R06  28358366.853   151325694.844        3398.893          42.000                                                                  
R05  26651559.247   142467890.243         707.195          50.000    26651552.751   110808316.064         549.958          47.000  
R04  28278755.031   151431396.196       -2580.487          50.000    28278748.146   117780049.482       -2007.088          42.000  
G16  26199342.340   137678487.508         338.239          47.000                                                                  
G18  27949725.645   146877169.790       -3193.019          41.000    27949720.877   114449857.515       -2488.196          44.000  
G29  30306280.737   159260970.826       -3201.419          42.000    30306276.479   124099726.394       -2494.659          41.000  
S31  44078043.512   231631820.253        -660.046          44.000  
E30  29720533.701   156182579.678         334.031          47.000    29720534.113   119672262.065         255.854          50.000  
R11  26088328.605   139408138.582        -264.899          52.000    26088323.713   108428653.898        -206.091          50.000  
R21  26468766.249   141640020.466         520.566          51.000    26468761.646   110164296.089         404.893          48.000  
E15  32222663.339   169331275.571        1140.694          44.000    32222666.042   129747382.457         874.046          48.000  
G23  25877985.601   135989877.277       -1250.396          48.000    25877979.822   105966170.292        -974.465          47.000  
E34  29132443.680   153092242.691        -427.471          48.000    29132444.256   117304596.871        -327.534          51.000  
G27  27422737.067   144107421.831        1655.007          48.000    27422734.890   112291590.355        1289.858          43.000  
E09  33104569.383   173965741.031         847.260          34.000    33104569.328   133298389.721         649.130          41.000  
G10  26013554.173   136702272.117        1535.578          51.000    26013550.460   106521217.274        1196.404          46.000  
E25  32818359.215   172461915.367       -3736.220          41.000    32818363.998   132146288.490       -2862.743          48.000  
E05                                                                  31831672.994                        1289.379          29.000  
> 2024 04 15 07 20 00.0180000  0 24                     
S33  45036272.476   236667392.699        -660.047          41.000  
E02  29287805.758   153908470.631       -2481.604          48.000    29287805.205   117929899.151       -1901.456          52.000  
E36  30132309.815   158346706.658       -2301.161          49.000    30132309.881   121330807.899       -1763.192          50.000  
G26  26174946.878   137550297.856       -2564.307          48.000    26174945.136   107182007.528       -1998.114          46.000  
R20  26138685.966   139775374.733       -1954.858          42.000    26138683.500   108714270.297       -1520.599          43.000  
R10  26429276.755   140882972.413       -4026.109          46.000                                                                  
R06  28339262.302   151223753.670        3397.314          41.000                                                                  
R05  26647655.586   142447028.711         683.565          49.000    26647649.540   110792090.454         531.629          46.000  
R04  28293274.967   151509152.337       -2603.138          51.000    28293268.185   117840526.475       -2024.640          42.000  
G16  26197465.726   137668624.261         319.299          47.000                                                                  
G18  27967961.020   146972996.126       -3195.090          40.000    27967957.830   114524527.336       -2489.719          46.000  
G29  30324568.476   159357077.373       -3205.611          41.000    30324564.673   124174614.628       -2497.943          40.000  
S31  44081811.908   231651623.646        -659.811          43.000  
E30  29718663.220   156172748.629         321.282          48.000    29718662.989   119664729.200         246.021          50.000  
R11  26089891.382   139416490.422        -291.821          52.000    26089885.868   108435149.757        -227.020          49.000  
R21  26465859.953   141624470.826         515.955          51.000    26465855.892   110152201.958         401.368          49.000  
E15  32216164.219   169297124.091        1135.988          44.000    32216167.054   129721214.551         870.475          48.000  
G23  25885182.573   136027696.301       -1270.844          48.000    25885176.122   105995639.657        -990.241          46.000  
E34  29134899.729   153105150.660        -433.159          48.000    29134900.494   117314487.400        -331.940          51.000  
G27  27413296.180   144057810.421        1652.594          47.000    27413294.550   112252932.152        1287.540          44.000  
E09  33099759.059   173940453.952         839.017          35.000    33099757.453   133279013.932         642.641          41.000  
G10  26004839.229   136656475.860        1517.560          50.000    26004835.887   106485531.912        1182.470          46.000  
E25  32839692.226   172574021.166       -3737.679          41.000    32839697.096   132232187.663       -2863.871          48.000  
E05                                                                  31822057.964   128134238.9121       1291.639          33.000  
> 2024 04 15 07 20 30.0180000  0 24                     
S33  45040041.597   236687199.254        -660.255          42.000  
E02  29302004.525   153983089.050       -2492.925          48.000    29302004.801   117987074.286       -1910.189          52.000  
E05  31812429.523   167175438.3041       1686.692          31.000    31812430.496   128095474.731        1292.767          36.000  
E36  30145450.985   158415767.234       -2302.763          48.000    30145451.338   121383724.434       -1764.412          49.000  
G26  26189633.605   137627481.127       -2581.097          47.000    26189632.972   107242150.322       -2011.206          47.000  
R20  26149662.544   139834072.199       -1957.996          42.000    26149660.077   108759923.897       -1522.894          43.000  
R10  26451978.519   141003985.964       -4041.359          46.000                                                                  
R06  28320169.602   151121870.490        3394.912          42.000                                                                  
R05  26643884.935   142426879.548         659.580          48.000    26643879.473   110776418.885         513.239          45.000  
R04  28307923.495   151587590.242       -2625.909          51.000    28307916.102   117901533.752       -2042.281          42.000  
G16  26195697.162   137659329.160         300.366          48.000                                                                  
G18  27986207.523   147068887.604       -3197.664          40.000    27986203.522   114599247.928       -2491.515          44.000  
G29  30342882.537   159453317.593       -3210.361          39.000    30342878.866   124249606.990       -2501.716          40.000  
S31  44085581.373   231671432.255        -660.374          44.000  
E30  29716866.421   156163303.762         308.346          48.000    29716865.693   119657492.216         236.411          50.000  
R11  26091606.008   139425651.648        -318.848          52.000    26091600.138   108442275.153        -247.961          49.000  
R21  26462981.661   141609065.162         511.052          51.000    26462976.245   110140219.827         397.628          47.000  
E15  32209692.940   169263117.555        1131.207          44.000    32209695.607   129695157.683         866.669          48.000  
G23  25892495.568   136066129.131       -1291.274          47.000    25892489.368   106025587.311       -1006.135          46.000  
E34  29137389.468   153118234.042        -438.966          48.000    29137390.119   117324512.326        -336.313          51.000  
G27  27403871.306   144008281.376        1649.740          47.000    27403869.315   112214338.080        1285.370          44.000  
E09  33094997.489   173915420.476         830.207          38.000    33094993.191   133259832.378         636.302          40.000  
G10  25996227.227   136611222.873        1499.388          49.000    25996224.653   106450269.850        1168.420          47.000  
E25  32861035.069   172686175.221       -3739.306          41.000    32861039.507   132318123.798       -2865.108          48.000  
> 2024 04 15 07 21 00.0180000  0 24                     
S33  45043811.319   236707010.293        -660.147          42.000  
E02  29316268.376   154058047.781       -2504.190          47.000    29316268.796   118044510.183       -1918.780          52.000  
E05  31802790.743   167124787.982        1689.426          35.000    31802791.890   128056664.841        1294.442          38.000  
E36  30158601.032   158484871.898       -2304.252          47.000    30158601.148   121436674.753       -1765.483          49.000  
G26  26204416.192   137705166.036       -2597.754          47.000    26204415.746   107302683.992       -2024.347          46.000  
R20  26160656.871   139892860.749       -1961.041          43.000    26160654.579   108805648.307       -1525.159          44.000  
R10  26474765.086   141125449.343       -4056.097          47.000                                                                  
R06  28301088.712   151020048.887        3393.112          42.000                                                                  
R05  26640250.948   142407444.488         635.936          50.000    26640244.474   110761302.727         494.672          46.000  
R04  28322698.247   151666707.056       -2648.378          51.000    28322690.442   117963069.031       -2059.842          42.000  
G16  26194036.609   137650602.798         281.567          48.000                                                                  
G18  28004466.833   147164841.963       -3199.446          41.000    28004463.340   114674017.590       -2493.191          44.000  
G29  30361222.727   159549690.573       -3214.517          42.000    30361217.694   124324702.782       -2504.796          41.000  
S31  44089351.692   231691246.436        -660.305          43.000  
E30  29715141.999   156154245.271         295.568          48.000    29715141.829   119650551.287         226.476          50.000  
R11  26093471.455   139435621.629        -345.636          51.000    26093466.256   108450029.559        -268.878          49.000  
R21  26460129.126   141593801.831         506.580          51.000    26460124.037   110128348.406         393.896          48.000  
E15  32203248.849   169229254.835        1126.378          44.000    32203251.528   129669211.015         863.130          48.000  
G23  25899925.338   136105173.939       -1311.493          48.000    25899920.784   106056011.850       -1021.998          48.000  
E34  29139912.796   153131491.118        -444.759          48.000    29139912.873   117334670.350        -340.820          51.000  
G27  27394462.784   143958835.263        1647.065          48.000    27394459.725   112175808.655        1283.401          44.000  
E09  33090280.495   173890641.376         822.039          38.000    33090278.445   133240845.853         629.652          40.000  
G10  25987719.256   136566514.484        1481.212          50.000    25987717.222   106415432.162        1154.185          47.000  
E25  32882385.964   172798375.112       -3740.764          41.000    32882390.363   132404095.069       -2866.174          48.000  
> 2024 04 15 07 21 30.0180000  0 24                     
S33  45047581.394   236726821.388        -660.395          42.000  
E02  29330595.897   154133340.969       -2515.141          47.000    29330596.597   118102202.357       -1927.191          52.000  
E05  31793140.087   167074075.213        1691.830          39.000    31793141.178   128017807.086        1296.333          42.000  
E36  30171758.459   158554015.077       -2305.313          48.000    30171758.787   121489654.595       -1766.357          49.000  
G26  26219293.075   137783345.815       -2614.288          47.000    26219292.485   107363603.262       -2036.969          46.000  
R20  26171667.339   139951734.445       -1963.947          43.000    26171663.948   108851438.963       -1527.374          44.000  
R10  26497634.731   141247353.551       -4070.806          48.000                                                                  
R06  28282019.307   150918288.417        3391.169          41.000                                                                  
R05  26636748.047   142388721.514         612.396          49.000    26636742.691   110746740.434         476.289          47.000  
R04  28337598.299   151746495.563       -2670.616          50.000    28337590.428   118025126.748       -2077.276          42.000  
G16  26192483.484   137642441.557         262.738          47.000                                                                  
G18  28022737.402   147260853.415       -3201.350          41.000    28022732.859   114748831.716       -2494.242          43.000  
G29  30379586.533   159646191.351       -3218.782          42.000    30379581.432   124399898.224       -2508.097          41.000  
S31  44093122.155   231711059.974        -660.261          44.000  
E30  29713490.192   156145569.478         282.836          47.000    29713490.933   119643903.579         216.656          50.000  
R11  26095487.662   139446395.820        -372.504          51.000    26095483.077   108458409.490        -289.624          50.000  
R21  26457302.565   141578675.507         502.053          50.000    26457297.970   110116583.510         390.365          48.000  
E15  32196831.964   169195530.988        1121.959          44.000    32196833.856   129643370.745         859.694          48.000  
G23  25907471.242   136144824.949       -1331.659          48.000    25907467.020   106086908.742       -1037.480          48.000  
E34  29142467.658   153144916.246        -450.224          48.000    29142467.714   117344957.140        -345.013          51.000  
G27  27385068.846   143909468.803        1644.231          48.000    27385064.992   112137341.297        1281.178          44.000  
E09  33085613.271   173866113.858         813.247          38.000    33085611.209   133222052.030         623.119          40.000  
G10  25979315.308   136522348.110        1463.146          50.000    25979312.377   106381016.838        1140.210          47.000  
E25  32903744.798   172910614.530       -3741.624          41.000    32903749.065   132490096.643       -2867.144          48.000  
> 2024 04 15 07 22 00.0180000  0 24                     
S33  45051352.410   236746636.721        -660.580          42.000  
E02  29344988.989   154208971.501       -2526.420          48.000    29344988.767   118160153.013       -1935.857          52.000  
E05  31783479.105   167023305.882        1693.420          43.000    31783480.248   127978905.984        1297.559          45.000  
E36  30184923.654   158623199.909       -2306.558          47.000    30184924.436   121542666.359       -1767.470          49.000  
G26  26234265.552   137862022.387       -2630.688          48.000    26234263.447   107424909.656       -2049.963          45.000  
R20  26182693.716   140010696.951       -1966.656          43.000    26182690.173   108897298.713       -1529.718          44.000  
R10  26520586.677   141369698.099       -4085.241          48.000                                                                  
R06  28262962.128   150816597.563        3388.572          43.000                                                                  
R05  26633381.455   142370717.124         588.315          51.000    26633375.062   110732737.065         457.700          47.000  
R04  28352622.834   151826957.475       -2693.150          48.000    28352616.610   118087708.286       -2094.630          42.000  
G16  26191039.398   137634850.891         243.567          48.000                                                                  
G18  28041019.744   147356924.714       -3203.309          42.000    28041015.288   114823692.441       -2495.905          44.000  
G29  30397975.474   159742823.434       -3223.223          43.000    30397969.353   124475195.959       -2511.397          40.000  
S31  44096893.451   231730877.845        -660.389          43.000  
E30  29711913.498   156137281.375         269.925          47.000    29711913.928   119637552.925         206.916          50.000  
R11  26097654.817   139457978.307        -399.353          50.000    26097650.169   108467418.087        -310.693          49.000  
R21  26454501.859   141563689.347         497.355          50.000    26454497.933   110104927.670         386.940          48.000  
E15  32190440.882   169161949.770        1116.988          43.000    32190443.767   129617639.727         855.971          49.000  
G23  25915132.472   136185085.094       -1351.966          48.000    25915127.461   106118280.286       -1053.535          48.000  
E34  29145054.193   153158512.578        -455.899          48.000    29145054.939   117355375.126        -349.359          51.000  
G27  27375690.603   143860187.402        1641.266          48.000    27375686.500   112098940.234        1278.748          44.000  
E09  33080994.184   173841843.486         804.716          36.000    33080993.209   133203455.346         616.622          40.000  
G10  25971014.658   136478729.856        1444.994          50.000    25971011.597   106347028.613        1125.907          46.000  
E25  32925111.884   173022895.910       -3743.299          42.000    32925115.408   132576130.346       -2868.111          47.000  
> 2024 04 15 07 22 30.0180000  0 24                     
S33  45055122.939   236766453.684        -660.636          42.000  
E02  29359445.253   154284936.168       -2537.814          48.000    29359444.431   118218359.691       -1944.523          52.000  
E05  31773806.509   166972479.759        1695.080          44.000    31773808.710   127939961.371        1298.856          48.000  
E36  30198097.198   158692423.531       -2308.015          48.000    30198097.456   121595707.832       -1768.548          49.000  
G26  26249331.078   137941191.618       -2647.235          49.000    26249329.289   107486599.965       -2062.775          46.000  
R20  26193736.257   140069746.217       -1969.958          43.000    26193732.720   108943225.909       -1532.013          44.000  
R10  26543619.797   141492476.420       -4099.740          49.000                                                                  
R06  28243919.075   150714978.398        3385.879          43.000                                                                  
R05  26630146.684   142353432.136         564.103          49.000    26630141.514   110719293.161         438.856          47.000  
R04  28367772.754   151908088.296       -2715.614          45.000    28367767.220   118150810.006       -2112.104          44.000  
G16  26189703.318   137627830.613         224.414          47.000                                                                  
G18  28059312.521   147453052.409       -3205.404          42.000    28059307.300   114898597.139       -2497.500          44.000  
G29  30416388.357   159839585.372       -3227.485          42.000    30416381.911   124550594.881       -2514.922          40.000  
S31  44100664.934   231750697.397        -660.919          43.000  
E30  29710410.571   156129379.862         256.875          48.000    29710410.180   119631498.517         196.888          49.000  
R11  26099972.250   139470367.039        -426.331          49.000    26099968.590   108477053.775        -331.653          49.000  
R21  26451727.506   141548840.624         492.555          50.000    26451722.368   110093378.688         383.054          47.000  
E15  32184077.083   169128508.776        1112.287          43.000    32184080.371   129592016.202         852.312          49.000  
G23  25922908.623   136225951.186       -1372.328          47.000    25922903.599   106150123.980       -1069.381          48.000  
E34  29147673.118   153172277.153        -461.676          47.000    29147674.157   117365922.021        -353.741          51.000  
G27  27366328.627   143810990.509        1638.340          48.000    27366324.413   112060605.009        1276.594          44.000  
E09  33076421.857   173817830.151         796.333          33.000    33076422.718   133185055.506         610.036          38.000  
G10  25962817.825   136435659.759        1426.500          49.000    25962815.358   106313467.531        1111.546          46.000  
E25  32946485.785   173135215.554       -3744.454          42.000    32946489.158   132662193.403       -2869.213          47.000  
> 2024 04 15 07 23 00.0180000  0 24                     
S33  45058894.371   236786271.395        -660.608          42.000  
E02  29373962.317   154361232.044       -2548.829          47.000    29373962.998   118276820.159       -1952.955          52.000  
E05  31764124.547   166921596.914        1697.066          43.000    31764126.557   127900973.322        1300.335          47.000  
E36  30211276.765   158761683.354       -2309.275          48.000    30211277.400   121648777.038       -1769.342          50.000  
G26  26264488.803   138020849.666       -2663.434          48.000    26264488.266   107548671.140       -2075.519          46.000  
R20  26204794.363   140128880.402       -1972.345          43.000    26204790.919   108989219.161       -1534.088          43.000  
R10  26566731.537   141615682.005       -4113.948          48.000                                                                  
R06  28224888.867   150613433.623        3383.610          42.000                                                                  
R05  26627047.351   142336867.078         540.044          49.000    26627044.237   110706409.248         420.027          48.000  
R04  28383047.826   151989884.125       -2737.645          45.000    28383042.645   118214429.001       -2129.187          45.000  
G16  26188475.654   137621380.152         205.408          48.000                                                                  
G18  28077615.308   147549233.565       -3206.885          42.000    28077609.693   114973543.493       -2498.827          44.000  
G29  30434825.640   159936474.976       -3232.104          42.000    30434820.100   124626093.288       -2518.161          41.000  
S31  44104436.506   231770517.517        -660.869          44.000  
E30  29708980.927   156121864.192         244.003          49.000    29708980.091   119625739.764         186.976          49.000  
R11  26102442.882   139483560.126        -453.058          51.000    26102437.263   108487315.045        -352.411          49.000  
R21  26448977.323   141534126.693         488.217          50.000    26448972.162   110081934.555         379.656          47.000  
E15  32177739.669   169095206.137        1107.652          44.000    32177743.145   129566498.672         848.782          49.000  
G23  25930799.213   136267420.354       -1392.205          46.000    25930794.024   106182437.619       -1085.005          46.000  
E34  29150323.895   153186207.331        -467.122          47.000    29150324.948   117376595.788        -357.907          52.000  
G27  27356982.727   143761877.846        1635.753          48.000    27356979.028   112022335.409        1274.613          45.000  
E09  33071901.094   173794073.758         787.703          33.000    33071903.364   133166852.521         603.519          41.000  
G10  25954726.578   136393138.202        1408.245          50.000    25954723.900   106280333.871        1097.221          46.000  
E25  32967865.925   173247570.195       -3745.802          43.000    32967869.682   132748283.266       -2870.059          46.000  
> 2024 04 15 07 23 30.0180000  0 24                     
S33  45062665.898   236806090.067        -660.466          42.000  
E02  29388543.567   154437859.407       -2559.646          47.000    29388544.637   118335534.610       -1961.296          52.000  
E05  31754432.154   166870660.763        1698.832          43.000    31754433.862   127861944.345        1301.702          48.000  
E36  30224463.164   158830979.945       -2310.462          48.000    30224464.301   121701874.424       -1770.412          50.000  
G26  26279739.874   138100995.858       -2679.681          48.000    26279739.472   107611122.695       -2088.092          46.000  
R20  26215867.686   140188099.813       -1975.745          42.000    26215864.763   109035278.681       -1536.792          42.000  
R10  26589923.801   141739311.902       -4127.968          47.000                                                                  
R06  28205874.276   150511968.829        3380.712          43.000                                                                  
R05  26624084.118   142321026.492         515.954          49.000    26624080.284   110694088.774         401.191          46.000  
R04  28398446.600   152072343.813       -2759.572          44.000    28398441.585   118278564.353       -2146.281          45.000  
G16  26187357.047   137615501.852         186.426          48.000                                                                  
G18  28095928.421   147645468.363       -3208.694          43.000    28095924.056   115048531.628       -2500.214          45.000  
G29  30453286.612   160033493.611       -3235.781          42.000    30453281.712   124701692.252       -2521.514          40.000  
S31  44108208.434   231790338.944        -660.627          44.000  
E30  29707624.702   156114736.797         231.143          48.000    29707623.933   119620278.527         177.040          49.000  
R11  26105062.799   139497559.043        -479.987          51.000    26105057.929   108498203.077        -373.419          50.000  
R21  26446253.942   141519548.511         483.696          51.000    26446247.612   110070595.995         376.183          47.000  
E15  32171428.474   169062042.916        1103.104          43.000    32171432.437   129541087.968         845.352          49.000  
G23  25938805.269   136309492.851       -1412.385          47.000    25938800.371   106215221.379       -1100.587          47.000  
E34  29153006.705   153200303.621        -472.572          47.000    29153007.576   117387396.839        -362.071          52.000  
G27  27347653.664   143712852.251        1632.736          48.000    27347650.192   111984133.651        1272.382          45.000  
E09  33067432.655   173770577.353         779.258          36.000    33067433.027   133148848.844         596.804          42.000  
G10  25946740.996   136351168.598        1389.775          51.000    25946737.302   106247630.293        1082.908          46.000  
E25  32989252.719   173359959.627       -3746.614          42.000    32989256.515   132834399.792       -2870.817          46.000  
> 2024 04 15 07 24 00.0180000  0 24                     
S33  45066437.301   236825909.712        -660.871          42.000  
E02  29403188.659   154514816.547       -2570.717          47.000    29403189.071   118394501.740       -1969.765          52.000  
E05  31744728.419   166819672.618        1700.317          42.000    31744730.736   127822875.573        1302.953          48.000  
E36  30237656.175   158900311.914       -2311.598          48.000    30237657.625   121754998.923       -1771.310          50.000  
G26  26295084.320   138181627.495       -2695.917          48.000    26295083.413   107673952.514       -2100.641          46.000  
R20  26226957.622   140247404.066       -1978.473          42.000    26226955.186   109081404.200       -1538.672          44.000  
R10  26613196.091   141863361.082       -4141.992          47.000                                                                  
R06  28186875.621   150410587.908        3377.925          43.000                                                                  
R05  26621256.481   142305912.111         491.690          49.000    26621252.715   110682333.131         382.343          46.000  
R04  28413969.752   152155464.136       -2781.784          45.000    28413963.226   118343213.468       -2163.542          44.000  
G16  26186347.288   137610196.826         167.133          48.000                                                                  
G18  28114250.313   147741755.026       -3210.377          42.000    28114246.321   115123560.219       -2501.645          45.000  
G29  30471773.248   160130640.223       -3240.495          41.000    30471768.270   124777390.908       -2525.041          41.000  
S31  44111980.650   231810161.355        -661.169          44.000  
E30  29706341.320   156107998.085         218.151          48.000    29706341.845   119615115.093         167.115          50.000  
R11  26107831.406   139512363.287        -507.007          50.000    26107828.307   108509717.467        -394.287          49.000  
R21  26443555.077   141505104.609         479.200          51.000    26443548.314   110059361.896         372.742          46.000  
E15  32165144.931   169029018.283        1098.445          45.000    32165147.728   129515783.454         841.662          49.000  
G23  25946926.166   136352166.954       -1432.602          46.000    25946922.811   106248473.906       -1116.212          48.000  
E34  29155720.286   153214564.621        -478.161          47.000    29155721.600   117398324.111        -366.358          52.000  
G27  27338341.203   143663914.669        1629.697          47.000    27338337.887   111946000.492        1269.780          46.000  
E09  33063010.465   173747342.192         770.197          35.000    33063010.885   133131045.344         589.909          41.000  
G10  25938859.814   136309752.382        1371.448          50.000    25938856.656   106215357.934        1068.676          47.000  
E25  33010645.561   173472381.730       -3748.186          41.000    33010649.444   132920541.317       -2871.804          45.000  
> 2024 04 15 07 24 30.0180000  0 25                     
S33  45070208.995   236845731.235        -660.572          42.000  
E02  29417896.684   154592102.853       -2581.704          48.000    29417896.079   118453721.093       -1978.188          52.000  
E05  31735015.817   166768635.069        1702.005          41.000    31735018.451   127783768.928        1304.080          48.000  
E36  30250856.331   158969679.097       -2312.843          47.000    30250857.418   121808150.403       -1772.265          49.000  
G26  26310520.527   138262743.001       -2712.006          49.000    26310518.901   107737159.385       -2113.251          45.000  
R20  26238063.516   140306792.779       -1981.396          41.000    26238061.576   109127595.438       -1540.875          44.000  
R10  26636545.136   141987825.804       -4155.825          47.000                                                                  
R06  28167892.951   150309295.919        3375.029          43.000                                                                  
R05  26618565.144   142291526.959         467.312          50.000    26618561.177   110671144.734         363.459          45.000  
R04  28429614.128   152239243.539       -2803.586          42.000    28429608.581   118408375.189       -2180.665          44.000  
G16  26185447.586   137605467.034         147.919          47.000                                                                  
G18  28132581.965   147838092.946       -3212.202          42.000    28132578.883   115198628.716       -2502.856          44.000  
G29  30490282.966   160227915.662       -3244.797          41.000    30490279.335   124853189.992       -2528.511          39.000  
S31  44115753.239   231829986.199        -660.963          43.000  
E30  29705133.327   156101649.606         205.048          47.000    29705134.090   119610250.659         157.102          50.000  
R11  26110752.517   139527972.860        -533.887          51.000    26110749.717   108521858.223        -415.271          50.000  
R21  26440880.614   141490795.043         474.570          50.000    26440874.142   110048232.275         369.102          47.000  
E15  32158886.676   168996132.611        1093.856          44.000    32158889.509   129490585.381         838.221          48.000  
G23  25955161.627   136395442.092       -1452.493          47.000    25955158.042   106282194.797       -1131.955          48.000  
E34  29158465.518   153228990.053        -483.659          47.000    29158466.939   117409377.374        -370.645          52.000  
G27  27329045.371   143615067.175        1626.696          47.000    27329042.862   111907937.533        1267.491          46.000  
E09  33058636.750   173724370.555         761.009          37.000    33058639.400   133113443.781         583.351          40.000  
G10  25931084.495   136268892.262        1352.554          51.000    25931081.544   106183518.906        1053.934          47.000  
E25  33032044.429   173584835.499       -3748.830          40.000    33032048.315   133006707.157       -2872.564          44.000  
G15                                                                  30681438.144                3      -1008.473          19.000  
> 2024 04 15 07 25 00.0180000  0 24                     
S33  45073979.645   236865546.484        -660.344          42.000  
E02  29432665.046   154669709.440       -2592.187          48.000    29432664.110   118513185.866       -1986.172          52.000  
E05  31725292.939   166717542.346        1704.021          40.000    31725295.875   127744619.968        1305.576          48.000  
E36  30264062.007   159039072.981       -2313.472          47.000    30264062.686   121861322.327       -1772.625          50.000  
G26  26326045.718   138344332.553       -2727.533          48.000    26326044.625   107800735.631       -2125.336          45.000  
R20  26249184.075   140366257.504       -1983.569          41.000    26249182.325   109173845.768       -1542.651          44.000  
R10  26659970.285   142112693.329       -4169.084          48.000                                                                  
R06  28148927.196   150208089.268        3372.021          43.000                                                                  
R05  26616008.963   142277865.519         443.242          50.000    26616004.760   110660519.173         344.979          45.000  
R04  28445379.483   152323671.457       -2825.161          43.000    28445374.074   118474041.305       -2197.098          42.000  
G16  26184655.720   137601305.941         129.254          48.000                                                                  
G18  28150922.776   147934473.237       -3213.491          42.000    28150918.651   115273730.210       -2503.732          43.000  
G29  30508816.612   160325311.703       -3248.760          41.000    30508814.262   124929082.970       -2531.241          40.000  
S31  44119524.451   231849803.988        -660.339          44.000  
E30  29703998.830   156095684.615         192.376          48.000    29703999.069   119605680.063         147.442          51.000  
R11  26113823.477   139544380.107        -560.223          51.000    26113819.785   108534619.397        -435.657          50.000  
R21  26438229.610   141476611.331         470.656          50.000    26438223.835   110037200.527         366.095          47.000  
E15  32152653.262   168963377.941        1089.845          44.000    32152656.671   129465487.702         834.915          49.000  
G23  25963509.627   136439309.348       -1472.096          47.000    25963505.724   106316377.070       -1147.041          48.000  
E34  29161239.687   153243571.298        -488.636          46.000    29161241.696   117420550.017        -374.466          53.000  
G27  27319766.351   143566303.637        1624.107          48.000    27319763.533   111869939.978        1265.454          46.000  
E09  33054315.354   173701656.531         752.949          38.000    33054316.301   133096039.533         576.908          39.000  
G10  25923413.637   136228582.465        1334.391          51.000    25923410.348   106152108.710        1039.923          46.000  
E25  33053447.806   173697311.736       -3749.680          40.000    33053451.786   133092890.194       -2873.053          43.000  
> 2024 04 15 07 25 30.0180000  0 24                     
S33  45077748.927   236885354.500        -659.867          42.000  
E02  29447492.580   154747633.658       -2602.778          48.000    29447492.278   118572894.005       -1994.145          51.000  
E05  31715559.755   166666394.893        1705.745          40.000    31715562.691   127705429.055        1307.115          48.000  
E36  30277271.603   159108491.247       -2314.204          47.000    30277272.770   121914512.966       -1773.218          50.000  
G26  26341661.662   138426392.441       -2743.115          48.000    26341660.156   107864678.364       -2137.341          45.000  
R20  26260318.173   140425796.156       -1985.718          42.000    26260316.835   109220153.562       -1544.354          45.000  
R10  26683468.182   142237957.670       -4182.026          47.000                                                                  
R06  28129977.773   150106970.850        3369.006          43.000                                                                  
R05  26613588.289   142264928.763         419.124          49.000    26613584.219   110650457.309         326.298          44.000  
R04  28461266.961   152408743.978       -2846.350          42.000    28461260.915   118540208.803       -2213.718          42.000  
G16  26183972.269   137597713.092         110.352          48.000                                                                  
G18  28169270.113   148030893.186       -3214.598          42.000    28169266.700   115348862.649       -2504.798          44.000  
G29  30527374.020   160422827.027       -3252.614          42.000    30527370.385   125005068.871       -2534.282          39.000  
S31  44123294.460   231869615.265        -660.432          44.000  
E30  29702937.194   156090102.552         179.632          48.000    29702936.738   119601402.889         137.725          51.000  
R11  26117044.146   139561583.361        -586.682          52.000    26117038.296   108547999.684        -456.323          48.000  
R21  26435602.861   141462551.038         466.638          51.000    26435596.298   110026264.735         362.896          48.000  
E15  32146444.748   168930752.494        1085.466          44.000    32146448.020   129440489.030         831.708          49.000  
G23  25971969.373   136483765.931       -1491.738          47.000    25971964.586   106351018.575       -1162.311          48.000  
E34  29164044.002   153258305.969        -493.632          46.000    29164045.594   117431840.204        -378.298          53.000  
G27  27310502.844   143517624.014        1621.229          47.000    27310500.557   111832007.827        1263.276          47.000  
E09  33050042.844   173679200.344         744.196          38.000    33050043.243   133078832.872         570.267          39.000  
G10  25915847.282   136188823.524        1316.131          51.000    25915844.603   106121127.746        1025.468          47.000  
E25  33074855.475   173809807.305       -3750.122          41.000    33074858.885   133179088.016       -2873.456          44.000  
> 2024 04 15 07 26 00.0180000  0 25                     
S33  45081517.597   236905158.411        -660.111          42.000  
E02  29462381.726   154825878.497       -2613.336          47.000    29462381.552   118632847.832       -2002.407          51.000  
E05  31705817.791   166615198.819        1707.489          40.000    31705820.192   127666200.961        1308.375          47.000  
E36  30290487.244   159177937.367       -2315.246          48.000    30290487.984   121967724.945       -1774.097          50.000  
G26  26357366.851   138508924.710       -2758.795          48.000    26357364.653   107928989.217       -2149.835          44.000  
R20  26271466.048   140485412.734       -1988.361          41.000    26271465.282   109266522.024       -1546.497          44.000  
R10  26707041.346   142363618.831       -4195.082          47.000                                                                  
R06  28111046.216   150005949.486        3365.809          41.000                                                                  
R05  26611306.602   142252723.640         394.750          50.000    26611300.592   110640964.466         307.027          45.000  
R04  28477274.085   152494462.682       -2867.690          37.000    28477268.507   118606878.942       -2230.269          43.000  
G16  26183397.694   137594694.098          91.302          48.000                                                                  
G18  28187626.973   148127355.870       -3216.142          42.000    28187622.967   115424028.355       -2505.989          44.000  
G29  30545954.069   160520465.317       -3256.674          43.000    30545949.367   125081150.641       -2537.658          39.000  
S31  44127063.708   231889422.425        -660.277          44.000  
E30  29701948.488   156084908.565         166.821          49.000    29701948.175   119597423.077         127.889          51.000  
R11  26120413.441   139579586.540        -613.330          52.000    26120406.542   108562002.116        -476.831          47.000  
R21  26432998.401   141448618.138         462.477          50.000    26432992.488   110015428.056         359.643          48.000  
E15  32140261.883   168898260.227        1080.884          44.000    32140264.849   129415592.402         828.253          49.000  
G23  25980541.358   136528814.838       -1511.415          47.000    25980536.749   106386121.629       -1177.773          48.000  
E34  29166877.643   153273197.458        -498.920          46.000    29166879.061   117443250.572        -382.224          53.000  
G27  27301256.206   143469034.137        1618.323          47.000    27301254.686   111794145.599        1260.998          47.000  
E09  33045820.587   173657007.892         735.245          38.000    33045820.589   133061828.286         563.429          39.000  
G10  25908386.963   136149621.643        1297.478          50.000    25908384.992   106090580.827        1011.034          47.000  
E25  33096267.045   173922324.864       -3750.988          41.000    33096270.054   133265302.707       -2873.797          43.000  
G15                                                                  30703683.377                3      -1033.301          24.000  
> 2024 04 15 07 26 30.0180000  0 25                     
S33  45085284.997   236924955.086        -659.606          42.000  
E02  29477331.987   154904439.453       -2623.786          47.000    29477331.191   118693043.868       -2010.449          51.000  
E05  31696065.323   166563952.828        1708.964          41.000    31696067.674   127626934.604        1309.546          46.000  
E36  30303707.681   159247407.236       -2315.893          48.000    30303707.627   122020955.099       -1774.541          50.000  
G26  26373161.333   138591923.856       -2774.127          48.000    26373158.661   107993663.873       -2161.884          44.000  
R20  26282628.836   140545103.485       -1990.857          42.000    26282626.830   109312948.163       -1548.376          44.000  
R10  26730688.199   142489668.477       -4208.022          47.000                                                                  
R06  28092132.660   149905026.044        3362.701          40.000                                                                  
R05  26609159.898   142241249.142         370.370          50.000    26609155.929   110632039.862         288.071          47.000  
R04  28493400.803   152580821.670       -2889.012          37.000    28493394.223   118674047.006       -2247.220          45.000  
G16  26182931.595   137592246.801          72.180          48.000                                                                  
G18  28205991.254   148223856.823       -3217.122          43.000    28205986.781   115499223.885       -2506.934          44.000  
G29  30564557.054   160618223.419       -3260.600          44.000    30564551.929   125157325.787       -2540.817          38.000  
S31  44130831.531   231909223.306        -659.713          43.000  
E30  29701032.620   156080100.273         153.969          48.000    29701032.863   119593738.789         117.978          50.000  
R11  26123930.472   139598385.886        -639.667          51.000    26123924.862   108576623.806        -497.601          49.000  
R21  26430416.619   141434808.356         458.363          49.000    26430411.887   110004687.185         356.594          48.000  
E15  32134103.612   168865897.520        1076.742          43.000    32134106.504   129390795.050         824.967          49.000  
G23  25989225.743   136574451.496       -1530.964          47.000    25989221.039   106421682.640       -1192.816          47.000  
E34  29169740.638   153288241.581        -503.949          46.000    29169741.707   117454777.903        -386.173          52.000  
G27  27292026.111   143420532.175        1615.357          47.000    27292024.991   111756351.869        1258.675          48.000  
E09  33041647.912   173635077.477         726.658          38.000    33041645.297   133045024.482         556.937          36.000  
G10  25901033.461   136110975.390        1279.046          50.000    25901030.546   106060466.861         996.685          47.000  
E25  33117682.198   174034859.523       -3751.298          39.000    33117684.874   133351530.518       -2874.423          42.000  
G15                                                                  30711256.520                3      -1037.338          20.000  
> 2024 04 15 07 27 00.0180000  0 25                     
S33  45089049.721   236944739.540        -659.345          42.000  
E02  29492340.407   154983307.866       -2634.097          47.000    29492339.858   118753475.480       -2018.283          51.000  
E05  31686303.876   166512651.418        1710.816          42.000    31686305.106   127587625.767        1311.030          45.000  
E36  30316930.207   159316892.671       -2316.424          48.000    30316930.128   122074197.166       -1774.885          50.000  
G26  26389042.282   138675380.220       -2789.589          48.000    26389040.035   108058694.789       -2173.738          44.000  
R20  26293804.774   140604861.439       -1993.250          43.000    26293801.004   109359426.546       -1550.226          43.000  
R10  26754405.951   142616094.885       -4220.496          46.000                                                                  
R06  28073236.922   149804197.651        3359.487          40.000                                                                  
R05  26607148.834   142230499.627         346.212          50.000    26607145.061   110623679.146         269.338          47.000  
R04  28509646.014   152667810.687       -2910.053          41.000    28509638.852   118741705.048       -2263.507          45.000  
G16  26182573.504   137590364.827          53.424          47.000                                                                  
G18  28224360.818   148320387.427       -3218.161          44.000    28224355.498   115574442.547       -2507.578          45.000  
G29  30583181.547   160716093.653       -3264.282          43.000    30583176.224   125233588.300       -2543.233          38.000  
S31  44134596.649   231929009.744        -659.539          44.000  
E30  29700189.678   156075671.198         141.343          48.000    29700189.874   119590345.072         108.255          50.000  
R11  26127595.873   139617973.845        -666.089          51.000    26127590.310   108591858.851        -518.146          48.000  
R21  26427856.663   141421113.593         454.543          49.000    26427852.708   109994035.715         353.452          48.000  
E15  32127968.595   168833656.662        1072.608          43.000    32127971.516   129366091.070         821.981          49.000  
G23  25998020.924   136620667.103       -1550.124          48.000    25998015.876   106457694.803       -1207.949          47.000  
E34  29172630.938   153303429.975        -508.727          46.000    29172631.946   117466415.777        -389.761          52.000  
G27  27282812.161   143372112.270        1612.674          46.000    27282810.966   111718622.092        1256.657          47.000  
E09  33037523.390   173613403.439         718.140          38.000    33037521.473   133028417.079         550.450          37.000  
G10  25893784.296   136072879.277        1260.600          51.000    25893781.164   106030781.602         982.329          47.000  
E25  33139098.953   174147402.304       -3751.272          37.000    33139101.103   133437764.559       -2874.585          40.000  
G15                                                                  30718911.116                3      -1047.805          22.000  
> 2024 04 15 07 27 30.0180000  0 24                     
S33  45092813.166   236964517.188        -659.417          42.000  
E02  29507408.298   155062491.364       -2645.040          47.000    29507407.975   118814148.506       -2026.693          51.000  
E05  31676532.815   166461305.363        1711.995          42.000    31676534.688   127548282.741        1311.794          46.000  
E36  30330157.791   159386401.691       -2317.720          49.000    30330157.021   122127457.318       -1775.823          50.000  
G26  26405011.706   138759300.365       -2805.318          48.000    26405008.919   108124087.054       -2186.020          44.000  
R20  26304994.256   140664694.711       -1995.789          43.000    26304990.919   109405963.530       -1552.466          44.000  
R10  26778193.798   142742902.043       -4233.555          45.000                                                                  
R06  28054361.254   149703477.475        3355.125          39.000                                                                  
R05  26605276.627   142220486.649         321.139          50.000    26605272.830   110615891.261         249.753          48.000  
R04  28526009.722   152755436.246       -2931.632          46.000    28526003.308   118809858.188       -2280.200          46.000  
G16  26182324.720   137589058.806          33.643          47.000                                                                  
G18  28242738.014   148416955.361       -3219.813          45.000    28242733.093   115649690.256       -2509.085          45.000  
G29  30601827.774   160814084.698       -3268.599          42.000    30601823.253   125309944.980       -2547.070          38.000  
S31  44138360.927   231948791.118        -659.509          43.000  
E30  29699421.056   156071631.039         127.915          48.000    29699420.890   119587249.354          98.007          50.000  
R11  26131411.169   139638358.525        -693.011          52.000    26131405.231   108607713.588        -539.032          49.000  
R21  26425321.701   141407542.171         450.030          51.000    26425316.265   109983480.194         350.091          47.000  
E15  32121857.213   168801546.192        1067.829          43.000    32121861.123   129341487.005         818.252          50.000  
G23  26006927.452   136667469.182       -1570.021          48.000    26006922.555   106494163.960       -1223.452          48.000  
E34  29175549.862   153318770.626        -514.160          46.000    29175551.211   117478170.316        -393.985          53.000  
G27  27273615.977   143323784.810        1609.158          47.000    27273614.134   111680964.336        1253.758          47.000  
E09  33033448.640   173591996.304         708.860          37.000    33033447.380   133012014.275         542.922          37.000  
G10  25886640.785   136035343.947        1241.581          50.000    25886637.719   106001533.333         967.423          46.000  
E25  33160518.134   174259960.506       -3752.248          34.000    33160520.041   133524010.411       -2875.424          37.000  
> 2024 04 15 07 28 00.0180000  0 25                     
S33  45096576.989   236984296.520        -659.256          42.000  
E02  29522537.752   155141994.127       -2655.423          48.000    29522536.994   118875066.196       -2034.718          51.000  
E05  31666754.344   166409922.169        1713.064          41.000    31666756.985   127508911.241        1312.826          46.000  
E36  30343389.881   159455939.037       -2318.394          49.000    30343389.433   122180739.188       -1776.398          49.000  
G26  26421070.172   138843687.531       -2820.604          48.000    26421067.418   108189843.269       -2197.701          43.000  
R20  26316197.026   140724607.720       -1998.486          41.000    26316194.814   109452562.519       -1554.346          44.000  
R10  26802054.429   142870091.470       -4246.058          45.000                                                                  
R06  28035509.418   149602875.461        3351.373          40.000                                                                  
R05  26603541.501   142211218.088         296.469          50.000    26603536.610   110608682.335         230.568          46.000  
R04  28542492.213   152843701.201       -2952.778          47.000    28542486.754   118878508.719       -2296.707          45.000  
G16  26182186.705   137588334.659          14.563          47.000                                                                  
G18  28261121.377   148513564.966       -3220.959          45.000    28261116.128   115724970.496       -2509.902          44.000  
G29  30620498.825   160912201.714       -3272.487          42.000    30620494.473   125386399.775       -2549.990          39.000  
S31  44142125.231   231968573.027        -659.264          44.000  
E30  29698727.031   156067986.175         114.743          47.000    29698727.380   119584456.540          88.013          50.000  
R11  26135376.455   139659545.620        -719.531          52.000    26135370.469   108624192.456        -559.570          50.000  
R21  26422808.826   141394099.084         445.995          50.000    26422803.920   109973024.500         346.881          47.000  
E15  32115772.757   168769571.293        1063.481          44.000    32115776.384   129316986.827         814.892          50.000  
G23  26015945.805   136714861.845       -1589.527          49.000    26015940.411   106531093.321       -1238.636          48.000  
E34  29178498.199   153334268.107        -519.147          46.000    29178500.230   117490045.028        -397.877          53.000  
G27  27264438.798   143275556.847        1605.896          47.000    27264436.692   111643384.128        1251.380          47.000  
E09  33029427.227   173570863.241         699.775          36.000    33029425.300   132995821.435         536.602          36.000  
G10  25879605.818   135998376.888        1222.815          49.000    25879602.943   105972727.848         952.936          46.000  
E25  33181940.481                       -3753.180          31.000    33181943.035   133610271.056       -2875.474          34.000  
G15                                                                  30734436.839                3      -1066.774          21.000  
> 2024 04 15 07 28 30.0180000  0 25                     
S33  45100340.950   237004075.876        -659.662          42.000  
E02  29537726.573   155221815.363       -2666.188          48.000    29537726.432   118936227.929       -2042.956          51.000  
E05  31656969.485   166358504.161        1714.243          39.000    31656972.691   127469513.082        1313.696          47.000  
E36  30356626.865   159525504.379       -2319.402          48.000    30356627.351   122234042.516       -1777.234          49.000  
G26  26437217.355   138928539.866       -2836.272          49.000    26437215.620   108255961.956       -2210.073          44.000  
R20  26327415.887   140784601.534       -2001.428          41.000    26327413.970   109499224.357       -1556.439          44.000  
R10  26825986.105   142997658.138       -4258.597          45.000                                                                  
R06  28016680.309   149502396.443        3347.292          40.000                                                                  
R05  26601946.923   142202696.233         271.314          49.000    26601943.224   110602054.275         211.133          46.000  
R04  28559093.947   152932603.248       -2974.149          47.000    28559087.942   118947654.737       -2313.104          44.000  
G16  26182159.123   137588194.031          -5.121          48.000                                                                  
G18  28279513.646   148610215.569       -3222.475          45.000    28279509.667   115800282.637       -2510.895          46.000  
G29  30639193.592   161010445.121       -3276.965          41.000    30639188.808   125462953.068       -2553.453          38.000  
S31  44145889.925   231988355.374        -659.531          43.000  
E30  29698109.601   156064737.913         101.577          48.000    29698109.260   119581967.620          77.814          50.000  
R11  26139490.749   139681534.500        -746.490          52.000    26139486.355   108641294.881        -580.572          50.000  
R21  26420321.850   141380784.121         441.681          51.000    26420316.485   109962668.446         343.392          48.000  
E15  32109713.539   168737732.129        1058.938          43.000    32109717.485   129292590.631         811.428          50.000  
G23  26025076.856   136762844.148       -1609.475          49.000    26025070.436   106568482.135       -1254.017          47.000  
E34  29181477.738   153349922.013        -524.780          46.000    29181479.174   117502039.575        -401.960          53.000  
G27  27255281.036   143227430.329        1602.367          47.000    27255278.289   111605882.957        1248.585          47.000  
E09  33025455.249   173550006.262         690.902          34.000    33025457.598   132979840.153         529.257          38.000  
G10  25872680.100   135961980.254        1203.680          50.000    25872677.173   105944366.853         937.853          46.000  
E25  33203367.603                       -3753.481          28.000    33203369.535   133696545.635       -2876.612          32.000  
G15                                                                  30742323.949                       -1081.274          26.000  
> 2024 04 15 07 29 00.0180000  0 26                     
S33  45104104.511   237023852.226        -659.565          41.000  
E02  29552976.265   155301951.229       -2676.556          48.000    29552975.933   118997630.731       -2050.961          51.000  
E05  31647179.136   166307050.749        1715.595          41.000    31647181.495   127430087.799        1314.497          48.000  
E36  30369869.149   159595094.397       -2320.274          48.000    30369869.688   122287364.732       -1777.897          49.000  
G26  26453452.187   139013852.481       -2851.627          49.000    26453450.025   108322439.293       -2221.978          45.000  
R20  26338650.365   140844672.628       -2003.912          41.000    26338647.463   109545946.369       -1558.588          43.000  
R10  26849987.892   143125595.744       -4270.994          45.000                                                                  
R06  27997873.555   149402042.625        3342.980          41.000                                                                  
R05  26600493.622   142194920.815         246.507          50.000    26600489.299   110596006.751         191.701          48.000  
R04  28575814.490   153022136.900       -2995.094          47.000    28575807.709   119017291.985       -2329.849          44.000  
G16  26182244.389   137588636.094         -24.652          47.000                                                                  
G18  28297912.441   148706903.496       -3223.694          45.000    28297908.023   115875623.856       -2512.020          46.000  
G29  30657912.077   161108812.224       -3281.131          42.000    30657907.625   125539602.769       -2557.243          38.000  
S31  44149653.896   232008136.530        -659.623          43.000  
E30  29697567.014   156061884.534          88.299          48.000    29697566.608   119579781.263          67.708          51.000  
R11  26143755.073   139704322.336        -773.193          52.000    26143751.486   108659018.727        -601.337          50.000  
R21  26417857.343   141367594.112         437.410          51.000    26417851.454   109952409.552         340.176          48.000  
E15  32103679.803   168706025.794        1054.439          43.000    32103684.090   129268296.217         807.988          50.000  
G23  26034318.646   136811412.077       -1628.976          48.000    26034312.445   106606327.265       -1269.296          47.000  
E34  29184485.683   153365728.843        -529.504          46.000    29184487.205   117514151.309        -405.835          53.000  
G27  27246141.914   143179404.291        1599.086          47.000    27246138.713   111568460.100        1246.073          46.000  
E09  33021539.837   173529424.611         680.839          34.000    33021541.688   132964069.786         522.074          39.000  
G10  25865862.855   135926153.341        1184.539          50.000    25865860.246   105916449.789         922.972          47.000  
E25  33224790.327                       -3753.984          25.000    33224799.307   133782830.939       -2876.386          31.000  
G15                                                                  30750287.870                3      -1094.228          21.000  
G08                                                                  29863705.529                1       1836.717          28.000  
> 2024 04 15 07 29 30.0180000  0 26                     
S33  45107867.653   237043628.600        -659.285          42.000  
E02  29568284.888   155382400.220       -2687.006          48.000    29568284.745   119059273.459       -2058.857          51.000  
E05  31637381.342   166255563.670        1716.707          41.000    31637384.447   127390636.734        1315.269          49.000  
E36  30383115.704   159664708.090       -2321.079          48.000    30383116.442   122340705.105       -1778.475          48.000  
G26  26469773.330   139099622.851       -2866.882          48.000    26469771.385   108389273.349       -2234.022          45.000  
R20  26349897.983   140904820.892       -2006.458          41.000    26349895.740   109592728.341       -1560.522          43.000  
R10  26874057.117   143253899.074       -4283.093          45.000                                                                  
R06  27979091.789   149301818.022        3338.362          42.000                                                                  
R05  26599179.808   142187893.890         221.510          51.000    26599175.610   110590541.395         172.324          48.000  
R04  28592652.360   153112299.358       -3016.005          47.000    28592645.450   119087418.293       -2345.848          43.000  
G16  26182439.161   137589660.795         -43.964          48.000                                                                  
G18  28316318.269   148803627.334       -3224.860          45.000    28316313.974   115950993.065       -2512.805          46.000  
G29  30676653.998   161207302.315       -3285.370          41.000    30676650.712   125616348.243       -2559.836          38.000  
S31  44153417.610   232027914.809        -659.286          43.000  
E30  29697099.114   156059426.649          75.115          47.000    29697098.958   119577897.943          57.529          51.000  
R11  26148169.309   139727908.199        -799.615          52.000    26148165.283   108677363.312        -622.009          51.000  
R21  26415415.288   141354527.968         433.172          51.000    26415409.279   109942247.024         336.891          48.000  
E15  32097671.639   168674451.734        1049.937          42.000    32097675.275   129244103.148         804.590          49.000  
G23  26043671.351   136860563.980       -1648.280          48.000    26043666.161   106644627.471       -1284.481          48.000  
E34  29187522.776   153381687.515        -534.604          47.000    29187524.141   117526379.387        -409.759          53.000  
G27  27237022.042   143131480.083        1595.392          48.000    27237018.629   111531116.580        1243.175          46.000  
E09  33017677.193   173509119.615         671.803          35.000    33017677.712   132948511.393         514.905          39.000  
G10  25859153.799   135890897.664        1165.452          50.000    25859150.884   105888977.855         908.061          46.000  
E25                                                                  33246231.180   133869125.593       -2877.134          31.000  
G15                                                                  30758331.776                3      -1108.167          20.000  
G08                                                                  29850239.751   122231748.1331       1838.304          32.000  
