     3.00           OBSERVATION DATA    M: Mixed            RINEX VERSION / TYPE
CONVBIN 2.4.3                           20240415 024442 UTC PGM / RUN BY / DATE 
format: u-blox UBX                                          COMMENT             
log: /home/regis/git/gnsspwv/obsdata/VERT00CHL/2024-04-15/VECOMMENT             
{self.marker}                                               MARKER NAME         
                                                            MARKER NUMBER       
GEODETIC                                                    MARKER TYPE         
{self.observer}     {self.institution}                      OBSERVER / AGENCY   
UNKNOWN             UBLOX-ZED-F9P                           REC # / TYPE / VERS 
UNKNOWN             TWIVSP6037L                             ANT # / TYPE        
  1713381.0000 -5047934.0000 -3490983.0000                  APPROX POSITION XYZ 
        0.0000        0.0000        0.0000                  ANTENNA: DELTA H/E/N
G    8 C1C L1C D1C S1C C2L L2L D2L S2L                      SYS / # / OBS TYPES 
R    8 C1C L1C D1C S1C C2C L2C D2C S2C                      SYS / # / OBS TYPES 
E    8 C1C L1C D1C S1C C7Q L7Q D7Q S7Q                      SYS / # / OBS TYPES 
S    4 C1C L1C D1C S1C                                      SYS / # / OBS TYPES 
  2024    04    15    02    30   00.0100000     GPS         TIME OF FIRST OBS   
  2024    04    15    02    44   30.0100000     GPS         TIME OF LAST OBS    
                                                            END OF HEADER       
> 2024 04 15 02 30 00.0100000  0 26                     
S33  42735542.057   224576897.4361       -738.670          42.000  
E02  29902965.300   157141126.4981       1131.106          42.000    29902966.333   120406861.1721        866.605          41.000  
G28  25711896.690   135116912.7421       2015.890          45.000    25711892.356   105285890.9381       1570.957          42.000  
E36  29662510.711   155877749.0461       2374.277          45.000    29662520.383   119438969.9581       1819.251          48.000  
G32  26867876.756   141191613.9521      -2624.170          46.000    26867879.390   110019383.6311      -2044.922          44.000  
R17  24532398.947   131278330.6501      -4301.724          51.000    24532392.904   102105601.6541      -3345.736          48.000  
R09  26078464.388                1       2702.705          30.000    26078392.010                3       2101.671          27.000  
R16  22820893.457   121905283.0591        770.725          53.000    22820890.365    94815134.8491        599.417          50.000  
G20  27540604.268   144726870.0401        948.602          33.000                                                                  
E11  26281359.937   138109872.2951        801.609          44.000    26281357.451   105824673.2441        614.178          50.000  
G29  23857273.292   125371208.3291        217.920          49.000    23857268.791    97692118.8561        169.891          46.000  
S31  41782245.501   219567280.2561       -738.389          44.000  
E03  29437904.760   154697251.3841      -2400.927          43.000    29437909.866   118534195.7551      -1839.657          49.000  
R15  23753608.010   126932299.0561      -2501.123          52.000    23753602.973    98725293.0181      -1945.319          46.000  
R18  22168820.963   118338768.8341       -868.626          51.000    22168818.565    92041557.3731       -675.628          48.000  
R19  23587609.597   126178136.9211       2467.168          43.000    23587606.387    98138146.9891       1918.890          48.000  
G11  25857968.538   135885020.3521      -2467.853          45.000    25857963.891   105884624.1861      -1922.965          43.000  
E24  28076126.273   147541161.0611      -1774.316          44.000    28076123.568   113051079.5031      -1359.611          46.000  
G24  25927808.419   136251599.0401      -4117.425          46.000    25927809.382   106170133.9881      -3208.405          43.000  
G12  24599409.191   129271075.3741      -1633.997          50.000    24599403.889   100730835.6331      -1273.279          45.000  
E05  28988350.794   152334650.4691      -3380.621          39.000    28988376.882   116723813.5741      -2590.335          43.000  
G25  23744947.581   124780778.6551        -52.527          46.000    23744944.949    97231847.7471        -40.979          43.000  
E10  27557035.874   144813698.3781       -712.858          47.000    27557036.191   110961399.2211       -546.167          53.000  
E25  26912251.826   141425146.2151         11.463          46.000    26912253.398   108364877.2731          8.802          52.000  
E12  28820894.599   151455190.0431      -1981.264          42.000    28820892.298   116050300.2371      -1518.093          48.000  
E14  27456124.469   144283057.8411      -5189.921          48.000    27456124.139   110554607.3031      -3976.646          49.000  
> 2024 04 15 02 30 30.0100000  0 26                     
S33  42739759.751   224599060.754        -738.688          42.000  
E02  29896503.335   157107172.446        1132.567          41.000    29896504.475   120380844.558         867.793          40.000  
G28  25700417.754   135056590.226        2005.423          45.000    25700413.247   105238886.420        1562.485          42.000  
E36  29648960.426   155806549.728        2372.190          44.000    29648970.353   119384415.614        1817.625          48.000  
G32  26882887.356   141270491.731       -2634.509          46.000    26882889.099   110080846.647       -2052.722          43.000  
R17  24556548.833   131407564.770       -4314.027          51.000    24556542.692   102206117.093       -3355.229          49.000  
R09  26063324.200                3       2704.159          23.000    26063252.082   108247999.7321       2103.211          33.000  
R16  22816596.112   121882325.028         759.664          53.000    22816591.561    94797278.608         590.876          50.000  
G20  27535216.962   144698559.776         939.247          34.000                                                                  
E11  26276818.036   138086003.853         789.470          44.000    26276814.989   105806384.479         604.916          49.000  
G29  23856066.644   125364867.774         204.663          49.000    23856062.722    97687178.184         159.589          46.000  
S31  41786459.328   219589424.180        -738.087          44.000  
E03  29451635.356   154769405.313       -2409.313          43.000    29451640.254   118589482.416       -1846.026          49.000  
R15  23767687.665   127007539.216       -2514.954          52.000    23767683.971    98783813.128       -1956.128          48.000  
R18  22173775.804   118365216.364        -894.598          52.000    22173772.518    92062127.707        -695.809          48.000  
R19  23573823.919   126104393.930        2449.067          43.000    23573820.199    98080791.461        1904.798          48.000  
G11  25872105.352   135959305.006       -2484.644          46.000    25872098.683   105942508.387       -1936.015          40.000  
E24  28086263.496   147594434.747       -1777.476          44.000    28086261.344   113091899.621       -1361.880          45.000  
G24  25951336.301   136375238.647       -4125.191          46.000    25951337.532   106266476.338       -3214.559          43.000  
G12  24608753.237   129320178.942       -1639.602          50.000    24608748.042   100769098.145       -1277.606          45.000  
E05  29007643.586   152436032.535       -3378.189          37.000    29007669.426   116801495.216       -2588.420          42.000  
G25  23745263.078   124782435.951         -57.959          47.000    23745260.066    97233139.163         -45.062          42.000  
E10  27561147.430   144835303.186        -727.481          48.000    27561147.495   110977953.590        -557.480          53.000  
E25  26912192.349   141424830.901           9.452          46.000    26912193.492   108364635.679           7.292          52.000  
E12  28832240.419   151514816.813       -1994.037          41.000    28832238.547   116095988.303       -1527.860          48.000  
E14  27485737.229   144438671.636       -5184.419          49.000    27485736.402   110673843.864       -3972.451          48.000  
> 2024 04 15 02 31 00.0100000  0 26                     
S33  42743976.249   224621220.643        -738.254          43.000  
E02  29890035.423   157073180.847        1133.382          40.000    29890035.917   120354799.139         868.576          41.000  
G28  25689001.014   134996594.445        1994.479          46.000    25688996.725   105192136.460        1554.062          43.000  
E36  29635424.377   155735417.827        2369.959          45.000    29635433.251   119329912.891        1815.880          47.000  
G32  26897957.056   141349682.538       -2644.714          46.000    26897958.723   110142553.606       -2060.803          44.000  
R17  24580768.251   131537173.273       -4326.491          50.000    24580761.957   102306923.692       -3365.068          47.000  
R09  26048102.145                1       2706.390          27.000    26048068.199   108184883.910        2104.808          38.000  
R16  22812362.313   121859707.706         748.283          53.000    22812357.484    94779687.390         581.979          49.000  
G20  27529882.479   144670518.423         930.209          39.000                                                                  
E11  26272345.442   138062511.180         776.900          43.000    26272344.376   105788383.667         595.289          49.000  
G29  23854936.205   125358930.371         191.339          48.000    23854933.116    97682551.688         149.103          46.000  
S31  41790672.161   219611563.011        -737.971          44.000  
E03  29465414.991   154841814.193       -2417.796          43.000    29465418.893   118644964.413       -1852.610          49.000  
R15  23781845.852   127083199.951       -2528.912          51.000    23781843.951    98842660.315       -1966.846          48.000  
R18  22178877.578   118392449.558        -920.793          51.000    22178874.358    92083309.137        -716.035          48.000  
R19  23560141.578   126031203.166        2430.659          43.000    23560137.954    98023865.410        1890.442          47.000  
G11  25886337.931   136034101.286       -2501.650          44.000    25886332.754   106000791.194       -1949.658          41.000  
E24  28096419.718   147647807.542       -1780.713          44.000    28096417.768   113132795.652       -1364.431          45.000  
G24  25974908.816   136499115.191       -4133.098          45.000    25974910.887   106363003.296       -3220.566          44.000  
G12  24618130.568   129369454.817       -1645.328          51.000    24618124.445   100807494.942       -1282.226          44.000  
E05  29026924.112   152537348.813       -3376.082          37.000    29026949.612   116879126.595       -2586.545          40.000  
G25  23745611.506   124784263.964         -63.672          47.000    23745608.173    97234563.599         -49.615          43.000  
E10  27565343.253   144857349.957        -742.299          48.000    27565342.807   110994846.591        -568.734          53.000  
E25  26912144.922   141424579.890           7.279          47.000    26912145.655   108364443.367           5.628          52.000  
E12  28843660.273   151574832.995       -2007.108          41.000    28843659.187   116141974.751       -1537.673          47.000  
E14  27515319.441   144594124.680       -5179.108          49.000    27515317.926   110792957.242       -3968.398          48.000  
> 2024 04 15 02 31 30.0100000  0 26                     
S33  42748191.577   224643371.821        -738.209          42.000  
E02  29883560.150   157039147.903        1135.326          41.000    29883560.142   120328722.069         869.799          41.000  
G28  25677646.304   134936924.261        1983.502          45.000    25677641.682   105145640.231        1545.514          43.000  
E36  29621899.817   155664351.579        2367.654          45.000    29621908.963   119275460.420        1814.192          47.000  
G32  26913085.250   141429179.770       -2654.779          47.000    26913087.297   110204499.376       -2068.732          44.000  
R17  24605056.767   131667148.408       -4338.571          50.000    24605050.816   102408015.466       -3374.506          48.000  
R09  26032907.672                3       2707.607          26.000    26032868.504   108121726.668        2106.210          39.000  
R16  22808192.077   121837430.316         736.847          53.000    22808187.415    94762360.540         573.091          50.000  
G20  27524597.355   144642745.310         921.197          38.000                                                                  
E11  26267946.559   138039391.801         764.249          43.000    26267944.982   105770668.865         585.767          49.000  
G29  23853881.613   125353391.947         177.960          48.000    23853878.778    97678236.066         138.593          46.000  
S31  41794883.566   219633694.543        -737.682          44.000  
E03  29479240.444   154914472.452       -2426.076          42.000    29479245.552   118700637.518       -1858.969          49.000  
R15  23796083.406   127159277.395       -2542.853          53.000    23796079.930    98901831.645       -1977.869          47.000  
R18  22184125.701   118420463.707        -946.874          51.000    22184121.513    92105097.976        -736.493          47.000  
R19  23546562.066   125958564.102        2412.060          43.000    23546558.738    97967368.467        1875.938          47.000  
G11  25900667.048   136109403.692       -2518.521          44.000    25900663.858   106059468.439       -1962.751          42.000  
E24  28106594.885   147701276.201       -1783.839          45.000    28106592.501   113173765.140       -1366.834          45.000  
G24  25998525.961   136623222.466       -4140.799          45.000    25998528.434   106459710.027       -3226.628          44.000  
G12  24627540.087   129418900.203       -1651.141          51.000    24627533.854   100846023.785       -1286.614          44.000  
E05  29046190.757   152638594.581       -3373.446          38.000    29046216.507   116957078.4541      -2585.258          36.000  
G25  23745991.396   124786259.992         -69.415          48.000    23745988.396    97236118.969         -53.870          43.000  
E10  27569621.927   144879834.888        -756.876          48.000    27569621.637   111012075.331        -579.838          54.000  
E25  26912109.344   141424389.966           5.325          47.000    26912109.712   108364297.874           4.024          52.000  
E12  28855154.025   151635233.747       -2019.690          40.000    28855152.753   116188255.885       -1547.625          46.000  
E14  27544869.334   144749411.049       -5173.253          49.000    27544867.868   110911942.923       -3963.954          48.000  
> 2024 04 15 02 32 00.0100000  0 27                     
S33  42752406.248   224665519.712        -738.142          42.000  
E02  29877076.278   157005077.499        1135.970          40.000    29877076.782   120302616.277         870.722          42.000  
G28  25666354.928   134877586.077        1972.248          46.000    25666350.421   105099402.694        1536.743          43.000  
E36  29608389.052   155593356.621        2365.205          44.000    29608398.397   119221062.557        1812.310          48.000  
G32  26928271.688   141508984.412       -2665.601          47.000    26928273.837   110266684.664       -2076.721          44.000  
R17  24629414.580   131797489.946       -4350.980          51.000    24629408.669   102509392.209       -3384.118          48.000  
R09  26017737.584                3       2707.970          22.000    26017654.802   108058532.483        2106.827          39.000  
R16  22804086.576   121815499.663         725.046          53.000    22804082.436    94745303.377         563.913          50.000  
G20  27519363.226   144615246.957         911.754          36.000                                                                  
E11  26263619.791   138016650.661         751.458          44.000    26263617.496   105753243.901         575.744          50.000  
G29  23852904.174   125348255.660         164.246          48.000    23852900.951    97674233.804         127.979          46.000  
S31  41799094.098   219655822.042        -737.760          44.000  
E03  29493115.067   154987382.089       -2434.594          42.000    29493119.796   118756503.217       -1865.381          48.000  
R15  23810398.849   127235775.930       -2557.220          53.000    23810395.649    98961330.484       -1988.843          47.000  
R18  22189519.972   118449261.350        -973.107          50.000    22189516.871    92127496.164        -756.868          48.000  
R19  23533087.642   125886483.591        2393.132          44.000    23533083.211    97911305.962        1861.327          46.000  
G11  25915094.676   136185214.284       -2535.623          45.000    25915087.648   106118541.689       -1975.709          39.000  
E24  28116787.859   147754845.087       -1787.483          45.000    28116786.609   113214811.432       -1369.571          46.000  
G24  26022187.333   136747561.808       -4148.572          45.000    26022190.167   106556597.577       -3232.706          44.000  
G12  24636981.990   129468519.084       -1656.901          50.000    24636975.571   100884687.866       -1291.564          43.000  
E05  29065444.664   152739941.3041      -3370.809          34.000    29065468.755   117034604.430       -2583.739          30.000  
G25  23746403.770   124788428.890         -75.372          48.000    23746401.199    97237809.041         -58.752          43.000  
E10  27573983.813   144902761.680        -771.731          47.000    27573984.499   111029642.641        -591.308          54.000  
E25  26912085.463   141424265.496           3.050          47.000    26912085.928   108364202.517           2.179          52.000  
E12  28866721.983   151696021.712       -2032.815          41.000    28866720.531   116234833.727       -1557.680          46.000  
E14  27574388.515   144904532.449       -5168.133          49.000    27574386.514   111030802.179       -3959.982          48.000  
G18                                                                  27746577.097                3       2428.013          24.000  
> 2024 04 15 02 32 30.0100000  0 27                     
S33  42756621.660   224687672.518        -738.699          42.000  
E02  29870586.308   156970979.111        1137.167          39.000    29870588.405   120276489.054         871.401          44.000  
G28  25655129.581   134818592.010        1960.587          46.000    25655124.394   105053433.298        1527.942          44.000  
E36  29594894.421   155522444.334        2362.306          44.000    29594903.670   119166728.035        1810.058          49.000  
G32  26943517.142   141589103.057       -2675.885          45.000    26943519.943   110329114.626       -2085.272          44.000  
R17  24653840.615   131928203.020       -4363.320          50.000    24653835.989   102611057.935       -3393.672          49.000  
R09  26002503.160                3       2706.326          17.000    26002432.859   107995310.127        2107.742          40.000  
R16  22800048.412   121793927.528         712.974          53.000    22800043.729    94728525.064         554.577          50.000  
G20  27514185.337   144588035.340         902.057          39.000                                                                  
E11  26259366.104   137994298.512         738.511          44.000    26259364.059   105736116.963         565.954          50.000  
G18  27728848.467                1       3102.880          30.000    27728861.839                        2418.491          29.000  
G29  23852005.913   125343530.532         150.543          49.000    23852001.024    97670551.934         117.493          44.000  
S31  41803305.705   219677954.215        -738.091          44.000  
E03  29507039.320   155060550.721       -2443.353          43.000    29507043.186   118812567.388       -1872.084          48.000  
R15  23824795.301   127312705.338       -2571.606          53.000    23824791.588    99021164.423       -1999.945          48.000  
R18  22195063.299   118478851.065        -999.691          50.000    22195060.390    92150510.373        -777.455          49.000  
R19  23519720.341   125814974.593        2373.980          44.000    23519715.773    97855687.979        1846.485          46.000  
G11  25929617.716   136261540.751       -2553.041          44.000    25929613.440   106178016.902       -1989.433          40.000  
E24  28127004.119   147808524.214       -1791.251          45.000    28127001.869   113255942.188       -1372.458          46.000  
G24  26045893.660   136872140.216       -4156.542          45.000    26045896.129   106653671.425       -3239.093          44.000  
G12  24646458.969   129518321.524       -1663.216          50.000    24646453.337   100923494.956       -1296.120          44.000  
E05  29084683.974                       -3369.408          27.000    29084708.763   117112068.0641      -2582.045          44.000  
G25  23746851.723   124790781.167         -81.549          48.000    23746849.055    97239641.986         -63.544          44.000  
E10  27578432.165   144926139.739        -786.743          47.000    27578433.162   111047555.728        -602.907          54.000  
E25  26912075.769   141424216.481           0.340          47.000    26912076.344   108364164.970           0.216          52.000  
E12  28878365.700   151757205.248       -2046.060          40.000    28878363.107   116281714.632       -1567.842          45.000  
E14  27603876.709   145059496.135       -5162.807          49.000    27603874.780   111149540.616       -3955.896          48.000  
> 2024 04 15 02 33 00.0100000  0 27                     
S33  42760839.092   224709835.026        -739.263          42.000  
E02  29864092.075   156936857.187        1137.513          38.000    29864095.018   120250343.807         871.772          44.000  
G28  25643969.856   134759948.985        1948.582          46.000    25643965.245   105007737.454        1518.440          45.000  
E36  29581417.276   155451621.097        2359.128          45.000    29581425.949   119112461.693        1807.683          49.000  
G32  26958823.966   141669537.212       -2686.365          46.000    26958826.807   110391790.431       -2093.237          45.000  
R17  24678336.870   132059288.017       -4375.705          50.000    24678333.348   102713012.950       -3403.374          50.000  
R09  25987234.476   138770380.0161       2710.853          32.000    25987205.557   107932064.627        2108.579          38.000  
R16  22796078.250   121772721.499         700.662          53.000    22796074.506    94712031.492         545.004          50.000  
G20  27509064.354   144561117.926         892.384          40.000                                                                  
E11  26255186.773   137972340.783         725.328          43.000    26255185.773   105719292.280         555.877          50.000  
G18  27711128.014                1       3103.987          33.000    27711144.643                        2417.834          32.000  
G29  23851185.519   125339220.349         136.688          49.000    23851180.811    97667193.398         106.464          44.000  
S31  41807519.281   219700097.715        -738.597          44.000  
E03  29521011.156   155133980.918       -2452.033          42.000    29521016.800   118868831.996       -1878.854          48.000  
R15  23839273.220   127390070.389       -2586.139          52.000    23839269.297    99081337.252       -2011.462          47.000  
R18  22200753.916   118509235.913       -1026.163          49.000    22200752.765    92174143.040        -797.967          49.000  
R19  23506460.432   125744044.848        2354.632          43.000    23506455.615    97800520.486        1831.254          47.000  
G11  25944241.118   136338385.735       -2570.020          43.000    25944237.336   106237896.133       -2002.865          40.000  
E24  28137240.385   147862318.462       -1795.229          45.000    28137238.727   113297161.183       -1375.552          46.000  
G24  26069647.010   136996959.600       -4164.611          46.000    26069648.849   106750933.058       -3245.391          44.000  
G12  24655971.360   129568312.741       -1669.435          49.000    24655966.311   100962449.150       -1300.936          43.000  
G25  23747335.422   124793322.319         -87.939          48.000    23747332.475    97241622.128         -68.610          44.000  
E10  27582968.394   144949973.336        -802.060          47.000    27582968.664   111065817.850        -614.554          54.000  
E25  26912081.554   141424247.881          -2.527          47.000    26912082.519   108364189.046          -1.903          52.000  
E12  28890084.685   151818787.561       -2059.223          41.000    28890081.631   116328901.140       -1578.058          45.000  
E14  27633335.918   145214304.466       -5157.796          49.000    27633333.853   111268160.008       -3952.080          48.000  
E05                                                                  29103938.216   117189504.126       -2580.374          38.000  
> 2024 04 15 02 33 30.0100000  0 27                     
S33  42765057.712   224732003.961        -739.558          42.000  
E02  29857595.540   156902708.090        1138.342          40.000    29857596.795   120224177.710         872.055          44.000  
G28  25632876.683   134701655.990        1936.874          46.000    25632872.445   104962314.364        1509.175          45.000  
E36  29567956.209   155380885.093        2355.922          45.000    29567964.145   119058262.183        1805.105          49.000  
G32  26974188.591   141750280.306       -2696.997          46.000    26974191.747   110454706.981       -2101.526          45.000  
R17  24702901.234   132190737.162       -4388.169          49.000    24702897.279   102815251.211       -3413.198          49.000  
R09  25972035.728                1       2712.050          30.000    25971972.086   107868794.232        2108.784          39.000  
R16  22792176.890   121751880.304         688.167          53.000    22792173.454    94695821.678         535.120          51.000  
G20  27503997.530   144534493.625         882.023          38.000                                                                  
E11  26251083.267   137950775.165         711.674          43.000    26251082.000   105702768.029         545.297          50.000  
G18  27693409.991   145529850.2841       3103.258          37.000    27693425.388   113399905.4681       2417.949          36.000  
G29  23850443.552   125335320.881         122.662          48.000    23850438.273    97664154.898          95.557          44.000  
S31  41811734.301   219722245.782        -738.964          44.000  
E03  29535033.391   155207667.283       -2461.073          42.000    29535038.983   118925292.839       -1885.709          48.000  
R15  23853832.069   127467867.580       -2601.019          52.000    23853826.755    99141846.165       -2023.126          45.000  
R18  22206594.653   118540411.012       -1052.884          50.000    22206591.747    92198390.394        -818.919          47.000  
R19  23493307.686   125673692.812        2334.966          42.000    23493303.309    97745802.375        1815.903          47.000  
G11  25958962.477   136415743.769       -2587.843          41.000    25958957.955   106298175.169       -2016.276          42.000  
E24  28147497.424   147916224.776       -1799.299          45.000    28147496.786   113338466.034       -1378.713          46.000  
G24  26093443.691   137122013.755       -4172.825          45.000    26093446.035   106848377.617       -3251.627          44.000  
G12  24665519.967   129618489.705       -1676.199          49.000    24665514.439   101001548.100       -1306.455          43.000  
E05  29123131.415   153043101.5581      -3365.636          40.000    29123154.425   117266876.0631      -2578.975          47.000  
G25  23747854.254   124796049.753         -94.525          48.000    23747852.030    97243747.417         -73.615          45.000  
E10  27587589.352   144974258.657        -817.520          47.000    27587590.069   111084426.126        -626.489          53.000  
E25  26912102.713   141424356.616          -5.447          47.000    26912103.114   108364272.371          -4.187          52.000  
E12  28901877.608   151880763.914       -2072.841          40.000    28901875.550   116376389.547       -1588.612          44.000  
E14  27662764.480   145368951.650       -5152.786          49.000    27662762.326   111386655.916       -3948.175          48.000  
> 2024 04 15 02 34 00.0100000  0 27                     
S33  42769279.153   224754188.659        -739.813          41.000  
E02  29851092.925   156868541.497        1138.893          39.000    29851094.601   120197998.211         872.757          44.000  
G28  25621852.317   134643725.328        1924.813          46.000    25621849.020   104917173.605        1499.928          45.000  
E36  29554514.266   155310247.921        2352.856          45.000    29554521.510   119004138.342        1802.830          49.000  
G32  26989614.068   141831339.105       -2707.204          48.000    26989616.371   110517869.525       -2109.650          44.000  
R17  24727535.563   132322555.939       -4400.114          50.000    24727530.215   102917776.924       -3422.325          49.000  
R09  25956759.567                        2712.662          31.000    25956734.215   107805508.398        2109.586          38.000  
R16  22788345.564   121731416.593         675.788          52.000    22788342.716    94679905.464         525.605          50.000  
G20  27498989.273   144508174.940         872.192          39.000                                                                  
E11  26247056.342   137929612.363         698.468          44.000    26247054.899   105686552.412         535.178          50.000  
G18  27675693.890   145436751.141        3103.077          40.000    27675710.207   113327361.045        2418.078          38.000  
G29  23849780.955   125331841.119         108.966          48.000    23849776.650    97661443.438          84.918          45.000  
S31  41815952.290   219744410.696        -739.117          44.000  
E03  29549104.915   155281617.458       -2469.687          41.000    29549111.357   118981955.860       -1892.133          48.000  
R15  23868472.940   127546107.006       -2615.460          52.000    23868467.733    99202699.076       -2034.180          45.000  
R18  22212584.670   118572384.903       -1079.145          51.000    22212581.152    92223258.982        -839.365          48.000  
R19  23480267.521   125603932.144        2315.362          43.000    23480262.601    97691544.172        1800.805          47.000  
G11  25973782.090   136493622.573       -2604.638          41.000    25973777.413   106358859.972       -2029.585          42.000  
E24  28157780.113   147970253.333       -1803.131          46.000    28157778.379   113379864.533       -1381.712          47.000  
G24  26117286.842   137247309.924       -4180.622          44.000    26117289.369   106946010.719       -3257.643          44.000  
G12  24675106.307   129668862.594       -1682.450          49.000    24675099.692   101040799.681       -1310.852          43.000  
E05  29142338.603   153144021.6411      -3363.667          37.000    29142360.073   117344211.0791      -2577.428          41.000  
G25  23748410.948   124798974.196        -100.934          49.000    23748408.959    97246026.200         -78.735          45.000  
E10  27592297.278   144999005.193        -832.465          46.000    27592298.903   111103387.795        -638.012          53.000  
E25  26912139.418   141424552.812          -8.127          47.000    26912140.411   108364422.725          -6.218          52.000  
E12  28913747.481   151943142.787       -2086.064          39.000    28913745.338   116424186.351       -1598.391          44.000  
E14  27692163.230   145523445.240       -5147.244          49.000    27692161.463   111505034.144       -3943.953          48.000  
> 2024 04 15 02 34 30.0100000  0 27                     
S33  42773503.030   224776386.355        -740.444          42.000  
E02  29844587.581   156834354.670        1139.722          40.000    29844589.360   120171803.181         873.176          45.000  
G28  25610897.659   134586156.729        1912.671          46.000    25610894.024   104872314.974        1490.406          45.000  
E36  29541090.770   155239708.663        2349.524          45.000    29541097.737   118950089.521        1800.294          49.000  
G32  27005098.518   141912707.908       -2717.500          48.000    27005099.927   110581273.629       -2117.655          43.000  
R17  24752237.634   132454737.603       -4412.182          51.000    24752230.903   103020584.897       -3431.755          48.000  
R09  25941505.110   138526546.9461       2712.364          34.000    25941492.720   107742206.377        2109.804          37.000  
R16  22784585.389   121711330.397         663.001          53.000    22784581.894    94664282.858         515.819          50.000  
G20  27494038.394   144482161.875         861.367          37.000                                                                  
E11  26243105.636   137908850.734         685.176          44.000    26243104.040   105670644.189         525.142          50.000  
G18  27657979.495   145343663.080        3102.524          43.000    27657995.968   113254825.333        2417.559          40.000  
G29  23849198.277   125328777.890          94.934          48.000    23849194.852    97659056.551          73.975          46.000  
S31  41820172.221   219766588.203        -739.598          43.000  
E03  29563226.705   155355826.859       -2478.027          41.000    29563233.370   119038817.507       -1898.780          49.000  
R15  23883196.835   127624785.729       -2630.048          52.000    23883192.914    99263893.591       -2045.550          47.000  
R18  22218723.072   118605153.278       -1105.727          51.000    22218720.395    92248745.517        -859.943          48.000  
R19  23467336.597   125534762.891        2295.899          43.000    23467332.820    97637745.994        1785.504          48.000  
G11  25988699.708   136572017.707       -2621.732          38.000    25988697.060   106419947.079       -2042.918          43.000  
E24  28168083.885   148024401.828       -1807.021          46.000    28168082.314   113421354.948       -1384.637          46.000  
G24  26141175.195   137372842.701       -4188.360          44.000    26141177.429   107043828.212       -3263.624          43.000  
G12  24684728.678   129719429.018       -1688.917          49.000    24684722.544   101080202.116       -1316.112          42.000  
E05  29161534.960   153244879.3881      -3361.504          38.000    29161554.128   117421494.320       -2575.433          43.000  
G25  23749004.624   124802093.891        -107.428          49.000    23749002.557    97248457.120         -83.655          45.000  
E10  27597093.860   145024210.031        -847.907          47.000    27597094.985   111122700.615        -649.631          53.000  
E25  26912192.770   141424834.275         -10.955          47.000    26912194.193   108364638.408          -8.277          52.000  
E12  28925694.251   152005920.062       -2099.527          40.000    28925691.573   116472288.466       -1608.600          44.000  
E14  27721532.101   145677780.436       -5142.007          49.000    27721530.543   111623290.994       -3940.127          47.000  
> 2024 04 15 02 35 00.0100000  0 27                     
S33  42777729.502   224798594.756        -740.396          42.000  
E02  29838077.100   156800145.478        1140.566          38.000    29838079.676   120145591.047         874.021          46.000  
G28  25600011.723   134528950.587        1900.917          45.000    25600007.666   104827738.784        1481.171          45.000  
E36  29527685.859   155169267.086        2346.650          44.000    29527692.628   118896115.533        1797.876          49.000  
G32  27020640.989   141994381.687       -2727.222          48.000    27020642.063   110644915.362       -2125.338          43.000  
R17  24777005.431   132587275.536       -4423.736          49.000    24776998.911   103123669.961       -3440.840          49.000  
R09  25926251.715   138445137.488        2714.189          32.000    25926248.331   107678887.922        2110.873          38.000  
R16  22780895.724   121691622.133         650.674          53.000    22780892.340    94648954.218         506.073          50.000  
G20  27489146.298   144456454.747         851.835          39.000                                                                  
E11  26239231.204   137888489.242         672.356          44.000    26239229.305   105655042.586         515.067          50.000  
G18  27640267.379   145250586.570        3102.414          42.000    27640283.825   113182298.606        2417.360          41.000  
G29  23848694.280   125326128.171          81.482          48.000    23848690.681    97656991.888          63.452          46.000  
S31  41824394.545   219788776.243        -739.710          44.000  
E03  29577399.823   155430291.516       -2486.282          44.000    29577403.661   119095874.718       -1905.098          49.000  
R15  23898002.289   127703902.023       -2644.458          52.000    23897998.995    99325428.449       -2056.750          47.000  
R18  22225009.829   118638712.603       -1131.692          51.000    22225007.500    92274847.254        -880.158          48.000  
R19  23454516.921   125466185.863        2275.988          43.000    23454513.330    97584408.389        1770.270          48.000  
G11  26003715.102   136650925.028       -2638.928          41.000    26003711.426   106481433.342       -2056.121          42.000  
E24  28178409.573   148078668.683       -1810.799          45.000    28178407.815   113462936.031       -1387.559          45.000  
G24  26165107.587   137498607.494       -4195.890          44.000    26165109.656   107141826.477       -3269.379          43.000  
G12  24694387.425   129770187.774       -1695.112          49.000    24694381.668   101119754.385       -1320.916          42.000  
E05  29180713.915   153345686.680       -3358.854          42.000    29180736.089   117498733.186       -2573.270          38.000  
G25  23749635.204   124805407.773        -113.641          49.000    23749632.765    97251039.380         -88.568          45.000  
E10  27601977.044   145049870.780        -862.957          48.000    27601978.168   111142362.767        -661.190          53.000  
E25  26912261.146   141425199.378         -13.572          46.000    26912263.703   108364918.176         -10.382          53.000  
E12  28937713.750   152069092.482       -2111.986          39.000    28937712.515   116520693.346       -1618.401          44.000  
E14  27750870.140   145831952.989       -5136.188          49.000    27750868.428   111741423.224       -3935.592          47.000  
> 2024 04 15 02 35 30.0100000  0 27                     
S33  42781956.686   224820810.201        -740.652          42.000  
E02  29831561.830   156765910.309        1141.424          39.000    29831564.700   120119359.017         874.646          46.000  
G28  25589194.602   134472105.858        1888.371          46.000    25589189.469   104783444.233        1471.548          44.000  
E36  29514297.359   155098921.437        2342.789          43.000    29514305.665   118842215.003        1795.212          49.000  
G32  27036239.481   142076353.834       -2737.543          46.000    27036241.418   110708789.581       -2133.121          43.000  
R17  24801838.046   132720162.097       -4435.524          49.000    24801831.982   103227026.174       -3449.747          48.000  
R09  25910999.355   138363704.879        2714.696          35.000    25910999.499   107615551.422        2111.642          33.000  
R16  22777276.912   121672290.749         637.815          52.000    22777272.998    94633918.712         496.112          50.000  
G20  27484312.818   144431052.812         841.328          39.000                                                                  
E11  26235432.501   137868525.414         658.556          44.000    26235430.034   105639745.657         504.553          50.000  
G18  27622557.079   145157520.564        3101.724          41.000    27622574.305   113109780.173        2416.940          41.000  
G29  23848267.963   125323887.846          67.731          48.000    23848263.478    97655246.189          52.814          46.000  
S31  41828618.373   219810972.187        -740.106          44.000  
E03  29591617.308   155505005.808       -2494.749          43.000    29591621.272   119153123.228       -1911.500          49.000  
R15  23912889.026   127783452.195       -2659.058          52.000    23912885.273    99387300.785       -2068.182          47.000  
R18  22231443.211   118673057.661       -1158.048          50.000    22231442.606    92301560.093        -900.759          49.000  
R19  23441807.366   125398199.925        2256.036          43.000    23441804.592    97531530.540        1754.786          48.000  
G11  26018828.686   136730339.052       -2656.002          42.000    26018822.941   106543314.366       -2069.269          42.000  
E24  28188757.828   148133050.756       -1814.866          45.000    28188756.687   113504605.433       -1390.519          46.000  
G24  26189082.177   137624598.086       -4203.594          43.000    26189085.627   107240000.684       -3275.481          44.000  
G12  24704081.504   129821135.855       -1701.625          49.000    24704076.465   101159454.206       -1326.038          42.000  
E05  29199883.355   153446417.181       -3356.580          39.000    29199906.407   117575915.9661      -2571.241          34.000  
G25  23750301.769   124808913.282        -120.300          48.000    23750299.846    97253770.953         -93.835          45.000  
E10  27606947.236   145075983.612        -878.172          49.000    27606947.349   111162371.324        -672.831          53.000  
E25  26912346.790   141425645.110         -16.460          47.000    26912348.578   108365259.711         -12.510          53.000  
E12  28949809.617   152132655.195       -2125.635          38.000    28949808.205   116569397.293       -1628.630          43.000  
E14  27780176.308   145985957.244       -5130.939          49.000    27780174.204   111859426.507       -3931.512          47.000  
> 2024 04 15 02 36 00.0100000  0 27                     
S33  42786186.446   224843038.583        -741.197          42.000  
E02  29825043.933   156731654.136        1142.279          39.000    29825045.590   120093110.897         875.051          45.000  
G28  25578447.941   134415629.957        1876.364          46.000    25578441.746   104739437.086        1462.061          44.000  
E36  29500930.639   155028678.436        2339.596          43.000    29500938.041   118788393.119        1792.627          49.000  
G32  27051895.560   142158626.269       -2747.598          46.000    27051897.114   110772897.820       -2141.042          42.000  
R17  24826736.559   132853397.944       -4447.130          48.000    24826731.108   103330654.064       -3458.727          49.000  
R09  25895748.020   138281809.2391       2714.961          32.000    25895761.441                3       2115.388          22.000  
R16  22773730.278   121653343.941         624.993          52.000    22773726.309    94619182.337         486.071          50.000  
G20  27479539.154   144405963.340         831.084          41.000                                                                  
E11  26231710.614   137848965.165         644.996          45.000    26231707.914   105624757.976         494.204          50.000  
G18  27604850.061   145064472.733        3101.100          42.000    27604867.375   113037275.851        2416.384          42.000  
G29  23847920.069   125322060.960          53.729          48.000    23847915.602    97653822.669          42.029          45.000  
S31  41832844.307   219833179.667        -740.491          44.000  
E03  29605883.150   155579972.775       -2503.331          43.000    29605887.309   119210565.334       -1918.112          49.000  
R15  23927858.513   127863441.379       -2673.767          53.000    23927854.137    99449514.598       -2079.767          47.000  
R18  22238026.033   118708191.936       -1184.383          52.000    22238024.063    92328886.746        -921.269          49.000  
R19  23429210.876   125330813.311        2235.910          43.000    23429207.551    97479118.812        1739.202          48.000  
G11  26034037.723   136810262.640       -2672.601          40.000    26034031.841   106605592.573       -2082.710          43.000  
E24  28199129.909   148187553.468       -1818.939          45.000    28199128.597   113546367.233       -1393.701          46.000  
G24  26213100.719   137750816.866       -4211.159          43.000    26213104.347   107338352.667       -3281.372          43.000  
G12  24713814.508   129872278.539       -1708.226          49.000    24713808.919   101199305.641       -1330.805          43.000  
E05  29219039.696   153547089.9471      -3354.140          39.000    29219066.183   117653063.1401      -2569.524          34.000  
G25  23751006.731   124812616.353        -126.807          49.000    23751004.674    97256656.481         -98.859          45.000  
E10  27612003.591   145102553.171        -893.310          49.000    27612003.216   111182729.844        -684.492          53.000  
E25  26912448.438   141426176.822         -19.483          47.000    26912449.862   108365667.146         -14.839          53.000  
E12  28961981.149   152196611.832       -2138.458          39.000    28961978.654   116618403.026       -1638.565          43.000  
E14  27809450.501   146139796.018       -5125.224          49.000    27809448.407   111977302.979       -3927.161          46.000  
> 2024 04 15 02 36 30.0100000  0 27                     
S33  42790416.382   224865267.915        -741.144          42.000  
E02  29818518.880   156697366.126        1143.288          40.000    29818520.661   120066838.329         876.039          45.000  
G28  25567768.779   134359514.608        1864.202          46.000    25567764.227   104695710.868        1452.573          45.000  
E36  29487581.213   154958529.192        2336.459          43.000    29487588.727   118734643.014        1790.228          49.000  
G32  27067605.861   142241185.179       -2756.956          45.000    27067607.354   110837229.237       -2148.204          42.000  
R17  24851697.489   132986967.611       -4457.984          47.000    24851691.953   103434541.580       -3467.327          48.000  
R09  25880490.520   138200335.300        2716.395          34.000    25880503.388   107489293.0541       2112.336          33.000  
R16  22770253.549   121634773.422         612.478          52.000    22770249.821    94604738.610         476.393          50.000  
G20  27474823.156   144381178.473         820.807          39.000                                                                  
E11  26228062.612   137829798.767         632.049          45.000    26228060.786   105610072.085         484.330          50.000  
G18  27587144.675   144971434.832        3100.740          40.000    27587161.559   112964779.440        2416.173          42.000  
G29  23847649.284   125320636.072          40.588          48.000    23847644.839    97652712.393          31.519          46.000  
S31  41837070.330   219855388.627        -740.503          44.000  
E03  29620194.552   155655179.712       -2511.146          42.000    29620198.141   119268191.260       -1924.175          48.000  
R15  23942907.056   127943858.611       -2687.945          52.000    23942904.008    99512061.297       -2090.729          48.000  
R18  22244753.259   118744102.754       -1210.229          51.000    22244751.598    92356817.411        -941.307          49.000  
R19  23416723.872   125264017.723        2216.253          43.000    23416719.455    97427166.754        1723.815          48.000  
G11  26049339.343   136890683.110       -2688.971          42.000    26049334.520   106668257.863       -2095.323          43.000  
E24  28209523.814   148242166.462       -1822.648          46.000    28209520.906   113588213.559       -1396.579          46.000  
G24  26237161.165   137877250.383       -4218.249          43.000    26237163.807   107436871.983       -3287.139          42.000  
G12  24723582.075   129923605.658       -1714.306          49.000    24723575.748   101239300.795       -1335.631          43.000  
E05  29238179.369   153647662.635       -3351.495          36.000    29238204.820   117730129.769       -2568.002          41.000  
G25  23751746.995   124816507.202        -133.063          48.000    23751745.336    97259688.318        -103.833          45.000  
E10  27617144.410   145129568.340        -908.248          49.000    27617143.973   111203429.802        -695.963          53.000  
E25  26912563.970   141426784.221         -21.809          48.000    26912565.342   108366132.565         -16.667          53.000  
E12  28974224.057   152260950.254       -2151.370          39.000    28974222.017   116667701.336       -1648.329          44.000  
E14  27838691.612   146293456.453       -5119.365          49.000    27838689.291   112095042.791       -3922.636          47.000  
> 2024 04 15 02 37 00.0100000  0 27                     
S33  42794646.279   224887496.502        -741.276          42.000  
E02  29811988.495   156663045.892        1144.487          40.000    29811989.245   120040541.080         876.978          45.000  
G28  25557159.687   134303761.933        1852.159          46.000    25557154.929   104652267.273        1443.301          45.000  
E36  29474249.593   154888475.138        2333.360          43.000    29474257.329   118680965.854        1788.040          50.000  
G32  27083370.828   142324027.202       -2766.235          45.000    27083372.489   110901781.279       -2155.394          43.000  
R17  24876719.727   133120866.712       -4468.968          46.000    24876714.130   103538685.304       -3475.697          48.000  
R09  25865251.101                3       2716.493          26.000    25865250.460                        2112.988          32.000  
R16  22766847.619   121616581.427         599.922          52.000    22766843.932    94590589.289         466.623          50.000  
G20  27470165.201   144356700.304         810.812          38.000                                                                  
E11  26224491.137   137811026.793         619.084          45.000    26224488.392   105595688.403         474.419          50.000  
G18  27569442.034   144878409.277        3100.585          41.000    27569459.599   112892292.636        2415.930          43.000  
G29  23847454.077   125319612.058          27.252          48.000    23847449.581    97651914.502          21.289          45.000  
S31  41841296.429   219877598.190        -740.292          44.000  
E03  29634552.506   155730624.194       -2518.752          43.000    29634555.334   119325999.253       -1930.031          48.000  
R15  23958036.199   128024703.379       -2702.118          52.000    23958033.268    99574940.506       -2101.569          48.000  
R18  22251625.707   118780788.203       -1235.884          51.000    22251623.116    92385350.558        -961.254          47.000  
R19  23404348.531   125197815.931        2196.714          43.000    23404344.675    97375676.601        1708.582          48.000  
G11  26064737.614   136971598.135       -2705.676          41.000    26064732.716   106731308.534       -2108.062          44.000  
E24  28219936.223   148296889.844       -1825.981          45.000    28219934.759   113630144.482       -1399.103          46.000  
G24  26261260.505   138003895.698       -4225.229          42.000    26261263.459   107535556.344       -3292.310          42.000  
G12  24733384.544   129975117.271       -1720.222          50.000    24733378.098   101279439.740       -1340.310          44.000  
E05  29257305.181   153748160.502       -3348.839          40.000    29257329.479   117807134.382       -2565.903          41.000  
G25  23752523.344   124820586.489        -139.282          49.000    23752521.678    97262867.016        -108.575          45.000  
E10  27622369.742   145157028.450        -922.803          49.000    27622369.120   111224470.689        -707.131          52.000  
E25  26912694.081   141427467.478         -24.135          48.000    26912695.197   108366656.118         -18.476          53.000  
E12  28986539.547   152325668.743       -2163.538          38.000    28986537.236   116717290.847       -1657.900          43.000  
E14  27867897.620   146446936.140       -5113.039          49.000    27867895.163   112212644.135       -3917.718          46.000  
> 2024 04 15 02 37 30.0100000  0 27                     
S33  42798877.990   224909733.576        -741.386          42.000  
E02  29805451.890   156628700.468        1145.140          40.000    29805453.454   120014224.554         877.444          46.000  
G28  25546620.693   134248381.450        1839.750          46.000    25546616.363   104609113.674        1433.581          45.000  
E36  29460937.859   154818525.133        2329.718          42.000    29460945.862   118627368.380        1785.077          50.000  
G32  27099189.826   142407156.324       -2775.885          46.000    27099191.625   110966557.043       -2163.029          43.000  
R17  24901803.496   133255098.122       -4479.975          48.000    24901798.436   103643087.498       -3484.266          48.000  
R16  22763514.499   121598777.605         586.888          52.000    22763511.081    94576741.848         456.426          50.000  
G20  27465565.956   144332538.517         799.354          37.000                                                                  
E11  26220995.699   137792657.275         605.305          46.000    26220992.909   105581613.102         463.833          50.000  
G18  27551744.097   144785405.705        3099.717          43.000    27551760.617   112819823.023        2415.385          42.000  
G29  23847336.539   125318995.389          13.757          48.000    23847332.597    97651434.018          10.706          45.000  
S31  41845524.251   219899814.984        -740.887          44.000  
E03  29648953.023   155806311.317       -2527.123          42.000    29648958.049   119383993.175       -1936.415          48.000  
R15  23973247.123   128105983.143       -2716.626          52.000    23973242.832    99638158.091       -2113.025          47.000  
R18  22258644.822   118818253.903       -1262.013          52.000    22258640.723    92414490.571        -981.562          47.000  
R19  23392084.737   125132217.783        2176.441          41.000    23392081.654    97324655.918        1692.730          48.000  
G11  26080230.087   137053012.604       -2721.998          43.000    26080226.304   106794748.412       -2121.233          45.000  
E24  28230372.280   148351731.116       -1830.219          45.000    28230371.037   113672165.710       -1402.413          47.000  
G24  26285401.557   138130757.229       -4232.376          42.000    26285404.608   107634409.168       -3297.603          42.000  
G12  24743223.474   130026820.657       -1726.807          49.000    24743217.122   101319728.098       -1345.510          44.000  
E05  29276414.965   153848602.4091      -3346.310          39.000    29276439.324   117884078.261       -2564.080          37.000  
G25  23753336.965   124824862.269        -145.966          48.000    23753334.621    97266198.778        -113.708          45.000  
E10  27627680.389   145184940.175        -938.049          48.000    27627680.463   111245857.641        -718.775          52.000  
E25  26912840.525   141428234.136         -27.227          49.000    26912841.071   108367243.563         -20.831          53.000  
E12  28998928.544   152390773.082       -2176.742          38.000    28998926.864   116767176.018       -1667.904          43.000  
E14  27897070.789   146600240.052       -5107.261          50.000    27897067.797   112330110.780       -3913.258          46.000  
R09                                                                  25849962.926   107362473.371        2113.615          34.000  
> 2024 04 15 02 38 00.0100000  0 27                     
S33  42803111.577   224931980.605        -741.622          42.000  
E02  29798912.854   156594331.988        1146.417          40.000    29798913.549   119987890.378         878.296          46.000  
G28  25536153.731   134193377.814        1827.407          45.000    25536149.828   104566253.712        1423.956          45.000  
E36  29447646.408   154748683.109        2326.541          41.000    29447654.663   118573853.669        1782.618          50.000  
G32  27115063.618   142490571.710       -2784.835          47.000    27115065.660   111031555.861       -2170.030          44.000  
R17  24926948.793   133389659.712       -4490.773          48.000    24926944.433   103747746.482       -3492.710          48.000  
R09  25834698.462                        2718.500          31.000    25834692.426   107299067.430        2113.798          39.000  
R16  22760255.810   121581367.030         574.072          53.000    22760252.373    94563200.309         446.552          50.000  
G20  27461029.823   144308697.893         789.606          36.000                                                                  
E11  26217576.980   137774693.352         592.263          45.000    26217574.559   105567848.587         453.909          50.000  
G18  27534050.441   144692428.937        3098.999          44.000    27534067.290   112747374.389        2415.068          43.000  
G29  23847295.776   125318787.649           0.391          48.000    23847292.728    97651272.186           0.323          45.000  
S31  41849754.105   219922041.779        -740.756          43.000  
E03  29663402.688   155882241.308       -2534.731          42.000    29663406.734   119442173.163       -1942.260          47.000  
R15  23988538.684   128187699.875       -2730.908          52.000    23988535.930    99701715.519       -2124.062          48.000  
R18  22265808.652   118856500.162       -1287.541          51.000    22265805.820    92444237.671       -1001.264          46.000  
R19  23379934.805   125067227.935        2156.467          41.000    23379932.438    97274108.379        1677.161          48.000  
G11  26095818.626   137134926.777       -2738.366          45.000    26095814.666   106858577.664       -2133.898          45.000  
E24  28240830.777   148406692.868       -1833.939          45.000    28240829.393   113714279.249       -1405.107          46.000  
G24  26309583.919   138257834.494       -4239.351          42.000    26309587.016   107733430.096       -3303.246          42.000  
G12  24753098.886   130078719.087       -1733.003          49.000    24753092.937   101360168.436       -1350.492          44.000  
E05  29295507.174   153948943.626       -3343.052          39.000    29295533.324   117960961.887       -2561.518          48.000  
G25  23754188.687   124829337.721        -152.313          49.000    23754186.285    97269686.183        -118.768          45.000  
E10  27633078.239   145213305.358        -952.798          48.000    27633078.008   111267592.031        -730.036          52.000  
E25  26913002.530   141429086.851         -29.583          48.000    26913003.369   108367896.958         -22.705          53.000  
E12  29011391.166   152456264.042       -2189.107          38.000    29011388.978   116817357.433       -1677.466          43.000  
E14  27926210.337   146753368.363       -5101.119          50.000    27926207.126   112447442.875       -3908.634          45.000  
> 2024 04 15 02 38 30.0100000  0 27                     
S33  42807346.361   224954235.437        -741.807          42.000  
E02  29792367.393   156559938.670        1146.826          40.000    29792369.260   119961537.122         878.984          47.000  
G28  25525758.677   134138751.604        1814.656          45.000    25525754.264   104523687.853        1414.084          44.000  
E36  29434376.673   154678949.126        2322.935          41.000    29434384.539   118520421.695        1779.751          50.000  
G32  27130991.002   142574268.436       -2794.527          48.000    27130993.206   111096773.902       -2177.485          43.000  
R17  24952154.971   133524545.645       -4501.480          47.000    24952150.944   103852657.772       -3501.053          47.000  
R09  25819430.658   137874273.6081       2717.957          36.000    25819424.595   107235653.465        2113.910          39.000  
R16  22757070.155   121564350.206         560.674          52.000    22757066.498    94549965.019         436.052          50.000  
G20  27456553.934   144285179.031         778.717          38.000                                                                  
E11  26214235.194   137757134.103         578.836          45.000    26214232.770   105554394.162         443.485          50.000  
G18  27516361.716   144599479.752        3097.987          44.000    27516378.811   112674947.328        2413.756          43.000  
G29  23847334.553   125318985.602         -13.263          48.000    23847329.894    97651426.483         -10.370          45.000  
S31  41853985.144   219944276.802        -741.314          44.000  
E03  29677898.441   155958410.303       -2542.841          44.000    29677901.274   119500536.280       -1948.423          47.000  
R15  24003912.567   128269851.494       -2745.549          53.000    24003909.199    99765611.221       -2135.456          48.000  
R18  22273118.839   118895523.221       -1313.702          51.000    22273115.903    92474588.980       -1021.710          47.000  
R19  23367899.520   125002847.594        2135.990          42.000    23367896.393    97224034.864        1661.089          47.000  
G11  26111499.674   137217336.645       -2755.159          43.000    26111495.810   106922793.159       -2146.796          44.000  
E24  28251311.030   148461773.687       -1837.714          44.000    28251310.912   113756484.041       -1408.207          47.000  
G24  26333805.933   138385123.077       -4246.197          42.000    26333809.069   107832615.694       -3308.661          41.000  
G12  24763011.154   130130811.114       -1739.630          49.000    24763005.945   101400759.608       -1355.625          44.000  
E05  29314587.080   154049180.5391      -3340.229          38.000    29314612.365   118037783.407       -2559.697          45.000  
G25  23755078.854   124834012.056        -159.113          49.000    23755075.797    97273328.510        -124.005          45.000  
E10  27638561.169   145242121.763        -967.953          48.000    27638561.702   111289672.151        -741.699          51.000  
E25  26913180.828   141430024.303         -32.595          48.000    26913181.674   108368615.282         -24.966          53.000  
E12  29023927.081   152522138.506       -2202.094          38.000    29023925.439   116867832.687       -1687.306          44.000  
E14  27955315.496   146906317.166       -5095.137          50.000    27955312.061   112564637.442       -3903.972          45.000  
> 2024 04 15 02 39 00.0100000  0 27                     
S33  42811581.107   224976490.711        -741.765          42.000  
E02  29785817.048   156525513.124        1148.244          40.000    29785817.980   119935159.204         879.672          46.000  
G28  25515434.748   134084498.011        1802.054          44.000    25515429.547   104481412.342        1404.369          44.000  
E36  29421127.302   154609317.642        2319.201          43.000    29421133.512   118467068.213        1777.132          50.000  
G32  27146969.250   142658236.162       -2803.448          47.000    27146972.088   111162203.083       -2184.503          43.000  
R17  24977421.188   133659743.866       -4511.734          49.000    24977416.002   103957811.946       -3509.122          47.000  
R09  25804151.015   137792725.284        2718.595          38.000    25804152.635   107172227.018        2114.478          39.000  
R16  22753957.557   121547722.511         547.764          53.000    22753954.088    94537032.389         425.999          50.000  
G20  27452138.055   144261977.338         768.008          37.000                                                                  
E11  26210970.238   137739973.214         565.513          46.000    26210967.100   105541244.971         433.144          49.000  
G18  27498677.478   144506553.524        3097.133          43.000    27498694.161   112602538.261        2413.231          42.000  
G29  23847447.934   125319581.693         -26.453          47.000    23847442.896    97651890.996         -20.575          45.000  
S31  41858216.112   219966512.112        -741.013          43.000  
E03  29692436.683   156034808.976       -2550.545          44.000    29692440.119   119559075.396       -1954.239          48.000  
R15  24019366.612   128352430.953       -2759.701          52.000    24019361.469    99829839.680       -2146.610          46.000  
R18  22280573.264   118935313.919       -1339.103          51.000    22280570.254    92505537.312       -1041.665          47.000  
R19  23355977.114   124939071.989        2115.777          42.000    23355973.603    97174431.682        1645.574          47.000  
G11  26127273.781   137300232.777       -2771.255          45.000    26127270.547   106987387.583       -2159.388          45.000  
E24  28261815.310   148516966.776       -1841.646          44.000    28261813.718   113798774.831       -1411.174          47.000  
G24  26358066.934   138512613.014       -4252.961          42.000    26358070.380   107931958.163       -3314.130          40.000  
G12  24772959.655   130183089.756       -1745.714          49.000    24772953.906   101441496.218       -1360.285          44.000  
E05  29333648.402   154149348.654       -3337.597          33.000    29333674.170                3      -2558.392          27.000  
G25  23756004.990   124838878.934        -165.448          49.000    23756002.283    97277120.894        -129.089          46.000  
E10  27644128.933   145271381.655        -982.759          47.000    27644129.867   111312092.098        -753.062          52.000  
E25  26913373.773   141431039.672         -35.092          48.000    26913374.774   108369393.309         -26.897          53.000  
E12  29036531.630   152588387.727       -2214.309          35.000    29036531.165   116918595.079       -1696.764          43.000  
E14  27984384.421   147059077.189       -5088.871          49.000    27984381.295   112681687.340       -3899.298          45.000  
> 2024 04 15 02 39 30.0100000  0 27                     
S33  42815815.450   224998743.630        -742.121          42.000  
E02  29779259.595   156491052.488        1149.020          40.000    29779260.274   119908754.378         880.151          46.000  
G28  25505181.851   134030616.511        1789.301          45.000    25505175.916   104439426.813        1394.130          44.000  
E36  29407895.271   154539787.487        2315.695          43.000    29407902.068   118413792.391        1774.270          50.000  
G32  27162998.583   142742468.958       -2812.480          46.000    27163000.780   111227838.796       -2191.507          42.000  
R17  25002743.430   133795247.504       -4522.253          51.000    25002738.406   104063203.665       -3517.385          47.000  
R09  25788872.919   137711160.005        2719.022          37.000    25788877.934   107108787.464        2114.229          38.000  
R16  22750917.310   121531483.284         534.386          53.000    22750913.926    94524401.868         415.568          50.000  
G20  27447783.125   144239092.335         757.231          38.000                                                                  
E11  26207780.411   137723208.657         551.747          46.000    26207776.735   105528399.441         422.655          49.000  
G18  27480997.221   144413650.017        3096.103          42.000    27481013.964   112530147.004        2412.504          43.000  
G29  23847636.625   125320571.633         -39.996          47.000    23847631.684    97652662.393         -31.079          45.000  
S31  41862447.049   219988744.568        -741.429          44.000  
E03  29707017.139   156111432.399       -2558.171          44.000    29707021.542   119617786.730       -1960.182          49.000  
R15  24034898.732   128435434.833       -2774.243          52.000    24034894.548    99894398.247       -2157.826          47.000  
R18  22288170.700   118975867.594       -1364.952          51.000    22288166.656    92537079.055       -1061.643          47.000  
R19  23344167.736   124875900.921        2095.278          43.000    23344164.618    97125298.691        1629.648          47.000  
G11  26143140.929   137383610.291       -2787.549          46.000    26143136.034   107052357.058       -2172.245          44.000  
E24  28272338.282   148572269.594       -1845.768          44.000    28272337.529   113841149.711       -1414.259          47.000  
G24  26382365.388   138640298.710       -4259.834          44.000    26382368.158   108031453.178       -3319.281          40.000  
G12  24782942.828   130235552.715       -1752.227          48.000    24782937.829   101482376.429       -1365.510          44.000  
E05  29352691.382   154249439.3461      -3334.308          36.000    29352716.895   118191229.6971      -2555.122          36.000  
G25  23756966.812   124843936.475        -172.198          48.000    23756964.996    97281061.833        -134.204          46.000  
E10  27649781.438   145301081.718        -997.660          48.000    27649781.698   111334849.308        -764.433          52.000  
E25  26913581.958   141432130.532         -37.965          48.000    26913582.463   108370229.178         -29.093          53.000  
E12  29049211.381   152655007.415       -2227.130          37.000    29049209.497   116969641.363       -1706.595          45.000  
E14  28013416.541   147211643.493       -5082.645          49.000    28013413.938   112798588.807       -3894.538          46.000  
> 2024 04 15 02 40 00.0100000  0 27                     
S33  42820050.222   225020995.769        -741.781          42.000  
E02  29772694.280   156456559.580        1150.154          39.000    29772695.682   119882324.833         881.420          45.000  
G28  25495000.242   133977112.422        1776.936          46.000    25494994.303   104397735.356        1384.818          44.000  
E36  29394683.124   154470363.352        2312.340          42.000    29394690.809   118360597.800        1771.856          50.000  
G32  27179078.345   142826966.552       -2821.068          46.000    27179080.207   111293680.844       -2198.319          42.000  
R17  25028122.295   133931055.078       -4531.946          51.000    25028117.269   104168831.837       -3524.821          46.000  
R09  25773594.761   137629582.933        2719.434          37.000    25773600.495   107045338.646        2115.079          37.000  
R16  22747950.853   121515638.331         521.487          53.000    22747947.357    94512078.028         405.671          50.000  
G20  27443490.574   144216529.258         747.230          39.000                                                                  
E11  26204665.352   137706844.170         538.738          45.000    26204662.725   105515860.467         412.947          49.000  
G18  27463322.551   144320774.703        3095.096          42.000    27463339.294   112457777.834        2411.763          43.000  
G29  23847900.109   125321957.742         -52.832          48.000    23847896.221    97653742.488         -41.211          46.000  
S31  41866677.609   220010977.652        -741.188          44.000  
E03  29721641.414   156188281.498       -2565.507          44.000    29721645.347   119676670.948       -1965.664          49.000  
R15  24050511.876   128518866.091       -2788.274          52.000    24050509.385    99959289.184       -2168.636          49.000  
R18  22295910.801   119017185.082       -1390.029          52.000    22295907.091    92569214.922       -1081.090          47.000  
R19  23332472.727   124813340.026        2075.090          42.000    23332469.112    97076640.286        1613.904          47.000  
G11  26159098.577   137467469.810       -2803.348          45.000    26159094.583   107117702.125       -2184.378          45.000  
E24  28282884.031   148627685.480       -1849.022          44.000    28282883.037   113883611.208       -1416.737          47.000  
G24  26406701.100   138768180.389       -4266.123          44.000    26406703.648   108131100.922       -3324.265          41.000  
G12  24792961.592   130288203.278       -1758.246          48.000    24792956.116   101523402.853       -1370.208          44.000  
E05  29371716.241   154349418.687       -3331.243          40.000    29371740.812   118267837.424       -2552.453          45.000  
G25  23757966.062   124849188.572        -178.351          49.000    23757964.551    97285154.400        -138.922          46.000  
E10  27655517.038   145331224.379       -1012.133          48.000    27655517.627   111357945.660        -775.517          52.000  
E25  26913804.666   141433300.283         -40.322          49.000    26913804.879   108371125.491         -30.861          53.000  
E12  29061961.030   152721999.050       -2239.541          37.000    29061956.981   117020972.579       -1715.652          44.000  
E14  28042412.113   147364016.988       -5075.826          49.000    28042409.655   112915342.536       -3889.265          46.000  
> 2024 04 15 02 40 30.0100000  0 27                     
S33  42824283.260   225043240.038        -741.259          43.000  
E02  29766122.355   156422025.864        1151.713          40.000    29766123.891   119855864.008         882.743          45.000  
G28  25484888.759   133923979.620        1765.003          45.000    25484883.405   104356333.195        1375.428          44.000  
E36  29381490.914   154401038.478        2309.277          43.000    29381498.157   118307479.242        1769.474          50.000  
G32  27195205.207   142911717.215       -2828.771          46.000    27195207.491   111359720.146       -2204.275          42.000  
R17  25053555.682   134067153.505       -4541.158          51.000    25053549.013   104274686.189       -3531.983          44.000  
R09  25758317.148   137547987.227        2720.177          39.000    25758320.226   106981875.354        2116.118          37.000  
R16  22745057.074   121500181.476         509.024          52.000    22745053.480    94500056.027         395.889          50.000  
G20  27439256.394   144194282.157         736.564          39.000                                                                  
E11  26201625.848   137690872.063         526.231          45.000    26201622.914   105503622.146         403.173          49.000  
G18  27445652.905   144227921.607        3094.888          41.000    27445668.640   112385426.074        2411.555          42.000  
G29  23848237.606   125323730.463         -65.216          47.000    23848233.684    97655123.853         -50.769          46.000  
S31  41870906.896   220033201.726        -740.371          44.000  
E03  29736305.726   156265345.606       -2572.105          44.000    29736310.404   119735719.931       -1970.874          49.000  
R15  24066203.220   128602715.581       -2801.776          52.000    24066200.052   100024505.418       -2179.135          47.000  
R18  22303792.290   119059255.958       -1414.700          52.000    22303788.938    92601936.742       -1100.195          48.000  
R19  23320890.624   124751382.598        2055.272          43.000    23320888.137    97028451.257        1598.646          48.000  
G11  26175146.288   137551800.674       -2818.422          46.000    26175141.661   107183414.517       -2196.512          44.000  
E24  28293449.346   148683206.273       -1852.289          44.000    28293448.124   113926153.107       -1419.211          47.000  
G24  26431072.111   138896246.827       -4271.673          43.000    26431075.062   108230892.578       -3328.637          41.000  
G12  24803014.802   130341033.480       -1763.732          49.000    24803009.671   101564569.218       -1374.238          44.000  
E05  29390720.945   154449294.004       -3327.148          43.000    29390744.494   118344368.371       -2549.424          47.000  
G25  23759001.557   124854627.697        -184.155          49.000    23758998.967    97289392.687        -143.494          45.000  
E10  27661335.525   145361800.622       -1026.274          48.000    27661336.151   111381374.226        -786.287          52.000  
E25  26914040.286   141434540.860         -42.380          48.000    26914041.046   108372076.087         -32.493          53.000  
E12  29074778.270   152789352.504       -2250.933          37.000    29074775.042   117072581.101       -1724.746          46.000  
E14  28071368.889   147516187.145       -5068.768          49.000    28071366.921   113031940.457       -3883.930          46.000  
> 2024 04 15 02 41 00.0100000  0 27                     
S33  42828513.506   225065471.538        -740.771          43.000  
E02  29759542.880   156387447.117        1153.186          41.000    29759543.723   119829368.691         883.868          44.000  
G28  25474848.231   133871216.325        1752.620          44.000    25474843.651   104315218.959        1365.650          44.000  
E36  29368316.650   154331810.463        2305.789          44.000    29368323.825   118254434.881        1766.861          49.000  
G32  27211379.893   142996713.795       -2837.393          46.000    27211381.687   111425951.021       -2210.750          42.000  
R17  25079041.864   134203534.594       -4550.718          51.000    25079036.102   104380760.357       -3539.403          45.000  
R09  25743034.036   137466370.397        2720.929          41.000    25743034.532   106918395.674        2116.917          36.000  
R16  22742236.599   121485111.013         495.803          53.000    22742232.409    94488334.586         385.549          50.000  
G20  27435081.617   144172349.484         725.457          39.000                                                                  
E11  26198660.378   137675289.090         512.801          45.000    26198657.558   105491681.985         392.865          49.000  
G18  27427986.020   144135089.232        3093.814          41.000    27428001.852   112313090.535        2410.880          43.000  
G29  23848647.321   125325885.029         -78.326          47.000    23848643.584    97656802.798         -60.889          46.000  
S31  41875133.397   220055413.515        -740.286          44.000  
E03  29751009.915   156342618.509       -2579.398          42.000    29751015.276   119794928.875       -1976.398          49.000  
R15  24081972.597   128686979.449       -2815.787          53.000    24081968.757   100090043.991       -2190.042          48.000  
R18  22311813.364   119102073.751       -1439.716          51.000    22311810.167    92635239.498       -1119.863          48.000  
R19  23309421.138   124690027.450        2035.308          42.000    23309417.460    96980730.657        1582.827          47.000  
G11  26191282.479   137636596.522       -2834.244          45.000    26191277.217   107249489.229       -2208.594          44.000  
E24  28304034.586   148738828.236       -1855.800          45.000    28304032.574   113968772.532       -1421.923          47.000  
G24  26455475.965   139024491.231       -4278.026          43.000    26455478.892   108330822.878       -3333.494          41.000  
G12  24813102.076   130394039.753       -1769.852          49.000    24813096.828   101605872.810       -1379.034          44.000  
E05  29409704.354   154549057.078       -3324.707          33.000    29409728.096   118420810.941       -2546.544          46.000  
G25  23760071.126   124860250.683        -190.686          49.000    23760069.195    97293774.249        -148.401          45.000  
E10  27667236.416   145392805.787       -1040.700          49.000    27667236.281   111405131.451        -797.339          52.000  
E25  26914288.899   141435848.605         -44.702          48.000    26914289.738   108373078.128         -34.269          53.000  
E12  29087662.686   152857062.305       -2262.825          36.000    29087658.721   117124462.636       -1733.841          45.000  
E14  28100286.191   147668147.796       -5061.674          49.000    28100284.612   113148377.850       -3878.573          47.000  
> 2024 04 15 02 41 30.0100000  0 27                     
S33  42832741.084   225087688.324        -740.388          42.000  
E02  29752954.503   156352821.571        1154.854          41.000    29752954.377   119802837.534         884.863          44.000  
G28  25464878.748   133818823.183        1740.178          44.000    25464873.325   104274393.151        1355.942          44.000  
E36  29355160.724   154262679.275        2302.699          44.000    29355167.987   118201464.676        1764.386          49.000  
G32  27227599.925   143081951.341       -2845.400          46.000    27227602.783   111492369.680       -2217.104          43.000  
R17  25104579.832   134340192.242       -4559.863          51.000    25104573.821   104487049.682       -3546.640          47.000  
R09  25727746.733   137384733.032        2721.476          42.000    25727734.479                3       2116.388          21.000  
R16  22739488.076   121470427.620         482.852          53.000    22739483.776    94476914.188         375.558          51.000  
G20  27430967.867   144150731.887         715.090          38.000                                                                  
E11  26195768.394   137660094.210         499.861          44.000    26195765.997   105480039.186         383.049          49.000  
G18  27410323.721   144042278.394        3092.960          41.000    27410339.121   112240771.878        2410.116          43.000  
G29  23849129.634   125328418.682         -90.869          48.000    23849124.833    97658777.128         -70.776          45.000  
S31  41879357.403   220077610.348        -739.686          44.000  
E03  29765754.281   156420096.376       -2586.239          43.000    29765758.803   119854294.887       -1981.597          49.000  
R15  24097818.811   128771655.112       -2829.525          52.000    24097815.364   100155902.821       -2200.708          48.000  
R18  22319973.030   119145634.712       -1464.445          51.000    22319970.883    92669120.264       -1139.114          48.000  
R19  23298064.394   124629274.949        2014.765          42.000    23298060.885    96933478.774        1567.124          48.000  
G11  26207505.417   137721853.343       -2849.480          44.000    26207501.636   107315923.127       -2220.564          45.000  
E24  28314637.849   148794549.963       -1859.127          45.000    28314636.471   114011468.415       -1424.517          48.000  
G24  26479913.613   139152909.034       -4283.410          44.000    26479916.026   108430888.334       -3337.991          41.000  
G12  24823221.902   130447220.780       -1775.639          49.000    24823217.286   101647312.566       -1383.519          45.000  
E05  29428666.098                1      -3320.330          23.000    29428689.966   118497163.196       -2543.396          44.000  
G25  23761175.636   124866056.715        -196.759          48.000    23761173.874    97298298.433        -153.308          45.000  
E10  27673217.462   145424237.564       -1054.947          49.000    27673217.457   111429215.558        -808.249          52.000  
E25  26914550.525   141437222.196         -46.906          48.000    26914551.374   108374130.647         -36.012          53.000  
E12  29100614.438   152925125.210       -2274.710          37.000    29100611.332   117176614.740       -1742.945          46.000  
E14  28129163.363   147819895.241       -5054.731          49.000    28129161.285   113264651.870       -3873.277          47.000  
> 2024 04 15 02 42 00.0100000  0 27                     
S33  42836967.358   225109899.410        -740.594          42.000  
E02  29746358.137   156318157.848        1155.999          42.000    29746357.873   119776277.100         885.558          43.000  
G28  25454981.264   133766811.095        1727.115          45.000    25454975.681   104233864.287        1345.722          44.000  
E36  29342026.026   154193655.328        2298.875          44.000    29342032.467   118148576.609        1761.389          49.000  
G32  27243866.716   143167435.362       -2853.676          46.000    27243870.816   111558980.403       -2223.451          43.000  
R17  25130169.875   134477131.018       -4569.392          51.000    25130164.604   104593557.637       -3554.060          47.000  
R09  25712457.990   137303085.947        2721.483          42.000    25712480.727                3       2121.911          21.000  
R16  22736813.296   121456142.823         469.362          52.000    22736809.912    94465803.789         365.046          51.000  
G20  27426916.884   144129440.125         703.910          40.000                                                                  
E11  26192953.325   137645296.923         486.581          45.000    26192950.071   105468701.036         372.922          49.000  
G18  27392667.797   143949500.281        3091.863          41.000    27392681.670   112168478.771        2409.259          43.000  
G29  23849685.792   125331338.979        -103.802          48.000    23849679.959    97661052.739         -81.055          45.000  
S31  41883579.954   220099800.861        -739.685          44.000  
E03  29780538.308   156497785.730       -2593.273          42.000    29780543.143   119913822.944       -1987.148          49.000  
R15  24113743.572   128856751.553       -2843.737          52.000    24113739.577   100222088.925       -2211.762          48.000  
R18  22328274.031   119189945.445       -1489.698          51.000    22328271.644    92703584.197       -1158.679          48.000  
R19  23286821.392   124569136.470        1994.174          41.000    23286818.274    96886704.485        1550.980          47.000  
G11  26223818.148   137807577.606       -2865.339          43.000    26223814.410   107382721.256       -2232.668          45.000  
E24  28325262.016   148850380.519       -1862.952          45.000    28325261.157   114054247.657       -1427.494          49.000  
G24  26504385.662   139281506.195       -4289.847          44.000    26504387.880   108531093.508       -3342.494          40.000  
G12  24833377.317   130500585.546       -1781.989          49.000    24833372.004   101688895.499       -1388.521          45.000  
E05  29447607.699   154748218.9331      -3315.896          37.000    29447631.596   118573429.006       -2539.916          35.000  
G25  23762317.049   124872055.463        -203.345          48.000    23762314.897    97302972.785        -158.350          45.000  
E10  27679282.040   145456104.065       -1069.626          49.000    27679281.083   111453632.782        -819.617          51.000  
E25  26914826.442   141438670.795         -49.596          48.000    26914827.166   108375240.631         -38.120          53.000  
E12  29113633.097   152993548.303       -2286.503          35.000    29113631.864   117229042.843       -1752.425          47.000  
E14  28158000.978   147971436.125       -5048.075          49.000    28157998.762   113380767.612       -3868.003          47.000  
> 2024 04 15 02 42 30.0100000  0 28                     
S33  42841193.338   225132105.259        -740.086          42.000  
E02  29739754.933   156283458.544        1157.231          42.000    29739755.286   119749689.391         886.680          44.000  
G28  25445157.294   133715185.127        1714.107          44.000    25445151.838   104193636.278        1335.684          44.000  
E36  29328911.496   154124742.925        2295.140          43.000    29328918.793   118095774.007        1758.566          49.000  
G32  27260180.992   143253165.362       -2861.751          46.000    27260184.026   111625782.781       -2230.182          43.000  
R17  25155811.998   134614349.099       -4578.660          51.000    25155807.429   104700282.820       -3561.319          47.000  
R09  25697167.907   137221433.285        2721.805          42.000    25697212.891                1       2116.782          25.000  
R16  22734214.707   121442261.476         455.833          52.000    22734211.206    94455007.182         354.531          51.000  
G20  27422928.475   144108479.598         692.894          38.000                                                                  
E11  26190213.581   137630900.619         473.180          45.000    26190210.507   105457670.154         362.312          49.000  
G18  27375019.071   143856760.107        3090.455          42.000    27375032.463   112096215.318        2408.322          44.000  
G29  23850314.578   125334647.708        -116.901          47.000    23850309.672    97663631.003         -91.193          44.000  
S31  41887802.227   220121987.438        -739.682          44.000  
E03  29795361.969   156575687.171       -2600.493          42.000    29795367.260   119973513.493       -1992.558          48.000  
R15  24129746.000   128942271.185       -2857.768          52.000    24129743.252   100288604.188       -2222.753          47.000  
R18  22336716.579   119235006.626       -1514.679          52.000    22336713.058    92738631.810       -1177.987          49.000  
R19  23275694.783   124509617.459        1973.297          43.000    23275690.483    96840411.980        1534.980          46.000  
G05  28343007.753                1       1450.796          30.000    28343005.129                3       1129.791          27.000  
G11  26240219.832   137893769.677       -2881.136          44.000    26240216.875   107449883.931       -2245.003          46.000  
E24  28335907.207   148906322.905       -1866.689          45.000    28335906.612   114097112.571       -1430.299          49.000  
G24  26528891.247   139410282.653       -4295.468          43.000    26528893.454   108631438.407       -3347.149          41.000  
G12  24843567.274   130554137.197       -1788.291          48.000    24843562.510   101730624.079       -1393.348          45.000  
E05  29466527.995   154847652.916       -3312.799          40.000    29466551.952   118649594.4921      -2538.278          48.000  
G25  23763495.919   124878250.506        -209.906          48.000    23763493.732    97307800.109        -163.574          45.000  
E10  27685428.309   145488407.354       -1084.075          49.000    27685428.129   111478384.680        -830.722          51.000  
E25  26915116.398   141440197.474         -52.293          48.000    26915117.631   108376410.442         -40.122          53.000  
E12  29126724.128   153062332.740       -2298.711          37.000    29126721.156   117281747.803       -1761.489          47.000  
E14  28186799.013   148122771.161       -5041.239          49.000    28186796.951   113496725.638       -3862.812          48.000  
> 2024 04 15 02 43 00.0100000  0 28                     
S33  42845419.533   225154314.461        -740.088          43.000  
E02  29733146.358   156248729.727        1158.333          42.000    29733146.801   119723079.082         887.496          44.000  
G28  25435407.521   133663953.682        1701.333          44.000    25435403.651   104153715.708        1325.571          44.000  
E36  29315819.335   154055949.919        2291.349          42.000    29315827.544   118043062.920        1755.546          49.000  
G32  27276542.392   143339144.272       -2870.084          46.000    27276545.476   111692779.094       -2236.309          42.000  
R17  25181507.731   134751848.878       -4587.743          52.000    25181503.553   104807227.119       -3568.219          49.000  
R09  25681876.812   137139783.650        2721.998          41.000    25681910.629                        2117.253          31.000  
R16  22731693.506   121428792.365         442.211          53.000    22731689.754    94444531.203         344.045          51.000  
G20  27419004.797   144087859.008         681.894          39.000                                                                  
E11  26187551.621   137616912.159         459.494          45.000    26187548.795   105446951.752         351.954          49.000  
G18  27357379.239   143764066.570        3088.878          42.000    27357392.027   112023988.256        2406.959          44.000  
G29  23851018.725   125338349.957        -129.688          47.000    23851014.954    97666515.914        -101.154          45.000  
S31  41892024.535   220144177.081        -739.584          44.000  
E03  29810226.944   156653804.627       -2607.394          43.000    29810232.309   120033369.590       -1997.770          47.000  
R15  24145830.027   129028219.620       -2871.913          52.000    24145826.973   100355452.939       -2233.838          46.000  
R18  22345299.590   119280822.169       -1539.481          51.000    22345295.491    92774266.156       -1197.355          48.000  
R19  23264686.050   124450726.365        1952.703          43.000    23264681.408    96794607.859        1518.817          46.000  
G05  28334725.345   148899989.6551       1450.542          31.000    28334721.775                        1130.209          26.000  
G11  26256711.377   137980433.389       -2896.255          44.000    26256708.287   107517414.091       -2256.965          46.000  
E24  28346575.428   148962383.597       -1870.377          45.000    28346574.554   114140068.146       -1433.136          50.000  
G24  26553430.845   139539241.781       -4301.594          42.000    26553434.212   108731925.616       -3351.419          41.000  
G12  24853794.719   130607882.457       -1794.481          48.000    24853789.872   101772503.489       -1398.369          45.000  
G25  23764713.798   124884648.995        -216.669          49.000    23764711.527    97312785.948        -168.744          46.000  
E10  27691659.221   145521152.951       -1098.784          48.000    27691659.416   111503475.490        -841.798          51.000  
E25  26915423.593   141441808.838         -54.948          48.000    26915424.244   108377645.126         -42.057          53.000  
E12  29139882.454   153131483.227       -2310.457          37.000    29139879.735   117334733.240       -1770.724          47.000  
E14  28215558.776   148273904.495       -5034.252          49.000    28215556.740   113612529.103       -3857.269          48.000  
E05                                                                  29485451.780   118725699.4881      -2535.677          49.000  
> 2024 04 15 02 43 30.0100000  0 28                     
S33  42849645.179   225176521.073        -740.086          42.000  
E02  29726531.393   156213967.646        1159.527          42.000    29726532.252   119696443.287         888.246          45.000  
G28  25425732.592   133613115.433        1687.951          44.000    25425729.647   104114101.489        1315.276          45.000  
E36  29302751.794   153987274.330        2287.228          43.000    29302758.486   117990441.778        1752.527          49.000  
G32  27292949.882   143425365.184       -2878.105          47.000    27292952.371   111759964.000       -2242.642          41.000  
R17  25207253.712   134889622.085       -4596.967          51.000    25207248.922   104914384.083       -3575.389          48.000  
R09  25666586.089   137058135.304        2721.562          39.000    25666611.538   106601027.9691       2117.031          37.000  
R16  22729249.081   121415734.576         428.418          52.000    22729245.429    94434375.176         333.187          51.000  
G20  27415146.137   144067576.297         670.363          41.000                                                                  
E11  26184966.723   137603328.556         445.903          45.000    26184964.146   105436543.547         341.844          49.000  
G18  27339746.985   143671418.499        3087.551          42.000    27339759.681   111951796.712        2405.708          44.000  
G29  23851797.290   125342441.196        -142.926          47.000    23851793.926    97669703.921        -111.230          46.000  
S31  41896246.744   220166364.025        -739.344          44.000  
E03  29825132.126   156732132.321       -2614.359          43.000    29825137.730   120093386.787       -2003.180          47.000  
R15  24161993.794   129114592.900       -2886.167          52.000    24161989.996   100422632.112       -2244.720          46.000  
R18  22354021.826   119327386.245       -1564.558          50.000    22354018.377    92810482.679       -1216.869          48.000  
R19  23253793.992   124392462.156        1931.574          43.000    23253789.762    96749291.336        1502.307          47.000  
G05  28326447.954   148856491.348        1449.675          37.000    28326446.195                        1129.519          28.000  
G11  26273292.283   138067562.733       -2912.247          42.000    26273288.224   107585307.075       -2269.118          45.000  
E24  28357265.639   149018559.255       -1874.513          45.000    28357264.474   114183111.820       -1436.300          50.000  
G24  26578005.013   139668377.139       -4307.135          43.000    26578008.165   108832550.118       -3356.194          41.000  
G12  24864058.366   130661817.862       -1801.070          49.000    24864053.248   101814531.075       -1403.529          44.000  
E05  29504307.868   155046171.7351      -3305.361          33.000    29504330.669   118801721.292       -2532.810          43.000  
G25  23765969.385   124891248.152        -223.260          49.000    23765967.501    97317928.177        -174.017          46.000  
E10  27697974.725   145554336.532       -1113.418          49.000    27697973.696   111528901.907        -853.167          51.000  
E25  26915745.949   141443501.654         -57.790          48.000    26915746.342   108378942.234         -44.286          53.000  
E12  29153108.483   153200994.419       -2323.072          36.000    29153107.922   117387995.049       -1779.938          48.000  
E14  28244278.529   148424830.481       -5027.371          48.000    28244276.884   113728173.706       -3852.196          48.000  
> 2024 04 15 02 44 00.0100000  0 28                     
S33  42853870.351   225198724.047        -739.661          42.000  
E02  29719908.514   156179169.428        1160.789          41.000    29719910.570   119669779.788         889.407          45.000  
G28  25416133.047   133562669.802        1675.132          43.000    25416130.488   104074793.225        1305.157          45.000  
E36  29289705.940   153918715.024        2283.535          43.000    29289711.607   117937909.719        1749.673          49.000  
G32  27309402.223   143511822.075       -2885.603          46.000    27309404.421   111827332.791       -2248.641          41.000  
R17  25233049.576   135027661.527       -4605.551          51.000    25233044.811   105021748.074       -3582.159          48.000  
R09  25651296.626   136976487.330        2721.390          41.000    25651310.124   106537524.033        2117.300          37.000  
R16  22726881.494   121403087.726         414.746          52.000    22726877.795    94424538.753         322.565          50.000  
G20  27411350.887   144047631.824         659.011          39.000                                                                  
E11  26182458.699   137590147.663         432.940          45.000    26182455.915   105426443.931         331.702          50.000  
G18  27322124.146   143578815.667        3086.069          43.000    27322135.978   111879640.429        2404.717          43.000  
G29  23852649.661   125346917.408        -155.438          47.000    23852645.130    97673191.900        -121.130          45.000  
S31  41900467.834   220188546.678        -739.332          44.000  
E03  29840077.709   156810665.277       -2621.019          44.000    29840082.294   120153561.264       -2008.388          47.000  
R15  24178236.320   129201387.896       -2900.060          52.000    24178233.018   100490139.295       -2255.555          47.000  
R18  22362883.203   119374693.463       -1589.184          50.000    22362880.857    92847277.214       -1236.017          49.000  
R19  23243019.620   124334823.747        1910.884          44.000    23243015.068    96704461.523        1486.309          47.000  
G05  28318174.955   148813012.106        1449.037          40.000    28318169.963                        1128.922          30.000  
G11  26289960.378   138155152.476       -2927.299          43.000    26289955.628   107653558.846       -2280.953          45.000  
E24  28367977.099   149074847.359       -1878.160          46.000    28367975.940   114226241.655       -1438.878          50.000  
G24  26602611.983   139797683.114       -4313.002          44.000    26602614.889   108933307.579       -3360.854          40.000  
G12  24874358.004   130715941.011       -1807.162          49.000    24874352.641   101856704.935       -1408.167          45.000  
E05  29523164.025   155145273.8931      -3301.246          38.000    29523188.382   118877653.899       -2529.441          46.000  
G25  23767263.343   124898046.150        -229.877          50.000    23767261.323    97323225.321        -179.224          46.000  
E10  27704372.414   145587954.632       -1127.605          49.000    27704370.700   111554661.255        -864.048          50.000  
E25  26916083.052   141445273.565         -60.229          48.000    26916083.365   108380299.951         -46.193          53.000  
E12  29166404.863   153270861.881       -2334.852          37.000    29166402.843   117441529.879       -1788.965          47.000  
E14  28272957.778   148575544.379       -5020.158          48.000    28272956.947   113843655.793       -3846.589          49.000  
> 2024 04 15 02 44 30.0100000  0 28                     
S33  42858093.634   225220917.670        -739.621          42.000  
E02  29713279.973   156144331.451        1161.972          42.000    29713280.883   119643085.816         890.267          45.000  
G28  25406608.790   133512615.504        1662.021          44.000    25406604.886   104035789.844        1295.209          45.000  
E36  29276680.159   153850270.077        2279.659          43.000    29276686.388   117885465.272        1746.667          48.000  
G32  27325897.791   143598508.188       -2893.191          45.000    27325900.470   111894880.148       -2254.490          42.000  
R17  25258894.503   135165959.407       -4614.060          52.000    25258888.231   105129313.099       -3588.705          48.000  
R09  25636006.954   136894838.248        2721.832          40.000    25636010.092   106474019.303        2116.769          33.000  
R16  22724590.699   121390850.062         401.223          52.000    22724587.212    94415020.582         312.018          51.000  
G20  27407617.964   144028023.881         648.180          36.000                                                                  
E11  26180026.287   137577366.602         419.469          44.000    26180023.744   105416650.680         321.269          50.000  
G18  27304509.571   143486257.062        3084.597          43.000    27304520.949   111807518.590        2403.635          43.000  
G29  23853573.803   125351773.691        -168.140          48.000    23853568.287    97676976.046        -130.933          44.000  
S31  41904687.702   220210721.551        -738.980          44.000  
E03  29855060.684   156889397.747       -2627.780          43.000    29855064.644   120213888.578       -2013.358          47.000  
R15  24194557.214   129288600.674       -2913.973          52.000    24194553.431   100557971.442       -2266.314          47.000  
R18  22371883.785   119422738.084       -1613.628          50.000    22371881.297    92884645.268       -1254.995          49.000  
R19  23232361.437   124277809.591        1890.134          44.000    23232356.952    96660117.254        1470.196          47.000  
G05  28309903.868   148769550.588        1448.556          43.000    28309898.002   115924318.4101       1128.767          34.000  
G11  26306713.836   138243196.793       -2942.213          41.000    26306709.017   107722164.787       -2292.747          44.000  
E24  28378709.119   149131244.674       -1881.692          46.000    28378708.299   114269455.187       -1441.793          51.000  
G24  26627250.505   139927153.333       -4318.453          43.000    26627252.886   109034193.001       -3364.720          40.000  
G12  24884693.010   130770248.521       -1813.242          49.000    24884686.886   101899022.460       -1412.797          45.000  
E05  29542000.260   155244255.278       -3297.279          40.000    29542023.656   118953495.053       -2526.411          43.000  
G25  23768594.355   124905040.321        -236.334          49.000    23768592.446    97328675.336        -184.113          47.000  
E10  27710851.187   145622003.012       -1142.090          48.000    27710849.735   111580750.279        -874.938          50.000  
E25  26916435.022   141447121.424         -62.825          48.000    26916434.868   108381715.855         -48.104          52.000  
E12  29179766.831   153341080.526       -2346.283          38.000    29179765.014   117495333.770       -1797.828          47.000  
E14  28301596.669   148726040.646       -5012.715          48.000    28301595.597   113958971.123       -3840.847          49.000  
