     3.00           OBSERVATION DATA    M: Mixed            RINEX VERSION / TYPE
CONVBIN 2.4.3                           20240415 132942 UTC PGM / RUN BY / DATE 
format: u-blox UBX                                          COMMENT             
log: /home/regis/git/gnsspwv/obsdata/VERT00CHL/2024-04-15/VECOMMENT             
{self.marker}                                               MARKER NAME         
                                                            MARKER NUMBER       
GEODETIC                                                    MARKER TYPE         
{self.observer}     {self.institution}                      OBSERVER / AGENCY   
UNKNOWN             UBLOX-ZED-F9P                           REC # / TYPE / VERS 
UNKNOWN             TWIVSP6037L                             ANT # / TYPE        
  1713381.0000 -5047934.0000 -3490983.0000                  APPROX POSITION XYZ 
        0.0000        0.0000        0.0000                  ANTENNA: DELTA H/E/N
G    8 C1C L1C D1C S1C C2L L2L D2L S2L                      SYS / # / OBS TYPES 
R    8 C1C L1C D1C S1C C2C L2C D2C S2C                      SYS / # / OBS TYPES 
E    8 C1C L1C D1C S1C C7Q L7Q D7Q S7Q                      SYS / # / OBS TYPES 
S    4 C1C L1C D1C S1C                                      SYS / # / OBS TYPES 
  2024    04    15    13    15   00.0050000     GPS         TIME OF FIRST OBS   
  2024    04    15    13    29   30.0060000     GPS         TIME OF LAST OBS    
                                                            END OF HEADER       
> 2024 04 15 13 15 00.0050000  0 25                     
S33  41381029.978   217458913.1891       -674.296          42.000  
G09  24754588.462   130086171.9711       2336.316          39.000    24754591.928   101365881.0461       1820.806          33.000  
G04  22014250.171   115685633.0281        607.481          47.000    22014248.058    90144661.9081        473.486          49.000  
G02  22188777.774   116602809.8011      -2565.259          49.000                                                                  
R08  21909845.748   117326221.2031      -2832.887          51.000    21909839.820    91253864.2081      -2203.488          49.000  
R01  22115422.712   118219549.7941        569.534          49.000    22115421.872    91948525.8021        442.967          43.000  
R22  23900306.975   127581331.9901      -4771.178          51.000    23900307.892    99229976.5681      -3711.027          49.000  
G28  25639146.044   134734681.0351      -2323.572          35.000    25639146.656   104988009.6591      -1810.118          39.000  
G17  23567260.490   123846733.5681       -560.410          45.000    23567257.666    96503955.5021       -436.586          44.000  
E08  24982606.830   131284450.3281       -381.329          46.000    24982607.090   100594565.8031       -292.134          51.000  
S31  40429215.424   212457056.0481       -675.002          44.000  
G19  25449457.413   133737711.5581        989.545          39.000                                                                  
R24  22511354.086   120378264.3361       2320.880          51.000    22511351.306    93627559.5201       1805.059          48.000  
R10  25756356.353   137295893.3391       1898.863          40.000                                                                  
R23  20959167.384   112117289.2441      -1844.132          50.000                                                                  
E15  25481286.630   133905099.7671      -1810.039          49.000    25481289.723   102602650.1271      -1386.907          53.000  
G03  22541585.297   118456807.7811       -426.601          49.000    22541584.895    92304000.6061       -332.535          46.000  
E34  29357732.842   154275977.6921      -3297.198          42.000    29357743.678   118211570.2171      -2526.554          45.000  
G31  24639170.202   129479735.1551       -548.684          44.000    24639167.981   100893283.6521       -427.102          42.000  
E07  27717111.259   145654457.5561       1717.222          45.000    27717116.812   111605350.1171       1315.721          46.000  
E03  26617732.076   139877110.7301      -2716.504          48.000    26617734.073   107178574.3731      -2081.455          49.000  
G21  22540502.546   118451108.0771      -3505.016          47.000                                                                  
E18  28960084.651   152186254.3241       -904.744          46.000                                                                  
E13  25571400.172   134378644.7071        811.564          48.000    25571402.563   102965418.1891        621.841          51.000  
R09                                                                  25689088.131                           0.139          28.000  
> 2024 04 15 13 15 30.0050000  0 25                     
S33  41384878.536   217479135.591        -673.707          42.000  
G09  24741275.528   130016208.924        2328.296          38.000    24741278.149   101311364.410        1813.874          33.000  
G04  22010829.539   115667654.866         591.242          47.000    22010827.037    90130652.941         460.718          49.000  
G02  22203471.165   116680026.322       -2582.336          49.000                                                                  
R08  21925740.191   117411332.158       -2840.857          52.000    21925734.131    91320061.583       -2209.682          50.000  
R01  22112262.843   118202664.015         556.318          47.000    22112263.538    91935392.423         432.574          44.000  
R22  23927148.084   127724614.634       -4780.664          49.000    23927149.130    99341418.324       -3718.288          48.000  
G28  25652450.858   134804618.623       -2339.252          35.000    25652454.695   105042506.355       -1822.927          37.000  
G17  23570518.302   123863857.155        -581.257          46.000    23570515.775    96517298.535        -452.828          43.000  
E08  24984813.659   131296053.348        -392.152          45.000    24984815.150   100603456.425        -300.522          51.000  
S31  40433068.964   212477307.663        -674.896          44.000  
G19  25443851.568   133708251.304         974.353          38.000                                                                  
R24  22498381.189   120308892.061        2304.180          51.000    22498378.171    93573603.329        1792.139          48.000  
R10  25745695.392   137239060.575        1890.038          39.000                                                                  
R23  20969582.312   112173000.834       -1869.793          50.000                                                                  
E15  25491649.523   133959559.276       -1820.492          49.000    25491653.183   102644378.781       -1394.992          53.000  
G03  22544035.024   118469678.836        -431.308          49.000    22544034.188    92314029.971        -336.099          46.000  
E34  29376568.629   154374962.103       -3301.667          43.000    29376580.366   118287415.010       -2529.908          46.000  
G31  24642348.468   129496442.807        -565.023          44.000    24642346.979   100906302.645        -440.189          41.000  
E07  27707327.027   145603040.488        1710.745          45.000    27707332.671   111565952.649        1310.814          47.000  
E03  26633256.007   139958690.591       -2721.961          48.000    26633258.180   107241083.544       -2085.683          48.000  
G21  22560556.785   118556494.864       -3520.634          47.000                                                                  
E18  28965240.551   152213351.870        -901.708          46.000                                                                  
E13  25566789.939   134354417.013         803.793          49.000    25566792.103   102946854.118         615.909          51.000  
R09                                                                  25689155.545                3        -16.832          18.000  
> 2024 04 15 13 16 00.0050000  0 25                     
S33  41388727.017   217499359.345        -674.018          42.000  
G09  24728012.054   129946505.825        2319.322          38.000    24728014.112   101257050.371        1806.838          35.000  
G04  22007502.724   115650173.560         574.528          47.000    22007501.026    90117031.161         447.685          50.000  
G02  22218264.824   116757765.225       -2599.817          49.000                                                                  
R08  21941679.334   117496687.068       -2849.001          52.000    21941672.726    91386448.652       -2215.685          48.000  
R01  22109180.147   118186184.574         542.736          48.000    22109180.699    91922575.112         422.124          44.000  
R22  23954044.246   127868188.058       -4790.396          49.000    23954045.841    99453086.265       -3725.793          48.000  
G28  25665855.598   134875046.451       -2355.753          38.000    25665857.039   105097385.007       -1835.119          36.000  
G17  23573897.627   123881613.011        -602.184          47.000    23573894.929    96531134.213        -469.074          44.000  
E08  24987085.691   131307991.129        -403.403          46.000    24987086.834   100612603.543        -308.993          51.000  
S31  40436923.086   212497560.376        -674.584          44.000  
G19  25438333.879   133679250.844         959.161          38.000                                                                  
R24  22485503.584   120240029.804        2287.032          52.000    22485500.281    93520043.788        1778.846          48.000  
R10  25735085.212   137182504.763        1880.509          39.000                                                                  
R23  20980142.935   112229490.417       -1895.810          51.000                                                                  
E15  25502073.664   134014339.351       -1831.231          48.000    25502077.697   102686353.052       -1403.120          53.000  
G03  22546511.173   118482691.608        -436.004          49.000    22546510.185    92324169.783        -339.746          45.000  
E34  29395432.431   154474087.370       -3306.325          44.000    29395443.902   118363367.735       -2533.479          46.000  
G31  24645623.580   129513650.715        -581.783          43.000    24645620.859   100919711.382        -453.278          40.000  
E07  27697580.129   145551822.967        1704.080          44.000    27697586.298   111526708.086        1305.907          47.000  
E03  26648812.158   140040437.964       -2727.455          48.000    26648813.932   107303721.060       -2089.901          48.000  
G21  22580703.250   118662361.471       -3536.573          47.000                                                                  
E18  28970380.806   152240362.530        -898.834          45.000                                                                  
E13  25562224.796   134330424.859         795.971          49.000    25562226.716   102928470.524         609.853          51.000  
R09                                                                  25689334.308                3        -24.411          12.000  
> 2024 04 15 13 16 30.0060000  0 25                     
S33  41392575.534   217519582.750        -673.854          42.000  
G09  24714798.089   129877059.339        2310.503          39.000    24714800.311   101202936.261        1800.429          38.000  
G04  22004270.160   115633186.306         557.870          47.000    22004268.675    90103794.344         434.825          50.000  
G02  22233157.958   116836025.575       -2617.299          50.000                                                                  
R08  21957662.708   117582283.127       -2856.747          50.000    21957657.368    91453023.333       -2221.834          49.000  
R01  22106173.601   118170107.626         529.279          50.000    22106172.470    91910070.853         411.683          43.000  
R22  23980994.884   128012051.120       -4799.829          50.000    23980996.648    99564979.471       -3733.225          48.000  
G28  25679350.290   134945962.957       -2371.735          39.000    25679352.303   105152644.478       -1848.322          33.000  
G17  23577396.025   123899998.405        -622.819          47.000    23577394.086    96545460.492        -485.674          45.000  
E08  24989421.186   131320260.991        -414.530          46.000    24989421.756   100622005.109        -317.630          51.000  
S31  40440776.568   212517812.056        -675.048          43.000  
G19  25432902.167   133650708.273         943.854          38.000                                                                  
R24  22472721.604   120171676.546        2269.928          52.000    22472717.827    93466880.149        1765.416          47.000  
R10  25724527.631   137126225.465        1871.515          40.000                                                                  
R23  20990848.174   112286756.599       -1921.647          50.000                                                                  
E15  25512559.113   134069439.479       -1841.801          49.000    25512562.695   102728572.577       -1411.301          53.000  
G03  22549013.867   118495844.173        -440.741          49.000    22549012.848    92334418.518        -343.445          45.000  
E34  29414321.986   154573353.457       -3310.922          43.000    29414334.237   118439428.369       -2537.040          47.000  
G31  24648992.209   129531357.625        -598.383          41.000    24648990.816   100933508.933        -466.302          40.000  
E07  27687870.557   145500801.551        1697.331          43.000    27687877.077   111487613.814        1300.648          47.000  
E03  26664400.196   140122351.571       -2732.932          48.000    26664401.599   107366485.952       -2094.152          48.000  
G21  22600941.113   118768706.765       -3552.569          47.000                                                                  
E18  28975503.431   152267284.379        -895.716          44.000                                                                  
E13  25557704.218   134306666.549         788.031          49.000    25557705.774   102910266.107         603.853          51.000  
R09                                                                  25689606.979                1        -47.034          25.000  
> 2024 04 15 13 17 00.0060000  0 25                     
S33  41396424.626   217539810.284        -674.329          42.000  
G09  24701633.477   129807881.865        2301.088          36.000    24701636.278   101149031.892        1793.194          38.000  
G04  22001133.119   115616700.962         540.974          47.000    22001131.005    90090948.649         421.472          49.000  
G02  22248149.305   116914807.805       -2635.050          49.000                                                                  
R08  21973692.583   117668118.973       -2865.310          51.000    21973686.905    91519784.503       -2228.586          48.000  
R01  22103242.938   118154439.762         515.329          49.000    22103241.710    91897884.760         400.728          42.000  
R22  24007998.679   128156197.591       -4809.875          49.000    24008001.062    99677093.129       -3741.092          48.000  
G28  25692939.764   135017368.504       -2388.605          41.000    25692939.445   105208285.016       -1861.108          36.000  
G17  23581015.838   123919018.406        -644.807          47.000    23581013.665    96560281.202        -502.273          46.000  
E08  24991820.482   131332868.049        -426.015          46.000    24991821.025   100631665.053        -326.430          51.000  
S31  40444631.476   212538068.622        -675.442          44.000  
G19  25427559.515   133622633.351         927.730          37.000                                                                  
R24  22460037.739   120103847.591        2252.073          52.000    22460033.896    93414124.303        1751.474          48.000  
R10  25714024.206   137070237.280        1861.194          40.000                                                                  
R23  21001698.625   112344801.131       -1948.057          50.000                                                                  
E15  25523106.290   134124862.686       -1853.042          49.000    25523109.390   102771039.650       -1419.878          53.000  
G03  22551545.085   118509142.217        -445.898          49.000    22551544.126    92344780.616        -347.540          46.000  
E34  29433237.796   154672759.492       -3316.368          41.000    29433250.981   118515596.235       -2540.996          46.000  
G31  24652457.855   129549569.620        -615.693          41.000    24652456.437   100947700.069        -479.610          40.000  
E07  27678201.266   145449986.942        1690.249          44.000    27678207.486   111448677.992        1295.124          47.000  
E03  26680019.532   140204430.962       -2738.927          49.000    26680021.265   107429377.890       -2098.667          48.000  
G21  22621268.119   118875527.979       -3568.738          47.000                                                                  
E18  28980611.007   152294121.855        -893.431          44.000                                                                  
E13  25553229.311   134283151.753         779.631          49.000    25553231.269   102892248.283         597.289          51.000  
R09                                                                  25690013.755                         -63.525          29.000  
> 2024 04 15 13 17 30.0060000  0 25                     
S33  41400275.157   217560045.251        -674.366          41.000  
G09  24688521.842   129738975.213        2292.604          35.000    24688522.534   101095338.465        1786.364          38.000  
G04  21998091.766   115600719.804         524.415          47.000    21998089.085    90078495.799         408.554          48.000  
G02  22263241.236   116994115.944       -2652.302          49.000                                                                  
R08  21989767.756   117754197.384       -2873.195          51.000    21989761.882    91586734.315       -2234.626          48.000  
R01  22100387.682   118139182.369         501.824          48.000    22100387.402    91886017.873         390.290          43.000  
R22  24035056.503   128300631.562       -4819.039          50.000    24035059.142    99789430.384       -3748.352          49.000  
G28  25706621.402   135089266.632       -2404.828          41.000    25706622.128   105264309.421       -1873.609          38.000  
G17  23584756.728   123938675.817        -665.791          47.000    23584754.983    96575598.623        -518.805          46.000  
E08  24994284.085   131345814.742        -437.164          46.000    24994284.539   100641585.219        -334.932          51.000  
S31  40448487.893   212558333.012        -675.563          44.000  
G19  25422305.940   133595029.277         912.130          36.000                                                                  
R24  22447452.144   120036547.424        2234.564          53.000    22447448.825    93361779.709        1738.030          47.000  
R10  25703576.635   137014545.259        1851.227          41.000                                                                  
R23  21012695.017   112403628.036       -1973.889          50.000                                                                  
E15  25533714.728   134180613.561       -1863.739          49.000    25533718.279   102813757.799       -1428.104          53.000  
G03  22554103.938   118522588.937        -450.714          50.000    22554103.332    92355258.569        -351.233          46.000  
E34  29452181.361   154772310.450       -3320.266          41.000    29452195.232   118591875.212       -2544.324          46.000  
G31  24656020.442   129568290.489        -632.352          41.000    24656019.919   100962287.753        -492.838          41.000  
E07  27668571.178   145399380.825        1683.448          44.000    27668577.089   111409901.910        1289.987          47.000  
E03  26695670.678   140286679.994       -2744.244          48.000    26695672.422   107492399.812       -2102.744          48.000  
G21  22641686.064   118982829.470       -3584.698          47.000                                                                  
E18  28985701.588   152320878.166        -890.479          44.000                                                                  
E13  25548801.916   134259883.911         771.503          49.000    25548803.377   102874419.659         591.215          51.000  
R09                                                                  25690530.682                         -79.938          29.000  
> 2024 04 15 13 18 00.0060000  0 25                     
S33  41404126.419   217580284.400        -674.603          42.000  
G09  24675461.327   129670336.883        2284.287          34.000    24675460.870   101041854.166        1779.054          39.000  
G04  21995144.969   115585239.177         507.792          46.000    21995143.790    90066432.991         395.689          49.000  
G02  22278432.299   117073944.754       -2669.618          50.000                                                                  
R08  22005885.892   117840511.873       -2880.613          50.000    22005880.204    91653867.740       -2240.492          49.000  
R01  22097609.469   118124330.627         488.305          48.000    22097609.159    91874466.527         379.690          43.000  
R22  24062166.628   128445345.893       -4828.538          50.000    24062169.182    99901985.683       -3755.446          48.000  
G28  25720396.438   135161652.250       -2421.008          42.000    25720395.603   105320713.592       -1886.383          35.000  
G17  23588617.753   123958966.186        -686.777          46.000    23588615.873    96591409.257        -535.370          46.000  
E08  24996810.026   131359096.651        -448.418          45.000    24996812.026   100651762.252        -343.565          51.000  
S31  40452345.195   212578600.418        -675.547          44.000  
G19  25417142.103   133567893.230         896.690          36.000                                                                  
R24  22434965.236   119969775.889        2216.881          52.000    22434962.198    93309846.267        1724.310          48.000  
R10  25693184.207   136959149.713        1841.425          42.000                                                                  
R23  21023838.344   112463232.417       -1999.733          50.000                                                                  
E15  25544385.374   134236688.472       -1874.584          49.000    25544389.103   102856724.234       -1436.373          53.000  
G03  22556690.393   118536180.663        -455.463          50.000    22556689.212    92365849.483        -354.956          45.000  
E34  29471152.615   154872001.849       -3325.361          41.000    29471166.652   118668261.753       -2548.011          47.000  
G31  24659678.766   129587517.182        -649.226          42.000    24659678.881   100977269.546        -505.826          40.000  
E07  27658980.384   145348980.137        1676.767          44.000    27658986.072   111371283.232        1284.733          47.000  
E03  26711352.721   140369093.425       -2749.667          48.000    26711355.411   107555547.697       -2107.025          48.000  
G21  22662195.712   119090605.352       -3600.396          48.000                                                                  
E18  28990778.164   152347549.238        -887.588          45.000                                                                  
E13  25544420.856   134236860.834         763.413          49.000    25544422.589   102856778.580         585.025          51.000  
R09                                                                  25691163.121                1        -96.429          27.000  
> 2024 04 15 13 18 30.0060000  0 25                     
S33  41407977.730   217600522.814        -674.416          42.000  
G09  24662444.935                        2274.473          31.000    24662448.977   100988575.583        1772.659          37.000  
G04  21992293.525   115570253.725         491.392          46.000    21992292.313    90054756.009         382.919          49.000  
G02  22293721.382   117154287.796       -2686.543          50.000                                                                  
R08  22022046.975   117927053.832       -2888.274          50.000    22022041.376    91721178.111       -2246.336          47.000  
R01  22094905.276   118109878.210         475.267          47.000    22094906.073    91863225.739         369.650          44.000  
R22  24089327.209   128590331.553       -4837.203          50.000    24089329.777   100014752.010       -3762.225          47.000  
G28  25734262.866   135234518.079       -2436.725          43.000    25734260.434   105377492.087       -1898.615          31.000  
G17  23592597.858   123979883.389        -707.290          46.000    23592595.510    96607708.348        -551.442          45.000  
E08  24999400.364   131372707.563        -458.917          45.000    24999402.082   100662191.377        -351.656          51.000  
S31  40456201.847   212598867.800        -675.236          44.000  
G19  25412063.888   133541221.133         881.513          33.000                                                                  
R24  22422577.135   119903531.637        2199.529          53.000    22422574.456    93258322.960        1710.674          48.000  
R10  25682846.800   136904049.562        1831.750          40.000                                                                  
R23  21035124.862   112523607.711       -2025.057          50.000                                                                  
E15  25555117.040   134293081.918       -1884.872          49.000    25555120.539   102899934.745       -1444.258          53.000  
G03  22559303.408   118549911.878        -459.882          50.000    22559302.197    92376549.107        -358.301          45.000  
E34  29490149.327   154971827.108       -3329.587          41.000    29490163.189   118744750.872       -2551.247          47.000  
G31  24663434.393   129607244.680        -665.313          42.000    24663431.742   100992641.598        -519.031          39.000  
E07  27649428.521   145298780.023        1670.363          45.000    27649433.230   111332818.236        1279.844          47.000  
E03  26727065.958   140451664.103       -2754.727          48.000    26727068.209   107618816.069       -2110.733          48.000  
G21  22682794.702   119198847.942       -3615.674          48.000                                                                  
E18  28995835.555   152374129.114        -884.313          45.000                                                                  
E13  25540084.967   134214078.477         755.629          49.000    25540087.244   102839321.959         579.022          51.000  
R09                                                                  25691911.344                1       -112.103          28.000  
> 2024 04 15 13 19 00.0060000  0 25                     
S33  41411828.147   217620756.334        -674.736          41.000  
G09  24649484.065                3       2266.559          33.000    24649486.263   100935502.047        1765.597          35.000  
G04  21989535.806   115555761.337         474.773          46.000    21989535.042    90043463.235         370.026          50.000  
G02  22309107.154   117235141.670       -2703.694          50.000                                                                  
R08  22038249.657   118013818.939       -2896.156          50.000    22038244.034    91788662.002       -2252.482          47.000  
R01  22092275.881   118095821.709         461.802          48.000    22092276.090    91852292.893         359.402          43.000  
R22  24116538.403   128735582.874       -4846.195          50.000    24116541.083   100127725.018       -3769.206          48.000  
G28  25748219.682   135307860.545       -2452.661          44.000    25748215.739   105434641.978       -1911.334          34.000  
G17  23596696.913   124001424.672        -728.661          46.000    23596695.505    96624493.717        -567.685          45.000  
E08  25002053.459   131386644.673        -470.032          45.000    25002054.623   100672870.446        -360.184          51.000  
S31  40460057.563   212619130.234        -675.327          44.000  
G19  25407078.422   133515012.299         866.153          34.000                                                                  
R24  22410288.642   119837816.353        2181.511          52.000    22410285.262    93207211.050        1696.801          48.000  
R10  25672564.995   136849245.922        1821.796          38.000                                                                  
R23  21046554.658   112584750.731       -2050.985          50.000                                                                  
E15  25565908.282   134349791.855       -1895.733          48.000    25565912.168   102943387.763       -1452.554          53.000  
G03  22561942.959   118563780.573        -464.722          49.000    22561940.518    92387355.839        -361.987          44.000  
E34  29509169.362   155071783.239       -3334.246          39.000    29509184.620   118821340.273       -2554.648          48.000  
G31  24667283.043   129627471.604        -682.373          43.000    24667280.275   101008402.832        -531.622          39.000  
E07  27639913.232   145248779.038        1663.307          44.000    27639918.188   111294505.815        1274.549          47.000  
E03  26742808.231   140534388.366       -2760.213          48.000    26742810.166   107682202.132       -2114.825          47.000  
G21  22703480.446   119307553.050       -3631.305          48.000                                                                  
E18  29000875.659   152400615.365        -881.443          45.000                                                                  
E13  25535795.279   134191536.270         747.364          48.000    25535797.655   102822049.350         572.631          51.000  
R09                                                                  25692781.862                        -128.448          29.000  
> 2024 04 15 13 19 30.0060000  0 25                     
S33  41415678.998   217640991.444        -674.562          41.000  
G09  24636576.973   129466070.4981       2256.303          35.000    24636575.986   100882638.066        1758.718          36.000  
G04  21986873.330   115541766.480         458.116          46.000    21986872.172    90032558.146         356.918          50.000  
G02  22324591.529   117316509.476       -2720.869          50.000                                                                  
R08  22054494.066   118100808.284       -2903.123          51.000    22054487.701    91856320.317       -2257.958          49.000  
R01  22089720.769   118082164.821         448.663          47.000    22089721.444    91841670.869         348.782          43.000  
R22  24143799.111   128881100.969       -4855.081          50.000    24143801.870   100240905.433       -3776.125          48.000  
G28  25762266.718   135381682.526       -2468.774          43.000    25762259.616   105492165.536       -1924.176          33.000  
G17  23600915.600   124023593.929        -749.518          46.000    23600914.389    96641768.415        -583.938          46.000  
E08  25004769.055   131400911.687        -481.146          45.000    25004769.707   100683802.296        -368.609          51.000  
S31  40463913.951   212639394.230        -675.544          43.000  
G19  25402181.685   133489272.125         850.732          35.000                                                                  
R24  22398099.801   119772638.223        2163.592          53.000    22398096.135    93156516.948        1682.708          49.000  
R10  25662341.375   136794747.797        1811.676          38.000                                                                  
R23  21058128.799   112646664.788       -2076.672          50.000                                                                  
E15  25576760.477   134406822.716       -1906.446          48.000    25576764.969   102987086.683       -1460.783          53.000  
G03  22564608.869   118577791.202        -469.421          49.000    22564606.129    92398273.192        -365.808          44.000  
E34  29528217.031   155171873.744       -3338.742          41.000    29528231.452   118898032.596       -2558.130          46.000  
G31  24671228.185   129648202.926        -699.500          42.000    24671225.111   101024557.066        -545.094          38.000  
E07  27630436.704   145198982.231        1656.474          43.000    27630441.977   111256349.855        1269.185          47.000  
E03  26758579.432   140617269.022       -2765.134          48.000    26758581.935   107745708.047       -2118.912          47.000  
G21  22724254.453   119416722.914       -3646.753          48.000                                                                  
E18  29005898.917   152427012.001        -878.497          45.000                                                                  
E13  25531552.427   134169240.151         739.069          48.000    25531554.920   102804965.301         566.247          52.000  
R09                                                                  25693769.642                1       -144.757          28.000  
> 2024 04 15 13 20 00.0060000  0 25                     
S33  41419530.899   217661232.703        -674.915          42.000  
G09  24623719.629   129398504.039        2247.547          36.000    24623718.429   100829988.968        1751.717          36.000  
G04  21984306.297   115528274.819         441.261          47.000    21984304.459    90022045.158         343.913          50.000  
G02  22340173.496   117398395.514       -2738.136          49.000                                                                  
R08  22070781.533   118188025.962       -2911.563          50.000    22070775.241    91924156.239       -2264.565          49.000  
R01  22087242.399   118068912.063         434.945          49.000    22087241.322    91831363.180         338.317          42.000  
R22  24171110.643   129026888.118       -4864.011          50.000    24171112.676   100354295.150       -3783.151          48.000  
G28  25776406.789   135455988.030       -2484.888          43.000    25776401.141   105550065.880       -1936.701          34.000  
G17  23605254.339   124046395.988        -770.676          47.000    23605253.681    96659536.229        -600.474          45.000  
E08  25007547.234   131415513.467        -492.406          46.000    25007548.113   100694990.685        -377.191          51.000  
S31  40467770.986   212659664.454        -675.601          43.000  
G19  25397375.140   133464007.625         834.263          38.000                                                                  
R24  22386012.938   119708007.170        2145.213          52.000    22386010.365    93106248.356        1668.394          49.000  
R10  25652176.143   136740565.138        1800.745          39.000                                                                  
R23  21069848.025   112709354.468       -2102.593          50.000                                                                  
E15  25587675.717   134464180.162       -1917.326          48.000    25587679.914   103031035.855       -1469.176          54.000  
G03  22567302.706   118591949.452        -474.475          49.000    22567301.297    92409305.561        -369.806          45.000  
E34  29547290.771   155272103.316       -3343.322          40.000    29547304.656   118974831.508       -2561.824          46.000  
G31  24675269.826   129669444.476        -716.606          42.000    24675268.404   101041108.910        -558.322          41.000  
E07  27621000.373   145149395.871        1649.350          42.000    27621006.147   111218355.156        1263.914          48.000  
E03  26774381.436   140700310.162       -2770.643          48.000    26774384.556   107809336.911       -2123.031          47.000  
G21  22745117.843   119526361.300       -3662.451          48.000                                                                  
E18  29010906.868   152453324.249        -875.778          46.000                                                                  
E13  25527358.042   134147197.261         730.500          48.000    25527360.468   102788075.288         559.777          52.000  
R09                                                                  25694880.834                1       -161.359          29.000  
> 2024 04 15 13 20 30.0060000  0 25                     
S33  41423384.167   217681481.512        -675.018          41.000  
G09  24610913.327   129331216.574        2237.994          36.000    24610914.929   100777557.147        1744.505          37.000  
G04  21981835.009   115515288.298         424.438          47.000    21981832.935    90011925.784         330.691          50.000  
G02  22355854.675   117480800.367       -2755.457          49.000                                                                  
R08  22087111.344   118275470.099       -2918.431          50.000    22087106.026    91992168.279       -2269.923          49.000  
R01  22084839.693   118056064.711         421.527          49.000    22084837.543    91821370.830         327.651          42.000  
R22  24198472.281   129172942.748       -4872.889          50.000    24198473.513   100467892.880       -3790.124          47.000  
G28  25790638.249   135530777.417       -2501.166          42.000    25790638.034   105608343.176       -1948.867          35.000  
G17  23609714.150   124069831.472        -791.730          47.000    23609713.037    96677797.617        -617.076          44.000  
E08  25010390.208   131430451.239        -503.507          46.000    25010390.650   100706436.520        -385.781          51.000  
S31  40471629.688   212679942.059        -675.657          44.000  
G19  25392658.455   133439222.077         818.164          39.000                                                                  
R24  22374030.027   119643928.837        2126.727          52.000    22374027.485    93056409.635        1654.101          49.000  
R10  25642071.635   136686703.393        1790.228          39.000                                                                  
R23  21081712.150   112772820.847       -2128.529          50.000                                                                  
E15  25598652.655   134521866.136       -1928.389          48.000    25598657.381   103075236.748       -1477.580          54.000  
G03  22570025.423   118606257.315        -479.401          49.000    22570024.432    92420454.507        -373.639          45.000  
E34  29566390.768   155372472.931       -3347.977          39.000    29566404.820   119051737.691       -2565.366          47.000  
G31  24679408.985   129691198.698        -733.972          42.000    24679408.530   101058060.236        -571.816          41.000  
E07  27611605.037   145100022.523        1642.388          43.000    27611611.012   111180523.689        1258.322          48.000  
E03  26790214.108   140783512.132       -2776.128          48.000    26790217.555   107873089.005       -2127.082          48.000  
G21  22766070.893   119636467.830       -3677.899          48.000                                                                  
E18  29015898.280   152479553.647        -872.844          46.000                                                                  
E13  25523212.161   134125411.010         721.903          48.000    25523214.606   102771381.919         553.108          52.000  
R09                                                                  25696109.653                1       -177.875          28.000  
> 2024 04 15 13 21 00.0060000  0 25                     
S33  41427239.362   217701741.016        -675.501          41.000  
G09  24598161.514   129264210.669        2228.625          35.000    24598163.924   100725344.816        1736.652          36.000  
G04  21979459.893   115502808.441         407.456          47.000    21979457.702    90002201.217         317.473          49.000  
G02  22371634.392   117563724.346       -2772.791          49.000                                                                  
R09  25696035.823                3       -274.000          10.000    25697448.244                1       -194.659          28.000  
R08  22103482.368   118363140.350       -2925.884          50.000    22103477.657    92060356.164       -2275.678          50.000  
R01  22082511.392   118043622.954         407.965          48.000    22082510.447    91811693.901         317.222          44.000  
R22  24225881.510   129319263.108       -4881.896          48.000    24225883.947   100581697.293       -3796.944          46.000  
G28  25804962.102   135606050.515       -2517.427          42.000    25804962.238   105666997.420       -1961.216          36.000  
G17  23614295.527   124093902.078        -812.944          47.000    23614293.432    96696553.883        -633.365          45.000  
E08  25013296.094   131445725.772        -514.775          45.000    25013297.163   100718140.377        -394.547          50.000  
S31  40475490.596   212700230.517        -676.237          44.000  
G19  25388034.064   133414918.147         801.878          40.000                                                                  
R24  22362151.364   119580408.739        2107.953          52.000    22362148.589    93007005.128        1639.482          49.000  
R10  25632027.913   136633168.348        1779.059          38.000                                                                  
R23  21093722.070   112837063.985       -2154.457          50.000                                                                  
E15  25609693.072   134579882.130       -1939.485          48.000    25609697.839   103119690.503       -1486.176          54.000  
G03  22572776.819   118620716.364        -484.485          49.000    22572775.983    92431721.281        -377.570          45.000  
E34  29585516.814   155472983.073       -3352.832          41.000    29585531.669   119128751.533       -2569.020          47.000  
G31  24683647.005   129713467.862        -751.069          44.000    24683646.300   101075412.843        -585.165          42.000  
E07  27602249.560   145050864.361        1634.912          42.000    27602256.832   111142857.070        1252.620          49.000  
E03  26806077.968   140866874.854       -2781.500          48.000    26806080.955   107936964.275       -2131.262          47.000  
G21  22787112.228   119747041.071       -3693.671          48.000                                                                  
E18  29020874.117   152505701.352        -870.409          46.000                                                                  
E13  25519115.496   134103884.406         713.001          47.000    25519118.159   102754887.494         546.329          51.000  
> 2024 04 15 13 21 30.0060000  0 25                     
S33  41431095.765   217722005.344        -675.280          42.000  
G09  24585465.832   129197483.853        2220.369          37.000    24585465.624   100673349.872        1729.956          38.000  
G04  21977181.182   115490831.462         391.007          47.000    21977178.547    89992868.508         304.679          49.000  
G02  22387512.508   117647162.181       -2789.526          49.000                                                                  
R08  22119896.144   118451029.656       -2933.441          51.000    22119889.947    92128714.419       -2281.398          49.000  
R01  22080259.243   118031581.986         394.845          48.000    22080258.110    91802328.749         307.226          44.000  
R22  24253341.158   129465841.838       -4890.107          48.000    24253344.405   100695702.643       -3803.308          47.000  
G28  25819377.777   135681801.986       -2532.628          43.000    25819377.800   105726024.381       -1973.368          37.000  
G17  23618995.488   124118602.797        -833.590          47.000    23618994.084    96715801.150        -649.517          44.000  
E08  25016264.481   131461332.621        -525.465          44.000    25016266.680   100730098.856        -402.681          50.000  
S31  40479352.265   212720523.589        -676.602          44.000  
G19  25383499.733   133391093.146         786.179          39.000                                                                  
R24  22350377.321   119517447.093        2089.574          52.000    22350374.150    92958035.002        1625.318          48.000  
R10  25622045.894   136579960.690        1768.262          39.000                                                                  
R23  21105875.366   112902078.916       -2179.814          50.000                                                                  
E15  25620795.892   134638224.407       -1949.906          48.000    25620799.757   103164394.255       -1494.073          54.000  
G03  22575555.897   118635322.934        -488.971          48.000    22575555.303    92443103.028        -381.018          45.000  
E34  29604669.072   155573629.071       -3356.725          40.000    29604683.996   119205869.508       -2572.162          45.000  
G31  24687982.709   129736248.268        -767.633          45.000    24687982.385   101093163.806        -598.045          43.000  
E07  27592935.700   145001918.243        1628.280          42.000    27592942.671   111105352.925        1247.585          48.000  
E03  26821970.864   140950393.027       -2786.167          49.000    26821973.972   108000958.682       -2134.900          47.000  
G21  22808241.456   119858075.510       -3708.569          48.000                                                                  
E18  29025833.811   152531763.200        -867.000          46.000                                                                  
E13  25515067.558   134082615.214         704.822          46.000    25515070.698   102738590.313         540.098          51.000  
R09                                                                  25698910.140                3       -212.650          24.000  
> 2024 04 15 13 22 00.0060000  0 25                     
S33  41434953.382   217742278.152        -675.859          42.000  
G09  24572819.533   129131039.229        2210.053          34.000    24572823.249   100621574.885        1722.410          40.000  
G04  21974998.304   115479359.167         373.942          48.000    21974996.082    89983929.052         291.510          49.000  
G02  22403487.498   117731114.445       -2806.959          48.000                                                                  
R08  22136349.394   118539137.104       -2940.411          51.000    22136343.380    92197242.345       -2286.969          49.000  
R01  22078081.503   118019942.724         381.384          48.000    22078080.777    91793276.011         296.656          43.000  
R22  24280848.495   129612677.423       -4898.729          48.000    24280851.549   100809907.786       -3810.392          48.000  
G28  25833883.953   135758031.971       -2548.852          40.000    25833884.999   105785424.319       -1985.840          37.000  
G17  23623816.274   124143934.593        -855.064          46.000    23623814.183    96735540.142        -666.255          44.000  
E08  25019297.745   131477272.847        -536.835          45.000    25019300.172   100742312.773        -411.405          50.000  
S31  40483215.463   212740825.142        -677.159          43.000  
G19  25379056.632   133367750.192         769.926          38.000                                                                  
R24  22338708.592   119455049.566        2070.551          52.000    22338705.131    92909503.596        1610.400          48.000  
R10  25612127.518   136527086.324        1756.695          39.000                                                                  
R23  21118173.250   112967866.323       -2205.794          49.000                                                                  
E15  25631960.180   134696894.787       -1960.977          48.000    25631964.316   103209349.436       -1502.688          54.000  
G03  22578363.967   118650079.022        -494.263          48.000    22578363.634    92454601.253        -385.175          45.000  
E34  29623848.346   155674411.920       -3361.803          38.000    29623862.220   119283092.313       -2575.666          41.000  
G31  24692414.399   129759542.436        -784.885          43.000    24692414.330   101111315.099        -611.678          42.000  
E07  27583661.785   144953186.644        1620.720          41.000    27583669.159   111068013.171        1241.980          48.000  
E03  26837893.866   141034066.979       -2791.728          49.000    26837896.640   108065072.416       -2139.069          47.000  
G21  22829458.673   119969570.723       -3724.198          48.000                                                                  
E18  29030777.408   152557740.663        -864.462          46.000                                                                  
E13  25511070.001   134061606.836         695.872          46.000    25511072.766   102722492.970         533.266          51.000  
R09                                                                  25700504.393                3       -226.147          20.000  
> 2024 04 15 13 22 30.0060000  0 25                     
S33  41438813.375   217762562.170        -676.386          42.000  
G04  21972911.630   115468395.927         356.739          48.000    21972909.797    89975386.281         277.974          49.000  
G02  22419561.733   117815584.340       -2824.410          49.000                                                                  
R08  22152843.679   118627465.276       -2948.025          50.000    22152838.498    92265941.975       -2292.954          49.000  
R01  22075980.674   118008708.527         367.537          49.000    22075979.379    91784538.293         285.784          43.000  
R22  24308404.377   129759770.839       -4907.424          48.000    24308407.495   100924313.453       -3817.037          48.000  
G28  25848480.577   135834743.260       -2565.137          41.000    25848482.371   105845199.257       -1999.020          38.000  
G17  23628757.475   124169901.081        -876.319          47.000    23628754.780    96755773.720        -682.683          44.000  
E08  25022396.450   131493550.160        -548.391          46.000    25022397.763   100754784.974        -420.093          51.000  
S31  40487080.721   212761138.436        -677.371          44.000  
G19  25374708.294   133344894.836         753.526          40.000                                                                  
R24  22327146.470   119393224.222        2051.121          51.000    22327142.820    92861417.241        1595.280          48.000  
R10  25602271.754   136474553.499        1744.989          37.000                                                                  
R23  21130616.358   113034429.231       -2231.746          49.000                                                                  
E15  25643188.116   134755897.694       -1972.427          48.000    25643192.357   103254559.389       -1511.307          54.000  
G03  22581200.964   118664989.162        -499.597          48.000    22581200.535    92466219.501        -389.355          45.000  
E34  29643054.410   155775335.087       -3366.223          35.000    29643067.395   119360422.644       -2579.395          37.000  
G31  24696946.167   129783355.191        -802.583          44.000    24696945.305   101129870.455        -625.406          42.000  
E07  27574429.926   144904674.620        1613.222          41.000    27574437.409   111030841.641        1236.204          48.000  
E03  26853846.711   141117899.548       -2797.108          49.000    26853849.219   108129307.686       -2143.230          46.000  
G21  22850763.647   120081528.983       -3739.757          48.000                                                                  
E18  29035705.854   152583637.766        -862.030          46.000                                                                  
E13  25507123.103   134040865.147         686.784          47.000    25507125.721   102706599.979         526.269          51.000  
R09                                                                  25702203.107                3       -244.505          19.000  
G09                                                                  24560233.414   100570024.135        1714.645          38.000  
> 2024 04 15 13 23 00.0060000  0 25                     
S33  41442675.766   217782857.610        -676.600          42.000  
G09  24547692.676                1       2191.965          32.000    24547697.285   100518696.854        1707.527          37.000  
G04  21970921.614   115457939.527         340.120          48.000    21970920.143    89967238.430         265.186          50.000  
G02  22435733.477   117900568.057       -2841.094          49.000                                                                  
R08  22169379.334   118716009.295       -2954.854          50.000    22169373.886    92334809.493       -2298.244          49.000  
R01  22073953.681   117997876.047         354.652          49.000    22073953.289    91776113.027         275.688          44.000  
R22  24336007.890   129907116.493       -4915.426          49.000    24336010.697   101038915.298       -3823.113          47.000  
G28  25863170.273   135911932.041       -2580.710          43.000    25863171.586   105905346.224       -2010.962          40.000  
G17  23633818.824   124196499.080        -896.884          47.000    23633816.719    96776499.405        -698.802          45.000  
E08  25025557.999   131510161.545        -559.029          46.000    25025559.075   100767513.184        -428.416          51.000  
S31  40490948.271   212781461.389        -677.337          43.000  
G19  25370451.749   133322525.904         737.916          40.000                                                                  
R24  22315692.466   119331973.011        2032.380          52.000    22315689.158    92813777.437        1580.608          49.000  
R10  25592481.186   136422363.945        1734.094          39.000                                                                  
R23  21143204.649   113101764.231       -2257.134          50.000                                                                  
E15  25654478.800   134815230.899       -1983.168          48.000    25654483.110   103300022.440       -1519.490          54.000  
G03  22584067.050   118680051.238        -504.388          48.000    22584066.534    92477956.177        -393.146          45.000  
E34  29662286.536   155876395.459       -3370.624          32.000    29662298.696   119437858.106       -2583.115          34.000  
G31  24701576.584   129807684.738        -819.634          42.000    24701573.978   101148828.496        -638.257          41.000  
E07  27565239.598   144856380.614        1606.374          40.000    27565247.824   110993837.184        1230.818          48.000  
E03  26869828.972   141201887.027       -2801.987          48.000    26869831.607   108193661.658       -2146.932          46.000  
G21  22872156.072   120193945.849       -3754.406          48.000                                                                  
E18  29040617.594   152609451.981        -858.886          45.000                                                                  
E13  25503226.472   134020389.506         678.258          47.000    25503229.317   102690910.842         519.693          51.000  
R09                                                                  25704023.363                3       -264.198          23.000  
> 2024 04 15 13 23 30.0060000  0 25                     
S33  41446539.755   217803163.869        -677.087          42.000  
G09  24535212.313                        2181.180          31.000    24535217.220   100467595.748        1699.882          38.000  
G04  21969028.718   115447992.016         323.221          47.000    21969027.508    89959487.138         251.864          50.000  
G02  22452003.060   117986066.635       -2858.462          48.000                                                                  
R08  22185954.607   118804768.436       -2962.063          50.000    22185949.125    92403844.309       -2303.971          49.000  
R01  22072002.505   117987446.682         341.024          49.000    22072001.886    91768001.330         265.150          43.000  
R22  24363657.930   130054713.131       -4924.025          49.000    24363660.453   101153712.390       -3829.729          47.000  
G28  25877949.666   135989598.724       -2596.691          43.000    25877951.680   105965865.596       -2023.573          41.000  
G17  23639000.416   124223729.798        -918.138          46.000    23638999.338    96797718.107        -715.436          45.000  
E08  25028783.048   131527108.491        -570.354          46.000    25028783.844   100780498.494        -437.105          51.000  
S31  40494818.255   212801797.005        -678.343          44.000  
G19  25366287.716   133300646.789         721.264          39.000                                                                  
R24  22304346.888   119271301.740        2012.699          52.000    22304343.467    92766588.684        1565.446          49.000  
R10  25582756.304   136370524.572        1722.388          39.000                                                                  
R23  21155937.064   113169872.047       -2283.175          50.000                                                                  
E15  25665833.158   134874896.563       -1994.282          48.000    25665837.085   103345740.233       -1528.132          53.000  
G03  22586963.388   118695267.578        -509.741          49.000    22586962.030    92489813.058        -397.119          45.000  
E34  29681542.368   155977594.212       -3375.189          31.000    29681556.787   119515399.592       -2586.226          32.000  
G31  24706304.722   129832533.309        -836.906          42.000    24706303.523   101168191.022        -652.245          42.000  
E07  27556091.475   144808307.421        1598.671          40.000    27556099.495   110957001.896        1225.180          48.000  
E03  26885841.322   141286030.052       -2807.280          49.000    26885843.252   108258134.808       -2151.035          46.000  
G21  22893635.519   120306821.144       -3770.073          49.000                                                                  
E18  29045514.467   152635185.101        -856.302          45.000                                                                  
E13  25499380.960   134000183.619         669.030          47.000    25499384.298   102675428.402         512.676          51.000  
R09                                                                  25705972.434                1       -277.899          28.000  
> 2024 04 15 13 24 00.0060000  0 25                     
S33  41450405.493   217823477.412        -677.591          42.000  
G09  24522789.454                        2171.818          32.000    24522792.518   100416717.870        1692.099          37.000  
G04  21967232.055   115438548.366         306.065          48.000    21967229.802    89952128.450         238.505          49.000  
G02  22468369.555   118072073.728       -2875.783          48.000                                                                  
R08  22202568.406   118893735.408       -2969.726          50.000    22202563.157    92473040.743       -2309.826          50.000  
R01  22070126.307   117977413.930         327.513          49.000    22070124.787    91760198.073         255.053          43.000  
R22  24391352.931   130202552.226       -4932.240          49.000    24391356.913   101268698.036       -3836.130          48.000  
G28  25892818.853   136067736.667       -2612.767          44.000    25892821.706   106026752.127       -2036.023          42.000  
G17  23644301.890   124251587.830        -939.270          47.000    23644300.000    96819425.637        -731.932          44.000  
E08  25032071.188   131544385.226        -581.754          46.000    25032071.431   100793736.509        -445.700          51.000  
S31  40498689.311   212822139.340        -678.513          44.000  
G19  25362217.126   133279253.752         704.718          40.000                                                                  
R24  22293108.898   119211209.487        1993.139          51.000    22293105.803    92719850.270        1550.219          49.000  
R10  25573096.683   136319034.068        1710.315          39.000                                                                  
R23  21168812.165   113238746.417       -2308.848          50.000                                                                  
E15  25677249.683   134934889.707       -2005.541          48.000    25677253.285   103391708.931       -1536.718          53.000  
G03  22589887.522   118710633.341        -514.990          49.000    22589886.299    92501786.354        -401.154          45.000  
E34  29700826.597   156078925.537       -3380.360          29.000    29700839.302   119593042.645       -2590.267          30.000  
G31  24711131.491   129857896.732        -854.272          43.000    24711130.350   101187954.696        -665.492          42.000  
E07  27546984.750   144760450.633        1591.358          41.000    27546992.689   110920332.454        1219.292          47.000  
E03  26901881.937   141370322.153       -2812.558          49.000    26901883.406   108322722.192       -2155.051          45.000  
G21  22915201.009   120420147.790       -3785.363          48.000                                                                  
E18  29050394.937   152660831.789        -853.900          44.000                                                                  
E13  25495586.695   133980244.025         659.860          47.000    25495589.697   102660150.003         505.629          51.000  
R09                                                                  25708047.604                3       -295.090          22.000  
> 2024 04 15 13 24 30.0060000  0 25                     
S33  41454273.450   217843804.989        -677.903          42.000  
G09  24510417.701   128803115.8461       2162.046          33.000    24510422.923   100366069.922        1684.426          38.000  
G04  21965532.430   115429615.991         289.046          47.000    21965529.469    89945168.162         225.354          49.000  
G02  22484833.986   118158595.271       -2892.724          47.000                                                                  
R08  22219222.697   118982914.907       -2976.733          51.000    22219217.721    92542402.506       -2315.178          50.000  
R01  22068324.913   117967784.665         314.133          49.000    22068323.739    91752708.648         244.470          43.000  
R22  24419094.487   130350637.988       -4940.536          49.000    24419098.543   101383875.493       -3842.501          47.000  
G28  25907779.447   136146351.718       -2628.567          44.000    25907780.885   106088010.492       -2048.232          42.000  
G17  23649723.892   124280079.526        -960.374          47.000    23649721.460    96841626.909        -748.279          44.000  
E08  25035422.414   131561998.553        -592.941          46.000    25035423.286   100807232.454        -454.242          51.000  
S31  40502562.997   212842496.039        -678.982          43.000  
G19  25358241.132   133258355.247         688.200          41.000                                                                  
R24  22281981.809   119151707.459        1973.375          51.000    22281978.613    92673570.932        1534.875          49.000  
R10  25563505.145   136267904.257        1697.974          39.000                                                                  
R23  21181832.158   113308393.508       -2334.619          49.000                                                                  
E15  25688729.199   134995217.820       -2016.648          48.000    25688733.340   103437934.309       -1545.203          53.000  
G03  22592841.535   118726156.268        -520.270          49.000    22592840.373    92513882.100        -405.188          45.000  
E34  29720136.540                3      -3385.729          25.000    29720149.586                       -2592.657          30.000  
G31  24716058.775   129883782.714        -871.532          44.000    24716055.294   101208125.540        -679.291          41.000  
E07  27537922.436   144712818.499        1583.813          44.000    27537928.293   110883835.118        1213.705          47.000  
E03  26917952.576   141454769.364       -2817.604          49.000    26917953.488   108387428.415       -2159.001          46.000  
G21  22936852.922   120533931.072       -3800.377          48.000                                                                  
E18  29055260.670   152686399.210        -851.045          44.000                                                                  
E13  25491844.485   133960579.819         650.738          47.000    25491847.701   102645082.607         498.646          51.000  
R09                                                                  25710233.499                3       -315.087          19.000  
> 2024 04 15 13 25 00.0060000  0 25                     
S33  41458145.491   217864151.890        -678.168          41.000  
G09  24498106.103   128738417.794        2151.744          33.000    24498110.735   100315655.932        1676.561          38.000  
G04  21963930.216   115421198.664         272.004          47.000    21963927.943    89938609.219         211.929          49.000  
G02  22501398.040   118245633.647       -2909.796          48.000                                                                  
R08  22235916.074   119072308.809       -2983.205          51.000    22235911.071    92611931.047       -2320.278          49.000  
R01  22066599.292   117958561.811         300.709          49.000    22066598.767    91745535.341         233.807          44.000  
R22  24446882.597   130498970.968       -4948.555          49.000    24446885.717   101499245.278       -3848.878          46.000  
G28  25922830.859   136225446.059       -2644.397          45.000    25922832.144   106149642.285       -2060.611          42.000  
G17  23655266.977   124309208.219        -981.492          46.000    23655264.441    96864324.557        -764.564          44.000  
E08  25038839.154   131579951.642        -603.989          47.000    25038839.837   100820988.719        -462.778          51.000  
S31  40506440.235   212862871.408        -679.447          44.000  
G19  25354358.942   133237956.107         671.604          42.000                                                                  
R24  22270966.766   119092803.785        1953.421          52.000    22270963.857    92627756.968        1519.408          49.000  
R10  25553981.867   136217142.861        1685.766          39.000                                                                  
R23  21194996.341   113378815.582       -2360.210          49.000                                                                  
E15  25700273.845   135055884.800       -2027.922          48.000    25700277.767   103484419.324       -1553.741          53.000  
G03  22595826.527   118741840.422        -525.446          48.000    22595824.729    92526103.510        -409.363          45.000  
G31  24721084.593   129910195.359        -889.155          44.000    24721081.630   101228706.829        -692.811          40.000  
E07  27528902.245   144665415.551        1576.310          44.000    27528907.895   110847513.370        1207.973          47.000  
E03  26934052.170   141539374.095       -2822.562          49.000    26934053.841   108452255.331       -2162.844          46.000  
G21  22958592.802   120648172.378       -3815.460          48.000                                                                  
E18  29060110.332   152711890.968        -848.339          43.000                                                                  
E13  25488156.345   133941196.431         641.580          47.000    25488159.247   102630230.388         491.592          51.000  
E34                                                                  29739486.131                       -2597.140          26.000  
R09                                                                  25712506.229                3       -338.320          17.000  
> 2024 04 15 13 25 30.0060000  0 25                     
S33  41462021.241   217884519.730        -679.535          41.000  
G09  24485853.238   128674023.820        2140.911          35.000    24485858.549   100265478.899        1668.341          40.000  
G04  21962426.865   115413298.934         254.456          47.000    21962425.244    89932453.591         198.209          50.000  
G02  22518058.720   118333190.068       -2927.563          47.000                                                                  
R08  22252649.399   119161916.620       -2990.803          52.000    22252644.230    92681625.924       -2326.191          50.000  
R01  22064949.697   117949746.838         286.835          48.000    22064950.106    91738679.261         222.941          45.000  
R22  24474716.818   130647550.464       -4957.040          48.000    24474719.760   101614806.785       -3855.516          46.000  
G28  25937973.720   136305020.590       -2660.898          43.000    25937974.419   106211648.236       -2073.339          42.000  
G17  23660930.955   124338974.724       -1003.136          46.000    23660928.796    96887519.164        -781.629          44.000  
E08  25042320.665   131598246.352        -615.848          47.000    25042321.589   100835006.740        -471.902          52.000  
S31  40510321.659   212883268.247        -680.688          44.000  
G19  25350572.699   133218060.305         654.552          43.000                                                                  
R24  22260063.910   119034504.640        1932.878          52.000    22260061.715    92582413.194        1503.245          49.000  
R10  25544529.103   136166757.040        1672.729          37.000                                                                  
R23  21208306.962   113450013.916       -2386.480          51.000                                                                  
E15  25711883.298   135116893.218       -2039.635          49.000    25711887.157   103531165.973       -1562.914          53.000  
G03  22598841.286   118757688.587        -531.372          48.000    22598840.433    92538452.733        -413.995          45.000  
G31  24726211.117   129937137.670        -907.126          41.000    24726207.610   101249700.812        -707.114          39.000  
E07  27519925.924   144618244.966        1568.235          44.000    27519931.864   110811369.711        1201.589          47.000  
E03  26950181.253   141624137.481       -2828.468          48.000    26950184.292   108517203.812       -2167.307          47.000  
G21  22980419.703   120762872.291       -3831.251          49.000                                                                  
E18  29064948.452   152737309.322        -846.401          43.000                                                                  
E13  25484522.582   133922098.021         631.590          47.000    25484524.946   102615596.519         483.944          51.000  
E34                                                                  29758851.507                3      -2596.783          23.000  
R09                                                                  25714970.768                3       -360.329          11.000  
> 2024 04 15 13 26 00.0060000  0 25                     
S33  41465900.701   217904905.811        -680.258          42.000  
G09  24473658.968   128609931.967        2130.930          37.000    24473663.936   100215537.288        1660.522          41.000  
G04  21961022.020   115405913.511         237.440          48.000    21961020.153    89926698.722         185.074          50.000  
G02  22534818.074   118421259.964       -2944.537          47.000                                                                  
R08  22269422.341   119251733.515       -2997.546          51.000    22269417.322    92751483.434       -2331.434          49.000  
R01  22063375.487   117941335.435         273.550          49.000    22063375.283    91732137.059         212.736          43.000  
R07  25777037.110                3      -4489.250          10.000                                                                  
R22  24502596.025   130796369.836       -4964.711          48.000    24502599.411   101730554.852       -3861.488          47.000  
G28  25953206.103   136385070.418       -2676.594          44.000    25953208.082   106274024.599       -2085.737          43.000  
G17  23666716.078   124369375.297       -1024.212          46.000    23666713.547    96911207.858        -798.095          43.000  
E08  25045866.245   131616878.769        -626.867          47.000    25045867.368   100849283.525        -480.325          52.000  
S31  40514206.409   212903682.662        -680.756          43.000  
G19  25346883.060   133198665.806         637.931          42.000                                                                  
R24  22249274.878   118976810.823        1912.802          52.000    22249272.543    92537540.222        1487.828          48.000  
R10  25535147.090   136116747.750        1660.535          36.000                                                                  
R23  21221760.390   113521984.020       -2412.027          50.000                                                                  
E15  25723557.727   135178239.917       -2050.700          49.000    25723561.070   103578171.812       -1571.343          53.000  
G03  22601888.373   118773697.920        -536.499          48.000    22601887.166    92550927.507        -418.018          44.000  
G31  24731436.191   129964606.763        -924.604          42.000    24731434.975   101271105.208        -720.358          40.000  
E07  27510993.132   144571304.285        1560.592          44.000    27510998.636   110775402.200        1195.891          47.000  
E03  26966340.165   141709054.899       -2833.437          47.000    26966343.175   108582270.303       -2171.099          47.000  
G21  23002332.650   120878025.189       -3846.193          48.000                                                                  
E18  29069770.773   152762650.750        -843.481          44.000                                                                  
E13  25480942.178   133903283.009         622.260          48.000    25480944.577   102601179.799         476.849          51.000  
R09                                                                  25717524.854                3       -367.252          20.000  
> 2024 04 15 13 26 30.0060000  0 24                     
S33  41469784.452   217925313.810        -680.640          41.000  
G09  24461523.097   128546147.502        2120.859          41.000    24461525.822   100165835.172        1652.419          41.000  
G04  21959715.444   115399046.268         220.089          48.000    21959712.652    89921347.647         171.505          49.000  
G02  22551674.469   118509845.887       -2961.603          47.000                                                                  
R08  22286235.374   119341760.444       -3004.576          52.000    22286229.255    92821504.323       -2337.000          50.000  
R01  22061878.744   117933330.703         259.935          50.000    22061878.055    91725911.151         202.180          44.000  
R22  24530520.104   130945429.729       -4972.801          48.000    24530523.270   101846489.997       -3867.814          46.000  
G28  25968530.916   136465597.904       -2692.456          45.000    25968531.508   106336773.127       -2098.118          43.000  
G17  23672622.995   124400413.523       -1045.292          46.000    23672620.112    96935393.432        -814.627          44.000  
E08  25049476.756   131635852.197        -638.427          47.000    25049477.525   100863821.607        -489.189          52.000  
S31  40518095.311   212924119.276        -681.644          43.000  
G19  25343287.720   133179777.714         620.998          39.000                                                                  
R24  22238600.765   118919730.354        1892.176          52.000    22238597.722    92493144.303        1471.711          48.000  
R10  25525838.794   136067122.848        1647.217          38.000                                                                  
R23  21235358.977   113594728.139       -2437.829          50.000                                                                  
E15  25735296.608   135239928.865       -2062.221          49.000    25735300.257   103625439.907       -1580.166          53.000  
G03  22604966.923   118789872.617        -542.188          49.000    22604964.387    92563531.149        -422.382          44.000  
G31  24736765.917   129992607.279        -942.437          43.000    24736764.709   101292923.755        -734.190          40.000  
E07  27502106.003   144524598.151        1552.706          44.000    27502110.817   110739614.400        1189.736          46.000  
E03  26982529.614   141794128.922       -2838.875          47.000    26982532.781   108647456.788       -2175.179          47.000  
G21  23024331.853   120993633.154       -3861.346          49.000                                                                  
E18  29074579.646   152787919.005        -841.345          44.000                                                                  
E13  25477416.330   133884756.958         612.493          47.000    25477419.238   102586984.506         469.220          51.000  
R09                                                                  25720227.113                3       -385.233          21.000  
> 2024 04 15 13 27 00.0060000  0 24                     
S33  41473676.896   217945767.976        -684.365          41.000  
G09  24449449.775   128482696.715        2107.936          41.000    24449452.125   100116393.013        1642.509          42.000  
G04  21958511.520   115392722.212         200.245          48.000    21958508.301    89916419.818         156.101          48.000  
G02  22568635.835   118598971.544       -2981.317          48.000                                                                  
R08  22303090.556   119432020.923       -3014.238          51.000    22303084.342    92891706.842       -2344.345          48.000  
R01  22060462.651   117925757.162         243.682          50.000    22060460.786    91720020.622         189.553          44.000  
R22  24558493.331   131094752.300       -4983.240          47.000    24558496.634   101962629.446       -3875.820          46.000  
G28  25983950.093   136546626.421       -2710.859          44.000    25983950.696   106399912.055       -2112.511          42.000  
G17  23678655.039   124432113.047       -1069.125          46.000    23678652.821    96960094.309        -833.091          44.000  
E08  25053156.819   131655190.988        -652.153          47.000    25053157.570   100878639.625        -499.646          52.000  
S31  40521993.244   212944602.866        -685.136          43.000  
G19  25339794.106   133161422.089         601.573          41.000                                                                  
R24  22228046.730   118863292.181        1869.028          52.000    22228042.916    92449247.977        1453.593          48.000  
R10  25516606.935   136017911.596        1631.946          37.000                                                                  
R23  21249107.101   113668270.556       -2466.283          50.000                                                                  
E15  25747105.407   135301985.164       -2076.150          49.000    25747109.600   103672989.470       -1590.776          53.000  
G03  22608081.059   118806238.071        -550.220          49.000    22608078.556    92576283.438        -428.693          44.000  
G31  24742199.657   130021164.380        -962.660          43.000    24742199.823   101315176.033        -750.044          40.000  
E07  27493266.951   144478152.293        1542.512          44.000    27493272.558   110704026.040        1181.923          47.000  
E03  26998751.586   141879383.222       -2846.231          46.000    26998755.929   108712781.418       -2180.895          47.000  
G21  23046421.836   121109718.790       -3878.954          48.000                                                                  
E18  29079378.446   152813138.891        -841.306          43.000                                                                  
E13  25473950.688   133866546.595         600.393          47.000    25473953.822   102573031.090         460.047          51.000  
R09                                                                  25723027.251                3       -396.036          20.000  
> 2024 04 15 13 27 30.0060000  0 24                     
S33  41477603.950   217966404.390        -692.229          42.000  
G09  24437463.911   128419714.497        2090.372          40.000    24437466.518   100067315.993        1628.870          40.000  
G04  21957436.268   115387074.908         175.749          47.000    21957433.373    89912019.330         136.849          48.000  
G02  22585724.035   118688769.295       -3005.768          48.000                                                                  
R08  22320014.108   119522648.693       -3028.303          50.000    22320007.436    92962195.045       -2355.373          47.000  
R01  22059151.525   117918749.614         222.812          49.000    22059149.771    91714570.317         173.352          44.000  
R22  24586540.665   131244470.001       -4998.485          48.000    24586544.300   102079076.171       -3887.776          46.000  
G28  25999489.710   136628287.966       -2733.930          44.000    25999491.190   106463544.270       -2130.116          44.000  
G17  23684838.325   124464606.346       -1097.519          45.000    23684835.916    96985413.672        -855.204          44.000  
E08  25056931.686   131675028.157        -670.751          47.000    25056932.264   100893839.508        -513.903          51.000  
S31  40525925.901   212965267.758        -693.096          44.000  
G19  25336428.230   133143733.781         577.127          40.000                                                                  
R24  22217638.583   118807636.610        1840.794          52.000    22217634.893    92405960.324        1431.780          47.000  
R10  25507478.052   135969254.463        1611.267          36.000                                                                  
R23  21263029.870   113742745.616       -2499.345          51.000                                                                  
E15  25759009.622   135364542.536       -2094.855          49.000    25759013.777   103720922.969       -1605.130          53.000  
G03  22611256.989   118822928.258        -562.952          49.000    22611254.849    92589288.766        -438.770          45.000  
G31  24747765.690   130050412.222        -987.857          44.000    24747764.600   101337966.500        -769.862          39.000  
E07  27484503.366   144432101.141        1527.202          44.000    27484509.277   110668740.111        1170.262          47.000  
E03  27015034.011   141964950.130       -2858.697          46.000    27015038.327   108778345.546       -2190.510          47.000  
G21  23068628.461   121226413.241       -3901.155          48.000                                                                  
E18  29084193.278   152838443.835        -846.111          43.000                                                                  
E13  25470571.438   133848787.211         583.230          47.000    25470574.389   102559423.234         446.948          51.000  
R09                                                                  25726019.840                3       -458.047          17.000  
> 2024 04 15 13 28 00.0060000  0 25                     
S33  41481580.454   217987301.322        -701.370          42.000  
G09  24425582.605   128357281.014        2071.793          39.000    24425584.992   100018666.562        1614.407          40.000  
G04  21956505.808   115382183.201         150.222          47.000    21956503.127    89908207.610         116.925          49.000  
G02  22602955.086   118779316.648       -3031.042          49.000                                                                  
R08  22337021.520   119613721.485       -3043.331          50.000    22337014.518    93033029.340       -2366.993          48.000  
R01  22057961.322   117912387.512         201.070          49.000    22057960.066    91709622.019         156.448          44.000  
R02  25412230.916                3       2185.133          15.000                                                                  
R22  24614677.533   131394659.733       -5014.353          49.000    24614680.180   102195890.000       -3900.059          47.000  
G28  26015165.023   136710659.846       -2757.852          44.000    26015165.889   106527729.982       -2148.947          43.000  
G17  23691187.260   124497971.462       -1126.786          45.000    23691185.948    97011412.415        -878.257          45.000  
E08  25060815.934   131695441.913        -690.283          47.000    25060816.965   100909481.199        -528.817          52.000  
S31  40529907.804   212986192.458        -701.999          44.000  
G19  25333204.337   133126792.911         551.957          41.000                                                                  
R24  22207394.190   118752847.634        1811.674          52.000    22207390.104    92363346.688        1409.099          48.000  
R10  25498469.232   135921235.176        1589.575          37.000                                                                  
R23  21277141.699   113818232.010       -2533.346          50.000                                                                  
E15  25771024.875   135427679.927       -2114.488          49.000    25771028.510   103769300.897       -1620.192          53.000  
G03  22614509.839   118840022.486        -576.843          49.000    22614508.052    92602608.931        -449.396          44.000  
G31  24753478.735   130080429.783       -1013.804          44.000    24753476.080   101361356.765        -790.164          39.000  
E07  27475831.665   144386524.296        1511.227          44.000    27475836.602   110633817.623        1157.816          47.000  
E03  27031391.759   142050907.192       -2871.982          47.000    27031395.820   108844208.655       -2200.589          47.000  
G21  23090965.496   121343793.544       -3924.264          49.000                                                                  
E18  29089040.223   152863912.553        -851.936          42.000                                                                  
E13  25467293.656   133831559.386         565.197          47.000    25467296.086   102546222.688         433.037          51.000  
R09                                                                  25729175.088                3       -447.523          22.000  
> 2024 04 15 13 28 30.0060000  0 24                     
S33  41485610.237   218008478.404        -710.978          42.000  
G09  24413811.438   128295419.029        2052.114          41.000    24413813.536    99970462.429        1599.304          40.000  
G04  21955721.856   115378068.365         123.909          46.000    21955721.187    89905001.260          96.673          50.000  
G02  22620332.334   118870633.601       -3057.074          49.000                                                                  
R09  25732518.277                2       -607.507          27.000    25732495.254                3       -471.353          25.000  
R08  22354115.219   119705259.289       -3059.205          50.000    22354109.559    93104225.356       -2379.371          48.000  
R01  22056896.045   117906691.396         178.550          50.000    22056895.562    91705191.727         138.765          45.000  
R22  24642906.072   131545339.887       -5030.996          50.000    24642907.839   102313085.320       -3913.029          47.000  
G28  26030978.567   136793761.722       -2782.439          43.000    26030979.855   106592484.540       -2168.119          43.000  
G17  23697706.837   124532228.739       -1157.079          46.000    23697704.871    97038106.313        -901.496          45.000  
E08  25064813.540   131716453.031        -710.575          47.000    25064815.311   100925580.619        -544.501          52.000  
S31  40533943.305   213007399.091        -711.840          43.000  
G19  25330127.053   133110622.022         525.994          41.000                                                                  
R24  22197314.853   118698950.939        1781.376          52.000    22197310.788    92321427.029        1385.571          48.000  
R10  25489583.639                        1567.724          30.000                                                                  
R23  21291446.079   113894750.004       -2568.025          51.000                                                                  
E15  25783154.265   135491418.791       -2134.866          49.000    25783157.746   103818139.688       -1635.849          53.000  
G03  22617842.883   118857542.506        -591.327          48.000    22617842.018    92616260.872        -460.754          45.000  
G31  24759341.389   130111238.739       -1040.410          45.000    24759339.449   101385363.694        -810.968          39.000  
E07  27467251.986   144341443.873        1494.214          43.000    27467257.852   110599275.514        1144.870          47.000  
E03  27047828.021   142137274.536       -2886.137          47.000    27047831.149   108910386.134       -2211.429          47.000  
G21  23113436.669   121461878.905       -3948.167          49.000                                                                  
E18  29093921.698   152889566.197        -858.461          42.000                                                                  
E13  25464120.832   133814886.156         546.231          48.000    25464123.092   102533447.087         418.513          51.000  
> 2024 04 15 13 29 00.0060000  0 24                     
S33  41489697.636   218029954.951        -721.078          42.000  
G09  24402151.383   128234146.214        2032.223          41.000    24402153.889    99922717.474        1583.953          41.000  
G04  21955089.899   115374746.867          97.226          47.000    21955089.125    89902413.089          75.829          50.000  
G02  22637858.355   118962735.077       -3083.288          49.000                                                                  
R08  22371298.096   119797276.739       -3075.341          50.000    22371293.954    93175794.399       -2391.888          49.000  
R01  22055957.919   117901677.254         155.626          49.000    22055956.962    91701291.860         121.162          44.000  
R22  24671227.959   131696524.029       -5048.078          49.000    24671231.113   102430672.618       -3926.273          47.000  
G28  26046934.637   136877608.509       -2807.519          43.000    26046935.417   106657819.521       -2187.545          43.000  
G17  23704398.662   124567393.891       -1187.423          46.000    23704396.877    97065507.675        -925.312          45.000  
E08  25068928.334   131738077.371        -731.227          47.000    25068930.137   100942149.897        -560.279          52.000  
S31  40538035.533   213028903.858        -721.935          44.000  
G19  25327199.006   133095238.515         499.536          43.000                                                                  
R24  22187406.051   118645967.150        1750.658          53.000    22187401.945    92280217.381        1361.484          47.000  
R10  25480828.218                        1544.629          31.000                                                                  
R23  21305946.309   113972314.777       -2603.187          51.000                                                                  
E15  25795400.498   135555775.691       -2155.838          49.000    25795404.588   103867452.046       -1651.880          53.000  
G03  22621260.840   118875505.257        -606.232          47.000    22621260.354    92630257.766        -472.363          45.000  
G31  24765358.158   130142856.305       -1067.517          47.000    24765355.990   101410000.756        -831.735          38.000  
E07  27458771.524   144296877.135        1476.809          44.000    27458776.939   110565127.016        1131.651          47.000  
E03  27064344.335   142224067.316       -2900.348          47.000    27064347.334   108976889.585       -2222.444          47.000  
G21  23136044.669   121580683.646       -3972.310          49.000                                                                  
E18  29098840.913   152915421.117        -865.256          41.000                                                                  
E13  25461056.709   133798785.774         526.814          47.000    25461059.354   102521110.423         403.736          51.000  
R09                                                                  25736015.041                3       -495.953          24.000  
> 2024 04 15 13 29 30.0060000  0 24                     
S33  41493842.071   218051734.082        -731.277          42.000  
G09  24390604.545   128173468.164        2012.671          41.000    24390606.457    99875435.932        1568.403          40.000  
G04  21954610.686   115372222.786          70.645          48.000    21954608.458    89900446.268          55.094          49.000  
G02  22655534.333   119055623.692       -3109.613          49.000                                                                  
R08  22388571.583   119889775.779       -3091.585          50.000    22388566.873    93247738.016       -2404.505          48.000  
R01  22055147.757   117897348.671         132.687          48.000    22055146.647    91697925.191         103.262          44.000  
R22  24699643.774   131848213.076       -5064.934          49.000    24699648.032   102548652.576       -3939.327          47.000  
G28  26063032.738   136962202.678       -2832.317          42.000    26063031.920   106723736.943       -2207.035          41.000  
G17  23711263.547   124603470.151       -1217.827          45.000    23711262.102    97093618.980        -949.072          45.000  
E08  25073160.961   131760318.474        -751.798          47.000    25073162.507   100959191.771        -576.067          52.000  
S31  40542185.461   213050711.277        -731.823          43.000  
G19  25324423.719   133080647.794         472.837          43.000                                                                  
R24  22177670.366   118593904.583        1719.883          52.000    22177666.134    92239724.282        1337.644          48.000  
R10  25472205.497                        1520.535          31.000                                                                  
R23  21320641.834   114050929.041       -2638.186          50.000                                                                  
E15  25807765.086   135620754.882       -2176.566          48.000    25807769.712   103917241.231       -1667.743          53.000  
G03  22624764.245   118893915.363        -621.338          47.000    22624763.287    92644603.269        -484.155          44.000  
G31  24771530.234   130175286.965       -1094.773          47.000    24771526.990   101435271.400        -852.914          38.000  
E07  27450389.449   144252829.048        1459.518          45.000    27450394.660   110531375.928        1118.325          47.000  
E03  27080942.096   142311288.475       -2914.666          47.000    27080945.513   109043721.267       -2233.221          48.000  
G21  23158790.277   121700209.507       -3996.493          49.000                                                                  
E18  29103799.580   152941481.316        -872.243          41.000                                                                  
E13  25458102.858   133783264.091         507.437          47.000    25458105.804   102509217.174         388.905          51.000  
R09                                                                  25739685.367                3       -522.769          22.000  
