     3.00           OBSERVATION DATA    M: Mixed            RINEX VERSION / TYPE
CONVBIN 2.4.3                           20240415 021442 UTC PGM / RUN BY / DATE 
format: u-blox UBX                                          COMMENT             
log: /home/regis/git/gnsspwv/obsdata/VERT00CHL/2024-04-15/VECOMMENT             
{self.marker}                                               MARKER NAME         
                                                            MARKER NUMBER       
GEODETIC                                                    MARKER TYPE         
{self.observer}     {self.institution}                      OBSERVER / AGENCY   
UNKNOWN             UBLOX-ZED-F9P                           REC # / TYPE / VERS 
UNKNOWN             TWIVSP6037L                             ANT # / TYPE        
  1713381.0000 -5047934.0000 -3490983.0000                  APPROX POSITION XYZ 
        0.0000        0.0000        0.0000                  ANTENNA: DELTA H/E/N
G    8 C1C L1C D1C S1C C2L L2L D2L S2L                      SYS / # / OBS TYPES 
R    8 C1C L1C D1C S1C C2C L2C D2C S2C                      SYS / # / OBS TYPES 
E    8 C1C L1C D1C S1C C7Q L7Q D7Q S7Q                      SYS / # / OBS TYPES 
S    4 C1C L1C D1C S1C                                      SYS / # / OBS TYPES 
  2024    04    15    02    00   00.0090000     GPS         TIME OF FIRST OBS   
  2024    04    15    02    14   30.0100000     GPS         TIME OF LAST OBS    
                                                            END OF HEADER       
> 2024 04 15 02 00 00.0090000  0 26                     
S33  42478013.877   223223562.8001       -757.721          42.000  
G28  26492527.016                        2496.375          31.000    26492527.831   108482438.0971       1944.421          32.000  
G32  26092721.624   137118169.0991      -1844.704          43.000    26092722.100   106845277.3081      -1437.342          42.000  
R14  26593716.689   141759473.4991      -3611.816          48.000    26593719.793   110257433.3711      -2809.222          43.000  
R17  23237979.448   124351632.1901      -3305.641          51.000    23237973.529    96718168.6991      -2571.009          51.000  
R16  23173703.957   123789928.8231       1278.948          51.000    23173700.897    96280969.2571        994.799          50.000  
G20  27933996.924   146794118.6851       1297.809          34.000                                                                  
E11  26671651.839   140160854.9001       1453.051          44.000    26671650.374   107396200.6631       1113.446          48.000  
G06  27016528.184   141972809.7651      -3257.651          39.000    27016526.123   110628395.8121      -2538.476          39.000  
G29  24069292.598   126485361.2121       1028.820          50.000    24069288.299    98560286.2891        801.508          43.000  
S31  41524955.876   218215202.5051       -756.951          45.000  
E03  28712076.329   150883014.0061      -1798.575          46.000    28712080.123   115611602.8891      -1378.142          48.000  
R15  23045970.267   123150900.9841      -1708.503          53.000    23045966.316    95784205.9101      -1328.710          50.000  
R18  22140999.241   118190247.9931        705.592          51.000    22140997.795    91926038.8701        548.770          49.000  
R19  24576350.804   131467173.6971       3343.558          41.000    24576351.921   102251825.7481       2600.414          45.000  
E31  31015026.415   162985010.8781      -2532.573          40.000    31015029.328   124884703.2221      -1940.663          44.000  
G11  25195098.396   132401605.2951      -1374.430          45.000    25195093.392   103170272.8911      -1070.951          45.000  
E24  27495625.244   144490609.3731      -1618.019          48.000    27495624.100   110713643.5451      -1239.790          49.000  
G24  24612663.620   129340498.3471      -3509.763          48.000    24612662.591   100784868.1641      -2735.050          45.000  
G12  24091711.514   126603113.1411      -1333.396          45.000    24091708.287    98651903.6521      -1039.069          48.000  
E05  27818744.419   146188419.9121      -3401.483          41.000    27818754.745   112014508.4311      -2606.446          47.000  
G25  23775578.334   124941738.0361        221.357          48.000    23775576.658    97357269.3991        172.548          45.000  
E10  27460009.065   144303808.6391        145.004          48.000    27460009.364   110570702.0141        111.171          50.000  
E25  26932036.902   141529108.4391        103.953          46.000    26932038.514   108444535.1751         79.617          52.000  
E12  28279368.287   148609441.3591      -1159.396          41.000    28279365.662   113869789.7401       -888.317          47.000  
E14  25638201.331   134729799.5201      -5361.720          48.000    25638200.860   103234577.2851      -4108.364          53.000  
> 2024 04 15 02 00 30.0090000  0 26                     
S33  42482338.767   223246289.922        -757.585          43.000  
G32  26103296.058   137173739.810       -1860.292          43.000    26103296.645   106888579.097       -1449.370          42.000  
R14  26614064.014   141867931.254       -3618.738          49.000    26614066.348   110341789.083       -2814.594          43.000  
R17  23256569.416   124451110.628       -3326.239          51.000    23256564.093    96795540.845       -2587.054          52.000  
R16  23166538.256   123751650.689        1272.877          52.000    23166535.208    96251197.426         989.941          50.000  
G20  27926595.066   146755228.114        1294.961          34.000                                                                  
E11  26663383.521   140117406.411        1443.596          44.000    26663382.464   107362909.106        1105.963          48.000  
G06  27035163.841   142070740.126       -3270.898          40.000    27035162.010   110704705.254       -2548.868          41.000  
G29  24063457.218   126454700.170        1015.205          49.000    24063454.605    98536394.663         791.024          45.000  
S31  41529276.249   218237907.185        -756.871          44.000  
E03  28722376.778   150937146.977       -1810.196          46.000    28722381.015   115653081.349       -1387.027          47.000  
R15  23055596.531   123202342.219       -1720.933          53.000    23055593.594    95824215.755       -1338.512          50.000  
R18  22137106.030   118169462.591         679.943          52.000    22137104.667    91909872.492         528.907          50.000  
R19  24557631.300   131367034.688        3332.435          42.000    24557631.907   102173940.434        2592.029          45.000  
E31  31029487.706   163061003.523       -2533.738          40.000    31029490.314   124942931.326       -1941.523          43.000  
G11  25202998.904   132443125.347       -1393.500          44.000    25202995.628   103202626.235       -1085.785          46.000  
E24  27504868.672   144539183.025       -1620.371          47.000    27504867.195   110750862.319       -1241.598          49.000  
G24  24632736.019   129445975.893       -3522.116          49.000    24632734.988   100867058.403       -2744.538          45.000  
G12  24099337.951   126643187.616       -1338.219          45.000    24099334.638    98683130.490       -1042.742          48.000  
E05  27838167.080   146290492.312       -3403.320          40.000    27838179.803   112092719.144       -2607.773          47.000  
G25  23774326.609   124935156.745         217.333          47.000    23774324.358    97352141.137         169.695          45.000  
E10  27459219.653   144299663.475         131.274          48.000    27459220.893   110567525.918         100.481          50.000  
E25  26931447.275   141526009.891         102.687          47.000    26931448.651   108442161.006          78.594          52.000  
E12  28286026.557   148644434.079       -1173.646          41.000    28286024.462   113896602.391        -899.317          46.000  
E14  25668811.027   134890655.419       -5361.871          48.000    25668810.758   103357830.546       -4108.569          53.000  
G28                                                                  26478291.862                        1941.510          28.000  
> 2024 04 15 02 01 00.0090000  0 27                     
S33  42486662.248   223269009.472        -757.479          43.000  
G32  26113957.935   137229771.189       -1875.773          43.000    26113958.409   106932239.871       -1461.889          42.000  
R14  26634449.755   141976596.491       -3625.964          49.000    26634453.061   110426306.217       -2820.264          44.000  
R17  23275273.703   124551205.267       -3347.049          51.000    23275269.356    96873392.258       -2603.304          51.000  
R16  23159406.846   123713555.979        1266.355          52.000    23159403.866    96221568.225         984.922          51.000  
G20  27919211.742   146716429.909        1291.636          36.000                                                                  
E11  26655169.199   140074237.644        1433.783          44.000    26655167.569   107329831.842        1098.500          48.000  
G06  27053875.795   142169070.784       -3284.660          41.000    27053873.814   110781326.588       -2559.497          41.000  
G29  24057699.560   126424445.062        1001.393          48.000    24057697.491    98512819.327         780.215          45.000  
S31  41533595.921   218260605.987        -756.986          44.000  
E03  28732744.562   150991626.059       -1822.161          46.000    28732747.681   115694825.013       -1396.209          47.000  
R15  23065293.288   123254156.111       -1733.679          53.000    23065289.402    95864515.470       -1348.443          50.000  
R18  22133357.194   118149447.160         653.890          53.000    22133353.826    91894305.005         508.693          49.000  
R19  24538972.081   131267226.490        3320.678          40.000    24538972.904   102096312.436        2582.964          46.000  
E31  31043953.111   163137023.246       -2534.766          38.000    31043955.942   125001180.191       -1941.983          41.000  
G11  25211008.480   132485218.487       -1413.077          44.000    25211005.357   103235426.092       -1101.029          46.000  
E24  27514124.661   144587823.143       -1622.718          48.000    27514123.001   110788132.029       -1243.492          49.000  
G24  24652877.462   129551821.484       -3534.698          48.000    24652876.737   100949535.377       -2754.068          44.000  
G12  24106991.057   126683400.643       -1343.066          47.000    24106986.718    98714465.338       -1046.664          47.000  
E05  27857600.698   146392614.681       -3405.394          39.000    27857613.873   112170968.097       -2609.250          47.000  
G25  23773095.974   124928691.330         213.398          48.000    23773094.287    97347103.195         166.114          45.000  
E10  27458510.351   144295933.097         117.113          48.000    27458510.890   110564667.615          89.687          50.000  
E25  26930865.446   141522950.700         100.886          47.000    26930866.655   108439816.973          77.303          53.000  
E12  28292767.251   148679857.045       -1188.451          40.000    28292765.587   113923744.667        -910.605          47.000  
E14  25699420.937   135051514.463       -5362.277          48.000    25699421.418   103481086.211       -4108.830          54.000  
G28                                                                  26464078.099                3       1936.167          24.000  
R07                                                                  26702195.198                3      -1107.125          12.000  
> 2024 04 15 02 01 30.0090000  0 27                     
S33  42490983.138   223291716.495        -756.876          43.000  
G28  26449902.868                1       2479.968          30.000    26449881.581                3       1933.586          22.000  
G32  26124707.307   137286255.802       -1890.350          43.000    26124706.509   106976253.741       -1473.128          41.000  
R14  26654872.892   142085463.560       -3632.385          50.000    26654877.079   110510980.312       -2825.238          42.000  
R17  23294092.442   124651906.679       -3366.982          51.000    23294087.268    96951715.593       -2618.758          51.000  
R16  23152309.456   123675642.028        1260.638          52.000    23152306.316    96192079.631         980.474          50.000  
G20  27911845.940   146677721.175        1288.460          37.000                                                                  
E11  26647005.536   140031345.021        1424.953          43.000    26647005.573   107296966.167        1091.937          48.000  
G06  27072661.810   142267793.909       -3297.322          40.000    27072659.629   110858253.744       -2569.506          38.000  
G29  24052018.730   126394590.829         988.217          48.000    24052015.966    98489556.365         769.932          44.000  
S31  41537912.320   218283290.970        -756.146          44.000  
E03  28743175.204   151046444.473       -1833.143          45.000    28743179.234   115736828.706       -1404.575          46.000  
R15  23075058.263   123306338.355       -1745.737          52.000    23075054.850    95905101.643       -1357.797          50.000  
R18  22129750.963   118130197.693         628.679          53.000    22129747.939    91879333.237         488.913          50.000  
R19  24520375.295   131167747.482        3310.536          41.000    24520376.176   102018940.420        2574.655          46.000  
E31  31058423.603   163213065.073       -2535.192          37.000    31058426.178   125059446.045       -1942.604          40.000  
G11  25219127.494   132527878.826       -1431.678          46.000    25219123.514   103268667.934       -1115.526          46.000  
E24  27523392.520   144636524.623       -1624.500          48.000    27523390.182   110825448.753       -1244.769          48.000  
G24  24673087.591   129658027.737       -3546.324          48.000    24673087.115   101032293.453       -2763.472          45.000  
G12  24114668.831   126723746.975       -1347.318          47.000    24114664.415    98745904.052       -1049.900          48.000  
E05  27877043.871   146494779.440       -3406.354          39.000    27877055.565   112249249.536       -2609.899          47.000  
G25  23771886.478   124922337.042         209.785          48.000    23771884.796    97342151.829         163.434          44.000  
E10  27457878.699   144292612.865         103.698          48.000    27457878.897   110562123.591          79.408          50.000  
E25  26930289.896   141519925.591         100.112          47.000    26930290.905   108437499.066          76.721          53.000  
E12  28299587.409   148715704.406       -1202.017          40.000    28299587.333   113951212.175        -921.074          47.000  
E14  25730029.800   135212367.778       -5361.740          47.000    25730030.661   103604337.465       -4108.399          54.000  
R07                                                                  26409523.266                3      -1123.689          14.000  
> 2024 04 15 02 02 00.0090000  0 27                     
S33  42495302.303   223314413.442        -756.526          43.000  
G28  26435761.891   138920854.5321       2474.408          31.000    26435768.906                        1927.795          28.000  
E36  30427806.002                1       2387.872          28.000                                                                  
G32  26135543.252   137343194.480       -1905.481          43.000    26135541.646   107020621.482       -1484.296          41.000  
R14  26675334.907   142194535.258       -3639.001          49.000    26675338.023   110595813.503       -2830.493          42.000  
R17  23313023.486   124753214.361       -3387.007          51.000    23313018.802    97030510.453       -2634.327          51.000  
R16  23145246.759   123637913.538        1254.449          52.000    23145243.034    96162735.251         975.695          49.000  
G20  27904497.872   146639108.096        1285.390          36.000                                                                  
E11  26638895.857   139988733.289        1415.719          42.000    26638896.790   107264315.747        1084.841          48.000  
G06  27091522.656   142366910.160       -3310.145          39.000    27091520.955   110935487.217       -2579.503          38.000  
G29  24046414.449   126365140.818         974.947          48.000    24046410.520    98466608.360         759.838          43.000  
S31  41542227.713   218305967.110        -755.979          44.000  
E03  28753671.935   151101603.966       -1844.256          45.000    28753676.190   115779093.728       -1413.293          46.000  
R15  23084891.646   123358892.951       -1758.051          52.000    23084889.286    95945977.442       -1367.371          50.000  
R18  22126288.890   118111718.620         603.203          52.000    22126286.405    91864960.692         469.093          49.000  
R19  24501841.449   131068604.568        3299.396          42.000    24501841.642   101941829.806        2565.936          45.000  
E31  31072899.491   163289132.411       -2536.060          38.000    31072902.145   125117731.424       -1943.227          42.000  
G11  25227354.350   132571108.991       -1450.460          46.000    25227348.868   103302353.827       -1130.294          44.000  
E24  27532672.598   144685290.973       -1626.651          48.000    27532670.102   110862815.189       -1246.348          48.000  
G24  24693366.912   129764595.693       -3558.278          47.000    24693366.714   101115333.351       -2772.711          45.000  
G12  24122372.449   126764230.176       -1351.659          47.000    24122367.885    98777449.432       -1053.340          47.000  
E05  27896494.625   146596987.599       -3407.722          39.000    27896506.220   112327564.207       -2610.985          47.000  
G25  23770698.606   124916097.543         205.875          47.000    23770697.454    97337289.904         160.617          45.000  
E10  27457326.072   144289706.641          89.966          48.000    27457325.728   110559896.777          68.993          50.000  
E25  26929721.213   141516937.768          98.975          47.000    26929722.474   108435209.721          75.791          53.000  
E12  28306489.689   148751978.916       -1216.263          39.000    28306489.825   113979006.953        -931.983          47.000  
E14  25760638.131   135373214.963       -5361.481          46.000    25760638.755   103727584.017       -4108.134          54.000  
> 2024 04 15 02 02 30.0090000  0 28                     
S33  42499619.549   223337102.011        -755.987          43.000  
G28  26421653.731                        2468.628          31.000    26421643.639                        1923.956          32.000  
E36  30414165.127                        2389.656          30.000    30414192.958                1       1830.042          28.000  
G32  26146462.831   137400585.965       -1920.590          43.000    26146463.550   107065342.108       -1496.301          41.000  
R14  26695834.801   142303811.681       -3645.937          48.000    26695837.924   110680805.929       -2835.852          44.000  
R17  23332068.113   124855125.239       -3407.076          51.000    23332063.316    97109774.484       -2649.929          51.000  
R16  23138218.711   123600374.114        1248.155          52.000    23138215.179    96133537.931         970.725          49.000  
R09  28086220.489                3       2093.429          10.000                                                                  
G20  27897168.327   146600594.642        1282.877          35.000                                                                  
E11  26630842.404   139946405.250        1406.100          43.000    26630841.956   107231882.677        1077.349          48.000  
G06  27110458.667   142466418.058       -3323.658          40.000    27110456.484   111013025.835       -2589.459          38.000  
G29  24040886.724   126336096.323         961.423          48.000    24040884.204    98443976.366         749.132          44.000  
S31  41546540.725   218328633.981        -755.293          44.000  
E03  28764233.336   151157104.166       -1855.741          45.000    28764237.274   115821619.795       -1421.926          46.000  
R15  23094796.760   123411821.920       -1770.522          51.000    23094794.066    95987144.403       -1377.083          50.000  
R18  22122971.454   118094012.333         577.306          52.000    22122969.240    91851189.189         449.049          50.000  
R19  24483371.177   130969802.962        3287.586          43.000    24483371.193   101864984.621        2556.989          44.000  
E31  31087379.884   163365226.574       -2536.918          38.000    31087383.153   125176037.334       -1943.884          45.000  
G11  25235688.142   132614909.475       -1469.484          45.000    25235684.108   103336484.108       -1145.131          45.000  
E24  27541965.360   144734123.502       -1628.701          48.000    27541962.872   110900232.342       -1247.926          48.000  
G24  24713715.249   129871524.350       -3570.193          48.000    24713715.438   101198654.299       -2782.038          46.000  
G12  24130101.563   126804851.735       -1356.256          45.000    24130098.115    98809102.602       -1056.854          48.000  
E05  27915951.672   146699238.017       -3408.998          37.000    27915963.897   112405911.259       -2612.003          46.000  
G25  23769533.831   124909974.473         202.222          48.000    23769532.438    97332518.700         157.556          45.000  
E10  27456851.775   144287216.143          76.198          49.000    27456851.834   110557988.531          58.310          50.000  
E25  26929159.714   141513988.451          97.676          47.000    26929161.329   108432949.882          74.866          53.000  
E12  28313475.557   148788681.171       -1230.579          40.000    28313473.939   114007129.460        -942.998          47.000  
E14  25791245.219   135534053.525       -5360.996          47.000    25791245.197   103850823.991       -4107.838          54.000  
> 2024 04 15 02 03 00.0090000  0 27                     
S33  42503934.289   223359777.486        -756.178          42.000  
G28  26407577.620   138772772.5491       2462.622          34.000    26407570.278   108134567.3571       1918.622          35.000  
E36  30400521.487   159755844.4851       2390.390          32.000    30400550.640                        1832.441          31.000  
G32  26157469.403   137458424.848       -1935.935          45.000    26157471.295   107110411.281       -1508.561          43.000  
R14  26716373.019   142413289.268       -3653.081          47.000    26716377.059   110765954.836       -2841.181          45.000  
R17  23351223.618   124957632.016       -3427.218          51.000    23351218.430    97189502.001       -2665.609          51.000  
R16  23131226.374   123563022.671        1241.435          51.000    23131223.176    96104486.832         965.568          49.000  
G20  27889859.082   146562180.176        1278.188          34.000                                                                  
E11  26622841.986   139904359.249        1396.296          43.000    26622840.551   107199665.705        1069.971          48.000  
G06  27129468.262   142566311.711       -3336.877          38.000    27129466.178   111090865.160       -2600.183          39.000  
G29  24035436.654   126307454.177         947.516          48.000    24035434.026    98421657.881         738.170          45.000  
S31  41550851.991   218351287.978        -755.265          45.000  
E03  28774858.801   151212940.291       -1867.339          45.000    28774863.290   115864403.261       -1430.844          47.000  
R15  23104771.554   123465122.954       -1783.407          50.000    23104768.501    96028600.751       -1387.075          51.000  
R18  22119799.074   118077076.710         551.148          52.000    22119797.454    91838017.095         428.673          50.000  
R19  24464964.636   130871343.027        3276.121          42.000    24464963.800   101788405.123        2547.785          45.000  
E31  31101864.676   163441344.438       -2538.163          38.000    31101867.697   125234361.450       -1944.746          44.000  
G11  25244130.432   132659276.414       -1488.851          45.000    25244127.903   103371055.779       -1159.962          45.000  
E24  27551269.621   144783019.254       -1631.370          49.000    27551267.636   110937697.921       -1249.967          48.000  
G24  24734130.480   129978808.298       -3582.465          47.000    24734129.816   101282252.092       -2791.531          44.000  
G12  24137857.186   126845608.467       -1361.284          45.000    24137854.173    98840861.117       -1060.775          48.000  
E05  27935416.489   146801525.212       -3410.456          37.000    27935429.512   112484286.460       -2613.404          46.000  
G25  23768390.549   124903965.023         197.943          48.000    23768389.199    97327836.030         154.421          45.000  
E10  27456455.770   144285138.764          61.894          48.000    27456456.556   110556396.820          47.371          50.000  
E25  26928605.802   141511074.327          96.175          48.000    26928606.847   108430717.021          73.680          53.000  
E12  28320538.258   148825807.168       -1244.879          40.000    28320539.231   114035576.725        -953.988          48.000  
E14  25821848.564   135694876.700       -5361.009          46.000    25821848.757   103974052.149       -4107.761          53.000  
> 2024 04 15 02 03 30.0090000  0 27                     
S33  42508247.695   223382444.145        -755.048          43.000  
G28  26393533.173                        2457.227          31.000    26393529.234   108077063.185        1914.441          36.000  
E36  30386872.637   159684099.741        2392.037          35.000    30386898.916   122355440.7881       1832.952          37.000  
G32  26168561.998   137516711.808       -1950.465          45.000    26168562.995   107155829.626       -1519.780          42.000  
R14  26736949.258   142522970.284       -3659.622          49.000    26736952.553   110851261.968       -2846.271          42.000  
R17  23370491.784   125060733.981       -3446.741          53.000    23370485.939    97269692.461       -2680.835          50.000  
R16  23124270.298   123525864.436        1235.347          52.000    23124266.898    96075586.025         960.797          49.000  
G20  27882568.977   146523870.643        1275.350          33.000                                                                  
E11  26614895.087   139862599.902        1387.103          44.000    26614893.512   107167668.428        1062.903          48.000  
G06  27148550.344   142666591.698       -3349.355          37.000    27148549.039   111169005.401       -2609.807          38.000  
G29  24030063.557   126279217.464         934.343          48.000    24030060.578    98399655.324         727.963          44.000  
S31  41555161.265   218373933.326        -754.873          44.000  
E03  28785549.423   151269113.882       -1878.177          47.000    28785553.265   115907445.321       -1439.007          48.000  
R15  23114816.613   123518800.083       -1795.605          51.000    23114814.395    96070349.653       -1396.674          51.000  
R18  22116771.576   118060916.053         525.685          52.000    22116769.237    91825447.741         408.855          50.000  
R19  24446622.717   130773231.279        3264.365          42.000    24446622.298   101712096.466        2538.949          45.000  
E31  31116354.788   163517489.433       -2538.590          37.000    31116356.716   125292706.304       -1945.232          42.000  
G11  25252681.204   132704212.229       -1507.390          45.000    25252678.832   103406070.725       -1174.646          45.000  
E24  27560587.090   144831981.568       -1633.290          49.000    27560584.944   110975214.520       -1251.486          49.000  
G24  24754613.681   130086448.379       -3594.054          48.000    24754612.558   101366127.420       -2800.426          44.000  
G12  24145639.896   126886503.835       -1365.681          46.000    24145635.435    98872727.601       -1064.004          48.000  
E05  27954890.639   146903850.061       -3411.508          38.000    27954901.869   112562690.516       -2614.034          45.000  
G25  23767269.734   124898072.817         194.392          48.000    23767268.500    97323244.758         151.548          45.000  
E10  27456139.745   144283478.188          48.319          48.000    27456139.978   110555124.469          37.114          50.000  
E25  26928057.693   141508198.559          95.252          46.000    26928059.093   108428513.523          72.942          53.000  
E12  28327686.847   148863359.743       -1259.131          42.000    28327684.876   114064350.771        -964.760          48.000  
E14  25852449.631   135855684.052       -5359.931          46.000    25852449.349   104097268.184       -4107.038          54.000  
> 2024 04 15 02 04 00.0090000  0 27                     
S33  42512560.664   223405110.619        -755.677          41.000  
G28  26379526.142   138625310.1161       2449.781          33.000    26379521.985   108019706.746        1909.509          38.000  
E36  30373214.129   159612324.254        2393.064          34.000    30373239.244   122300444.209        1833.291          36.000  
G32  26179739.925   137575453.760       -1965.774          45.000    26179741.779   107201602.464       -1531.765          42.000  
R14  26757564.658   142632863.620       -3666.737          46.000    26757568.340   110936734.212       -2851.896          44.000  
R17  23389871.415   125164436.483       -3466.882          54.000    23389866.426    97350349.977       -2696.454          52.000  
R16  23117352.347   123488911.049        1228.190          52.000    23117348.736    96046844.528         955.339          49.000  
G20  27875301.201   146485677.665        1270.786          37.000                                                                  
E11  26607004.554   139821138.110        1377.097          43.000    26607003.338   107135899.078        1055.167          48.000  
G06  27167708.318   142767264.711       -3361.999          36.000    27167705.680   111247451.906       -2620.449          37.000  
G29  24024769.330   126251395.551         920.127          48.000    24024765.396    98377975.973         717.086          43.000  
S31  41559470.619   218396577.946        -755.010          44.000  
E03  28796303.592   151325632.711       -1889.888          46.000    28796308.237   115950751.894       -1448.118          49.000  
R15  23124934.075   123572863.572       -1808.799          52.000    23124931.007    96112399.029       -1406.802          50.000  
R18  22113891.441   118045540.697         499.155          52.000    22113888.993    91813489.186         388.337          50.000  
R19  24428349.530   130675481.055        3252.251          42.000    24428349.946   101636068.961        2529.487          46.000  
E31  31130850.351   163593670.903       -2539.806          36.000    31130853.440   125351079.132       -1946.264          41.000  
G11  25261343.542   132749725.548       -1526.986          47.000    25261338.953   103441535.646       -1189.885          44.000  
E24  27569918.201   144881019.928       -1636.079          48.000    27569916.844   111012789.371       -1253.570          49.000  
G24  24775165.788   130194451.719       -3606.314          46.000    24775165.137   101450285.813       -2810.194          44.000  
G12  24153449.741   126927546.940       -1370.839          46.000    24153445.616    98904709.285       -1068.108          48.000  
E05  27974369.509   147006219.525       -3413.066          37.000    27974382.620   112641128.768       -2615.172          44.000  
G25  23766172.910   124892307.605         189.828          48.000    23766170.729    97318752.411         147.924          46.000  
E10  27455905.504   144282244.263          33.806          48.000    27455904.798   110554179.035          25.873          49.000  
E25  26927518.970   141505370.411          93.304          46.000    26927521.116   108426346.539          71.548          53.000  
E12  28334915.579   148901347.312       -1273.752          42.000    28334913.030   114093458.154        -975.793          47.000  
E14  25883048.535   136016481.349       -5359.841          46.000    25883048.027   104220476.496       -4106.902          53.000  
> 2024 04 15 02 04 30.0090000  0 28                     
S33  42516872.587   223427770.798        -755.482          42.000  
G28  26365555.113   138551889.322        2443.746          33.000    26365550.423   107962495.870        1904.246          38.000  
E36  30359547.532   159540514.421        2393.622          32.000    30359574.807   122245421.255        1834.203          40.000  
G32  26191003.197   137634642.976       -1981.004          44.000    26191004.964   107247723.844       -1543.440          41.000  
R14  26778219.129   142742963.071       -3673.761          50.000    26778223.267   111022366.746       -2857.226          43.000  
R17  23409360.688   125268729.972       -3486.591          51.000    23409355.932    97431467.132       -2711.792          51.000  
R16  23110472.584   123452159.465        1221.398          52.000    23110468.807    96018259.973         949.895          49.000  
G20  27868054.056   146447598.682        1267.361          37.000                                                                  
E11  26599170.258   139779970.112        1366.953          43.000    26599169.197   107104354.868        1047.348          48.000  
G06  27186939.929   142868322.645       -3375.083          36.000    27186936.612   111326198.366       -2630.426          38.000  
G29  24019552.671   126223983.486         906.486          49.000    24019548.638    98356616.009         706.416          43.000  
S31  41563778.614   218419216.673        -754.907          44.000  
E03  28807125.092   151382489.904       -1901.280          47.000    28807127.648   115994317.711       -1456.858          48.000  
R15  23135123.535   123627308.863       -1821.572          52.000    23135119.674    96154745.378       -1416.688          50.000  
R18  22111156.567   118030946.393         473.145          52.000    22111155.455    91802138.095         368.082          50.000  
R19  24410143.021   130578090.753        3240.025          43.000    24410143.291   101560321.402        2519.925          46.000  
E31  31145352.382   163669883.679       -2541.275          37.000    31145356.576   125409475.944       -1947.249          42.000  
G11  25270113.190   132795810.170       -1545.967          47.000    25270107.843   103477445.778       -1204.586          43.000  
E24  27579264.014   144930129.239       -1638.568          48.000    27579262.079   111050418.586       -1255.543          49.000  
G24  24795785.595   130302810.816       -3618.142          46.000    24795785.954   101534721.375       -2819.250          45.000  
G12  24161287.999   126968732.909       -1375.524          46.000    24161283.417    98936802.278       -1072.023          47.000  
E05  27993857.771   147108626.071       -3414.825          36.000    27993870.911   112719595.386       -2616.179          45.000  
G25  23765098.455   124886664.541         185.660          47.000    23765096.328    97314355.248         144.799          45.000  
E10  27455750.367   144281432.210          19.709          48.000    27455750.241   110553556.856          15.037          50.000  
E25  26926989.089   141502584.638          91.765          46.000    26926990.906   108424212.019          70.317          53.000  
E12  28342224.748   148939764.024       -1288.047          42.000    28342223.684   114122894.414        -987.017          47.000  
E14  25913643.568   136177259.704       -5359.269          46.000    25913643.194   104343670.316       -4106.479          54.000  
R07                                                                  26740508.590                3      -1213.139          14.000  
> 2024 04 15 02 05 00.0090000  0 28                     
S33  42521184.711   223450433.212        -755.830          43.000  
G28  26351616.989                1       2436.750          29.000    26351616.250   107905438.628        1899.529          36.000  
E36  30345879.379   159468679.988        2395.254          33.000    30345904.605   122190379.616        1834.942          39.000  
G32  26202354.163   137694285.300       -1996.053          46.000    26202354.502   107294198.285       -1555.238          42.000  
R14  26798913.472   142853276.343       -3680.965          48.000    26798918.837   111108165.653       -2863.039          45.000  
R17  23428961.787   125373618.916       -3506.506          53.000    23428956.361    97513047.433       -2727.234          51.000  
R07  26446896.875                3       -995.772          11.000                                                                  
R16  23103631.582   123415619.960        1214.025          51.000    23103628.794    95989840.403         944.200          49.000  
G20  27860830.868   146409645.017        1262.713          36.000                                                                  
E11  26591394.137   139739105.671        1356.601          43.000    26591393.195   107073043.251        1039.531          48.000  
G06  27206244.913   142969771.282       -3388.993          33.000    27206242.541   111405249.265       -2640.537          37.000  
G29  24014416.179   126196988.875         892.554          48.000    24014411.886    98335581.293         695.573          43.000  
S31  41568086.641   218441858.143        -755.024          44.000  
E03  28818008.640   151439692.110       -1912.890          45.000    28818012.072   116038147.919       -1465.658          47.000  
R15  23145385.471   123682145.005       -1834.736          51.000    23145381.601    96197395.710       -1426.996          50.000  
R18  22108570.119   118017142.559         446.601          52.000    22108568.880    91791401.820         347.397          49.000  
R19  24392005.891   130481072.530        3227.181          42.000    24392006.495   101484863.183        2510.127          46.000  
E31  31159863.059   163746136.300       -2542.828          38.000    31159867.088   125467903.306       -1948.429          42.000  
G11  25278992.838   132842473.702       -1565.559          47.000    25278988.382   103513807.062       -1219.895          42.000  
E24  27588623.741   144979317.991       -1641.329          48.000    27588622.546   111088108.672       -1257.629          49.000  
G24  24816475.325   130411531.661       -3630.282          46.000    24816475.456   101619438.808       -2828.868          45.000  
G12  24169153.961   127010070.228       -1380.898          46.000    24169149.731    98969013.201       -1075.944          48.000  
E05  28013351.681   147211075.716       -3416.107          33.000    28013367.495   112798095.025       -2617.362          45.000  
G25  23764049.631   124881152.416         181.295          47.000    23764047.209    97310060.127         141.070          45.000  
E10  27455678.187   144281050.832           5.247          48.000    27455678.137   110553264.703           3.845          50.000  
E25  26926468.639   141499849.521          89.978          46.000    26926470.539   108422116.301          68.933          53.000  
E12  28349619.086   148978617.477       -1302.771          43.000    28349617.173   114152665.284        -998.137          47.000  
E14  25944235.223   136338023.942       -5358.934          46.000    25944235.588   104466853.324       -4106.150          54.000  
> 2024 04 15 02 05 30.0090000  0 28                     
S33  42525499.490   223473103.958        -755.721          42.000  
G28  26337724.233   138405650.1951       2430.787          36.000    26337721.105   107848541.777        1893.962          38.000  
E36  30332204.030                1       2395.166          30.000    30332232.521   122135325.155        1835.420          40.000  
G32  26213790.743   137754384.367       -2010.694          46.000    26213790.590   107341028.681       -1566.747          42.000  
R14  26819649.685   142963808.745       -3687.986          49.000    26819654.720   111194134.875       -2868.381          45.000  
R17  23448674.299   125479105.054       -3526.037          53.000    23448668.950    97595092.250       -2742.499          50.000  
R07  26751200.351                3      -1016.000          14.000                                                                  
R16  23096833.212   123379301.183        1206.931          52.000    23096830.707    95961592.456         938.805          51.000  
G20  27853634.937   146371825.655        1258.389          38.000                                                                  
E11  26583677.617   139698552.469        1346.922          43.000    26583676.226   107041970.122        1032.004          49.000  
G06  27225623.361   143071613.858       -3401.355          34.000    27225622.734   111484607.152       -2650.072          36.000  
G29  24009359.847   126170418.075         878.729          48.000    24009355.793    98314876.843         684.712          44.000  
S31  41572396.265   218464506.698        -754.747          44.000  
E03  28828961.538   151497243.865       -1924.054          46.000    28828964.519   116082245.933       -1474.361          48.000  
R15  23155720.426   123737379.245       -1847.626          50.000    23155718.178    96240355.668       -1437.123          50.000  
R18  22106134.344   118004136.232         420.308          52.000    22106132.191    91781285.841         326.890          49.000  
R19  24373940.731   130384435.809        3214.994          42.000    24373941.097   101409701.728        2500.458          46.000  
E31  31174384.190   163822434.968       -2544.127          39.000    31174386.597   125526365.900       -1949.297          41.000  
G11  25287983.161   132889721.448       -1584.385          46.000    25287981.387   103550623.525       -1234.647          44.000  
E24  27598000.254   145028592.540       -1643.837          48.000    27597999.078   111125864.510       -1259.568          49.000  
G24  24837234.116   130520618.045       -3642.052          47.000    24837233.400   101704441.130       -2838.065          45.000  
G12  24177049.782   127051565.257       -1385.756          47.000    24177045.797    99001347.000       -1079.744          47.000  
E05  28032854.265   147313572.210       -3417.342          32.000    28032872.325   112876630.574       -2618.360          43.000  
G25  23763027.304   124875777.803         176.848          47.000    23763025.380    97305872.120         137.821          46.000  
E10  27455687.481   144281106.721          -9.071          47.000    27455688.456   110553307.574          -6.875          50.000  
E25  26925958.764   141497171.127          88.421          47.000    26925960.532   108420064.073          67.789          52.000  
E12  28357097.785   149017913.099       -1317.082          44.000    28357094.516   114182774.963       -1009.081          46.000  
E14  25974826.273   136498776.652       -5358.099          48.000    25974825.813   104590027.481       -4105.540          54.000  
> 2024 04 15 02 06 00.0090000  0 28                     
S33  42529814.425   223495779.507        -755.796          42.000  
G28  26323868.682   138332838.044        2423.768          37.000    26323864.545   107791805.079        1888.490          37.000  
E36  30318527.387                        2395.784          31.000    30318555.064   122080257.238        1835.792          39.000  
G32  26225313.401   137814935.302       -2025.645          46.000    26225312.575   107388211.089       -1578.484          41.000  
R14  26840426.403   143074557.227       -3695.199          46.000    26840431.886   111280272.170       -2873.894          42.000  
R17  23468498.184   125585182.043       -3545.728          53.000    23468491.740    97677596.575       -2757.819          50.000  
R07  26459505.762                3      -1034.604          15.000                                                                  
R16  23090075.510   123343202.622        1199.628          52.000    23090073.208    95933515.821         933.026          51.000  
G20  27846463.500   146334140.654        1253.809          39.000                                                                  
E11  26576019.297   139658309.442        1336.424          43.000    26576018.223   107011134.652        1024.026          49.000  
G06  27245077.523   143173845.375       -3414.214          32.000    27245077.344   111564268.071       -2660.391          36.000  
G29  24004384.144   126144268.751         864.685          49.000    24004380.607    98294500.814         673.713          46.000  
S31  41576707.408   218487161.343        -755.311          45.000  
E03  28839978.486   151555140.996       -1935.686          46.000    28839982.100   116126608.595       -1483.171          48.000  
R15  23166131.634   123793009.828       -1860.992          51.000    23166128.943    96283623.925       -1447.455          50.000  
R18  22103846.035   117991925.832         393.623          51.000    22103844.830    91771788.901         306.335          50.000  
R19  24355947.305   130288182.197        3201.966          43.000    24355946.377   101334838.197        2490.460          47.000  
E31  31188911.225   163898777.355       -2545.280          39.000    31188914.333   125584862.033       -1950.403          40.000  
G11  25297084.968   132937550.026       -1603.961          47.000    25297080.064   103587892.582       -1249.682          42.000  
E24  27607393.348   145077950.581       -1646.657          49.000    27607391.178   111163684.319       -1261.684          48.000  
G24  24858060.828   130630065.251       -3654.140          47.000    24858060.824   101789724.595       -2847.291          45.000  
G12  24184975.938   127093215.689       -1390.938          47.000    24184971.223    99033801.882       -1083.889          47.000  
E05  28052373.676   147416110.924       -3418.432          33.000    28052385.299   112955198.387       -2619.469          42.000  
G25  23762030.081   124870538.667         172.504          47.000    23762028.314    97301789.725         134.417          46.000  
E10  27455781.626   144281597.872         -23.669          47.000    27455781.595   110553683.966         -18.074          50.000  
E25  26925459.429   141494547.007          86.555          46.000    26925461.317   108418053.423          66.282          52.000  
E12  28364659.523   149057647.789       -1331.816          44.000    28364656.153   114213221.056       -1020.446          47.000  
E14  26005413.012   136659511.903       -5357.482          47.000    26005412.583   104713188.287       -4105.059          54.000  
> 2024 04 15 02 06 30.0090000  0 27                     
S33  42534130.839   223518461.787        -756.422          43.000  
G28  26310052.414   138260234.890        2416.657          38.000    26310048.683   107735231.246        1882.970          38.000  
E36  30304848.140   159253048.3851       2396.136          32.000    30304876.731   122025177.964        1836.031          40.000  
G32  26236921.109   137875936.674       -2041.252          46.000    26236921.516   107435744.553       -1590.401          43.000  
R14  26861243.538   143185522.012       -3702.699          43.000    26861248.959   111366577.690       -2879.648          37.000  
R17  23488430.955   125691846.849       -3565.534          53.000    23488424.661    97760558.111       -2773.126          50.000  
R16  23083359.669   123307327.534        1191.868          52.000    23083357.229    95905613.002         927.074          50.000  
G20  27839318.851   146296593.830        1249.173          36.000                                                                  
E11  26568420.700   139618379.397        1325.505          43.000    26568419.500   106980538.975        1015.590          48.000  
G06  27264605.159                1      -3427.387          28.000    27264603.757   111644230.761       -2670.609          37.000  
G29  23999487.830   126118541.848         850.352          49.000    23999484.274    98274453.967         662.582          45.000  
S31  41581019.656   218509822.421        -755.616          44.000  
E03  28851060.543   151613383.064       -1947.599          45.000    28851064.929   116171235.561       -1492.065          48.000  
R15  23176616.576   123849038.626       -1874.556          50.000    23176613.600    96327201.862       -1458.059          49.000  
R18  22101708.571   117980513.238         366.871          51.000    22101706.811    91762912.505         285.306          49.000  
R19  24338024.657   130192316.423        3188.730          41.000    24338024.704   101260276.336        2480.178          46.000  
E31  31203447.598   163975164.768       -2547.045          38.000    31203450.485   125643392.697       -1951.667          41.000  
G11  25306296.766   132985959.734       -1623.433          46.000    25306292.959   103625614.506       -1265.129          43.000  
E24  27616801.242   145127393.467       -1649.735          49.000    27616799.515   111201569.144       -1264.118          48.000  
G24  24878956.389   130739872.118       -3666.312          46.000    24878956.274   101875288.292       -2856.957          44.000  
G12  24192931.427   127135022.828       -1396.393          46.000    24192926.649    99066378.883       -1088.114          47.000  
E05  28071881.626   147518734.6021      -3420.986          30.000    28071906.126   113033797.631       -2620.439          42.000  
G25  23761058.627   124865436.731         167.472          47.000    23761057.261    97297814.221         130.626          46.000  
E10  27455958.310   144282525.902         -38.455          47.000    27455958.161   110554395.112         -29.381          49.000  
E25  26924971.002   141491978.352          84.490          46.000    26924972.636   108416085.233          64.767          52.000  
E12  28372304.062   149097821.917       -1346.474          44.000    28372301.048   114244003.897       -1031.829          47.000  
E14  26035996.005   136820227.436       -5357.050          47.000    26035995.716   104836333.975       -4104.725          54.000  
> 2024 04 15 02 07 00.0090000  0 28                     
S33  42538448.571   223541152.407        -756.887          43.000  
G28  26296278.379   138187846.606        2409.167          40.000    26296272.885   107678824.807        1877.196          38.000  
E36  30291168.833   159181154.958        2396.459          34.000    30291195.357   121970091.199        1836.292          39.000  
G32  26248615.176   137937389.500       -2055.866          44.000    26248615.931   107483629.749       -1601.928          43.000  
R14  26882102.989   143296705.835       -3709.702          37.000    26882106.162   111453053.636       -2884.475          33.000  
R17  23508472.945   125799098.746       -3584.790          52.000    23508466.554    97843976.275       -2788.184          49.000  
R07  26471090.265                3      -1077.884          14.000                                                                  
R16  23076686.756   123271682.007        1184.295          52.000    23076684.537    95877888.739         921.099          51.000  
G20  27832200.794   146259191.173        1244.550          38.000                                                                  
E11  26560882.168   139578767.166        1315.090          42.000    26560881.186   106950186.818        1007.706          48.000  
G06  27284205.114                       -3440.412          28.000    27284205.593   111724495.897       -2680.652          36.000  
G29  23994673.505   126093240.851         836.167          49.000    23994669.539    98254738.948         651.583          45.000  
S31  41585333.485   218532491.999        -755.983          44.000  
E03  28862210.855   151671971.797       -1958.784          46.000    28862213.484   116216128.203       -1500.849          47.000  
R15  23187177.281   123905469.918       -1887.867          50.000    23187173.961    96371092.849       -1468.336          50.000  
R18  22099721.614   117969902.652         340.251          52.000    22099718.499    91754659.899         264.622          49.000  
R19  24320177.935   130096845.343        3175.473          41.000    24320176.896   101186021.421        2470.026          46.000  
E31  31217992.659   164051600.767       -2548.885          37.000    31217995.279   125701960.524       -1952.778          41.000  
G11  25315620.695   133034953.126       -1642.816          47.000    25315615.122   103663791.209       -1280.033          42.000  
E24  27626226.981   145176924.914       -1652.564          48.000    27626225.362   111239521.820       -1266.270          48.000  
G24  24899920.801   130850039.774       -3678.197          46.000    24899919.846   101961133.141       -2866.181          43.000  
G12  24200916.896   127176990.425       -1401.821          45.000    24200913.257    99099080.911       -1092.234          47.000  
E05  28091415.768   147621356.480       -3420.948          33.000    28091435.764   113112429.208       -2621.784          42.000  
G25  23760114.266   124860475.877         162.937          46.000    23760113.084    97293948.661         127.117          45.000  
E10  27456218.237   144283894.686         -52.971          47.000    27456218.728   110555443.975         -40.657          49.000  
E25  26924492.614   141489468.587          82.640          46.000    26924495.101   108414162.209          63.384          53.000  
E12  28380031.694   149138438.198       -1361.415          42.000    28380030.350   114275125.506       -1043.073          47.000  
E14  26066575.280   136980923.248       -5356.256          47.000    26066574.953   104959464.555       -4104.110          53.000  
> 2024 04 15 02 07 30.0090000  0 27                     
S33  42542766.799   223563846.030        -756.743          42.000  
G28  26282543.188   138115668.599        2402.146          40.000    26282538.713   107622582.273        1871.800          39.000  
E36  30277484.354   159109246.603        2396.812          34.000    30277509.642   121914993.095        1836.637          38.000  
G32  26260393.696   137999284.435       -2070.896          46.000    26260394.386   107531859.464       -1613.706          44.000  
R14  26902999.991   143408101.533       -3717.475          33.000    26903005.090   111539694.254       -2890.933          33.000  
R17  23528623.521   125906926.455       -3604.199          53.000    23528616.797    97927842.266       -2803.271          49.000  
R16  23070055.435   123236261.079        1176.539          52.000    23070052.904    95850339.140         915.003          50.000  
G20  27825110.090   146221928.548        1239.282          38.000                                                                  
E11  26553404.049   139539467.404        1304.469          43.000    26553402.753   106920074.104         999.482          48.000  
G06  27303879.720   143482853.3321      -3452.740          30.000    27303878.395   111805055.886       -2690.729          35.000  
G29  23989938.372   126068358.680         821.875          48.000    23989934.289    98235350.322         640.582          44.000  
S31  41589648.180   218555164.471        -756.226          45.000  
E03  28873424.141   151730898.870       -1970.294          45.000    28873427.075   116261280.063       -1509.776          47.000  
R15  23197812.079   123962297.562       -1901.224          51.000    23197808.247    96415292.151       -1478.744          49.000  
R18  22097882.710   117960088.161         313.430          51.000    22097879.867    91747026.444         243.809          49.000  
R19  24302403.359   130001766.143        3162.213          41.000    24302402.567   101112071.326        2459.531          46.000  
E31  31232546.024   164128078.675       -2550.455          36.000    31232549.289   125760560.513       -1954.188          41.000  
G11  25325052.369   133084522.552       -1662.507          46.000    25325048.068   103702416.767       -1295.051          43.000  
E24  27635667.559   145226538.299       -1655.465          48.000    27635666.276   111277537.286       -1268.587          48.000  
G24  24920952.360   130960559.114       -3690.304          47.000    24920951.230   102047252.050       -2875.625          44.000  
G12  24208932.190   127219111.647       -1407.046          45.000    24208929.041    99131902.623       -1096.323          48.000  
E05  28110957.147   147724011.488       -3422.559          35.000    28110972.484   113191086.054       -2622.535          43.000  
G25  23759196.053   124855649.872         158.126          47.000    23759194.509    97290188.165         123.335          45.000  
E10  27456561.632   144285697.892         -67.683          47.000    27456561.746   110556825.714         -51.828          49.000  
E25  26924025.728   141487011.026          80.756          46.000    26924027.315   108412279.165          61.872          52.000  
E12  28387843.421   149179489.163       -1375.919          42.000    28387842.288   114306580.157       -1054.306          48.000  
E14  26097149.357   137141589.163       -5355.333          47.000    26097148.842   105082572.219       -4103.471          54.000  
> 2024 04 15 02 08 00.0090000  0 28                     
S33  42547086.547   223586546.123        -756.703          43.000  
G28  26268848.630   138043706.557        2395.111          39.000    26268844.516   107566508.015        1866.032          39.000  
E36  30263798.317   159037328.221        2397.215          36.000    30263824.890   121859887.320        1836.719          40.000  
G32  26272257.297   138061622.150       -2085.334          45.000    26272256.108   107580434.206       -1624.957          43.000  
R14  26923937.658                       -3724.073          30.000    26923943.471                       -2896.390          29.000  
R17  23548881.754   126015329.228       -3622.986          53.000    23548874.402    98012155.579       -2817.926          49.000  
R07  26784676.193                3      -1121.051          10.000                                                                  
R16  23063468.657   123201070.193        1169.099          52.000    23063464.209    95822968.471         909.371          50.000  
G20  27818046.990   146184811.889        1234.731          40.000                                                                  
E11  26545985.370   139500484.930        1294.217          42.000    26545984.519   106890204.480         991.583          48.000  
G29  23985282.746   126043898.594         808.337          47.000    23985279.839    98216290.612         629.764          44.000  
S31  41593963.463   218577842.883        -755.996          44.000  
E03  28884701.894   151790165.800       -1981.372          45.000    28884705.390   116306692.337       -1518.291          47.000  
R15  23208520.829   124019525.385       -1914.325          50.000    23208518.450    96459802.689       -1488.953          50.000  
R18  22096193.891   117951073.542         287.056          51.000    22096191.368    91740015.141         223.239          49.000  
R19  24284702.834   129907085.360        3149.428          40.000    24284703.714   101038431.097        2449.442          46.000  
E31  31247107.929   164204601.998       -2551.713          36.000    31247110.443   125819195.265       -1955.192          40.000  
G11  25334595.619   133134670.245       -1681.129          47.000    25334592.441   103741492.950       -1310.199          45.000  
E24  27645125.009   145276237.154       -1658.256          48.000    27645124.033   111315618.225       -1270.577          49.000  
G24  24942049.519   131071431.101       -3701.718          46.000    24942050.156   102133645.714       -2884.476          45.000  
G12  24216977.406   127261390.172       -1411.963          45.000    24216974.337    99164846.932       -1100.136          47.000  
E05  28130497.351   147826700.638       -3424.113          34.000    28130514.983   113269769.040       -2623.347          43.000  
G25  23758304.180   124850962.411         153.870          48.000    23758302.637    97286535.638         119.907          45.000  
E10  27456987.792   144287939.203         -82.159          47.000    27456988.167   110558543.108         -62.940          50.000  
E25  26923568.561   141484608.862          79.018          46.000    26923570.130   108410438.572          60.519          52.000  
E12  28395738.823   149220977.292       -1390.471          42.000    28395737.230   114338369.810       -1065.287          48.000  
E14  26127717.427   137302225.080       -5354.063          48.000    26127716.701   105205656.890       -4102.497          53.000  
G06                                                                  27323623.477   111885911.241       -2699.641          34.000  
> 2024 04 15 02 08 30.0090000  0 27                     
S33  42551404.705   223609240.816        -756.377          42.000  
G28  26255195.091   137971953.856        2388.365          41.000    26255190.029   107510596.791        1861.053          40.000  
E36  30250109.434   158965392.419        2398.496          36.000    30250135.320   121804768.298        1837.490          40.000  
G32  26284200.785   138124391.094       -2099.378          45.000    26284200.848   107629345.066       -1635.828          42.000  
R14  26944911.025   143631544.6051      -3730.627          31.000    26944919.831                       -2900.906          27.000  
R17  23569243.486   126124293.553       -3641.455          52.000    23569237.494    98096905.640       -2832.220          50.000  
R16  23056923.188   123166102.793        1161.781          52.000    23056918.663    95795771.634         903.689          51.000  
G20  27811010.891   146147835.040        1230.422          40.000                                                                  
E11  26538626.323   139461812.149        1283.916          42.000    26538625.122   106860572.172         983.664          48.000  
G29  23980706.851   126019851.576         794.696          47.000    23980703.102    98197552.737         619.112          44.000  
S31  41598278.168   218600516.808        -755.726          44.000  
E03  28896042.152   151849761.963       -1991.911          44.000    28896046.737   116352356.868       -1526.226          47.000  
R15  23219303.433   124077145.164       -1927.174          51.000    23219301.097    96504618.028       -1498.952          50.000  
R18  22094653.292   117942850.523         260.868          51.000    22094650.815    91733619.491         203.009          49.000  
R19  24267077.526   129812797.200        3136.367          42.000    24267076.558   100965096.201        2439.486          46.000  
E31  31261676.513   164281161.736       -2552.278          36.000    31261678.857   125877857.961       -1955.997          38.000  
G11  25344245.866   133185386.320       -1700.039          45.000    25344241.728   103781011.945       -1324.611          44.000  
E24  27654597.155   145326012.649       -1660.363          48.000    27654595.942   111353757.906       -1272.296          49.000  
G24  24963213.459   131182644.388       -3712.699          47.000    24963212.889   102220305.326       -2893.099          44.000  
G12  24225050.470   127303817.004       -1416.837          45.000    24225047.842    99197906.801       -1103.903          47.000  
E05  28150034.450   147929412.506       -3423.996          31.000    28150059.775   113348469.524       -2623.586          42.000  
G25  23757437.178   124846405.112         149.630          48.000    23757435.339    97282984.500         116.788          45.000  
E10  27457495.380   144290609.992         -96.200          46.000    27457496.623   110560589.581         -73.548          50.000  
E25  26923120.966   141482253.222          77.624          46.000    26923121.872   108408633.607          59.570          52.000  
E12  28403714.740   149262892.736       -1404.316          42.000    28403713.900   114370486.885       -1075.961          48.000  
E14  26158277.446   137462818.647       -5352.325          48.000    26158276.700   105328709.108       -4101.182          54.000  
G06                                                                  27343438.565   111967052.887       -2709.574          34.000  
> 2024 04 15 02 09 00.0090000  0 27                     
S33  42555722.724   223631930.134        -756.697          43.000  
G28  26241580.227   137900409.961        2380.819          41.000    26241576.496   107454848.374        1855.173          42.000  
E36  30236416.895   158893438.191        2398.531          35.000    30236442.711   121749635.222        1837.760          41.000  
G32  26296225.321   138187586.069       -2113.869          43.000    26296226.673   107678587.826       -1647.181          42.000  
R14  26965925.616                3      -3737.383          22.000    26965936.754                3      -2907.211          25.000  
R17  23589709.304   126233812.611       -3660.181          52.000    23589703.974    98182087.149       -2846.692          50.000  
R16  23050417.760   123131357.957        1154.110          52.000    23050414.579    95768747.931         897.629          50.000  
G20  27804000.739   146110997.878        1225.339          42.000                                                                  
E11  26531324.816   139423447.812        1273.497          41.000    26531324.371   106831176.205         975.525          48.000  
G06  27363320.704                3      -3490.030          25.000    27363321.892                       -2719.095          30.000  
G29  23976208.661   125996214.850         780.798          48.000    23976205.200    98179134.585         608.380          44.000  
S31  41602591.534   218623184.144        -755.856          44.000  
E03  28907444.840   151909682.951       -2003.061          44.000    28907448.713   116398270.309       -1534.741          46.000  
R15  23230159.155   124135154.834       -1940.419          50.000    23230156.736    96549736.714       -1509.260          49.000  
R18  22093260.375   117935416.773         234.366          51.000    22093258.032    91727837.731         182.286          49.000  
R19  24249524.366   129718903.349        3123.032          41.000    24249522.587   100892068.000        2429.021          44.000  
E31  31276250.943   164357755.476       -2554.448          33.000    31276253.949   125936546.650       -1956.830          35.000  
G11  25354004.634   133236667.013       -1719.032          46.000    25354001.506   103820971.006       -1339.572          45.000  
E24  27664083.089   145375862.327       -1663.071          48.000    27664082.372   111391954.428       -1274.433          49.000  
G24  24984440.235   131294193.899       -3724.292          46.000    24984440.250   102307226.961       -2902.261          44.000  
G12  24233153.079   127346389.843       -1421.788          46.000    24233148.962    99231080.461       -1107.849          48.000  
E05  28169590.878   148032142.248       -3425.117          33.000    28169609.984   113427183.643       -2624.110          43.000  
G25  23756594.163   124841975.736         145.334          48.000    23756591.927    97279533.087         112.973          45.000  
E10  27458085.560   144293707.951        -110.590          47.000    27458086.550   110562963.410         -84.842          50.000  
E25  26922681.368   141479941.363          76.067          47.000    26922681.792   108406862.228          58.162          52.000  
E12  28411771.332   149305232.074       -1418.423          42.000    28411770.229   114402928.752       -1087.048          48.000  
E14  26188827.388   137623363.816       -5350.971          47.000    26188827.323   105451724.260       -4100.152          53.000  
> 2024 04 15 02 09 30.0090000  0 28                     
S33  42560039.582   223654614.550        -755.911          43.000  
G28  26228006.512   137829079.773        2373.771          42.000    26228002.807   107399266.427        1849.897          42.000  
E36  30222720.620   158821469.536        2398.749          35.000    30222746.723   121694491.165        1838.053          41.000  
G32  26308332.076   138251206.922       -2127.961          43.000    26308334.105   107728162.367       -1658.242          43.000  
R14  26986978.601                3      -3745.688          25.000    26986984.104                3      -2908.913          22.000  
R17  23610279.181   126343884.410       -3678.461          52.000    23610273.395    98267698.553       -2860.962          49.000  
R16  23043955.630   123096840.536        1146.482          52.000    23043952.659    95741901.058         891.660          50.000  
G20  27797017.888   146074305.533        1220.543          42.000                                                                  
E11  26524084.145   139385395.845        1263.030          42.000    26524083.464   106802019.569         967.827          48.000  
G06  27383278.995                3      -3501.016          24.000    27383274.496                       -2728.478          30.000  
G29  23971790.273   125972990.402         766.955          48.000    23971785.786    98161037.680         597.486          44.000  
S31  41606904.421   218645847.645        -755.817          44.000  
E03  28918909.816   151969929.435       -2013.815          44.000    28918913.635   116444433.137       -1543.107          47.000  
R15  23241088.122   124193557.435       -1953.645          50.000    23241085.376    96595160.924       -1519.447          48.000  
R18  22092016.923   117928775.427         207.883          52.000    22092013.930    91722672.286         161.636          49.000  
R19  24232047.307   129625409.218        3109.491          42.000    24232044.815   100819350.661        2418.567          43.000  
E31  31290829.205   164434385.582       -2555.108          31.000    31290836.615   125995263.293       -1958.248          35.000  
G11  25363870.539   133288513.773       -1737.991          46.000    25363867.158   103861371.111       -1354.324          45.000  
E24  27673583.750   145425788.838       -1665.779          47.000    27673583.024   111430209.801       -1276.404          49.000  
G24  25005731.213   131406079.663       -3735.551          46.000    25005731.338   102394410.583       -2910.713          44.000  
G12  24241283.616   127389111.263       -1426.891          47.000    24241278.645    99264369.880       -1111.792          47.000  
E05  28189149.937                1      -3425.686          29.000    28189162.809   113505911.540       -2624.634          41.000  
G25  23755776.086   124837677.271         140.676          47.000    23755773.817    97276183.628         109.638          45.000  
E10  27458757.592   144297235.871        -125.106          48.000    27458757.485   110565666.639         -95.761          50.000  
E25  26922249.996   141477675.810          74.460          46.000    26922250.490   108405126.316          57.034          52.000  
E12  28419909.343   149347996.959       -1432.887          42.000    28419907.989   114435696.672       -1097.894          48.000  
E14  26219367.503   137783859.689       -5349.347          46.000    26219368.526   105574701.631       -4098.774          53.000  
R07                                                                  26810655.142                3      -1365.523          11.000  
> 2024 04 15 02 10 00.0090000  0 28                     
S33  42564355.146   223677296.724        -756.165          43.000  
G28  26214474.313   137757969.383        2366.361          40.000    26214471.003   107343855.772        1844.030          41.000  
E36  30209022.997   158749491.892        2399.139          35.000    30209048.757   121639340.363        1838.313          40.000  
G32  26320519.494   138315254.713       -2142.090          44.000    26320522.160   107778069.648       -1669.191          43.000  
R14  27008066.516                1      -3750.752          27.000    27008074.430                3      -2921.567          16.000  
R17  23630952.141   126454508.757       -3696.783          51.000    23630945.861    98353739.724       -2875.299          48.000  
R07  26814275.925                3      -1298.473          10.000                                                                  
R16  23037537.974   123062556.722        1138.656          52.000    23037534.540    95715235.916         885.699          51.000  
G20  27790064.632   146037764.892        1215.255          41.000                                                                  
E11  26516904.055   139347661.418        1252.189          42.000    26516902.781   106773106.263         959.626          48.000  
G29  23967449.158   125950181.975         753.048          47.000    23967445.747    98143264.944         586.853          44.000  
S31  41611216.723   218668509.023        -755.676          44.000  
E03  28930436.311   152030503.495       -2024.700          44.000    28930441.299   116490846.999       -1551.348          48.000  
R15  23252092.470   124252357.742       -1966.958          50.000    23252089.268    96640894.471       -1529.793          49.000  
R18  22090921.348   117922930.835         181.279          51.000    22090918.908    91718126.555         141.005          49.000  
R19  24214645.594   129532322.228        3095.955          43.000    24214642.566   100746949.968        2407.964          44.000  
E31  31305422.137   164511056.151       -2556.500          32.000    31305426.580   126054010.899       -1959.277          37.000  
G11  25373845.083   133340929.322       -1756.909          46.000    25373841.589   103902214.443       -1368.916          45.000  
E24  27683100.275   145475796.180       -1668.433          48.000    27683098.505   111468527.123       -1278.485          48.000  
G24  25027086.791   131518303.101       -3746.715          46.000    25027087.051   102481857.297       -2919.518          44.000  
G12  24249442.459   127431985.295       -1431.892          48.000    24249437.527    99297778.216       -1115.842          48.000  
E05  28208696.335   148237727.3521      -3425.691          31.000    28208719.068   113584654.434       -2625.273          40.000  
G25  23754984.159   124833514.013         136.291          49.000    23754981.342    97272939.542         106.337          45.000  
E10  27459511.641   144301197.874        -139.586          48.000    27459511.099   110568702.487        -106.865          50.000  
E25  26921828.792   141475460.393          72.817          47.000    26921828.826   108403428.799          55.811          51.000  
E12  28428129.109   149391190.384       -1447.281          43.000    28428127.365   114468792.973       -1108.816          48.000  
E14  26249900.447   137944306.815       -5347.693          46.000    26249901.009   105697641.633       -4097.548          54.000  
G06                                                                  27403296.443   112212169.699       -2737.607          29.000  
> 2024 04 15 02 10 30.0090000  0 27                     
S33  42568672.000   223699980.602        -756.001          42.000  
G28  26200984.862   137687083.658        2359.051          42.000    26200982.033   107288620.197        1838.164          42.000  
E36  30195324.525   158677509.496        2398.844          36.000    30195349.502   121584185.971        1838.168          40.000  
G32  26332789.300   138379729.457       -2156.275          44.000    26332791.352   107828309.605       -1680.238          43.000  
R14  27029203.027                3      -3747.907          20.000    27029166.716                3      -2914.507          18.000  
R17  23651729.082   126565683.690       -3714.996          51.000    23651722.249    98440209.147       -2889.502          48.000  
R16  23031164.649   123028511.381        1130.789          52.000    23031161.105    95688756.232         879.514          50.000  
G20  27783140.697   146001380.842        1210.165          42.000                                                                  
E11  26509785.181   139310248.504        1241.683          43.000    26509783.832   106744439.339         951.315          49.000  
G29  23963188.334   125927791.875         739.352          47.000    23963185.771    98125818.172         575.968          45.000  
S31  41615529.264   218691172.244        -755.494          43.000  
E03  28942025.862   152091406.036       -2035.570          44.000    28942030.958   116537512.478       -1559.659          48.000  
R15  23263170.485   124311558.491       -1980.073          50.000    23263167.657    96686939.505       -1540.200          48.000  
R18  22089976.529   117917885.943         154.861          51.000    22089974.010    91714202.785         120.437          50.000  
R19  24197319.827   129439648.678        3082.199          42.000    24197318.543   100674870.834        2397.328          46.000  
E31  31320017.801                       -2557.951          27.000    31320025.187   126112791.467       -1960.124          38.000  
G11  25383929.271   133393915.156       -1775.769          46.000    25383923.819   103943502.102       -1383.787          44.000  
E24  27692632.481   145525887.136       -1671.174          48.000    27692630.401   111506908.520       -1280.586          48.000  
G24  25048506.828   131630864.388       -3757.637          47.000    25048506.276   102569567.301       -2927.908          43.000  
G12  24257630.358   127475014.850       -1436.981          47.000    24257625.744    99331307.740       -1119.620          48.000  
E05  28228264.263   148340514.463       -3426.649          37.000    28228280.446   113663412.369       -2625.398          41.000  
G25  23754218.087   124829489.036         132.073          48.000    23754215.481    97269803.230         102.440          44.000  
E10  27460348.764   144305596.854        -153.966          48.000    27460348.442   110572073.179        -117.993          50.000  
E25  26921415.667   141473297.683          71.281          46.000    26921416.859   108401771.690          54.520          51.000  
E12  28436429.690   149434813.981       -1461.463          42.000    28436428.543   114502218.887       -1119.738          48.000  
E14  26280423.091   138104704.417       -5345.824          46.000    26280423.632   105820543.718       -4096.066          54.000  
G06                                                                  27423391.425                       -2746.562          30.000  
> 2024 04 15 02 11 00.0090000  0 27                     
S33  42572989.562   223722667.585        -756.295          43.000  
G28  26187538.801   137616425.269        2351.358          41.000    26187535.643   107233561.746        1832.058          42.000  
E36  30181625.589   158605524.182        2399.505          38.000    30181650.073   121529029.464        1838.336          40.000  
G32  26345140.317   138444628.739       -2170.312          44.000    26345140.964   107878880.381       -1691.193          43.000  
R14  27050371.609                3      -3765.006          26.000    27050325.746                3      -2924.422          20.000  
R17  23672604.933   126677405.660       -3733.148          50.000    23672599.065    98527103.970       -2903.680          48.000  
R16  23024836.136   122994706.672        1122.764          52.000    23024832.642    95662463.728         873.246          50.000  
G20  27776247.565   145965156.319        1204.574          42.000                                                                  
E11  26502726.307   139273158.748        1230.794          42.000    26502725.700   106716019.999         943.078          49.000  
G29  23959007.498   125905820.245         725.322          49.000    23959004.900    98108697.485         565.329          45.000  
S31  41619841.725   218713836.439        -755.474          44.000  
E03  28953678.514   152152635.481       -2046.406          45.000    28953681.654   116584428.496       -1568.135          47.000  
R15  23274324.748   124371160.875       -1993.568          51.000    23274321.237    96733296.916       -1550.514          48.000  
R18  22089180.774   117913641.515         128.027          50.000    22089179.089    91710901.603          99.614          50.000  
R19  24180072.945   129347392.199        3068.299          42.000    24180072.126   100603116.117        2386.331          46.000  
E31  31334620.670                1      -2559.584          27.000    31334631.285   126171605.330       -1961.118          36.000  
G11  25394119.190   133447470.416       -1794.797          44.000    25394115.626   103985233.501       -1398.461          45.000  
E24  27702180.149   145576062.207       -1673.951          48.000    27702178.454   111545354.369       -1282.754          48.000  
G24  25069990.694   131743761.383       -3768.825          47.000    25069990.357   102657538.901       -2936.835          43.000  
G12  24265847.546   127518200.137       -1442.172          48.000    24265843.406    99364958.631       -1123.793          47.000  
E05  28247829.410   148443319.331       -3427.127          40.000    28247844.935   113742183.973       -2626.115          41.000  
G25  23753478.403   124825603.150         127.161          49.000    23753476.073    97266775.260          98.912          45.000  
E10  27461269.088   144310433.367        -168.613          48.000    27461268.815   110575779.123        -129.159          51.000  
E25  26921013.808   141471188.058          69.439          45.000    26921015.396   108400155.249          53.176          51.000  
E12  28444813.487   149478867.221       -1475.662          42.000    28444811.398   114535973.989       -1130.660          48.000  
E14  26310935.041   138265049.544       -5344.009          45.000    26310936.547   105943405.594       -4094.832          54.000  
G06                                                                  27443553.486                       -2756.408          28.000  
> 2024 04 15 02 11 30.0090000  0 27                     
S33  42577306.024   223745351.556        -756.482          43.000  
G28  26174137.064   137545994.664        2343.637          42.000    26174133.085   107178680.755        1826.379          43.000  
E36  30167926.311   158533535.751        2399.560          40.000    30167950.969   121473870.637        1838.546          40.000  
G32  26357569.098   138509948.037       -2184.666          43.000    26357571.202   107929778.438       -1702.151          42.000  
R14  27071581.353                3      -3765.753          14.000    27071561.835                3      -2930.226          19.000  
R17  23693583.551   126789668.224       -3751.338          50.000    23693578.346    98614419.293       -2917.725          49.000  
R16  23018553.288   122961143.363        1114.442          53.000    23018549.302    95636358.949         866.749          49.000  
G20  27769384.222   145929092.230        1198.949          40.000                                                                  
E11  26495730.005   139236391.771        1219.913          43.000    26495729.321   106687848.000         934.845          49.000  
G29  23954906.179   125884264.974         711.168          49.000    23954902.877    98091901.230         554.093          45.000  
S31  41624154.632   218736500.197        -755.750          44.000  
E03  28965390.498   152214188.279       -2057.425          45.000    28965395.610   116631592.267       -1576.368          48.000  
R15  23285552.328   124431164.015       -2007.194          50.000    23285550.402    96779965.963       -1561.087          49.000  
R18  22088535.608   117910196.070         101.270          51.000    22088533.359    91708221.848          78.811          49.000  
R19  24162904.794   129255554.672        3053.737          42.000    24162903.890   100531687.211        2375.310          46.000  
E31  31349241.817   164741353.7381      -2560.795          30.000    31349245.075   126230451.186       -1962.051          34.000  
G11  25404417.990   133501592.092       -1813.876          44.000    25404414.379   104027406.306       -1413.370          45.000  
E24  27711744.305   145626319.728       -1676.956          48.000    27711741.953   111583863.372       -1284.947          47.000  
G24  25091537.861   131856989.798       -3780.168          47.000    25091536.850   102745768.718       -2945.550          43.000  
G12  24274094.894   127561539.577       -1447.544          48.000    24274090.727    99398729.640       -1128.058          48.000  
E05  28267394.093   148546137.847       -3427.751          40.000    28267410.528   113820966.026       -2626.348          40.000  
G25  23752765.538   124821855.092         122.435          49.000    23752763.515    97263854.714          95.412          46.000  
E10  27462272.518   144315705.893        -183.275          47.000    27462272.148   110579819.142        -140.464          51.000  
E25  26920623.180   141469129.670          67.344          46.000    26920623.619   108398578.063          51.666          51.000  
E12  28453277.170   149523347.318       -1490.092          42.000    28453275.526   114570056.193       -1141.810          48.000  
E14  26341436.666   138425337.106       -5342.244          45.000    26341438.184   106066223.343       -4093.421          54.000  
G06                                                                  27463778.934                3      -2765.515          24.000  
> 2024 04 15 02 12 00.0090000  0 28                     
S33  42581622.422   223768035.926        -756.290          42.000  
G28  26160779.152   137475795.281        2336.014          43.000    26160774.279   107123979.946        1820.305          42.000  
E36  30154227.314   158461546.930        2399.667          41.000    30154250.741   121418711.610        1838.337          39.000  
G32  26370079.394   138575685.837       -2198.307          44.000    26370079.883   107981002.594       -1713.047          41.000  
R14  27092818.633                3      -3777.533          26.000                                                                  
R17  23714663.881   126902467.909       -3768.901          51.000    23714657.158    98702152.429       -2931.442          49.000  
R16  23012315.403   122927824.629        1106.416          52.000    23012312.279    95610444.400         860.617          50.000  
G20  27762552.121   145893192.252        1194.041          40.000                                                                  
E11  26488795.819   139199950.017        1209.468          43.000    26488794.455   106659925.165         926.762          49.000  
G29  23950882.861   125863127.059         697.606          47.000    23950879.708    98075430.169         543.636          44.000  
S31  41628467.256   218759163.973        -755.458          44.000  
E03  28977165.674   152276063.767       -2067.781          46.000    28977169.639   116679003.267       -1584.427          47.000  
R15  23296856.852   124491569.096       -2020.217          49.000    23296854.157    96826947.724       -1571.316          49.000  
R18  22088039.661   117907550.981          74.837          51.000    22088037.421    91706164.597          58.182          49.000  
R19  24145816.246   129164140.729        3040.120          42.000    24145815.122   100460587.777        2364.516          47.000  
E31  31363863.179   164818195.418       -2561.919          32.000    31363866.899   126289329.958       -1962.962          33.000  
G11  25414825.114   133556280.187       -1832.521          45.000    25414821.147   104070020.432       -1427.916          45.000  
E24  27721322.697   145676661.024       -1679.422          47.000    27721321.896   111622436.597       -1286.817          48.000  
G24  25113147.120   131970548.294       -3790.722          47.000    25113146.574   102834255.764       -2953.783          44.000  
G12  24282371.811   127605034.670       -1452.471          48.000    24282367.337    99432621.936       -1131.794          47.000  
E05  28286963.055   148648968.847       -3427.916          41.000    28286979.693   113899757.593       -2626.328          41.000  
G25  23752078.930   124818246.492         117.914          50.000    23752076.990    97261042.868          91.638          45.000  
E10  27463357.651   144321415.753        -197.624          47.000    27463358.669   110584194.281        -151.401          51.000  
E25  26920241.140   141467123.653          65.997          47.000    26920241.921   108397041.019          50.628          51.000  
E12  28461822.623   149568254.509       -1504.042          42.000    28461821.081   114604465.630       -1152.502          48.000  
E14  26371927.449   138585564.991       -5339.893          46.000    26371928.604   106188995.364       -4091.580          54.000  
R07                                                                  26845640.255                3      -1446.649          10.000  
G06                                                                  27484074.832                3      -2772.463          21.000  
> 2024 04 15 02 12 30.0090000  0 28                     
S33  42585939.596   223790722.022        -756.103          43.000  
G28  26147465.767   137405830.949        2328.603          44.000    26147460.672   107069462.320        1814.361          42.000  
E36  30140527.149   158389560.782        2399.899          40.000    30140551.743   121363554.654        1838.643          38.000  
G32  26382668.293   138641840.829       -2211.810          44.000    26382669.518   108032551.828       -1723.517          42.000  
R14  27114076.655                3      -3784.952          21.000                                                                  
R17  23735842.528   127015802.223       -3786.555          50.000    23735836.775    98790301.342       -2945.035          48.000  
R16  23006124.634   122894754.417        1098.464          52.000    23006121.467    95584723.131         854.316          50.000  
R09  26598352.435                3       2606.965          11.000                                                                  
G20  27755753.327   145857460.433        1188.440          42.000                                                                  
E11  26481924.124   139163836.346        1198.466          43.000    26481922.047   106632253.733         918.259          49.000  
G29  23946939.963   125842407.629         683.911          47.000    23946936.917    98059285.240         532.836          44.000  
S31  41632780.528   218781828.534        -755.246          45.000  
E03  28989002.572   152338261.611       -2078.206          47.000    28989005.124   116726661.301       -1592.427          47.000  
R15  23308236.221   124552378.565       -2033.583          49.000    23308234.556    96874243.949       -1581.586          49.000  
R18  22087694.513   117905708.069          48.334          51.000    22087692.012    91704731.278          37.540          49.000  
R19  24128806.843   129073154.561        3025.819          43.000    24128805.464   100389821.035        2353.616          47.000  
E31  31378495.838   164895081.617       -2563.432          32.000    31378497.845   126348242.775       -1964.081          32.000  
G11  25425339.423   133611534.982       -1850.688          44.000    25425336.137   104113076.152       -1442.291          45.000  
E24  27730918.336   145727087.854       -1681.997          47.000    27730918.246   111661075.335       -1288.795          48.000  
G24  25134818.959   132084435.913       -3801.571          46.000    25134818.604   102922999.263       -2962.362          43.000  
G12  24290678.902   127648687.150       -1457.330          49.000    24290674.170    99466636.848       -1135.677          47.000  
E05  28306534.735   148751811.621       -3428.008          41.000    28306550.744   113978558.149       -2626.624          41.000  
G25  23751419.052   124814779.396         113.449          49.000    23751417.007    97258341.245          88.362          46.000  
E10  27464529.034   144327564.765        -212.173          48.000    27464528.676   110588905.905        -162.553          51.000  
E25  26919869.204   141465171.639          64.394          47.000    26919870.533   108395545.347          49.367          51.000  
E12  28470450.118   149613589.433       -1518.066          42.000    28470448.279   114639202.809       -1163.178          48.000  
E14  26402406.940   138745731.496       -5337.703          46.000    26402407.121   106311720.355       -4089.869          54.000  
G06                                                                  27504441.172                3      -2780.046          24.000  
> 2024 04 15 02 13 00.0090000  0 27                     
S33  42590254.974   223813398.729        -755.605          43.000  
G28  26134195.227   137336093.792        2320.799          43.000    26134190.347   107015121.695        1808.421          42.000  
E36  30126826.430   158317568.687        2399.727          40.000    30126849.362   121308393.273        1839.250          35.000  
G32  26395333.624   138708400.086       -2225.153          45.000    26395335.158   108084416.140       -1733.978          42.000  
R14  27135408.689                3      -3793.839          21.000    27135406.411                3      -2951.808          19.000  
R17  23757118.125   127129656.483       -3803.842          50.000    23757113.031    98878854.631       -2958.630          48.000  
R16  22999978.892   122861924.566        1090.285          51.000    22999975.934    95559188.840         847.995          50.000  
G20  27748983.848   145821889.483        1182.952          42.000                                                                  
E11  26475111.261   139128041.832        1187.663          43.000    26475110.344   106604826.867         910.035          49.000  
G29  23943075.255   125822096.028         670.339          48.000    23943071.500    98043458.116         522.111          45.000  
S31  41637091.426   218804484.429        -754.957          43.000  
E03  29000896.543   152400769.853       -2088.780          45.000    29000900.418   116774557.159       -1600.404          47.000  
R15  23319691.372   124613582.580       -2046.756          51.000    23319688.003    96921847.063       -1591.977          49.000  
R18  22087497.845   117904657.137          21.760          51.000    22087495.741    91703913.912          16.975          50.000  
R19  24111876.871   128982590.284        3011.852          43.000    24111875.329   100319382.462        2342.345          46.000  
E31  31393133.627   164972002.234       -2564.610          31.000    31393135.288                       -1964.910          30.000  
G11  25435960.129   133667345.058       -1869.615          45.000    25435955.921   104156564.553       -1456.801          44.000  
E24  27740528.808   145777590.175       -1684.573          47.000    27740528.770   111699771.941       -1290.908          49.000  
G24  25156551.453   132198639.995       -3812.086          46.000    25156551.735   103011989.377       -2970.471          44.000  
G12  24299014.190   127692486.905       -1462.582          49.000    24299008.866    99500766.540       -1139.727          47.000  
E05  28326104.886   148854653.547       -3428.163          41.000    28326121.530   114057358.058       -2626.831          40.000  
G25  23750784.057   124811444.134         109.011          49.000    23750782.614    97255742.374          84.944          46.000  
E10  27465780.909   144334142.917        -226.450          48.000    27465780.689   110593946.340        -173.443          51.000  
E25  26919506.296   141463263.408          62.824          47.000    26919507.795   108394083.239          48.163          51.000  
E12  28479157.020   149659340.906       -1531.908          42.000    28479154.247   114674259.148       -1173.826          48.000  
E14  26432870.624   138905823.197       -5335.094          46.000    26432871.614   106434388.047       -4087.939          54.000  
G06                                                                  27524866.633                3      -2792.402          19.000  
> 2024 04 15 02 13 30.0100000  0 28                     
S33  42594566.355   223836055.474        -754.748          43.000  
G28  26120965.282   137266572.745        2313.486          43.000    26120960.900   106960949.510        1802.588          43.000  
E36  30113122.230   158245558.773        2400.502          39.000    30113144.324   121253218.265        1838.581          35.000  
G32  26408074.544   138775352.130       -2238.203          46.000    26408075.328   108136586.474       -1744.395          41.000  
R17  23778489.504   127244018.302       -3820.508          52.000    23778484.635    98967802.683       -2971.442          49.000  
R16  22993875.966   122829325.048        1082.582          51.000    22993873.164    95533833.689         841.951          50.000  
R09  26572286.157                3       2576.000          11.000    28063930.026                3       2501.077          16.000  
G20  27742243.373   145786469.771        1178.216          39.000                                                                  
E11  26468358.909   139092555.593        1177.550          43.000    26468357.527   106577636.182         902.380          49.000  
G29  23939285.391   125802180.465         657.104          49.000    23939282.063    98027939.560         511.957          45.000  
S31  41641398.626   218827120.023        -754.263          44.000  
E03  29012849.284   152463577.637       -2098.398          45.000    29012852.274   116822682.580       -1607.889          46.000  
R15  23331216.847   124675172.254       -2059.470          51.000    23331213.135    96969750.158       -1601.810          48.000  
R18  22087446.657   117904387.147          -4.287          51.000    22087445.288    91703703.966          -3.318          50.000  
R19  24095022.726   128892437.094        2998.125          41.000    24095022.625   100249263.561        2331.814          47.000  
E31  31407776.804   165048948.727       -2564.897          31.000    31407778.987   126466103.1491      -1965.669          30.000  
G11  25446684.714   133723699.934       -1887.541          45.000    25446679.779   104200477.493       -1470.992          45.000  
E24  27750151.643   145828158.813       -1686.830          47.000    27750151.229   111738519.303       -1292.383          48.000  
G24  25178342.451   132313150.793       -3822.236          46.000    25178342.608   103101218.459       -2978.011          44.000  
G12  24307374.676   127736424.353       -1466.875          48.000    24307369.700    99535003.537       -1143.102          47.000  
E05  28345673.381   148957484.736       -3427.400          41.000    28345690.688   114136149.779       -2626.059          40.000  
G25  23750172.347   124808230.066         104.901          49.000    23750170.669    97253237.913          81.854          45.000  
E10  27467112.325   144341139.545        -240.345          48.000    27467112.045   110599307.427        -184.047          51.000  
E25  26919149.872   141461387.894          61.860          47.000    26919151.029   108392646.170          47.339          52.000  
E12  28487939.592   149705498.525       -1545.540          41.000    28487937.710   114709626.690       -1184.091          48.000  
E14  26463320.037   139065831.198       -5332.109          45.000    26463319.967   106556991.597       -4085.607          54.000  
R14                                                                  27156728.961                3      -2958.490          17.000  
G06                                                                  27545368.446                3      -2805.322          10.000  
> 2024 04 15 02 14 00.0100000  0 29                     
S33  42598873.832   223858692.979        -754.049          42.000  
G28  26107778.867   137197277.646        2306.326          43.000    26107774.237   106906953.359        1797.121          43.000  
E36  30099416.523   158173540.302        2401.044          39.000    30099438.754   121198036.764        1839.731          36.000  
G32  26420889.542   138842692.462       -2250.865          45.000    26420890.270   108189059.377       -1754.097          41.000  
R14  27178135.399                3      -3787.636          12.000                                                                  
R17  23799955.077   127358878.975       -3836.792          53.000    23799948.659    99057138.802       -2984.235          49.000  
R07  26875986.285                3      -1335.501          12.000                                                                  
R16  22987817.468   122796963.122        1074.898          51.000    22987814.772    95508663.296         836.012          49.000  
R09  26558073.727                3       2568.969          12.000                                                                  
G20  27735533.907   145751209.061        1173.100          39.000                                                                  
E11  26461665.756   139057384.153        1167.393          43.000    26461664.532   106550686.723         894.489          49.000  
G29  23935571.767   125782664.924         644.006          49.000    23935567.934    98012732.691         501.770          44.000  
S31  41645702.633   218849736.849        -753.421          44.000  
E03  29024856.278   152526681.930       -2108.210          43.000    29024860.923   116871035.148       -1615.448          47.000  
R15  23342813.580   124737147.158       -2072.087          50.000    23342811.686    97017952.834       -1611.572          49.000  
R18  22087543.714   117904901.055         -30.055          52.000    22087541.614    91704103.711         -23.280          50.000  
R19  24078248.753   128802706.680        2984.145          42.000    24078247.686   100179473.510        2320.953          46.000  
G11  25457512.337   133780597.475       -1905.542          44.000    25457506.316   104244813.264       -1485.014          44.000  
E24  27759788.066   145878793.408       -1688.813          48.000    27759787.015   111777317.284       -1294.047          48.000  
G24  25200190.269   132427960.978       -3831.842          47.000    25200190.488   103190680.843       -2986.048          44.000  
G12  24315761.795   127780499.865       -1471.305          48.000    24315757.236    99569348.080       -1146.638          47.000  
E05  28365239.276   149060298.943       -3426.646          42.000    28365257.112   114214928.444       -2625.851          42.000  
G25  23749585.276   124805140.810         101.056          49.000    23749582.223    97250830.725          78.638          45.000  
E10  27468523.450   144348557.245        -254.144          47.000    27468523.562   110604991.168        -194.825          51.000  
E25  26918799.358   141459548.148          60.935          47.000    26918800.754   108391236.513          46.584          52.000  
E12  28496798.332   149752060.937       -1558.323          41.000    28496798.412   114745304.460       -1194.350          48.000  
E14  26493750.464   139225744.559       -5328.902          46.000    26493750.632   106679522.615       -4083.135          54.000  
E31                                                                  31422425.904   126525080.462       -1966.454          30.000  
G06                                                                  27565903.392                3      -2805.970          16.000  
> 2024 04 15 02 14 30.0100000  0 28                     
S33  42603179.366   223881320.002        -754.231          42.000  
G28  26094636.280   137128215.050        2298.177          44.000    26094631.454   106853138.381        1790.497          42.000  
E36  30085710.165   158101518.999        2400.927          38.000    30085732.944   121142853.155        1839.398          39.000  
G32  26433779.229   138910427.191       -2264.361          45.000    26433780.380   108241839.606       -1764.614          42.000  
R14  27199569.904                3      -3813.613          12.000                                                                  
R17  23821514.674   127474244.676       -3853.973          53.000    23821507.068    99146867.703       -2997.546          48.000  
R07  26882735.754                3      -1345.576          14.000                                                                  
R16  22981805.501   122764846.628        1066.336          51.000    22981802.371    95483683.837         829.280          49.000  
R09  26543899.010                3       2566.624          11.000                                                                  
G20  27728855.337   145716115.462        1166.628          38.000                                                                  
E11  26455034.359   139022534.276        1155.989          43.000    26455032.682   106523983.658         885.708          49.000  
G29  23931934.800   125763554.538         630.151          48.000    23931930.869    97997841.550         491.168          44.000  
S31  41650004.045   218872342.374        -753.166          44.000  
E03  29036922.835   152590089.455       -2118.764          43.000    29036927.014   116919620.034       -1623.332          47.000  
R15  23354485.746   124799516.177       -2085.628          50.000    23354482.391    97066462.101       -1622.194          49.000  
R18  22087787.956   117906205.763         -56.788          51.000    22087785.622    91705118.518         -44.121          50.000  
R19  24061555.378   128713406.574        2969.373          42.000    24061553.141   100110018.100        2309.545          46.000  
G11  25468444.718   133838044.833       -1924.139          44.000    25468438.039   104289577.454       -1499.194          45.000  
E24  27769437.395   145929502.490       -1691.608          47.000    27769436.445   111816172.293       -1296.148          48.000  
G24  25222097.003   132543078.527       -3842.549          47.000    25222096.367   103280382.723       -2994.276          44.000  
G12  24324177.776   127824721.839       -1476.622          48.000    24324172.399    99603806.773       -1150.671          47.000  
E05  28384803.656   149163103.774       -3426.909          42.000    28384821.263   114293699.883       -2625.493          43.000  
G25  23749022.097   124802183.392          96.277          49.000    23749019.307    97248526.250          75.031          45.000  
E10  27470015.885   144356402.996        -268.764          47.000    27470016.484   110611002.892        -205.885          51.000  
E25  26918456.953   141457750.731          59.129          47.000    26918458.860   108389859.290          45.327          52.000  
E12  28505738.968   149799035.483       -1572.789          41.000    28505737.460   114781297.955       -1205.174          48.000  
E14  26524163.829   139385572.018       -5326.132          46.000    26524164.859   106801987.817       -4081.092          54.000  
E31                                                                  31437078.794                       -1966.601          29.000  
