     3.00           OBSERVATION DATA    M: Mixed            RINEX VERSION / TYPE
CONVBIN 2.4.3                           20240415 065942 UTC PGM / RUN BY / DATE 
format: u-blox UBX                                          COMMENT             
log: /home/regis/git/gnsspwv/obsdata/VERT00CHL/2024-04-15/VECOMMENT             
{self.marker}                                               MARKER NAME         
                                                            MARKER NUMBER       
GEODETIC                                                    MARKER TYPE         
{self.observer}     {self.institution}                      OBSERVER / AGENCY   
UNKNOWN             UBLOX-ZED-F9P                           REC # / TYPE / VERS 
UNKNOWN             TWIVSP6037L                             ANT # / TYPE        
  1713381.0000 -5047934.0000 -3490983.0000                  APPROX POSITION XYZ 
        0.0000        0.0000        0.0000                  ANTENNA: DELTA H/E/N
G    8 C1C L1C D1C S1C C2L L2L D2L S2L                      SYS / # / OBS TYPES 
R    8 C1C L1C D1C S1C C2C L2C D2C S2C                      SYS / # / OBS TYPES 
E    8 C1C L1C D1C S1C C7Q L7Q D7Q S7Q                      SYS / # / OBS TYPES 
S    4 C1C L1C D1C S1C                                      SYS / # / OBS TYPES 
  2024    04    15    06    45   00.0170000     GPS         TIME OF FIRST OBS   
  2024    04    15    06    59   30.0170000     GPS         TIME OF LAST OBS    
                                                            END OF HEADER       
> 2024 04 15 06 45 00.0170000  0 27                     
S33  44771460.669   235275792.9241       -665.199          42.000  
E02  28461933.093   149568485.5381      -1632.586          47.000    28461932.363   114604456.9221      -1250.848          52.000  
E36  29240869.579   153662164.4781      -2131.348          47.000    29240870.837   117741353.6791      -1633.108          52.000  
G26  25399659.880   133476144.1501      -1281.798          49.000    25399657.808   104007343.3281       -998.851          45.000  
R20  25417840.392   135920689.6311      -1689.199          39.000    25417839.176   105716181.6941      -1313.778          45.000  
R10  25094187.432   133766210.9761      -2645.627          47.000                                                                  
R09  27278028.309   145663110.2751      -4875.939          51.000    27278024.783   113293785.3371      -3792.436          49.000  
R05  27203614.384   145418944.9261       2044.486          49.000    27203610.121   113103579.4271       1590.082          45.000  
R04  27598267.339   147787418.4131       -914.497          47.000    27598260.232   114945844.3421       -711.411          43.000  
G16  26566844.982   139609727.0161       1473.005          46.000                                                                  
G18  26733607.590   140486424.8021      -2938.451          49.000    26733602.252   109470056.5131      -2289.813          49.000  
G29  29102336.123   152934207.2171      -2912.820          44.000    29102330.002   119169782.2341      -2269.799          36.000  
S31  43816992.256   230259982.1351       -664.923          44.000  
E30  30010389.399   157705781.9371       1102.193          46.000    30010390.229   120839390.8861        844.588          51.000  
R11  26332469.288   140712762.3251       1481.190          49.000    26332464.883   109443361.6241       1152.022          49.000  
R21  26739339.954   143087905.0071        901.586          51.000    26739333.974   111290426.6321        701.223          45.000  
G23  25665715.542   134874389.9511        173.900          47.000    25665710.784   105096958.8381        135.410          47.000  
E34  29049323.389   152655436.3261         27.396          47.000    29049323.897   116969899.9591         21.023          51.000  
G27  28094722.269   147638721.2801       1728.536          41.000    28094721.307   115043250.4881       1346.820          42.000  
E09  33529268.312   176197547.0731       1258.231          36.000    33529268.570   135008474.1151        964.481          42.000  
G10  26833914.884   141013289.7751       2557.249          48.000    26833912.514   109880449.4691       1992.880          45.000  
E25  31381787.549   164912696.4341      -3517.564          42.000    31381789.943   126361826.9571      -2695.240          49.000  
G31  29115216.288   153001382.9261      -3341.023          33.000    29115220.099   119221901.1111      -2603.825          33.000  
E14  35442649.947   186252518.4501       -462.892          41.000    35442649.451   142713022.8221       -354.646          44.000  
E11                                                                  31965728.813   128713301.0691      -2330.301          38.000  
E15                                                                  32735653.486                        1123.489          31.000  
G15                                                                  30344565.167                3       -195.230          19.000  
> 2024 04 15 06 45 30.0170000  0 29                     
S33  44775257.654   235295744.603        -664.961          42.000  
E02  28471289.461   149617654.762       -1645.297          48.000    28471289.222   114642132.032       -1260.625          52.000  
E36  29253048.164   153726161.230       -2134.952          48.000    29253049.102   117790390.151       -1635.879          52.000  
G26  25407032.306   133514887.344       -1301.091          48.000    25407030.389   104037532.798       -1013.821          45.000  
R20  25427332.072   135971443.096       -1693.905          40.000    25427329.905   105755656.596       -1317.688          43.000  
R10  25109143.106   133845936.781       -2669.259          47.000                                                                  
R09  27305437.294   145809477.424       -4881.662          51.000    27305434.593   113407626.333       -3796.835          49.000  
R06  29633822.591                3       3420.711          11.000    29636967.692                3       2216.527          14.000  
R05  27192182.137   145357832.312        2029.622          47.000    27192178.915   113056047.416        1578.744          47.000  
R04  27603461.202   147815225.311        -939.130          48.000    27603452.053   114967471.919        -730.304          44.000  
G16  26558475.669   139565746.142        1459.082          46.000                                                                  
G18  26750399.399   140574662.830       -2943.992          49.000    26750393.433   109538813.387       -2294.067          50.000  
G29  29118977.170   153021656.163       -2917.134          44.000    29118970.402   119237924.244       -2273.022          36.000  
S31  43820788.494   230279932.436        -664.749          44.000  
E30  30004123.301   157672856.772        1092.819          45.000    30004124.653   120814162.516         837.393          51.000  
R11  26324218.856   140668671.262        1458.315          49.000    26324213.495   109409068.596        1134.174          49.000  
R21  26734304.217   143060957.293         895.131          52.000    26734298.879   111269467.337         696.105          45.000  
G23  25664780.645   134869480.296         153.674          47.000    25664776.696   105093133.151         119.522          48.000  
E34  29049187.746   152654726.684          20.066          47.000    29049188.531   116969356.231          15.339          51.000  
G27  28084854.337   147586864.239        1728.778          42.000    28084853.852   115002842.422        1346.894          42.000  
E09  33522094.756   176159849.749        1254.495          38.000    33522095.784   134979589.152         961.460          43.000  
G10  26819348.727   140936745.656        2545.784          48.000    26819345.147   109820804.728        1983.642          43.000  
E25  31401882.692   165018296.485       -3522.350          42.000    31401885.042   126442741.216       -2698.930          49.000  
G31  29134299.898   153101656.022       -3342.995          33.000    29134297.528   119300035.819       -2604.805          34.000  
E14  35445277.052   186266327.455        -457.426          41.000    35445277.158   142723603.738        -350.596          45.000  
E11                                                                  31983085.028   128783186.504       -2328.827          37.000  
E15                                                                  32727301.020                        1119.146          30.000  
G15                                                                  30345974.106                3       -188.799          18.000  
R19                                                                  28964457.843                3      -2606.628          23.000  
> 2024 04 15 06 46 00.0170000  0 26                     
S33  44779054.057   235315695.486        -664.747          42.000  
E02  28480718.399   149667208.253       -1658.005          47.000    28480719.334   114680101.592       -1270.505          52.000  
E36  29265248.087   153790269.799       -2138.732          47.000    29265248.524   117839512.293       -1638.673          52.000  
G26  25414516.284   133554214.864       -1320.489          48.000    25414512.996   104068177.586       -1028.942          44.000  
R20  25436851.955   136022349.622       -1699.313          39.000    25436848.942   105795250.530       -1321.644          42.000  
R10  25124233.422   133926378.683       -2693.266          46.000                                                                  
R09  27332880.007   145956021.190       -4887.601          50.000    27332877.380   113521604.670       -3801.463          48.000  
R05  27180833.039   145297168.200        2014.785          47.000    27180830.196   113008864.269        1567.008          47.000  
R04  27608791.687   147843775.583        -964.087          48.000    27608784.135   114989677.762        -749.898          43.000  
G16  26550186.383   139522185.244        1445.074          45.000                                                                  
G18  26767222.177   140663070.096       -2949.569          49.000    26767216.739   109607702.186       -2298.315          50.000  
G29  29135641.319   153109227.810       -2920.914          45.000    29135634.589   119306161.838       -2276.060          36.000  
S31  43824584.750   230299882.872        -664.860          44.000  
E30  29997912.588   157640219.208        1083.131          45.000    29997913.957   120789154.522         829.961          51.000  
R11  26316097.900   140625270.807        1435.135          50.000    26316091.697   109375312.695        1116.262          49.000  
R21  26729305.282   143034205.990         888.492          51.000    26729300.530   111248660.814         691.026          46.000  
G23  25663962.561   134865181.911         133.092          46.000    25663958.460   105089783.776         103.783          47.000  
E34  29049095.843   152654242.566          12.436          47.000    29049096.245   116968985.279           9.527          51.000  
G27  28074986.984   147535007.717        1728.447          43.000    28074986.006   114962434.761        1346.991          43.000  
E09  33514943.385   176122266.705        1250.845          37.000    33514944.167   134950791.724         958.387          42.000  
G10  26804848.920   140860550.446        2533.902          48.000    26804845.518   109761431.903        1974.344          43.000  
E25  31422006.344   165124042.387       -3527.238          42.000    31422007.980   126523767.243       -2702.686          49.000  
G31  29153383.261   153202057.9711      -3345.041          33.000    29153386.472   119378204.700       -2605.917          34.000  
E14  35447875.653   186279981.194        -452.601          41.000    35447875.081   142734065.697        -346.958          44.000  
E11                                                                  32000427.396   128853018.527       -2326.993          35.000  
E15                                                                  32718975.760   131745768.296        1115.738          32.000  
> 2024 04 15 06 46 30.0170000  0 27                     
S33  44782850.195   235335643.970        -664.854          42.000  
E02  28490220.841   149717143.478       -1670.885          47.000    28490221.616   114718363.634       -1280.269          53.000  
E36  29277468.321   153854486.655       -2142.366          47.000    29277468.657   117888717.413       -1641.596          52.000  
G26  25422110.019   133594123.963       -1339.761          48.000    25422107.106   104099275.597       -1044.236          44.000  
R20  25446399.496   136073405.247       -1703.808          40.000    25446396.752   105834960.530       -1325.579          42.000  
R10  25139458.985   134007531.381       -2716.696          48.000                                                                  
R09  27360354.805   146102735.063       -4893.151          50.000    27360351.887   113635715.313       -3805.705          48.000  
R05  27169568.473   145236954.685        1999.732          48.000    27169565.795   112962031.549        1555.346          46.000  
R04  27614262.138   147873067.275        -988.585          48.000    27614254.307   115012460.245        -768.953          44.000  
G16  26541977.294   139479044.680        1431.188          46.000                                                                  
E11  32017764.690                3      -3034.462          25.000    32017756.288   128922795.049       -2324.855          33.000  
G18  26784076.199   140751642.453       -2954.984          49.000    26784071.709   109676719.625       -2302.542          50.000  
G29  29152328.915   153196919.943       -2924.998          45.000    29152322.061   119374493.326       -2279.622          38.000  
S31  43828380.763   230319829.064        -664.510          44.000  
E30  29991756.361   157607868.544        1073.650          45.000    29991757.836   120764366.363         822.630          51.000  
R11  26308106.255   140582561.164        1412.234          51.000    26308099.249   109342094.082        1098.465          49.000  
R21  26724341.358   143007648.127         882.259          50.000    26724337.758   111228004.717         686.152          46.000  
G23  25663261.520   134861493.390         113.145          47.000    25663256.682   105086909.639          87.939          48.000  
E34  29049045.747   152653980.957           5.133          47.000    29049046.808   116968784.833           3.878          51.000  
G27  28065118.614   147483150.132        1728.929          42.000    28065117.880   114922026.271        1347.249          42.000  
E09  33507814.337   176084797.686        1246.755          39.000    33507813.689   134922081.659         955.608          42.000  
G10  26790416.625   140784704.981        2522.456          48.000    26790413.388   109702331.576        1965.305          45.000  
E25  31442155.696   165229930.463       -3531.866          42.000    31442157.673   126604902.223       -2706.236          49.000  
G31  29172483.428   153302413.381       -3344.805          34.000    29172484.977   119456403.629       -2606.846          35.000  
E14  35450443.890   186293478.311        -447.205          41.000    35450443.628   142744407.610        -342.698          43.000  
E15                                                                  32710677.495   131712353.871        1112.553          33.000  
G15                                                                  30348991.632                3       -206.689          15.000  
> 2024 04 15 06 47 00.0170000  0 27                     
S33  44786645.645   235355589.525        -664.794          42.000  
E02  28499796.517   149767461.572       -1683.656          48.000    28499796.800   114756919.045       -1290.055          53.000  
G15  30350614.981                2       -288.089          26.000    30350612.340                3       -224.600          17.000  
E36  29289708.635   153918812.078       -2145.770          47.000    29289709.415   117938005.727       -1644.325          52.000  
G26  25429815.712   133634615.743       -1359.457          48.000    25429812.855   104130827.611       -1059.325          44.000  
R20  25455975.660   136124610.652       -1709.240          40.000    25455972.233   105874786.957       -1329.555          40.000  
R10  25154815.325   134089393.636       -2740.414          47.000                                                                  
R09  27387861.024   146249616.328       -4898.759          50.000    27387857.679   113749956.155       -3810.072          47.000  
R05  27158391.734   145177197.707        1984.361          50.000    27158387.009   112915553.898        1543.278          47.000  
R04  27619870.391   147903102.276       -1013.497          48.000    27619862.883   115035820.817        -788.075          43.000  
G16  26533848.480   139436328.278        1416.899          46.000                                                                  
G18  26800962.527   140840379.564       -2960.396          48.000    26800958.080   109745865.402       -2306.871          50.000  
G29  29169039.445   153284734.780       -2929.121          44.000    29169033.363   119442920.460       -2282.414          39.000  
S31  43832176.199   230339774.641        -664.771          44.000  
E30  29985656.015   157575807.818        1063.951          45.000    29985657.054   120739800.360         815.094          51.000  
R11  26300242.397   140540546.718        1389.015          48.000    26300237.296   109309416.195        1080.431          49.000  
R21  26719414.646   142981284.128         875.680          50.000    26719410.151   111207499.398         681.243          45.000  
G23  25662676.487   134858417.125          92.425          47.000    25662671.307   105084512.555          71.916          48.000  
E34  29049038.616   152653942.622          -2.504          47.000    29049039.603   116968755.465          -1.821          52.000  
G27  28055250.490   147431293.827        1728.538          41.000    28055249.283   114881618.749        1347.049          42.000  
E09  33500706.223   176047446.132        1242.930          39.000    33500705.499   134893461.650         952.671          41.000  
G10  26776050.308   140709213.770        2510.443          48.000    26776048.773   109643507.328        1956.198          45.000  
E25  31462330.021   165335960.827       -3536.593          40.000    31462334.593   126686146.224       -2710.025          48.000  
G31  29191585.839   153402805.967       -3347.102          33.000    29191589.425   119534631.450       -2607.765          36.000  
E14  35452983.304   186306821.396        -442.274          41.000    35452983.879   142754631.465        -338.834          44.000  
E11                                                                  32035071.975   128992516.682       -2322.478          31.000  
E15                                                                  32702405.412   131679047.857        1107.892          33.000  
> 2024 04 15 06 47 30.0170000  0 27                     
S33  44790441.511   235375536.629        -664.489          42.000  
E02  28509444.820   149818164.882       -1696.107          47.000    28509445.018   114795769.621       -1299.671          52.000  
E36  29301968.997   153983247.487       -2149.294          46.000    29301971.195   117987378.304       -1646.815          52.000  
G26  25437631.990   133675692.307       -1378.527          48.000    25437629.667   104162835.298       -1074.134          44.000  
R20  25465579.349   136175966.781       -1714.202          40.000    25465575.323   105914730.592       -1333.277          41.000  
R10  25170305.847   134171964.507       -2763.779          48.000                                                                  
R09  27415398.078   146396663.670       -4904.062          49.000    27415395.961   113864326.158       -3814.259          48.000  
R05  27147299.806   145117904.089        1969.089          51.000    27147295.055   112869436.644        1531.480          46.000  
R04  27625619.400   147933883.544       -1038.212          47.000    27625611.957   115059761.813        -807.506          46.000  
G16  26525800.816   139394041.095        1402.833          46.000                                                                  
G18  26817880.301   140929282.107       -2965.672          49.000    26817875.535   109815140.099       -2310.978          49.000  
G29  29185773.432   153372675.111       -2933.246          43.000    29185767.708   119511445.353       -2285.211          39.000  
S31  43835971.764   230359721.176        -664.677          44.000  
E30  29979611.538   157544041.193        1054.390          46.000    29979612.190   120715459.693         807.939          51.000  
R11  26292510.833   140499233.292        1365.905          49.000    26292506.289   109277283.515        1062.290          49.000  
R21  26714524.888   142955115.967         869.402          50.000    26714519.470   111187146.409         676.211          46.000  
E15  32694156.500                1       1442.748          27.000    32694161.085   131645852.295        1104.468          33.000  
G23  25662207.417   134855956.580          72.136          47.000    25662203.488   105082595.272          56.231          48.000  
E34  29049073.979   152654129.436          -9.583          46.000    29049075.279   116968898.617          -7.346          52.000  
G27  28045383.673   147379442.165        1728.625          42.000    28045381.732   114841214.873        1347.031          42.000  
E09  33493620.979   176010216.739        1239.227          38.000    33493621.304   134864935.234         949.654          43.000  
G10  26761753.694   140634082.669        2498.703          48.000    26761751.450   109584963.636        1946.990          44.000  
E25  31482534.752   165442134.689       -3541.127          40.000    31482538.754   126767500.160       -2713.321          49.000  
G31  29210699.155   153503234.954       -3348.350          35.000    29210701.317   119612887.553       -2608.776          36.000  
E14  35455494.041   186320013.901        -436.951          41.000    35455494.004   142764739.991        -334.806          44.000  
E11                                                                  32052370.314                1      -2320.995          27.000  
G15                                                                  30352293.408                3       -219.119          17.000  
> 2024 04 15 06 48 00.0170000  0 26                     
S33  44794234.650   235395470.172        -664.453          42.000  
E02  28519164.086   149869238.730       -1708.941          47.000    28519164.114   114834904.116       -1309.461          52.000  
E36  29314248.493   154047777.347       -2152.884          46.000    29314251.024   118036823.253       -1649.616          53.000  
G26  25445556.567   133717338.825       -1398.025          48.000    25445555.695   104195287.129       -1089.513          45.000  
R20  25475208.633   136227457.884       -1718.910          40.000    25475204.957   105954779.215       -1336.936          43.000  
R10  25185926.001   134255226.849       -2787.278          48.000                                                                  
R09  27442963.477   146543858.513       -4909.417          49.000    27442961.110   113978810.858       -3818.407          48.000  
R05  27136292.160   145059063.884        1953.262          51.000    27136288.983   112823672.058        1519.256          48.000  
R04  27631504.442   147965396.900       -1062.997          45.000    27631497.608   115084272.222        -826.949          46.000  
G16  26517832.947   139352171.030        1388.375          46.000                                                                  
G18  26834826.644   141018333.917       -2971.333          50.000    26834822.191   109884531.082       -2315.157          49.000  
G29  29202529.372   153460726.558       -2937.469          43.000    29202523.468   119580056.876       -2288.792          40.000  
S31  43839764.514   230379653.294        -664.500          43.000  
E30  29973620.028   157512555.885        1044.544          46.000    29973620.908   120691334.599         800.249          51.000  
R11  26284908.561   140458608.786        1342.268          49.000    26284904.670   109245686.678        1043.918          49.000  
R21  26709668.894   142929127.923         862.872          51.000    26709663.149   111166933.527         671.116          46.000  
E15  32685932.076                        1437.528          28.000    32685940.387   131612756.288        1101.138          32.000  
G23  25661853.687   134854098.243          51.541          47.000    25661849.929   105081147.250          40.104          48.000  
E34  29049149.578   152654526.346         -17.020          46.000    29049150.506   116969202.786         -13.088          52.000  
G27  28035515.621   147327581.597        1728.515          42.000    28035512.366   114800804.059        1346.890          42.000  
E09  33486557.112   175973097.228        1234.997          38.000    33486557.915   134836492.997         946.405          44.000  
G10  26747523.311   140559300.368        2486.592          48.000    26747521.101   109526691.746        1937.294          45.000  
E25  31502763.748   165548436.237       -3545.787          40.000    31502767.503   126848951.953       -2716.949          49.000  
G31  29229814.350   153603683.135       -3348.663          33.000    29229816.659   119691158.808       -2609.997          35.000  
E14  35457973.142   186333042.489        -431.776          40.000    35457973.419   142774722.921        -331.048          44.000  
E11                                                                  32069659.480                3      -2318.206          25.000  
> 2024 04 15 06 48 30.0170000  0 27                     
S33  44798027.535   235415401.658        -664.415          42.000  
E02  28528956.500   149920694.142       -1721.524          48.000    28528955.653   114874330.980       -1319.072          52.000  
E36  29326549.439   154112411.795       -2156.105          47.000    29326550.482   118086348.333       -1652.070          53.000  
G26  25453592.612   133759566.134       -1417.319          48.000    25453591.145   104228191.493       -1104.321          45.000  
R20  25484864.980   136279093.961       -1723.493          41.000    25484862.143   105994940.653       -1340.521          43.000  
R10  25201676.963   134339188.765       -2810.372          47.000                                                                  
R09  27470557.495   146691208.177       -4914.246          49.000    27470554.736   114093415.983       -3822.107          48.000  
R05  27125371.898   145000692.920        1937.837          50.000    27125370.538   112778272.491        1507.163          49.000  
R04  27637528.083   147997653.568       -1087.678          45.000    27637521.598   115109360.711        -845.970          46.000  
G16  26509947.800   139310732.361        1374.183          45.000                                                                  
G18  26851802.419   141107544.449       -2976.402          49.000    26851798.481   109954045.777       -2319.152          50.000  
G29  29219307.974   153548900.674       -2941.248          44.000    29219302.899   119648763.952       -2291.694          40.000  
S31  43843557.265   230399583.740        -664.146          44.000  
E30  29967684.527   157481364.765        1034.776          46.000    29967685.283   120667434.905         792.988          51.000  
R11  26277438.968   140418687.581        1318.990          50.000    26277433.336   109214636.866        1025.867          49.000  
R21  26704848.123   142903330.688         856.684          51.000    26704842.741   111146869.059         666.433          47.000  
E15  32677744.431                        1432.903          29.000    32677748.395   131579768.656        1097.861          35.000  
G23  25661617.306   134852854.250          31.250          48.000    25661613.258   105080177.918          24.390          48.000  
E34  29049266.323   152655143.914         -24.212          46.000    29049267.971   116969676.017         -18.537          52.000  
G27  28025647.941   147275724.280        1728.546          43.000    28025643.886   114760395.772        1347.085          41.000  
E09  33479517.331   175936100.890        1231.190          40.000    33479517.603   134808145.146         943.504          43.000  
G10  26733361.183   140484881.268        2474.467          48.000    26733359.970   109468702.878        1928.175          46.000  
E25  31523019.543   165654875.439       -3550.184          42.000    31523022.447   126930509.201       -2720.290          49.000  
G31  29248927.276                       -3349.531          25.000    29248938.114   119769451.793       -2610.272          33.000  
E14  35460424.165   186345919.463        -426.742          40.000    35460424.186   142784589.695        -327.095          45.000  
E11                                                                  32086926.920                3      -2316.363          20.000  
G15                                                                  30355861.213                3       -250.256          21.000  
> 2024 04 15 06 49 00.0170000  0 27                     
S33  44801820.876   235435335.641        -664.530          42.000  
E02  28538821.124   149972535.354       -1734.269          48.000    28538820.573   114914053.452       -1328.868          52.000  
E36  29338869.695   154177154.216       -2159.680          47.000    29338870.563   118135956.171       -1654.820          53.000  
G26  25461740.194   133802378.261       -1436.637          48.000    25461737.932   104261551.591       -1119.654          44.000  
R20  25494549.251   136330878.331       -1728.116          40.000    25494545.999   106035217.382       -1344.230          43.000  
R10  25217560.194   134423852.065       -2833.715          48.000                                                                  
R09  27498180.542   146838712.755       -4919.090          49.000    27498177.277   114208141.610       -3825.893          47.000  
R05  27114542.090   144942800.084        1922.034          50.000    27114539.784   112733244.751        1494.937          47.000  
R04  27643691.372   148030659.101       -1112.469          45.000    27643684.657   115135031.679        -865.226          44.000  
G16  26502146.170   139269731.957        1359.582          46.000                                                                  
G18  26868809.710   141196916.427       -2981.568          49.000    26868805.215   110023686.287       -2323.147          49.000  
G29  29236112.008   153637201.969       -2945.463          45.000    29236107.299   119717570.185       -2295.111          42.000  
S31  43847350.497   230419517.038        -664.228          44.000  
E30  29961805.340   157450473.968        1024.768          45.000    29961806.751   120643765.348         785.328          51.000  
R11  26270101.622   140379476.905        1295.392          50.000    26270095.212   109184139.689        1007.534          48.000  
R21  26700062.830   142877728.231         850.455          50.000    26700058.932   111126956.118         661.563          47.000  
E15  32669575.907   171679799.9661       1428.375          31.000    32669582.779   131546893.016        1094.176          34.000  
G23  25661498.377   134852229.964          10.631          47.000    25661494.319   105079691.444           8.454          48.000  
E34  29049426.163   152655986.120         -31.556          46.000    29049428.422   116970321.381         -24.176          52.000  
G27  28015780.589   147223875.651        1728.276          43.000    28015777.906   114719994.287        1346.860          41.000  
E09  33472501.915   175899234.272        1226.884          38.000    33472502.434   134779896.748         940.296          42.000  
G10  26719271.086   140410833.066        2462.315          48.000    26719269.196   109411003.018        1918.668          46.000  
E25  31543301.603   165761455.429       -3554.665          42.000    31543304.052   127012174.337       -2723.807          49.000  
G31  29268057.550   153804664.673       -3350.537          31.000    29268062.044                       -2611.569          30.000  
E14  35462847.168   186358650.423        -421.839          40.000    35462846.512   142794344.561        -322.940          43.000  
E11                                                                  32104186.874                3      -2307.789          20.000  
G15                                                                  30357750.250                3       -268.695          20.000  
> 2024 04 15 06 49 30.0170000  0 28                     
S33  44805614.242   235455270.693        -664.653          42.000  
E02  28548759.287   150024760.121       -1747.210          48.000    28548758.447   114954069.813       -1338.729          52.000  
E36  29351209.221   154242001.532       -2163.188          47.000    29351210.511   118185644.377       -1657.564          52.000  
G26  25469997.682   133845772.731       -1456.104          49.000    25469995.784   104295365.448       -1134.633          44.000  
R20  25504259.729   136382808.616       -1733.375          39.000    25504257.208   106075607.587       -1348.095          43.000  
R10  25233572.464   134509211.622       -2856.962          47.000                                                                  
R09  27525831.887   146986366.883       -4924.317          50.000    27525829.215   114322983.547       -3829.914          49.000  
R05  27103801.808   144885387.994        1905.697          51.000    27103798.387   112688590.909        1482.135          46.000  
R04  27649992.981   148064411.255       -1137.568          41.000    27649987.086   115161283.424        -884.740          43.000  
G16  26494428.170   139229170.191        1344.736          47.000                                                                  
G18  26885846.707   141286446.162       -2986.987          49.000    26885841.562   110093449.709       -2327.568          48.000  
G29  29252938.937   153725629.260       -2949.607          44.000    29252935.317   119786474.542       -2298.300          43.000  
S31  43851143.853   230439450.905        -664.427          43.000  
E30  29955984.187   157419883.131        1014.797          45.000    29955985.415   120620325.620         777.427          51.000  
R11  26262896.549   140340977.627        1271.460          49.000    26262890.630   109154195.790         989.001          48.000  
R21  26695313.653   142852317.443         843.906          50.000    26695308.554   111107192.180         656.317          46.000  
E15  32661439.609   171637038.621        1423.036          35.000    32661445.104   131514128.033        1090.187          36.000  
G23  25661497.161   134852224.228         -10.102          47.000    25661492.847   105079686.982          -7.862          47.000  
E34  29049628.542   152657050.264         -39.031          45.000    29049630.943   116971136.786         -29.997          52.000  
G27  28005914.874   147172034.599        1728.120          42.000    28005913.369   114679598.698        1346.464          42.000  
E09  33465511.978   175862497.692        1222.209          37.000    33465511.290   134751747.881         936.525          43.000  
G10  26705250.934   140337156.928        2449.709          49.000    26705248.700   109353593.063        1908.990          45.000  
E25  31563608.880   165868172.911       -3559.518          42.000    31563611.863   127093944.801       -2727.323          49.000  
G31  29287190.162   153905193.845       -3351.204          35.000    29287195.720   119926101.845       -2612.024          33.000  
E14  35465240.839   186371234.408        -417.148          40.000    35465241.631   142803986.856        -319.586          44.000  
E11                                                                  32121431.351                3      -2315.806          21.000  
G15                                                                  30359717.274                3       -256.494          16.000  
R06                                                                  29494147.982                3       2165.516          12.000  
> 2024 04 15 06 50 00.0170000  0 27                     
S33  44809408.186   235475208.794        -664.799          42.000  
E02  28558771.091   150077371.246       -1760.319          48.000    28558769.992   114994382.231       -1348.798          51.000  
E36  29363569.055   154306955.762       -2167.194          46.000    29363570.947   118235414.498       -1660.575          52.000  
G26  25478367.321   133889752.160       -1475.868          49.000    25478364.764   104329635.125       -1150.064          44.000  
R20  25513998.035   136434885.925       -1738.508          39.000    25513996.049   106116112.110       -1352.229          43.000  
R10  25249716.745   134595267.473       -2880.208          47.000                                                                  
R09  27553510.204   147134169.546       -4929.325          49.000    27553507.729   114437941.019       -3833.947          49.000  
R05  27093152.913   144828464.071        1889.204          50.000    27093150.734   112644316.783        1469.359          48.000  
R04  27656434.730   148098913.337       -1162.708          44.000    27656430.232   115188118.348        -904.396          44.000  
G16  26486794.266   139189052.977        1329.609          47.000                                                                  
G18  26902914.215   141376134.989       -2992.394          50.000    26902908.632   110163337.095       -2331.828          48.000  
G29  29269791.591   153814186.036       -2954.155          46.000    29269787.170   119855479.793       -2302.143          43.000  
S31  43854937.572   230459388.569        -664.852          44.000  
E30  29950221.181   157389596.984        1004.345          46.000    29950222.260   120597119.347         769.510          51.000  
R11  26255826.329   140303195.788        1247.249          49.000    26255820.283   109124809.906         970.033          48.000  
R21  26690601.951   142827100.816         837.172          51.000    26690595.661   111087579.255         651.170          46.000  
E15  32653330.531   171594424.966        1417.938          35.000    32653335.355   131481476.188        1086.215          36.000  
G23  25661615.228   134852840.981         -31.167          47.000    25661610.808   105080167.574         -24.078          48.000  
E34  29049874.744   152658338.834         -46.870          46.000    29049875.943   116972124.148         -35.918          52.000  
G27  27996052.207   147120205.251        1727.224          43.000    27996051.436   114639212.230        1345.757          42.000  
E09  33458546.166   175825896.198        1217.334          38.000    33458546.819   134723702.563         932.871          45.000  
G10  26691302.463   140263859.092        2436.712          48.000    26691300.466   109296477.932        1898.700          45.000  
E25  31583943.471   165975029.670       -3564.525          43.000    31583945.913   127175821.977       -2731.197          49.000  
G31  29306324.772   154005747.869       -3352.565          34.000    29306330.111   120004455.403       -2611.630          31.000  
E14  35467608.471   186383675.651        -412.347          39.000    35467608.806   142813519.766        -315.995          43.000  
E11                                                                  32138664.613                3      -2312.322          23.000  
G15                                                                  30361746.808                3       -277.914          21.000  
> 2024 04 15 06 50 30.0170000  0 27                     
S33  44813202.802   235495149.791        -664.484          42.000  
E02  28568855.603   150130368.295       -1772.774          47.000    28568854.838   115034990.331       -1358.418          51.000  
E36  29375949.990   154372015.621       -2170.407          47.000    29375951.511   118285265.551       -1662.892          52.000  
G26  25486847.342   133934315.815       -1494.928          49.000    25486845.277   104364360.014       -1164.845          45.000  
R20  25523763.595   136487108.765       -1743.211          38.000    25523761.652   106156729.916       -1355.659          44.000  
R10  25265990.239   134682015.594       -2902.938          47.000                                                                  
R09  27581215.515   147282116.279       -4933.691          49.000    27581213.797   114553010.500       -3837.272          50.000  
R05  27082595.069   144772032.633        1873.001          49.000    27082592.812   112600425.704        1456.859          47.000  
R04  27663020.022   148134165.495       -1187.286          46.000    27663014.660   115215536.732        -923.521          44.000  
G16  26479244.770   139149382.249        1315.107          46.000                                                                  
G18  26920011.064   141465980.992       -2997.133          49.000    26920005.969   110233346.956       -2335.561          49.000  
G29  29286667.626   153902871.816       -2958.103          47.000    29286662.853   119924585.586       -2304.898          42.000  
S31  43858732.655   230479329.770        -664.533          43.000  
E30  29944516.624   157359616.935         994.413          46.000    29944517.441   120574147.604         761.937          51.000  
R11  26248889.315   140266133.442        1223.656          48.000    26248884.170   109095983.633         951.624          48.000  
R21  26685926.104   142802077.365         831.210          51.000    26685921.326   111068116.592         646.504          48.000  
E15  32645249.675   171551958.969        1413.469          37.000    32645254.374   131448937.509        1083.141          37.000  
G23  25661851.130   134854080.733         -51.423          47.000    25661846.518   105081133.637         -40.137          49.000  
E34  29050162.220   152659850.921         -53.874          46.000    29050163.463   116973282.791         -41.317          52.000  
G27  27986192.215   147068388.205        1727.504          43.000    27986191.176   114598835.345        1345.788          42.000  
E09  33451606.612   175789431.594        1213.494          38.000    33451607.962   134695762.204         929.807          44.000  
G10  26677425.828   140190942.515        2424.437          47.000    26677424.663   109239659.885        1889.106          45.000  
E25  31604304.464   166082024.115       -3568.521          44.000    31604306.386   127257804.677       -2734.308          48.000  
G31  29325463.264   154106323.476       -3352.570          36.000    29325466.512                       -2612.419          28.000  
E14  35469948.508   186395975.028        -407.456          39.000    35469949.063   142822943.917        -312.225          42.000  
E11                                                                  32155887.117                3      -2312.157          21.000  
G15                                                                  30363853.762                3       -289.521          23.000  
> 2024 04 15 06 51 00.0170000  0 27                     
S33  44816998.282   235515095.109        -664.553          42.000  
E02  28579013.318   150183748.198       -1785.603          47.000    28579012.727   115075891.793       -1368.163          51.000  
E36  29388349.715   154437177.275       -2173.616          47.000    29388351.323   118335194.624       -1665.474          52.000  
G26  25495438.556   133979460.399       -1514.418          50.000    25495435.953   104399537.582       -1179.834          45.000  
R20  25533555.782   136539473.274       -1748.014          40.000    25533554.224   106197457.866       -1359.080          43.000  
R10  25282392.901   134769450.505       -2925.802          47.000                                                                  
R09  27608947.500   147430200.777       -4938.250          50.000    27608945.823   114668187.155       -3840.896          49.000  
R05  27072132.887   144716094.996        1856.454          51.000    27072129.018   112556918.675        1443.945          47.000  
R04  27669742.734   148170164.963       -1212.283          47.000    27669738.561   115243536.356        -942.853          43.000  
G16  26471780.222   139110157.976        1300.056          46.000                                                                  
G18  26937136.992   141555979.695       -3002.318          49.000    26937132.829   110303475.786       -2339.473          48.000  
G29  29303567.228   153991684.275       -2962.244          46.000    29303562.934   119993790.135       -2308.570          41.000  
S31  43862527.280   230499272.615        -664.672          44.000  
E30  29938869.540   157329941.794         984.230          46.000    29938870.519   120551409.507         754.069          51.000  
R11  26242088.413   140229790.773        1199.569          48.000    26242083.963   109067717.105         933.040          49.000  
R21  26681284.740   142777243.546         824.757          50.000    26681280.693   111048801.457         641.471          48.000  
E15  32637196.265   171509638.114        1408.573          38.000    32637200.720   131416510.027        1079.311          38.000  
G23  25662205.505   134855941.565         -72.291          47.000    25662200.907   105082583.645         -56.318          49.000  
E34  29050491.906   152661583.190         -61.300          46.000    29050492.948   116974610.122         -46.932          51.000  
G27  27976333.955   147016581.774        1726.857          43.000    27976332.426   114558466.716        1345.307          42.000  
E09  33444693.690   175753103.470        1208.893          38.000    33444694.646   134667926.379         926.313          43.000  
G10  26663623.311   140118407.630        2411.703          48.000    26663620.927   109183139.221        1879.047          44.000  
E25  31624690.566   166189152.198       -3572.928          44.000    31624692.123   127339889.774       -2737.787          48.000  
G31  29344605.854   154206914.852       -3352.889          37.000    29344610.746                       -2612.791          29.000  
E14  35472261.852   186408130.853        -402.382          38.000    35472261.922   142832258.122        -308.436          42.000  
E11                                                                  32173091.597                3      -2310.458          19.000  
G15                                                                  30366029.557                3       -296.146          25.000  
> 2024 04 15 06 51 30.0170000  0 28                     
S33  44820792.371   235535032.801        -664.674          42.000  
E02  28589242.406   150237504.442       -1798.218          47.000    28589242.411   115117081.625       -1377.842          51.000  
E36  29400767.741   154502433.464       -2176.859          47.000    29400768.977   118385196.133       -1667.966          52.000  
G26  25504138.215   134025179.116       -1533.632          49.000    25504135.528   104435162.559       -1194.959          45.000  
R20  25543374.238   136591972.402       -1752.147          40.000    25543371.604   106238290.574       -1362.762          44.000  
R10  25298922.372   134857562.795       -2948.434          47.000                                                                  
R09  27636702.147   147578412.478       -4942.629          49.000    27636701.343   114783462.751       -3844.122          50.000  
R05  27061761.179   144660649.382        1839.857          51.000    27061757.959   112513794.339        1430.929          48.000  
R04  27676605.073   148206905.357       -1237.048          47.000    27676598.212   115272112.190        -962.288          43.000  
G16  26464400.306   139071376.655        1285.262          46.000                                                                  
G18  26954290.646   141646123.155       -3007.252          49.000    26954286.971   110373717.439       -2343.355          48.000  
G29  29320490.987   154080617.571       -2966.532          46.000    29320486.493   120063088.788       -2311.786          41.000  
S31  43866321.194   230519210.042        -664.498          43.000  
E30  29933279.720   157300567.022         974.025          45.000    29933280.835   120528901.559         746.321          51.000  
R11  26235420.894   140194164.452        1175.405          47.000    26235417.110   109040007.722         914.391          48.000  
R21  26676677.964   142752592.062         818.639          51.000    26676673.397   111029628.121         636.600          48.000  
E15  32629169.282   171467456.363        1403.877          39.000    32629174.217   131384189.157        1075.455          39.000  
G23  25662676.565   134858417.961         -92.805          47.000    25662671.920   105084513.330         -72.383          49.000  
E34  29050862.509   152663528.746         -68.497          46.000    29050863.398   116976100.893         -52.467          52.000  
G27  27966476.701   146964780.703        1726.489          44.000    27966473.855   114518102.255        1345.324          41.000  
E09  33437805.980   175716907.650        1204.349          38.000    33437807.102   134640191.935         922.734          43.000  
G10  26649893.456   140046251.353        2398.879          49.000    26649890.292   109126913.595        1869.188          44.000  
E25  31645100.564   166296406.350       -3577.200          44.000    31645101.829   127422071.468       -2741.199          48.000  
G31  29363750.716   154307512.922       -3353.475          39.000    29363750.381                       -2613.042          31.000  
E14  35474545.999   186420137.979        -397.706          36.000    35474546.197   142841458.368        -304.887          40.000  
E11                                                                  32190280.140                3      -2308.757          15.000  
G15                                                                  30368270.590                3       -306.618          21.000  
R19                                                                  29188777.568                3      -2582.093          16.000  
> 2024 04 15 06 52 00.0170000  0 27                     
S33  44824584.631   235554962.315        -664.658          41.000  
E02  28599543.667   150291634.067       -1810.775          48.000    28599543.018   115158557.549       -1387.451          52.000  
E36  29413202.474   154567780.486       -2180.000          47.000    29413203.993   118435267.239       -1670.476          52.000  
G26  25512947.406   134071468.731       -1552.792          50.000    25512944.703   104471232.371       -1210.130          46.000  
R20  25553215.283   136644602.015       -1756.549          38.000    25553213.086   106279224.680       -1366.409          43.000  
R10  25315577.798   134946346.366       -2970.968          47.000                                                                  
R09  27664480.513   147726744.643       -4946.850          50.000    27664479.150   114898832.022       -3847.369          49.000  
R05  27051479.057   144605697.742        1823.212          50.000    27051476.381   112471054.214        1417.851          46.000  
R04  27683603.079   148244384.189       -1261.869          46.000    27683595.731   115301262.356        -981.465          41.000  
G16  26457104.869   139033037.919        1270.176          46.000                                                                  
G18  26971470.831   141736407.090       -3012.205          48.000    26971466.697   110444068.571       -2347.013          49.000  
G29  29337436.911   154169669.284       -2970.782          46.000    29337431.786   120132479.704       -2314.677          41.000  
S31  43870113.943   230539140.230        -664.646          43.000  
E30  29927746.872   157271491.614         963.989          45.000    29927747.880   120506622.989         738.513          51.000  
R11  26228888.582   140159253.726        1151.483          48.000    26228884.118   109012854.952         895.515          48.000  
R21  26672105.513   142728119.632         812.450          52.000    26672100.597   111010594.023         631.976          48.000  
E15  32621168.966   171425411.234        1399.073          40.000    32621173.362   131351972.906        1072.011          40.000  
G23  25663263.910   134861508.008        -113.528          47.000    25663259.681   105086921.144         -88.492          49.000  
E34  29051272.769   152665684.348         -75.687          47.000    29051273.979   116977752.602         -57.922          52.000  
G27  27956619.828   146912983.273        1726.156          43.000    27956615.818   114477740.670        1345.019          40.000  
E09  33430943.776   175680843.612        1199.631          39.000    33430944.079   134612558.428         919.176          44.000  
G10  26636234.593   139974474.157        2385.879          50.000    26636230.765   109070983.341        1858.960          44.000  
E25  31665533.265   166403782.604       -3581.580          44.000    31665534.684   127504346.711       -2744.257          47.000  
G31  29382893.610   154408111.965       -3353.317          39.000    29382893.647                       -2613.120          31.000  
E14  35476803.365   186431994.860        -393.156          37.000    35476802.509   142850543.516        -301.291          40.000  
G15                                                                  30370592.384                3       -321.394          23.000  
R06                                                                  29403381.142                3       2136.496          11.000  
> 2024 04 15 06 52 30.0170000  0 26                     
S33  44828376.911   235574889.164        -664.287          42.000  
E02  28609915.887   150346140.235       -1823.318          48.000    28609915.289   115200322.008       -1397.074          52.000  
E36  29425656.384   154633220.795       -2183.074          47.000    29425656.792   118485409.817       -1672.652          52.000  
G26  25521864.801   134118332.102       -1571.785          50.000    25521863.090   104507749.273       -1224.844          46.000  
R20  25563082.120   136697364.150       -1760.937          38.000    25563080.034   106320261.893       -1369.863          43.000  
R10  25332360.119   135035801.244       -2993.131          47.000                                                                  
R09  27692281.564   147875196.928       -4950.520          50.000    27692279.937   115014294.754       -3850.369          49.000  
R05  27041293.781   144551247.627        1806.362          51.000    27041289.326   112428704.176        1404.910          46.000  
R04  27690740.593   148282604.845       -1286.438          47.000    27690733.987   115330989.513       -1000.863          42.000  
G16  26449894.494   138995147.848        1255.308          45.000                                                                  
G18  26988678.755   141826833.270       -3016.722          49.000    26988674.132   110514530.528       -2350.687          47.000  
G29  29354406.218   154258843.028       -2974.682          46.000    29354400.052   120201965.713       -2317.988          39.000  
S31  43873905.850   230559066.462        -663.951          43.000  
E30  29922271.958   157242720.624         953.823          45.000    29922272.641   120484577.685         730.769          51.000  
R11  26222491.954   140125065.192        1127.547          49.000    26222486.030   108986263.899         876.801          48.000  
R21  26667566.124   142703828.853         806.619          51.000    26667560.646   110991701.208         627.213          47.000  
E15  32613194.756   171383506.409        1394.271          42.000    32613199.355   131319864.181        1068.326          40.000  
G23  25663969.197   134865215.887        -134.029          46.000    25663965.508   105089810.392        -104.347          49.000  
E34  29051723.334   152668052.891         -82.761          46.000    29051725.120   116979567.491         -63.327          53.000  
G27  27946764.267   146861193.999        1725.896          44.000    27946760.819   114437385.423        1344.963          41.000  
E09  33424106.603   175644916.906        1195.167          39.000    33424107.529   134585030.181         915.875          44.000  
G10  26622649.112   139903082.670        2373.146          49.000    26622646.576   109015353.654        1849.011          46.000  
E25  31685989.902   166511283.125       -3585.463          44.000    31685991.757   127586717.179       -2747.375          48.000  
G31  29402037.448   154508712.892       -3353.384          39.000    29402036.879                       -2612.944          31.000  
E14  35479032.246   186443706.018        -388.245          37.000    35479031.399   142859517.028        -297.556          41.000  
G15                                                                  30372972.844                3       -333.872          23.000  
> 2024 04 15 06 53 00.0170000  0 26                     
S33  44832168.896   235594817.294        -663.980          42.000  
E02  28620360.272   150401027.397       -1835.942          48.000    28620360.118   115242378.396       -1406.719          52.000  
E36  29438127.529   154698758.102       -2186.280          47.000    29438128.254   118535626.710       -1675.135          52.000  
G26  25530892.818   134165773.403       -1590.987          50.000    25530890.813   104544716.491       -1239.680          46.000  
R20  25572974.849   136750263.504       -1765.165          38.000    25572972.793   106361405.861       -1373.051          43.000  
R10  25349267.993   135125929.912       -3015.405          48.000                                                                  
R09  27720104.964   148023770.124       -4954.442          49.000    27720103.820   115129851.474       -3853.396          49.000  
R05  27031203.705   144497308.460        1789.434          51.000    27031199.193   112386751.509        1391.823          47.000  
R04  27698017.267   148321572.380       -1311.403          44.000    27698010.432   115361297.605       -1019.898          43.000  
G16  26442770.809   138957713.577        1240.068          46.000                                                                  
G18  27005914.071   141917404.808       -3021.433          50.000    27005908.746   110585105.751       -2354.349          48.000  
G29  29371400.007   154348143.969       -2978.741          46.000    29371394.231   120271550.845       -2321.382          39.000  
S31  43877697.833   230578993.488        -664.432          43.000  
E30  29916855.681   157214260.448         943.397          44.000    29916856.874   120462770.547         722.904          51.000  
R11  26216229.306   140091606.061        1103.155          48.000    26216224.774   108960240.104         857.995          49.000  
R21  26663061.603   142679723.923         800.468          52.000    26663056.181   110972952.933         622.571          47.000  
E15  32605247.946   171341746.887        1389.540          43.000    32605252.729   131287866.791        1064.752          42.000  
G23  25664792.656   134869546.979        -154.830          46.000    25664789.388   105093185.279        -120.607          49.000  
E34  29052214.864   152670638.382         -89.794          47.000    29052216.855   116981548.631         -68.857          53.000  
G27  27936911.761   146809418.655        1725.595          44.000    27936909.055   114397041.062        1344.655          41.000  
E09  33417297.871   175609134.431        1190.280          39.000    33417298.001   134557612.486         911.927          43.000  
G10  26609138.326   139832084.774        2360.010          49.000    26609135.728   108960030.655        1838.987          45.000  
E25  31706470.621   166618911.332       -3589.854          44.000    31706472.707   127669185.473       -2750.576          48.000  
G31  29421181.888   154609317.451       -3353.286          35.000    29421179.006                       -2613.058          31.000  
E14  35481233.963   186455277.515        -383.502          36.000    35481233.565   142868383.501        -293.861          40.000  
G15                                                                  30375435.844                3       -342.200          26.000  
> 2024 04 15 06 53 30.0170000  0 26                     
S33  44835960.870   235614743.785        -663.414          42.000  
E02  28630877.803   150456293.876       -1848.680          48.000    28630876.892   115284725.423       -1416.552          52.000  
E36  29450616.611   154764390.032       -2189.414          46.000    29450617.714   118585916.099       -1677.580          53.000  
G26  25540029.426   134213790.609       -1610.163          49.000    25540027.616   104582132.500       -1254.872          45.000  
R20  25582892.780   136803297.097       -1769.878          38.000    25582890.215   106402654.228       -1376.666          43.000  
R10  25366301.680   135216726.994       -3037.722          47.000                                                                  
R09  27747949.817   148172456.774       -4958.193          49.000    27747949.032   115245495.323       -3856.319          49.000  
R05  27021208.500   144443882.900        1772.312          50.000    27021204.147   112345198.285        1378.278          46.000  
R04  27705432.401   148361284.904       -1336.083          41.000    27705425.971   115392185.197       -1039.262          41.000  
G16  26435733.994   138920736.247        1224.762          45.000                                                                  
G18  27023176.284   142008118.722       -3026.134          49.000    27023170.694   110655791.934       -2358.324          46.000  
G29  29388416.985   154437571.281       -2983.187          44.000    29388412.234   120341234.419       -2324.741          39.000  
S31  43881489.764   230598920.539        -664.503          43.000  
E30  29911497.984   157186111.306         932.985          44.000    29911500.378   120441201.746         714.819          51.000  
R11  26210104.381   140058877.647        1078.642          49.000    26210099.964   108934784.661         838.945          48.000  
R21  26658591.549   142655802.672         794.326          51.000    26658585.400   110954347.575         617.808          47.000  
E15  32597328.546   171300131.474        1384.790          43.000    32597332.850   131255979.812        1060.977          41.000  
G23  25665736.115   134874500.616        -175.562          46.000    25665731.780   105097045.272        -136.879          49.000  
E34  29052747.544   152673438.886         -96.937          46.000    29052749.563   116983694.496         -74.378          53.000  
G27  27927061.501   146757656.980        1725.121          44.000    27927059.150   114356707.336        1344.168          42.000  
E09  33410515.988   175573496.987        1185.386          39.000    33410516.636   134530305.899         908.137          43.000  
G10  26595703.630   139761482.283        2346.686          50.000    26595700.360   108905015.741        1828.708          45.000  
E25  31726975.351   166726664.523       -3593.981          43.000    31726977.681   127751749.527       -2753.798          48.000  
G31  29440323.869   154709921.571       -3353.276          31.000    29440325.175   120553160.729       -2612.864          32.000  
E14  35483409.393   186466708.921        -378.803          37.000    35483409.122   142877142.669        -290.256          41.000  
G15                                                                  30377969.366                3       -348.497          24.000  
> 2024 04 15 06 54 00.0170000  0 26                     
S33  44839753.161   235634672.594        -664.425          41.000  
E02  28641467.043   150511940.431       -1861.121          48.000    28641465.821   115327363.680       -1426.083          52.000  
E36  29463123.879   154830116.654       -2192.337          46.000    29463125.200   118636278.051       -1679.987          53.000  
G26  25549277.156   134262384.194       -1629.254          50.000    25549275.149   104619997.618       -1269.593          46.000  
R20  25592834.484   136856464.855       -1773.927          38.000    25592833.550   106444006.913       -1379.936          43.000  
R10  25383460.889   135308190.353       -3059.655          48.000                                                                  
R09  27775815.495   148321257.543       -4961.721          49.000    27775815.112   115361228.558       -3859.218          48.000  
R05  27011312.660   144390976.361        1754.900          51.000    27011308.132   112304048.761        1364.835          48.000  
R04  27712987.539   148401743.944       -1360.935          42.000    27712981.247   115423653.327       -1058.661          42.000  
G16  26428785.507   138884219.440        1209.641          45.000                                                                  
G18  27040465.636   142098974.464       -3030.786          50.000    27040460.647   110726588.588       -2361.594          48.000  
G29  29405458.856   154527125.937       -2986.942          44.000    29405454.215   120411017.207       -2327.653          38.000  
S31  43885281.879   230618848.295        -664.073          43.000  
E30  29906200.159   157158276.037         922.663          43.000    29906203.325   120419873.414         706.952          51.000  
R11  26204117.870   140026883.754        1054.356          49.000    26204112.629   108909900.550         820.015          49.000  
R21  26654154.646   142632065.526         788.361          51.000    26654149.547   110935885.413         613.015          47.000  
E15  32589436.969   171258661.453        1379.988          42.000    32589441.148   131224204.260        1057.356          42.000  
G23  25666797.789   134880078.516        -196.228          47.000    25666793.811   105101391.706        -153.022          50.000  
E34  29053321.389   152676454.840        -104.042          46.000    29053323.407   116986005.440         -79.718          52.000  
G27  27917214.262   146705911.069        1724.736          44.000    27917211.981   114316385.902        1343.893          41.000  
E09  33403762.452   175538007.791        1180.436          40.000    33403762.575   134503112.876         904.622          42.000  
G10  26582344.095   139691279.389        2333.500          49.000    26582341.118   108850312.257        1818.240          45.000  
E25  31747503.812   166834542.495       -3598.052          43.000    31747506.516   127834409.201       -2756.869          48.000  
G31  29459468.665   154810523.501       -3353.887          30.000    29459469.231   120631551.618       -2612.487          33.000  
E14  35485557.271   186478002.530        -373.657          35.000    35485558.326   142885796.193        -286.651          41.000  
G15                                                                  30380568.345                3       -360.550          24.000  
> 2024 04 15 06 54 30.0170000  0 26                     
S33  44843545.125   235654599.091        -664.373          42.000  
E02  28652128.011   150567963.912       -1873.618          48.000    28652126.789   115370290.746       -1435.698          51.000  
E36  29475648.483   154895934.201       -2195.267          46.000    29475649.916   118686709.670       -1682.196          53.000  
G26  25558632.821   134311550.626       -1648.376          49.000    25558631.398   104658309.109       -1284.498          45.000  
R20  25602801.451   136909762.807       -1778.828          38.000    25602800.473   106485460.869       -1383.164          43.000  
R10  25400742.461   135400313.279       -3081.727          48.000                                                                  
R09  27803701.237   148470165.227       -4965.282          49.000    27803701.650   115477045.286       -3861.827          50.000  
R05  27001512.214   144338590.649        1737.548          50.000    27001507.840   112263304.374        1351.407          47.000  
R04  27720681.877   148442946.080       -1385.700          40.000    27720675.754   115455699.476       -1077.702          42.000  
G16  26421924.008   138848162.548        1194.320          46.000                                                                  
G18  27057781.522   142189967.593       -3035.286          50.000    27057775.850   110797492.332       -2365.223          47.000  
G29  29422523.970   154616805.478       -2991.305          44.000    29422519.836   120480897.361       -2331.170          38.000  
S31  43889073.940   230638774.358        -664.173          44.000  
E30  29900963.259   157130753.368         912.410          44.000    29900966.014   120398784.604         699.000          51.000  
R11  26198267.985   139995623.718        1029.813          49.000    26198262.772   108885587.211         800.812          49.000  
R21  26649752.626   142608508.783         782.292          51.000    26649747.543   110917563.501         608.466          47.000  
E15  32581571.792   171217334.230        1375.367          41.000    32581576.680   131192538.097        1053.790          43.000  
G23  25667978.265   134886278.475        -216.881          47.000    25667973.754   105106222.837        -169.135          50.000  
E34  29053935.594   152679682.872        -111.112          46.000    29053937.485   116988478.887         -85.054          52.000  
G27  27907369.671   146654179.188        1724.245          44.000    27907368.523   114276075.382        1343.462          42.000  
E09  33397037.526   175502666.188        1175.535          41.000    33397037.608   134476032.955         900.853          41.000  
G10  26569060.832   139621476.414        2320.133          49.000    26569057.782   108795920.364        1808.027          45.000  
E25  31768055.401   166942541.120       -3601.835          43.000    31768057.631   127917161.320       -2759.909          48.000  
G31  29478612.919   154911117.959       -3353.229          31.000    29478615.334                       -2613.070          31.000  
E14  35487678.203   186489156.658        -368.970          33.000    35487680.464   142894342.876        -283.295          39.000  
G15                                                                  30383246.399                3       -367.412          19.000  
> 2024 04 15 06 55 00.0170000  0 25                     
S33  44847336.004   235674520.767        -663.834          42.000  
E02  28662859.420   150624361.175       -1885.859          48.000    28662858.881   115413504.217       -1445.051          52.000  
E36  29488188.837   154961838.868       -2198.060          45.000    29488191.172   118737208.051       -1684.240          53.000  
G26  25568096.659   134361286.391       -1667.213          49.000    25568095.528   104697064.234       -1299.092          45.000  
R20  25612792.184   136963187.402       -1782.563          39.000    25612791.146   106527013.365       -1386.419          44.000  
R10  25418147.527   135493090.023       -3103.137          48.000                                                                  
R09  27831605.279   148619171.872       -4968.337          49.000    27831606.188   115592938.665       -3864.183          49.000  
R05  26991809.899   144286727.155        1720.312          49.000    26991805.915   112222966.111        1337.988          47.000  
R04  27728514.700   148484888.516       -1410.112          41.000    27728507.502   115488321.277       -1096.741          41.000  
G16  26415150.301   138812565.843        1179.067          46.000                                                                  
G18  27075121.893   142281093.729       -3039.497          49.000    27075116.283   110868499.716       -2368.373          47.000  
G29  29439612.528   154706607.575       -2995.292          42.000    29439609.092   120550872.981       -2333.876          38.000  
S31  43892864.896   230658696.318        -663.548          44.000  
E30  29895786.222   157103542.126         902.004          45.000    29895787.844   120377934.430         691.147          51.000  
R11  26192555.303   139965097.165        1005.538          49.000    26192550.071   108861844.351         782.058          49.000  
R21  26645382.960   142585128.773         776.646          51.000    26645378.371   110899379.040         604.001          46.000  
E15  32573733.745   171176147.211        1370.804          41.000    32573738.869   131160979.370        1050.372          43.000  
G23  25669275.574   134893098.250        -237.489          47.000    25669270.670   105111536.949        -185.071          49.000  
E34  29054589.977   152683119.472        -117.761          46.000    29054591.460   116991112.156         -90.274          52.000  
G27  27897528.430   146602459.616        1723.875          45.000    27897527.263   114235774.433        1343.454          43.000  
E09  33390340.675   175467471.522        1171.067          41.000    33390339.259   134449065.602         897.267          39.000  
G10  26555854.067   139552073.647        2306.874          50.000    26555851.531   108741840.341        1797.615          45.000  
E25  31788629.524   167050656.314       -3605.487          44.000    31788631.361   128000002.766       -2762.703          47.000  
G31  29497750.292   155011699.104       -3352.276          29.000    29497755.657                3      -2611.638          25.000  
E14  35489776.116   186500169.721        -364.467          35.000    35489776.145   142902781.379        -279.488          38.000  
> 2024 04 15 06 55 30.0170000  0 25                     
S33  44851125.289   235694433.928        -664.223          41.000  
E02  28673662.525   150681127.099       -1898.647          48.000    28673661.133   115457000.158       -1454.856          52.000  
E36  29500745.359   155027824.859       -2201.050          45.000    29500747.895   118787768.753       -1686.607          53.000  
G26  25577668.466   134411585.987       -1686.355          49.000    25577667.188   104736258.702       -1314.010          45.000  
R20  25622806.181   137016732.416       -1786.903          40.000    25622804.268   106568659.526       -1390.048          43.000  
R10  25435673.528   135586512.794       -3125.053          48.000                                                                  
R09  27859526.973   148768270.232       -4971.693          49.000    27859527.931   115708903.854       -3866.829          49.000  
R05  26982205.153   144235385.106        1702.417          48.000    26982201.103   112183033.444        1324.003          46.000  
R04  27736483.289   148527565.963       -1434.999          41.000    27736477.337   115521514.878       -1116.235          43.000  
G16  26408463.220   138777426.646        1163.412          46.000                                                                  
G18  27092486.658   142372346.469       -3044.062          49.000    27092480.741   110939605.738       -2372.046          46.000  
G29  29456723.658   154796527.905       -2999.554          42.000    29456720.720   120620940.720       -2337.653          38.000  
S31  43896654.109   230678609.532        -663.831          44.000  
E30  29890667.522   157076639.122         891.352          46.000    29890668.368   120357320.435         683.043          51.000  
R11  26186980.010   139935301.636         980.786          49.000    26186974.358   108838670.050         762.698          49.000  
R21  26641046.322   142561920.038         770.481          51.000    26641041.623   110881327.837         599.309          47.000  
E15  32565921.860   171135095.763        1366.094          42.000    32565926.489   131129524.540        1046.586          44.000  
G23  25670689.712   134900533.606        -258.358          46.000    25670685.730   105117330.749        -201.425          49.000  
E34  29055282.936   152686759.243        -124.791          47.000    29055284.165   116993901.090         -95.775          53.000  
G27  27887688.358   146550748.623        1723.219          45.000    27887686.524   114195480.170        1342.748          43.000  
E09  33383670.717   175432421.183        1165.621          41.000    33383669.183   134422208.824         893.286          41.000  
G10  26542723.218   139483069.448        2293.269          51.000    26542720.392   108688070.875        1786.898          46.000  
E25  31809224.356   167158881.907       -3609.629          44.000    31809226.315   128082928.810       -2765.862          48.000  
E14  35491846.008   186511037.964        -360.136          38.000    35491844.284   142911108.990        -275.849          40.000  
G31                                                                  29516884.754                3      -2609.257          23.000  
> 2024 04 15 06 56 00.0170000  0 25                     
S33  44854914.286   235714345.329        -663.626          42.000  
E02  28684535.401   150738267.829       -1910.715          48.000    28684534.786   115500783.303       -1464.035          51.000  
E36  29513318.986   155093897.810       -2203.616          45.000    29513321.043   118838396.068       -1688.479          53.000  
G26  25587348.540   134462455.238       -1704.740          49.000    25587347.479   104775897.062       -1328.393          46.000  
R20  25632843.323   137070403.337       -1790.874          39.000    25632841.095   106610403.569       -1392.778          43.000  
R10  25453321.654   135680584.310       -3146.215          48.000                                                                  
R09  27887465.960   148917462.472       -4974.414          50.000    27887466.437   115824942.284       -3868.868          49.000  
R05  26972700.655   144184575.419        1685.029          49.000    26972696.753   112143514.757        1310.441          47.000  
R04  27744592.255   148570985.142       -1459.171          42.000    27744585.689   115555285.349       -1135.168          43.000  
G16  26401865.499   138742753.992        1148.177          46.000                                                                  
G18  27109876.158   142463730.791       -3048.061          49.000    27109870.830   111010814.279       -2375.025          46.000  
G29  29473859.122   154886572.893       -3003.232          43.000    29473854.094   120691105.642       -2340.081          38.000  
S31  43900442.743   230698519.924        -663.542          44.000  
E30  29885607.761   157050052.551         881.107          45.000    29885609.096   120336948.913         675.186          51.000  
R11  26181542.139   139906246.717         956.272          50.000    26181536.596   108816071.741         744.053          48.000  
R21  26636742.372   142538888.485         764.973          51.000    26636737.532   110863414.450         594.998          47.000  
E15  32558136.840   171094186.683        1361.393          41.000    32558141.644   131098178.767        1043.171          44.000  
G23  25672223.049   134908591.642        -278.698          46.000    25672219.145   105123609.736        -217.194          50.000  
E34  29056015.095   152690608.155        -131.570          47.000    29056016.430   116996850.277        -100.828          52.000  
G27  27877851.646   146499053.930        1723.136          46.000    27877848.747   114155198.592        1342.594          42.000  
E09  33377029.575   175397523.824        1160.852          41.000    33377029.215   134395469.265         889.555          43.000  
G10  26529669.780   139414473.472        2279.828          50.000    26529667.215   108634619.493        1776.521          45.000  
E25  31829840.276   167267223.147       -3612.961          43.000    31829843.039   128165943.483       -2768.449          48.000  
E14  35493887.821   186521769.110        -355.273          37.000    35493886.446   142919331.563        -272.421          40.000  
G31                                                                  29536013.460                3      -2609.950          20.000  
> 2024 04 15 06 56 30.0170000  0 25                     
S33  44858701.525   235734245.779        -662.799          42.000  
E02  28695478.356   150795774.774       -1923.072          48.000    28695477.875   115544847.055       -1473.496          51.000  
E36  29525907.404   155160048.479       -2206.407          45.000    29525909.142   118889082.942       -1690.595          53.000  
G26  25597135.371   134513885.106       -1723.708          49.000    25597133.749   104815972.276       -1343.135          45.000  
R20  25642901.247   137124191.476       -1795.040          39.000    25642899.833   106652238.776       -1396.150          44.000  
R10  25471087.610   135775293.101       -3167.747          47.000                                                                  
R09  27915420.747   149066735.588       -4977.095          50.000    27915421.341   115941043.561       -3871.114          49.000  
R05  26963294.722   144134294.177        1667.094          49.000    26963291.457   112104407.126        1296.677          48.000  
R04  27752837.411   148615137.152       -1483.951          43.000    27752830.890   115589625.776       -1154.268          44.000  
G16  26395355.813   138708542.160        1132.565          46.000                                                                  
G18  27127289.635   142555236.906       -3052.358          49.000    27127284.375   111082117.731       -2378.456          47.000  
G29  29491016.107   154976734.724       -3007.668          44.000    29491010.682   120761361.592       -2343.234          37.000  
S31  43904229.979   230718420.241        -663.374          44.000  
E30  29880607.635   157023775.747         870.619          45.000    29880609.026   120316814.739         667.136          51.000  
R11  26176242.098   139877926.148         931.641          51.000    26176237.123   108794044.626         724.553          49.000  
R21  26632469.665   142516024.878         759.266          50.000    26632465.105   110845631.704         590.505          46.000  
E15  32550377.416   171053411.861        1357.073          40.000    32550382.750   131066935.877        1039.529          46.000  
G23  25673874.388   134917264.654        -299.502          47.000    25673869.789   105130367.912        -233.419          50.000  
E34  29056785.625   152694657.367        -138.473          47.000    29056787.054   116999952.936        -106.030          52.000  
G27  27868016.614   146447368.439        1722.582          46.000    27868012.641   114114924.237        1342.245          42.000  
E09  33370416.410   175362773.312        1155.665          39.000    33370416.740   134368842.270         885.679          44.000  
G10  26516692.494   139346280.536        2266.077          50.000    26516689.393   108581482.183        1765.967          44.000  
E25  31850476.300   167375670.552       -3616.539          42.000    31850479.973   128249039.464       -2771.217          48.000  
G31  29555133.529                1      -3350.117          27.000                                                                  
E14  35495900.690   186532356.063        -350.362          34.000    35495900.590   142927443.612        -268.537          39.000  
> 2024 04 15 06 57 00.0170000  0 24                     
S33  44862486.811   235754137.887        -663.076          42.000  
E02  28706491.764   150853649.905       -1935.543          48.000    28706491.277   115589192.923       -1483.057          51.000  
E36  29538509.367   155226278.250       -2209.322          45.000    29538512.402   118939830.423       -1692.749          53.000  
G26  25607029.463   134565877.193       -1742.720          49.000    25607028.478   104856485.598       -1357.991          46.000  
R20  25652982.434   137178098.377       -1799.283          39.000    25652980.923   106694166.383       -1399.354          43.000  
R10  25488974.889   135870637.622       -3188.986          48.000                                                                  
R09  27943390.204   149216088.404       -4979.929          49.000    27943389.901   116057206.763       -3873.125          48.000  
R05  26953988.376   144084548.013        1649.005          49.000    26953982.813   112065715.693        1282.633          45.000  
R04  27761220.466   148660024.038       -1508.746          44.000    27761213.597   115624537.772       -1173.422          44.000  
G16  26388933.724   138674795.971        1116.765          45.000                                                                  
G18  27144725.471   142646865.567       -3056.528          49.000    27144720.830   111153516.694       -2381.845          47.000  
G29  29508196.925   155067016.261       -3011.626          44.000    29508191.376   120831710.858       -2346.622          38.000  
S31  43908015.504   230738313.119        -663.284          44.000  
E30  29875667.595   156997812.733         859.975          45.000    29875668.485   120296921.007         658.895          51.000  
R11  26171080.623   139850344.426         906.811          50.000    26171076.337   108772592.152         705.254          49.000  
R21  26628228.286   142493331.099         753.314          51.000    26628224.587   110827981.001         586.116          47.000  
E15  32542644.315   171012773.879        1352.182          41.000    32542649.467   131035797.833        1035.966          46.000  
G23  25675642.655   134926555.402        -320.216          47.000    25675637.838   105137607.461        -249.495          50.000  
E34  29057594.490   152698908.542        -145.365          47.000    29057595.573   117003210.367        -111.275          52.000  
G27  27858183.446   146395695.554        1721.890          46.000    27858180.026   114074659.713        1341.626          42.000  
E09  33363832.045   175328174.165        1150.572          38.000    33363833.073   134342331.260         881.570          44.000  
G10  26503793.134   139278496.109        2252.566          49.000    26503790.816   108528663.194        1755.032          45.000  
E25  31871134.284   167484225.104       -3620.636          43.000    31871137.390   128332217.537       -2774.119          48.000  
E14  35497889.545   186542802.344        -346.547          33.000    35497888.323   142935447.912        -265.435          38.000  
> 2024 04 15 06 57 30.0170000  0 24                     
S33  44866270.514   235774023.887        -662.527          42.000  
E02  28717575.497   150911894.036       -1947.859          48.000    28717574.750   115633821.523       -1492.518          51.000  
E36  29551128.546   155292587.403       -2211.695          45.000    29551130.774   118990638.732       -1694.786          53.000  
G26  25617030.024   134618431.859       -1761.420          49.000    25617029.763   104897437.283       -1372.652          46.000  
R20  25663085.316   137232123.339       -1803.047          39.000    25663083.744   106736185.806       -1402.252          43.000  
R10  25506980.244   135966615.863       -3209.980          48.000                                                                  
R09  27971373.884   149365518.425       -4982.434          49.000    27971373.466   116173429.897       -3875.170          48.000  
R05  26944783.046   144035342.179        1630.982          49.000    26944778.313   112027444.521        1268.379          46.000  
R04  27769741.076   148705646.985       -1533.161          45.000    27769731.738   115660022.240       -1192.651          43.000  
G16  26382601.117   138641518.828        1101.161          45.000                                                                  
G18  27162185.105   142738616.443       -3060.530          49.000    27162180.042   111225010.894       -2384.960          46.000  
G29  29525399.349   155157418.743       -3015.566          44.000    29525395.385   120902154.327       -2349.769          40.000  
S31  43911799.361   230758199.152        -663.024          44.000  
E30  29870786.993   156972166.296         849.325          45.000    29870788.071   120277269.847         650.783          51.000  
R11  26166058.206   139823505.023         882.056          51.000    26166053.891   108751717.053         685.979          50.000  
R21  26624020.212   142470807.317         747.705          52.000    26624015.369   110810462.513         581.500          47.000  
E15  32534938.746   170972274.124        1347.534          43.000    32534942.299   131004765.708        1032.341          46.000  
G23  25677528.791   134936465.580        -340.888          47.000    25677523.731   105145329.670        -265.515          50.000  
E34  29058442.604   152703362.277        -151.995          48.000    29058442.995   117006623.006        -116.474          52.000  
G27  27848352.363   146344037.606        1721.461          45.000    27848350.371   114034406.812        1341.141          42.000  
E09  33357278.203   175293729.865        1145.075          39.000    33357278.746   134315938.848         877.533          45.000  
G10  26490973.197   139211124.526        2238.710          50.000    26490970.923   108476165.870        1744.525          45.000  
E25  31891812.340   167592886.661       -3623.895          44.000    31891814.989   128415477.643       -2776.885          48.000  
E14  35499850.683   186553110.201        -341.516          33.000    35499849.405   142943346.186        -261.969          37.000  
> 2024 04 15 06 58 00.0170000  0 24                     
S33  44870053.704   235793902.727        -662.270          42.000  
E02  28728729.159   150970505.743       -1959.857          48.000    28728728.030   115678731.775       -1501.626          51.000  
E36  29563761.924   155358974.011       -2214.120          45.000    29563763.609   119041506.385       -1696.524          53.000  
G26  25627137.785   134671547.278       -1779.625          49.000    25627136.764   104938825.903       -1386.700          45.000  
R20  25673210.140   137286265.145       -1806.641          40.000    25673208.314   106778296.078       -1405.022          42.000  
R10  25525103.439   136063223.603       -3230.547          48.000                                                                  
R09  27999371.434   149515020.691       -4984.365          49.000    27999370.058   116289709.264       -3876.801          48.000  
R05  26935679.776   143986680.139        1613.071          50.000    26935675.600   111989596.290        1254.579          46.000  
R04  27778396.189   148752004.100       -1557.336          44.000    27778388.608   115696077.815       -1211.273          43.000  
G16  26376358.308   138608712.325        1085.842          45.000                                                                  
G18  27179667.708   142830487.010       -3064.153          49.000    27179663.215   111296598.356       -2387.789          47.000  
G29  29542624.900   155247941.543       -3019.356          44.000    29542620.629   120972691.544       -2352.696          38.000  
S31  43915582.110   230778078.199        -662.630          44.000  
E30  29865966.617   156946837.032         839.145          45.000    29865967.952   120257861.719         642.971          51.000  
R11  26161174.656   139797409.477         857.595          51.000    26161169.286   108731420.480         666.911          49.000  
R21  26619842.296   142448452.322         742.469          52.000    26619836.895   110793075.297         577.552          46.000  
E15  32527256.941   170931911.740        1343.169          42.000    32527261.254   130973838.834        1029.266          46.000  
G23  25679532.272   134946994.585        -361.095          47.000    25679526.989   105153534.096        -281.427          50.000  
E34  29059328.736   152708016.936        -158.373          48.000    29059328.731   117010189.570        -121.393          52.000  
G27  27838524.701   146292394.837        1721.210          45.000    27838523.320   113994165.696        1341.311          43.000  
E09  33350753.795   175259441.404        1140.345          39.000    33350753.973   134289665.875         873.729          46.000  
G10  26478232.233   139144167.787        2224.993          49.000    26478230.028   108423991.815        1733.802          46.000  
E25  31912510.442   167701652.973       -3627.235          44.000    31912512.457   128498817.987       -2779.306          48.000  
E14  35501785.623   186563279.963        -336.478          32.000    35501784.245   142951138.638        -257.910          35.000  
> 2024 04 15 06 58 30.0170000  0 24                     
S33  44873835.477   235813777.107        -662.607          42.000  
E02  28739952.226   151029487.302       -1972.356          47.000    28739951.881   115723925.435       -1511.355          51.000  
E36  29576410.016   155425439.785       -2216.980          45.000    29576411.558   119092434.695       -1698.715          53.000  
G26  25637352.748   134725225.294       -1798.786          49.000    25637350.919   104980652.903       -1401.761          45.000  
R20  25683356.880   137340524.662       -1810.792          41.000    25683354.665   106820497.969       -1408.473          43.000  
R10  25543343.666   136160459.583       -3251.790          48.000                                                                  
R09  28027380.780   149664594.257       -4987.087          48.000    28027380.253   116406044.033       -3878.810          47.000  
R05  26926678.720   143938568.393        1594.297          50.000    26926674.710   111952176.062        1240.147          46.000  
R04  27787191.338   148799097.956       -1582.105          44.000    27787182.940   115732706.376       -1230.603          44.000  
G16  26370205.441   138576381.267        1069.596          44.000                                                                  
G18  27197172.732   142922478.441       -3068.524          48.000    27197168.710   111368279.985       -2391.092          47.000  
G29  29559874.663   155338587.906       -3023.706          44.000    29559869.076   121043325.021       -2356.132          37.000  
S31  43919364.191   230797952.737        -662.542          44.000  
E30  29861207.519   156921829.186         828.055          45.000    29861209.038   120238699.881         634.474          51.000  
R11  26156431.290   139772062.418         832.181          51.000    26156426.223   108711706.097         647.290          49.000  
R21  26615696.457   142426267.608         736.599          52.000    26615690.703   110775820.579         572.825          47.000  
E15  32519602.176   170891689.605        1338.136          41.000    32519607.258   130943019.442        1025.350          46.000  
G23  25681653.549   134958145.500        -382.265          46.000    25681649.009   105162223.130        -297.841          50.000  
E34  29060253.006   152712874.556        -165.441          48.000    29060253.169   117013911.650        -126.715          52.000  
G27  27828701.228   146240771.060        1720.260          45.000    27828699.160   113953939.393        1340.408          42.000  
E09  33344259.459   175225313.631        1134.771          38.000    33344259.545   134263516.039         869.483          45.000  
G10  26465570.289   139077631.604        2210.776          49.000    26465568.688   108372145.476        1722.683          46.000  
E25  31933228.659   167810525.325       -3630.931          45.000    31933229.945   128582239.614       -2782.132          47.000  
E14  35503695.011   186573315.463        -332.541          32.000    35503694.470   142958828.159        -254.609          36.000  
> 2024 04 15 06 59 00.0170000  0 24                     
S33  44877617.174   235833650.531        -662.173          42.000  
E02  28751246.449   151088840.946       -1984.619          47.000    28751246.629   115769404.189       -1520.679          51.000  
E36  29589073.981   155491986.466       -2219.488          45.000    29589074.927   119143425.005       -1700.703          53.000  
G26  25647674.535   134779467.660       -1817.482          49.000    25647672.870   105022919.675       -1416.163          45.000  
R20  25693526.228   137394904.998       -1814.531          39.000    25693523.870   106862793.767       -1411.223          43.000  
R10  25561702.662   136258322.986       -3272.356          48.000                                                                  
R09  28055404.310   149814237.668       -4989.171          47.000    28055404.031   116522433.097       -3880.424          47.000  
R05  26917783.785   143891014.406        1575.848          50.000    26917779.329   111915189.660        1225.619          46.000  
R04  27796125.284   148846930.658       -1606.681          46.000    27796115.270   115769909.566       -1249.690          45.000  
G16  26364144.581   138544531.196        1053.644          44.000                                                                  
G18  27214702.248   143014591.845       -3072.470          50.000    27214696.820   111440056.696       -2394.138          46.000  
G29  29577148.324   155429360.346       -3027.782          43.000    29577143.279   121114056.814       -2359.539          39.000  
S31  43923146.015   230817825.721        -662.554          44.000  
E30  29856510.824   156897147.028         817.363          45.000    29856512.377   120219787.586         626.240          51.000  
R11  26151828.509   139747469.100         807.258          50.000    26151824.363   108692577.961         627.860          49.000  
R21  26611583.078   142404255.286         730.930          52.000    26611578.385   110758699.909         568.550          47.000  
E15  32511976.197   170851610.531        1333.572          42.000    32511980.571   130912309.662        1021.937          46.000  
G23  25683893.824   134969921.365        -402.802          46.000    25683890.326   105171399.157        -313.978          50.000  
E34  29061215.640   152717937.174        -172.135          47.000    29061216.946   117017790.805        -131.914          53.000  
G27  27818882.042   146189170.057        1719.665          45.000    27818879.246   113913730.835        1339.961          42.000  
E09  33337796.855   175191351.360        1129.506          39.000    33337797.111   134237492.994         865.224          45.000  
G10  26452990.067   139011521.798        2196.523          50.000    26452987.803   108320631.362        1711.630          45.000  
E25  31953966.742   167919505.132       -3634.535          44.000    31953968.296   128665743.545       -2784.827          47.000  
E14  35505580.848   186583220.417        -328.162          35.000    35505579.952   142966417.684        -251.336          37.000  
> 2024 04 15 06 59 30.0170000  0 24                     
S33  44881397.333   235853514.304        -662.217          42.000  
E02  28762610.736   151148558.382       -1996.703          47.000    28762610.585   115815161.691       -1529.955          51.000  
E36  29601750.942   155558605.231       -2221.849          46.000    29601751.767   119194470.563       -1702.393          52.000  
G26  25658102.064   134834265.612       -1835.878          49.000    25658100.522   105065619.369       -1430.722          46.000  
R20  25703716.132   137449396.905       -1818.343          39.000    25703713.921   106905176.359       -1414.253          42.000  
R10  25580176.910   136356802.598       -3292.927          48.000                                                                  
R09  28083439.020   149963940.244       -4991.088          48.000    28083438.747   116638868.567       -3881.943          46.000  
R05  26908991.041   143844013.821        1557.452          51.000    26908986.925   111878633.691        1211.334          45.000  
R04  27805193.807   148895493.846       -1630.930          45.000    27805185.547   115807680.942       -1268.546          43.000  
G16  26358174.780   138513156.791        1037.952          45.000                                                                  
G18  27232251.930   143106817.865       -3076.001          50.000    27232246.964   111511921.123       -2396.966          47.000  
G29  29594443.616   155520251.426       -3031.712          42.000    29594439.769   121184880.992       -2362.469          40.000  
S31  43926925.843   230837689.962        -661.720          44.000  
E30  29851875.445   156872784.281         806.789          46.000    29851876.278   120201120.039         618.131          51.000  
R11  26147365.301   139723623.482         782.293          49.000    26147361.608   108674031.368         608.497          49.000  
R21  26607499.481   142382406.715         725.540          51.000    26607494.614   110741706.609         564.348          47.000  
E15  32504374.721   170811666.813        1329.173          41.000    32504379.748   130881703.597        1018.457          47.000  
G23  25686252.388   134982314.667        -423.446          47.000    25686248.583   105181056.279        -329.890          50.000  
E34  29062216.625   152723196.295        -178.502          48.000    29062218.033   117021820.547        -136.789          53.000  
G27  27809065.677   146137585.195        1719.178          45.000    27809062.228   113873534.869        1339.650          42.000  
E09  33331364.084   175157548.881        1124.085          39.000    33331364.295   134211592.396         861.245          44.000  
G10  26440490.054   138945833.429        2182.402          49.000    26440487.978   108269445.658        1700.612          45.000  
E25  31974723.664   168028583.156       -3637.543          44.000    31974725.241   128749322.732       -2787.218          47.000  
E14  35507439.449   186592988.198        -323.558          34.000    35507438.522   142973902.053        -247.754          37.000  
