     3.00           OBSERVATION DATA    M: Mixed            RINEX VERSION / TYPE
CONVBIN 2.4.3                           20240415 085942 UTC PGM / RUN BY / DATE 
format: u-blox UBX                                          COMMENT             
log: /home/regis/git/gnsspwv/obsdata/VERT00CHL/2024-04-15/VECOMMENT             
{self.marker}                                               MARKER NAME         
                                                            MARKER NUMBER       
GEODETIC                                                    MARKER TYPE         
{self.observer}     {self.institution}                      OBSERVER / AGENCY   
UNKNOWN             UBLOX-ZED-F9P                           REC # / TYPE / VERS 
UNKNOWN             TWIVSP6037L                             ANT # / TYPE        
  1713381.0000 -5047934.0000 -3490983.0000                  APPROX POSITION XYZ 
        0.0000        0.0000        0.0000                  ANTENNA: DELTA H/E/N
G    8 C1C L1C D1C S1C C2L L2L D2L S2L                      SYS / # / OBS TYPES 
R    8 C1C L1C D1C S1C C2C L2C D2C S2C                      SYS / # / OBS TYPES 
E    8 C1C L1C D1C S1C C7Q L7Q D7Q S7Q                      SYS / # / OBS TYPES 
S    4 C1C L1C D1C S1C                                      SYS / # / OBS TYPES 
  2024    04    15    08    45   00.4990000     GPS         TIME OF FIRST OBS   
  2024    04    15    08    59   30.4990000     GPS         TIME OF LAST OBS    
                                                            END OF HEADER       
> 2024 04 15 08 45 00.4990000  0 29                     
S33  39376750.089   206926403.2371       -652.564          41.000  
E02  26096016.445   137135495.3321      -3642.724          42.000    26096017.767   105077875.2731      -2791.241          50.000  
E05  24016643.042   126208330.5431       1096.567          46.000    24016643.772    96705099.2251        840.203          50.000  
E36  26084842.882   137076724.0571      -2282.096          36.000    26084845.088   105033337.1971      -1748.438          47.000  
G26  23336282.025   122632990.8671      -4099.360          43.000    23336279.494    95558127.2191      -3194.449          39.000  
R20  21929161.832   117265147.0501      -2477.051          37.000    21929158.966    91206314.0231      -1926.804          38.000  
R07  22923323.349                3       3350.710          11.000                                                                  
R06  19618578.561   104688541.1521        990.638          44.000                                                                  
R05  21763129.905   116336439.9361      -3522.950          46.000    21763125.662    90483854.3541      -2740.095          48.000  
R22  21907452.732   116943410.4181       1617.157          47.000    21907449.038    90956055.9671       1257.615          45.000  
G16  21195718.413   111384256.8761      -2873.262          46.000                                                                  
G08  21538785.162   113187232.1081       2093.824          48.000    21538782.559    88197780.8461       1631.687          42.000  
G18  24795369.086                3      -3159.877          26.000    24795358.385   101532850.4411      -2462.085          33.000  
S31  38422522.569   201911861.0611       -653.330          44.000  
E30  24233678.139   127348951.4711      -1983.602          47.000    24233679.208    97578960.5721      -1519.944          51.000  
R11  22002802.898   117576301.1351      -3853.948          48.000    22002798.034    91448331.2521      -2997.579          45.000  
R21  19990677.400   106974467.2141       -152.444          52.000    19990671.487    83202201.5331       -118.545          48.000  
R12  22062373.240   117853251.7651       -583.204          46.000    22062372.052    91663618.3271       -453.537          46.000  
E15  25136467.121   132093084.7331        555.380          44.000    25136469.253   101214228.1081        425.469          50.000  
G23  22203920.423   116682536.8881      -3734.010          43.000    22203917.576    90921488.6181      -2909.520          45.000  
E34  23593451.381   123984649.2951      -1009.661          47.000    23593451.971    95001377.1931       -773.689          50.000  
G27  19995209.546   105075509.9201        338.536          48.000    19995206.556    81877115.0831        263.829          45.000  
E09  26885467.158   141284094.5591      -1158.445          38.000    26885469.054   108256649.7631       -887.641          44.000  
G10  19885233.409   104497735.7181      -1879.456          52.000    19885229.579    81426775.1271      -1464.697          49.000  
E03  26937667.845   141558413.1381       2132.100          40.000    26937669.876   108466851.5701       1633.621          48.000  
G21  23547989.142   123745520.4431       1977.771          42.000                                                                  
E27  25998215.845   136621419.6191        589.166          39.000    25998218.450   104684055.0121        451.389          46.000  
E18  24943677.170   131079928.5171      -1281.654          41.000                                                                  
G32  22648176.557   119016986.2041       2056.932          47.000    22648173.594    92740514.7151       1602.847          44.000  
> 2024 04 15 08 45 30.4990000  0 28                     
S33  39380475.175   206945978.460        -652.096          41.000  
E02  26116816.630   137244796.718       -3644.069          43.000    26116817.350   105161625.689       -2792.277          50.000  
E05  24010406.728   126175562.370        1087.745          45.000    24010408.304    96679991.191         833.514          50.000  
E36  26097867.281   137145166.606       -2281.036          38.000    26097869.008   105085780.220       -1747.798          47.000  
G26  23359683.783   122755971.064       -4099.494          42.000    23359682.170    95653955.993       -3194.096          40.000  
R20  21943069.248   117339516.958       -2481.315          38.000    21943067.188    91264157.317       -1930.139          40.000  
R06  19613076.629   104659186.721         966.036          44.000                                                                  
R05  21782954.847   116442413.896       -3542.111          48.000    21782951.079    90566278.498       -2755.045          49.000  
R22  21898361.549   116894885.901        1617.550          46.000    21898358.991    90918314.675        1258.018          46.000  
G16  21212161.538   111470664.233       -2887.560          47.000                                                                  
G08  21526848.263   113124505.262        2087.410          48.000    21526846.163    88148902.816        1626.582          43.000  
S31  38426249.811   201931448.449        -652.706          43.000  
E30  24245036.069   127408634.132       -1995.421          46.000    24245036.547    97624691.442       -1528.956          52.000  
R11  22024465.046   117692067.125       -3863.900          46.000    22024462.282    91538371.421       -3005.486          45.000  
R21  19991544.778   106979107.023        -157.021          52.000    19991538.171    83205810.280        -122.296          49.000  
R12  22065716.810   117871106.055        -607.332          47.000    22065714.767    91677504.988        -472.369          45.000  
E15  25133301.235   132076446.409         553.664          44.000    25133302.994   101201479.289         424.184          50.000  
G23  22225256.441   116794657.058       -3740.638          42.000    22225253.226    91008854.936       -2914.730          44.000  
E34  23599218.513   124014955.578       -1010.935          48.000    23599219.161    95024598.901        -774.668          51.000  
G27  19993313.605   105065547.687         325.380          48.000    19993310.238    81869352.311         253.598          45.000  
E09  26892117.194   141319037.413       -1171.257          38.000    26892118.601   108283424.151        -897.534          44.000  
G10  19896012.006   104554380.549       -1896.923          52.000    19896008.663    81470913.981       -1478.171          49.000  
E03  26925490.611   141494420.587        2133.873          41.000    26925492.428   108417818.425        1635.234          48.000  
G21  23536696.586   123686181.629        1977.978          42.000                                                                  
E27  25994887.222   136603924.022         577.164          39.000    25994889.051   104670649.292         442.129          45.000  
E18  24951002.504   131118421.453       -1284.676          41.000                                                                  
G32  22636455.360   118955394.439        2048.815          47.000    22636453.868    92692521.201        1596.511          45.000  
G18                                                                  24813391.611                       -2460.490          27.000  
> 2024 04 15 08 46 00.4990000  0 28                     
S33  39384200.422   206965556.412        -652.659          41.000  
E02  26137625.718   137354150.730       -3646.264          43.000    26137626.648   105245416.437       -2793.754          50.000  
E05  24004224.101   126143072.153        1078.227          45.000    24004225.592    96655096.123         826.126          50.000  
E36  26110887.605   137213596.102       -2281.132          37.000    26110891.078   105138213.222       -1747.655          47.000  
G26  23383090.140   122878972.652       -4100.414          42.000    23383089.981    95749801.431       -3194.900          40.000  
R20  21957003.799   117414028.621       -2485.975          38.000    21957000.609    91322110.841       -1933.756          39.000  
R06  19607717.896   104630588.502         940.440          45.000                                                                  
R05  21802889.420   116548975.108       -3561.916          48.000    21802885.194    90649159.389       -2770.278          49.000  
R22  21889271.595   116846363.063        1617.225          46.000    21889269.350    90880574.724        1257.754          46.000  
G16  21228688.984   111557516.044       -2902.618          47.000                                                                  
G08  21514951.212   113061985.936        2080.180          47.000    21514949.695    88100186.490        1620.621          43.000  
S31  38429977.657   201951037.739        -653.095          43.000  
E30  24256463.114   127468686.459       -2007.966          46.000    24256464.115    97670705.556       -1538.654          52.000  
R11  22046187.418   117808145.965       -3874.581          46.000    22046185.066    91628654.977       -3013.604          44.000  
R21  19992440.826   106983902.372        -162.518          52.000    19992434.307    83209539.995        -126.478          49.000  
R12  22069196.116   117889695.569        -632.136          47.000    22069195.441    91691963.436        -491.475          45.000  
E15  25130146.086   132059869.707         551.325          44.000    25130148.482   101188777.675         422.575          50.000  
G23  22246633.022   116906993.930       -3748.244          41.000    22246631.253    91096390.128       -2920.912          44.000  
E34  23604996.257   124045316.244       -1013.121          48.000    23604996.679    95047862.269        -776.299          51.000  
G27  19991496.129   105055996.169         311.438          48.000    19991493.159    81861909.582         242.645          45.000  
E09  26898844.817   141354384.679       -1185.028          39.000    26898844.617   108310508.427        -908.183          45.000  
G10  19906893.102   104611561.834       -1915.096          51.000    19906889.673    81515470.843       -1492.380          49.000  
E03  26913304.275   141430380.492        2135.233          41.000    26913305.724   108368748.838        1636.216          48.000  
G21  23525407.002   123626850.603        1977.502          42.000                                                                  
E27  25991631.655   136586811.468         563.853          40.000    25991632.936   104657537.068         431.989          46.000  
E18  24958347.337   131157015.021       -1288.177          41.000                                                                  
G32  22624785.583   118894065.686        2039.865          48.000    22624783.871    92644732.629        1589.511          45.000  
G18                                                                  24831423.915                1      -2460.259          27.000  
> 2024 04 15 08 46 30.4990000  0 28                     
S33  39387927.858   206985142.272        -652.777          42.000  
E02  26158445.473   137463562.527       -3647.835          41.000    26158446.964   105329251.437       -2795.090          50.000  
E05  23998096.543   126110868.699        1068.941          46.000    23998097.296    96630420.772         818.910          50.000  
E36  26123909.063   137282019.715       -2280.599          38.000    26123911.409   105190641.684       -1747.434          47.000  
G26  23406501.154   123001999.756       -4100.982          41.000    23406502.370    95845666.762       -3195.605          41.000  
R20  21970965.671   117488690.549       -2491.060          37.000    21970963.242    91380181.238       -1937.680          40.000  
R06  19602502.444   104602756.113         915.207          46.000                                                                  
R05  21822934.784   116656126.572       -3581.354          50.000    21822929.435    90732499.389       -2785.467          46.000  
R22  21880184.198   116797849.323        1617.155          45.000    21880180.259    90842841.864        1257.646          45.000  
G16  21245301.763   111644816.347       -2917.356          48.000                                                                  
G08  21503095.709   112999683.505        2073.216          48.000    21503093.989    88051639.134        1615.483          43.000  
S31  38433707.092   201970635.608        -653.161          44.000  
E30  24267962.129   127529114.274       -2020.374          46.000    24267963.113    97717007.377       -1548.049          52.000  
R11  22067968.896   117924540.363       -3884.783          44.000    22067965.896    91719183.926       -3021.606          42.000  
R21  19993366.954   106988861.178        -167.867          51.000    19993361.236    83213396.838        -130.495          49.000  
R12  22072815.051   117909026.697        -656.478          48.000    22072813.778    91706998.743        -510.706          45.000  
E15  25127005.201   132043361.199         549.391          45.000    25127007.039   101176128.313         420.931          50.000  
G23  22268051.792   117019551.889       -3755.384          42.000    22268050.094    91184097.660       -2926.390          44.000  
E34  23610786.054   124075737.975       -1014.936          48.000    23610786.033    95071172.424        -777.646          51.000  
G27  19989758.048   105046864.370         297.588          48.000    19989755.696    81854793.917         231.740          45.000  
E09  26905651.231   141390143.203       -1198.529          42.000    26905649.657   108337907.798        -918.447          45.000  
G10  19917877.028   104669284.485       -1932.933          50.000    19917873.743    81560449.531       -1506.385          49.000  
E03  26901111.315   141366301.742        2136.802          42.000    26901111.820   108319649.635        1637.258          47.000  
G21  23514119.786   123567534.875        1977.136          43.000                                                                  
E27  25988450.084   136570089.930         551.264          40.000    25988451.153   104644724.451         422.117          46.000  
E18  24965711.910   131195715.273       -1291.834          41.000                                                                  
G32  22613167.704   118833010.256        2030.804          48.000    22613164.441    92597157.010        1582.328          44.000  
G18                                                                  24849442.765                       -2459.705          27.000  
> 2024 04 15 08 47 00.4990000  0 28                     
S33  39391655.281   207004730.823        -653.129          41.000  
E02  26179275.524   137573023.985       -3649.663          42.000    26179276.270   105413124.509       -2796.544          49.000  
E05  23992022.691   126078947.607        1059.288          46.000    23992022.669    96605961.769         811.560          50.000  
E36  26136928.170   137350431.402       -2280.322          40.000    26136929.873   105243061.030       -1747.188          47.000  
G26  23429914.903   123125043.418       -4101.611          40.000    23429916.018    95941545.004       -3196.118          39.000  
R20  21984954.413   117563497.197       -2495.989          37.000    21984952.574    91438364.182       -1941.568          40.000  
R06  19597430.196   104575685.490         889.653          46.000                                                                  
R05  21843088.320   116763858.925       -3600.744          51.000    21843083.197    90816291.212       -2800.677          45.000  
R22  21871096.238   116749338.649        1616.918          45.000    21871092.219    90805111.340        1257.509          46.000  
G16  21261998.071   111732556.160       -2931.931          48.000                                                                  
G08  21491280.606   112937594.233        2065.823          48.000    21491279.027    88003257.891        1609.707          44.000  
S31  38437436.591   201990236.740        -653.514          44.000  
E30  24279531.307   127589910.129       -2032.889          46.000    24279532.468    97763591.198       -1557.564          52.000  
R11  22089807.451   118041239.420       -3895.044          43.000    22089804.775    91809949.849       -3029.553          42.000  
R21  19994323.546   106993977.880        -173.219          52.000    19994317.352    83217376.526        -134.749          49.000  
R12  22076571.899   117929092.759        -681.102          48.000    22076569.228    91722605.603        -529.830          43.000  
E15  25123875.462   132026914.239         547.028          45.000    25123877.491   101163526.113         419.273          50.000  
G23  22289512.244   117132322.188       -3762.484          44.000    22289506.713    91271970.605       -2931.808          42.000  
E34  23616585.366   124106214.317       -1016.933          48.000    23616585.356    95094524.427        -779.175          51.000  
G27  19988099.769   105038148.100         283.531          48.000    19988097.581    81848002.014         220.939          46.000  
E09  26912533.832   141426306.651       -1212.414          41.000    26912531.404   108365617.452        -929.031          46.000  
G10  19928962.492   104727540.210       -1950.803          51.000    19928959.285    81605843.594       -1520.132          48.000  
E03  26888909.213   141302180.087        2137.844          42.000    26888909.734   108270517.548        1638.256          47.000  
G21  23502833.922   123508228.286        1976.868          43.000                                                                  
E27  25985341.935   136553754.216         537.970          40.000    25985342.873   104632207.453         412.158          47.000  
E18  24973095.012   131234514.983       -1295.000          41.000                                                                  
G32  22601599.024   118772225.226        2021.543          46.000    22601596.840    92549792.105        1575.172          44.000  
G18                                                                  24867445.497                3      -2459.400          24.000  
> 2024 04 15 08 47 30.4990000  0 28                     
S33  39395382.816   207024319.415        -652.714          42.000  
E02  26200114.336   137682529.863       -3650.836          43.000    26200114.662   105497031.640       -2797.393          49.000  
E05  23986000.461   126047307.308        1050.118          45.000    23986002.002    96581717.939         804.560          50.000  
E36  26149945.338   137418828.006       -2279.457          41.000    26149945.604   105295468.816       -1746.703          47.000  
G26  23453331.071   123248097.421       -4102.063          39.000    23453331.684    96037431.301       -3196.326          38.000  
R20  21998968.551   117638445.254       -2500.652          36.000    21998968.159    91496657.112       -1945.291          39.000  
R06  19592499.270   104549375.869         864.166          46.000                                                                  
R05  21863349.330   116872164.828       -3619.693          51.000    21863344.494    90900529.120       -2815.365          46.000  
R22  21862007.958   116700827.859        1616.969          45.000    21862004.163    90767380.720        1257.861          45.000  
G16  21278777.010   111820730.097       -2946.210          47.000                                                                  
G08  21479506.109   112875717.222        2059.021          48.000    21479504.322    87955042.032        1604.435          45.000  
S31  38441166.452   202009837.259        -653.115          44.000  
E30  24291170.260   127651069.435       -2044.727          47.000    24291170.573    97810453.499       -1566.708          52.000  
R11  22111701.299   118158234.999       -3904.559          41.000    22111697.806    91900946.399       -3037.017          41.000  
R21  19995308.973   106999250.711        -178.321          53.000    19995303.155    83221477.651        -138.597          49.000  
R12  22080465.815   117949889.075        -705.304          48.000    22080461.645    91738780.493        -548.677          43.000  
E15  25120756.415   132010524.950         545.260          44.000    25120758.628   101150968.103         417.949          50.000  
G23  22311011.791   117245298.801       -3769.286          45.000    22311006.712    91360004.268       -2937.115          42.000  
E34  23622394.323   124136741.628       -1018.475          48.000    23622394.668    95117915.491        -780.303          51.000  
G27  19986520.690   105029845.914         269.680          48.000    19986517.830    81841532.775         210.240          46.000  
E09  26919490.692   141462871.366       -1225.436          40.000    26919489.668   108393634.586        -938.939          45.000  
G10  19940149.194   104786323.550       -1968.289          51.000    19940145.793    81651648.809       -1533.712          49.000  
E03  26876698.609   141238014.013        2139.801          42.000    26876699.288   108221351.429        1639.539          47.000  
G21  23491548.982   123448927.461        1976.886          43.000                                                                  
E27  25982305.710   136537801.886         525.611          40.000    25982307.134   104619984.248         402.609          47.000  
E18  24980496.225   131273409.866       -1298.388          41.000                                                                  
G32  22590082.720   118711710.579        2012.670          45.000    22590080.961    92502637.901        1568.277          43.000  
G18                                                                  24885463.508                3      -2457.312          19.000  
> 2024 04 15 08 48 00.4990000  0 28                     
S33  39399109.860   207043906.193        -652.909          41.000  
E02  26220960.695   137792077.874       -3652.140          43.000    26220961.210   105580971.037       -2798.235          49.000  
E05  23980034.309   126015949.130        1040.798          46.000    23980034.883    96557690.288         797.501          51.000  
E36  26162955.365   137487209.343       -2278.672          40.000    26162957.819   105347864.921       -1746.224          47.000  
G26  23476749.449   123371158.477       -4101.978          40.000    23476748.445    96133323.089       -3195.978          37.000  
R20  22013011.487   117713535.447       -2505.297          36.000    22013010.141    91555060.620       -1948.315          40.000  
R06  19587711.695   104523828.867         839.189          45.000                                                                  
R05  21883716.683   116981040.293       -3638.315          52.000    21883711.226    90985210.045       -2829.705          44.000  
R22  21852919.836   116652316.772        1617.152          45.000    21852915.399    90729649.899        1257.889          44.000  
G16  21295638.078   111909334.941       -2960.475          47.000                                                                  
G08  21467771.990   112814054.486        2051.914          48.000    21467770.215    87906993.148        1598.986          45.000  
G18  24903483.419                3      -3153.041          26.000    24903477.036                3      -2456.541          24.000  
S31  38444896.490   202029436.326        -652.929          44.000  
E30  24302877.362   127712590.468       -2056.438          47.000    24302877.127    97857592.978       -1575.679          51.000  
R11  22133649.603   118275522.360       -3914.250          42.000    22133646.195    91992169.852       -3044.126          39.000  
R21  19996323.351   107004680.251        -183.358          53.000    19996318.107    83225700.640        -142.617          49.000  
R12  22084495.169   117971414.576        -729.371          48.000    22084491.588    91755522.541        -567.197          44.000  
E15  25117648.320   131994192.404         543.821          44.000    25117650.957   101138453.564         416.600          51.000  
G23  22332549.684   117358478.637       -3775.649          44.000    22332544.290    91448196.368       -2942.327          43.000  
E34  23628213.027   124167319.187       -1019.927          47.000    23628213.588    95141345.063        -781.373          52.000  
G27  19985020.012   105021959.279         256.105          49.000    19985016.954    81835387.366         199.607          46.000  
E09  26926525.146   141499836.773       -1238.325          38.000    26926524.241   108421958.732        -948.895          46.000  
G10  19951435.115   104845631.901       -1985.445          51.000    19951432.196    81697863.130       -1547.184          49.000  
E03  26864479.603   141173805.054        2141.085          41.000    26864480.662   108172152.440        1640.819          47.000  
G21  23480264.529   123389632.211        1976.550          42.000                                                                  
E27  25979343.858   136522233.474         512.797          41.000    25979344.513   104608055.207         392.934          47.000  
E18  24987915.542   131312398.431       -1300.988          41.000                                                                  
G32  22578619.403   118651469.165        2003.499          45.000    22578616.983    92455696.578        1561.331          42.000  
> 2024 04 15 08 48 30.4990000  0 28                     
S33  39402835.895   207063487.651        -652.603          41.000  
E02  26241813.938   137901661.483       -3653.404          43.000    26241814.628   105664937.709       -2799.371          49.000  
E05  23974119.551   125984870.289        1031.196          45.000    23974120.434    96533876.639         790.134          50.000  
E36  26175964.643   137555570.986       -2278.599          41.000    26175966.545   105400245.919       -1745.848          46.000  
G26  23500167.588   123494219.176       -4101.941          40.000    23500166.073    96229214.616       -3196.472          36.000  
R20  22027079.962   117788764.400       -2509.725          38.000    22027079.021    91613572.040       -1952.258          39.000  
R06  19583066.204   104499042.115         813.323          45.000                                                                  
R05  21904189.489   117090476.730       -3657.279          52.000    21904184.472    91070327.269       -2844.545          46.000  
R22  21843830.944   116603800.978        1617.206          46.000    21843826.528    90691915.425        1257.770          45.000  
G16  21312580.104   111998362.853       -2974.830          48.000                                                                  
G08  21456077.963   112752603.848        2044.728          48.000    21456076.384    87859109.558        1593.345          45.000  
S31  38448624.889   202049029.955        -653.392          44.000  
E30  24314651.197   127774467.394       -2068.524          47.000    24314651.817    97905005.154       -1584.949          51.000  
R11  22155653.997   118393091.798       -3923.861          45.000    22155650.475    92083612.730       -3051.956          42.000  
R21  19997366.619   107010262.705        -188.698          53.000    19997361.116    83230042.574        -146.866          50.000  
R12  22088660.999   117993663.710        -753.755          47.000    22088658.302    91772827.389        -586.501          46.000  
E15  25114550.959   131977911.569         541.845          45.000    25114552.903   101125978.644         415.110          51.000  
G23  22354123.427   117471854.552       -3782.446          44.000    22354117.571    91536541.222       -2947.463          42.000  
E34  23634039.267   124197942.157       -1021.645          47.000    23634040.958    95164809.424        -782.791          52.000  
G27  19983597.810   105014485.575         242.222          49.000    19983594.795    81829563.714         188.707          46.000  
E09  26933633.579   141537198.066       -1252.192          37.000    26933633.657   108450586.228        -959.424          46.000  
G10  19962819.340   104905458.574       -2002.834          50.000    19962816.227    81744481.314       -1560.689          49.000  
E03  26852251.388   141109550.468        2142.749          41.000    26852253.919   108122918.518        1641.649          48.000  
G21  23468980.853   123330338.149        1976.166          42.000                                                                  
E27  25976453.515   136507045.333         499.760          40.000    25976454.170   104596417.532         382.915          47.000  
E18  24995352.047   131351475.168       -1304.123          41.000                                                                  
G32  22567208.329   118591499.706        1994.249          47.000    22567205.327    92408967.150        1554.286          42.000  
G18                                                                  24921477.222                3      -2469.430          15.000  
> 2024 04 15 08 49 00.4990000  0 28                     
S33  39406562.180   207083068.193        -652.963          42.000  
E02  26262674.331   138011282.601       -3654.781          44.000    26262674.840   105748933.117       -2800.421          49.000  
E05  23968258.974   125954076.253        1021.696          45.000    23968260.765    96510281.230         782.710          51.000  
E36  26188971.506   137623916.971       -2278.247          41.000    26188972.333   105452614.930       -1745.475          46.000  
G26  23523585.761   123617280.518       -4102.375          40.000    23523583.277    96325106.602       -3196.472          36.000  
R20  22041175.599   117864137.263       -2514.941          35.000    22041173.447    91672195.364       -1956.017          38.000  
R06  19578564.520   104475021.930         787.541          45.000                                                                  
R05  21924765.972   117200474.259       -3676.097          51.000    21924761.902    91155880.953       -2859.136          46.000  
R22  21834742.504   116555284.690        1617.080          47.000    21834739.092    90654180.551        1257.777          46.000  
G16  21329602.543   112087815.064       -2988.823          48.000                                                                  
G08  21444425.700   112691371.638        2037.283          47.000    21444424.262    87811396.181        1587.454          45.000  
S31  38452353.198   202068621.874        -653.209          44.000  
E30  24326494.479   127836702.757       -2080.552          48.000    24326494.805    97952691.989       -1594.166          50.000  
R11  22177708.829   118510942.889       -3933.016          45.000    22177705.443    92175274.600       -3059.094          42.000  
R21  19998439.827   107016003.124        -194.159          52.000    19998433.836    83234507.337        -151.014          49.000  
R12  22092961.241   118016639.360        -778.235          47.000    22092959.336    91790697.315        -605.206          46.000  
E15  25111463.538   131961685.726         539.954          46.000    25111465.050   101113545.897         413.624          51.000  
G23  22375735.397   117585427.710       -3789.381          43.000    22375731.695    91625039.717       -2952.582          42.000  
E34  23639875.289   124228614.079       -1023.335          47.000    23639877.356    95188311.285        -784.124          51.000  
G27  19982255.583   105007430.541         227.951          49.000    19982252.273    81824066.284         177.671          46.000  
E09  26940819.775   141574958.761       -1265.191          36.000    26940819.304   108479519.738        -969.681          46.000  
G10  19974302.981   104965805.211       -2020.271          50.000    19974299.702    81791504.651       -1574.200          49.000  
E03  26840016.665   141045256.064        2143.507          41.000    26840019.088   108073654.030        1642.613          48.000  
G21  23457698.875   123271049.278        1976.080          42.000                                                                  
E27  25973635.878   136492242.122         486.933          40.000    25973637.218   104585074.818         373.073          47.000  
E18  25002805.040   131390642.837       -1307.209          41.000                                                                  
G32  22555849.083   118531809.276        1984.854          46.000    22555846.614    92362455.147        1546.619          43.000  
G18                                                                  24939466.739                3      -2458.818          23.000  
> 2024 04 15 08 49 30.4990000  0 28                     
S33  39410287.441   207102644.291        -652.710          42.000  
E02  26283541.730   138120937.730       -3655.993          44.000    26283541.423   105832954.585       -2801.305          49.000  
E05  23962453.539   125923567.213        1012.036          45.000    23962455.015    96486904.208         775.430          51.000  
E36  26201975.081   137692245.859       -2277.691          42.000    26201974.929   105504970.821       -1745.139          46.000  
G26  23547002.984   123740338.062       -4101.770          40.000    23547000.373    96420995.678       -3196.576          37.000  
R20  22055296.805   117939652.347       -2519.769          37.000    22055295.383    91730929.312       -1960.069          38.000  
R06  19574207.529   104451768.867         762.177          45.000                                                                  
R05  21945447.300   117311027.716       -3694.590          51.000    21945442.743    91241866.958       -2873.357          45.000  
R22  21825653.029   116506766.485        1617.105          47.000    21825650.508    90616444.215        1257.686          46.000  
G16  21346704.542   112177687.717       -3002.970          47.000                                                                  
G08  21432815.375   112630358.620        2029.772          47.000    21432813.546    87763853.587        1581.700          45.000  
S31  38456080.576   202088210.462        -653.071          44.000  
E30  24338404.562   127899293.626       -2092.487          47.000    24338405.638    98000651.225       -1603.314          51.000  
R11  22199813.551   118629069.326       -3942.146          45.000    22199811.708    92267150.732       -3066.239          43.000  
R21  19999542.398   107021900.978        -199.456          53.000    19999535.206    83239094.535        -155.043          48.000  
R12  22097397.176   118040339.035        -802.190          46.000    22097395.472    91809130.350        -624.001          46.000  
E15  25108385.256   131945512.823         538.059          46.000    25108387.380   101101153.702         412.206          50.000  
G23  22397384.608   117699193.826       -3795.404          44.000    22397381.731    91713688.696       -2957.712          45.000  
E34  23645721.396   124259333.070       -1024.922          47.000    23645722.781    95211849.201        -785.378          51.000  
G27  19980992.746   105000794.483         214.004          49.000    19980989.078    81818895.348         166.788          45.000  
E09  26948079.336   141613117.036       -1279.155          33.000    26948080.808   108508757.849        -979.847          47.000  
G10  19985885.362   105026667.991       -2037.323          51.000    19985881.391    81838930.188       -1587.712          48.000  
E03  26827774.904   140980922.065        2144.856          41.000    26827776.775   108024359.220        1643.496          48.000  
G21  23446416.731   123211763.865        1976.093          43.000                                                                  
E27  25970892.200   136477823.090         474.083          40.000    25970893.772   104574026.491         363.275          47.000  
E18  25010274.626   131429898.898       -1310.208          40.000                                                                  
G32  22544541.840   118472399.536        1975.312          45.000    22544541.279    92316161.938        1539.154          43.000  
G18                                                                  24957473.324                3      -2451.538          23.000  
> 2024 04 15 08 50 00.4990000  0 28                     
S33  39414011.333   207122214.365        -652.343          42.000  
E02  26304414.212   138230623.084       -3656.847          44.000    26304413.574   105916999.231       -2801.814          48.000  
E05  23956702.576   125893343.038        1002.597          45.000    23956702.915    96463745.447         768.151          50.000  
E36  26214973.890   137760555.933       -2276.656          42.000    26214973.852   105557312.338       -1744.570          46.000  
G26  23570419.000   123863387.147       -4101.654          40.000    23570415.899    96516878.122       -3195.886          38.000  
R20  22069445.514   118015308.182       -2524.320          36.000    22069442.986    91789772.744       -1963.198          36.000  
R06  19569993.252   104429283.145         736.724          45.000                                                                  
R05  21966231.810   117422131.499       -3712.801          52.000    21966226.300    91328281.055       -2887.964          43.000  
R22  21816564.468   116458244.765        1617.256          48.000    21816561.382    90578705.154        1257.815          47.000  
G16  21363885.405   112267975.814       -3016.704          46.000                                                                  
G08  21421247.022   112569565.386        2022.698          47.000    21421244.807    87716482.235        1576.227          45.000  
S31  38459807.283   202107793.397        -652.747          44.000  
E30  24350382.042   127962236.834       -2103.989          47.000    24350383.289    98048880.438       -1612.180          51.000  
R11  22221969.298   118747464.656       -3951.090          44.000    22221967.707    92359235.946       -3073.034          43.000  
R21  20000673.656   107027955.330        -204.555          52.000    20000666.764    83243803.490        -159.107          49.000  
R12  22101968.892   118064759.694        -826.118          47.000    22101966.263    91828124.160        -642.527          46.000  
E15  25105316.985   131929390.503         536.450          45.000    25105319.129   101088800.259         410.972          50.000  
G23  22419070.383   117813148.572       -3801.826          45.000    22419064.990    91802484.597       -2962.209          44.000  
E34  23651575.423   124290096.954       -1026.264          47.000    23651576.874    95235421.545        -786.436          51.000  
G27  19979809.797   104994577.367         200.206          49.000    19979806.030    81814050.830         156.192          46.000  
E09  26955416.489   141651670.616       -1291.167          34.000    26955416.844   108538298.915        -989.764          46.000  
G10  19997564.614   105088042.845       -2054.471          50.000    19997561.028    81886754.754       -1600.874          49.000  
E03  26815525.985   140916548.523        2146.173          41.000    26815526.524   107975034.102        1644.581          48.000  
G21  23435136.332   123152480.445        1976.019          44.000                                                                  
E27  25968221.747   136463787.321         461.400          41.000    25968223.220   104563271.842         353.382          47.000  
E18  25017761.351   131469240.473       -1313.004          41.000                                                                  
G32  22533291.318   118413271.971        1966.079          46.000    22533288.852    92270088.521        1531.965          43.000  
G18                                                                  24975433.159                3      -2459.019          16.000  
> 2024 04 15 08 50 30.4990000  0 27                     
S33  39417737.189   207141792.840        -652.784          42.000  
E02  26325293.208   138340348.870       -3658.245          43.000    26325293.783   106001074.854       -2803.032          47.000  
E05  23951007.967   125863417.484         992.463          45.000    23951008.243    96440815.490         760.478          50.000  
E36  26227971.795   137828859.563       -2276.593          43.000    26227971.620   105609648.894       -1744.435          46.000  
G26  23593834.673   123986436.971       -4101.550          40.000    23593832.523    96612761.165       -3196.240          38.000  
R20  22083621.013   118091118.081       -2529.961          35.000    22083620.476    91848735.991       -1967.851          37.000  
R06  19565926.239   104407578.823         710.390          45.000                                                                  
R05  21987120.983   117533794.167       -3731.396          52.000    21987115.419    91415129.750       -2902.120          45.000  
R22  21807476.104   116409732.114        1616.894          47.000    21807473.232    90540973.123        1257.740          47.000  
G16  21381147.817   112358688.787       -3030.876          48.000                                                                  
G08  21409723.018   112509006.500        2014.661          47.000    21409720.593    87669293.492        1570.002          45.000  
S31  38463535.312   202127383.912        -653.010          44.000  
E30  24362429.180   128025543.161       -2116.312          47.000    24362430.162    98097387.871       -1621.599          51.000  
R11  22244176.306   118866136.403       -3960.373          44.000    22244175.152    92451536.144       -3080.221          42.000  
R21  20001836.195   107034179.828        -210.409          51.000    20001829.657    83248644.769        -163.669          47.000  
R12  22106678.036   118089912.519        -850.668          47.000    22106675.424    91847687.455        -661.615          47.000  
E15  25102260.858   131913330.390         534.343          46.000    25102262.765   101076494.458         409.363          50.000  
G23  22440793.596   117927301.339       -3808.385          47.000    22440788.405    91891434.772       -2967.678          44.000  
E34  23657440.980   124320917.614       -1028.380          47.000    23657441.828    95259037.363        -787.913          51.000  
G27  19978708.868   104988793.140         185.581          49.000    19978705.592    81809543.665         144.615          46.000  
E09  26962824.362                       -1305.313          31.000    26962830.909   108568151.934       -1000.210          46.000  
G10  20009343.241   105149939.633       -2071.913          50.000    20009339.797    81934986.022       -1614.491          49.000  
E03  26803270.476   140852149.387        2147.000          40.000    26803271.425   107925689.400        1645.135          48.000  
G21  23423858.936   123093210.775        1975.616          45.000                                                                  
E27  25965625.738   136450147.752         448.168          42.000    25965627.093   104552820.735         343.363          46.000  
E18  25025265.256   131508678.668       -1316.162          41.000                                                                  
G32  22522097.864   118354441.887        1956.072          47.000    22522093.832    92224246.931        1524.155          42.000  
> 2024 04 15 08 51 00.4990000  0 27                     
S33  39421462.194   207161368.342        -652.580          41.000  
E02  26346178.095   138450104.773       -3658.826          43.000    26346179.496   106085173.576       -2803.613          47.000  
E05  23945369.097   125833783.917         983.049          45.000    23945369.461    96418109.268         753.225          50.000  
E36  26240966.148   137897148.548       -2275.959          43.000    26240966.222   105661974.237       -1743.905          45.000  
G26  23617246.219   124109476.411       -4100.738          37.000    23617246.719    96708636.146       -3195.636          39.000  
R20  22097828.177   118167074.455       -2534.255          35.000    22097824.551    91907813.256       -1970.842          37.000  
R06  19562004.385   104386650.104         684.679          45.000                                                                  
R05  22008111.758   117646003.039       -3749.340          52.000    22008106.669    91502403.313       -2916.106          46.000  
R22  21798386.016   116361220.393        1617.084          46.000    21798384.909    90503241.825        1257.891          46.000  
G16  21398487.818   112449815.257       -3044.234          47.000                                                                  
G08  21398242.703   112448676.083        2007.329          47.000    21398240.314    87622282.807        1564.224          45.000  
S31  38467262.221   202146972.102        -652.666          43.000  
E30  24374544.277   128089202.892       -2127.655          47.000    24374544.641    98146166.088       -1630.380          52.000  
R11  22266434.463   118985071.604       -3968.659          43.000    22266430.242    92544041.255       -3086.694          40.000  
R21  20003029.335   107040566.940        -215.524          52.000    20003023.563    83253612.520        -167.629          48.000  
R12  22111522.534   118115787.915        -874.355          48.000    22111518.928    91867812.742        -680.076          46.000  
E15  25099214.783   131897323.593         532.814          46.000    25099216.605   101064229.520         408.229          50.000  
G23  22462551.574   118041641.230       -3814.352          47.000    22462545.803    91980530.781       -2972.272          44.000  
E34  23663315.841   124351786.386       -1029.556          48.000    23663315.924    95282690.066        -788.947          51.000  
G27  19977688.385   104983435.371         171.473          47.000    19977686.101    81805368.787         133.621          46.000  
E09  26970316.471   141729990.727       -1318.629          30.000    26970320.755   108598310.303       -1010.392          45.000  
G10  20021219.051   105212347.749       -2088.676          50.000    20021215.690    81983615.742       -1627.530          49.000  
E03  26791008.356   140787718.241        2148.526          39.000    26791010.582   107876320.183        1646.041          48.000  
G21  23412581.636   123033947.272        1975.409          46.000                                                                  
E27  25963103.793   136436896.890         435.351          42.000    25963105.468   104542667.464         333.450          46.000  
E18  25032785.847   131548204.126       -1318.750          39.000                                                                  
G32  22510958.609   118295904.141        1946.343          48.000    22510953.960    92178633.117        1516.873          43.000  
> 2024 04 15 08 51 30.4990000  0 27                     
S33  39425187.850   207180946.664        -652.881          41.000  
E02  26367070.790   138559893.318       -3660.132          44.000    26367071.560   106169297.283       -2804.443          47.000  
E05  23939786.579   125804448.447         972.824          46.000    23939787.338    96395631.463         745.361          51.000  
E36  26253959.126   137965427.488       -2275.902          43.000    26253959.149   105714291.902       -1743.829          45.000  
G26  23640656.967                       -4099.665          34.000    23640659.104    96804504.273       -3195.483          38.000  
R20  22112060.416   118243183.377       -2539.928          35.000    22112057.691    91967009.023       -1975.217          38.000  
R06  19558228.816   104366503.086         658.499          45.000                                                                  
R05  22029204.842   117758759.158       -3767.699          52.000    22029200.007    91590102.516       -2930.435          46.000  
R22  21789299.262   116312714.371        1616.561          46.000    21789297.812    90465514.972        1257.422          45.000  
G16  21415908.058   112541357.303       -3058.541          46.000                                                                  
G08  21386807.148   112388581.000        1999.255          46.000    21386804.831    87575455.495        1557.864          46.000  
S31  38470990.503   202166563.618        -653.308          43.000  
E30  24386726.043   128153219.021       -2139.911          47.000    24386726.639    98195217.405       -1639.655          52.000  
R11  22288741.232   119104270.392       -3977.564          44.000    22288735.168    92636751.380       -3093.599          39.000  
R21  20004255.687   107047122.659        -221.387          52.000    20004249.207    83258711.408        -172.143          49.000  
R12  22116501.713   118142389.255        -898.747          46.000    22116498.799    91888502.671        -699.181          47.000  
E15  25096179.599   131881374.074         530.673          46.000    25096181.902   101052008.460         406.601          50.000  
G23  22484345.040   118156169.945       -3820.768          46.000    22484338.512    92069773.936       -2977.405          43.000  
E34  23669200.880   124382707.452       -1031.637          49.000    23669199.983    95306382.830        -790.479          51.000  
G27  19976751.392   104978510.277         156.923          48.000    19976748.192    81801531.078         122.236          46.000  
E09  26977887.981   141769752.515       -1331.794          32.000    26977887.430   108628777.111       -1020.730          45.000  
G10  20033191.833   105275269.356       -2105.946          50.000    20033189.172    82032645.582       -1640.930          49.000  
E03  26778742.387   140723261.434        2148.956          40.000    26778745.048   107826931.295        1646.545          48.000  
G21  23401306.437   122974694.159        1974.689          45.000                                                                  
E27  25960657.742   136424039.907         421.898          43.000    25960658.527   104532816.018         323.266          45.000  
E18  25040324.504   131587820.278       -1322.090          39.000                                                                  
G32  22499876.194   118237666.411        1936.152          47.000    22499871.790    92133253.144        1508.526          43.000  
> 2024 04 15 08 52 00.4990000  0 27                     
S33  39428914.547   207200531.305        -652.682          42.000  
E02  26387969.107   138669715.099       -3661.305          44.000    26387970.094   106253446.471       -2805.251          47.000  
E05  23934261.991   125775415.259         962.929          46.000    23934262.204    96373385.297         737.854          50.000  
E36  26266951.502   138033699.159       -2275.549          43.000    26266951.100   105766603.963       -1743.570          45.000  
G26  23664066.003   124355505.7241      -4100.824          34.000    23664070.067    96900365.334       -3195.197          38.000  
R20  22126321.570   118319446.857       -2544.381          36.000    22126319.528    92026325.087       -1979.224          38.000  
R06  19554600.263   104347142.302         632.342          45.000                                                                  
R05  22050400.575   117872060.950       -3785.681          51.000    22050395.444    91678226.096       -2944.409          46.000  
R22  21780214.738   116264216.970        1616.675          47.000    21780212.334    90427794.808        1257.439          45.000  
G16  21433406.777   112633314.387       -3071.995          47.000                                                                  
G08  21375416.903   112328726.140        1991.328          47.000    21375414.393    87528815.372        1551.752          45.000  
S31  38474719.866   202186160.549        -652.954          44.000  
E30  24398975.370   128217592.729       -2151.595          46.000    24398976.672    98244542.690       -1648.616          52.000  
R11  22311096.555   119223730.565       -3986.294          42.000    22311090.556    92729664.727       -3100.234          39.000  
R21  20005512.222   107053850.285        -227.026          52.000    20005505.833    83263944.021        -176.538          47.000  
R12  22121617.119   118169717.910        -922.999          46.000    22121615.922    91909758.282        -717.846          47.000  
E15  25093155.471   131865483.844         528.695          45.000    25093158.177   101039832.848         405.186          50.000  
G23  22506175.229   118270887.464       -3827.030          46.000    22506169.707    92159164.174       -2981.899          44.000  
E34  23675095.177   124413683.039       -1033.282          49.000    23675094.708    95330117.388        -791.760          51.000  
G27  19975897.844   104974022.252         142.469          49.000    19975894.805    81798033.921         111.048          46.000  
E09  26985529.750                       -1345.841          27.000    26985529.768   108659554.057       -1030.877          42.000  
G10  20045263.055   105338704.661       -2122.944          50.000    20045260.186    82082075.714       -1654.261          48.000  
E03  26766473.235   140658783.363        2149.797          41.000    26766474.992   107777526.112        1647.175          48.000  
G21  23390032.961   122915454.165        1974.603          44.000                                                                  
E27  25958287.260   136411580.172         408.887          43.000    25958287.442   104523268.952         313.324          45.000  
E18  25047881.288   131627528.673       -1324.965          40.000                                                                  
G32  22488851.713   118179734.518        1925.936          47.000    22488849.757    92088111.431        1500.747          45.000  
> 2024 04 15 08 52 30.4990000  0 28                     
S33  39432640.785   207220110.660        -652.193          42.000  
E02  26408871.194   138779557.344       -3661.804          43.000    26408872.308   106337611.344       -2805.617          47.000  
E05  23928793.675   125746675.208         953.132          47.000    23928793.156    96351363.739         730.347          50.000  
E36  26279939.387   138101952.874       -2274.544          42.000    26279939.045   105818902.258       -1742.900          45.000  
G26  23687471.919   124478504.620       -4099.943          35.000    23687476.043    96996208.711       -3194.684          36.000  
R20  22140608.886   118395855.380       -2549.693          36.000    22140608.195    92085753.899       -1982.972          37.000  
R06  19551117.174   104328558.666         606.441          45.000                                                                  
R05  22071695.944   117985893.950       -3803.158          51.000    22071690.854    91766762.825       -2957.987          48.000  
R22  21771130.387   116215717.380        1616.783          46.000    21771126.167    90390073.016        1257.403          44.000  
G16  21450981.938   112725673.051       -3085.249          46.000                                                                  
G08  21364071.106   112269103.202        1983.570          47.000    21364068.754    87482355.969        1545.570          46.000  
S31  38478447.760   202205751.437        -652.843          43.000  
E30  24411291.656   128282311.818       -2162.879          46.000    24411292.313    98294132.616       -1657.282          52.000  
R11  22333497.792   119343436.152       -3994.219          42.000    22333493.090    92822769.000       -3106.799          41.000  
R21  20006799.418   107060739.984        -232.220          52.000    20006792.810    83269302.651        -180.683          48.000  
R12  22126866.741   118197761.694        -946.642          46.000    22126865.686    91931570.104        -736.217          46.000  
E15  25090140.796   131849641.534         527.455          44.000    25090143.444   101027693.975         404.051          50.000  
G23  22528039.339   118385780.311       -3832.583          47.000    22528033.954    92248691.102       -2986.503          45.000  
E34  23680997.190   124444702.092       -1034.666          49.000    23680997.516    95353885.230        -792.689          51.000  
G27  19975125.014   104969962.218         128.408          48.000    19975122.176    81794870.284         100.001          46.000  
E09  26993244.927                       -1358.496          27.000    26993248.607   108690632.536       -1040.980          41.000  
G10  20057430.013   105402640.568       -2139.425          50.000    20057426.675    82131895.896       -1667.173          48.000  
E03  26754196.446   140594275.105        2150.703          39.000    26754199.340   107728097.783        1647.983          48.000  
G21  23378759.575   122856216.467        1974.671          43.000                                                                  
E27  25955989.422   136399507.614         396.009          42.000    25955990.319   104514018.539         303.487          45.000  
E18  25055453.319   131667317.457       -1327.585          40.000                                                                  
G32  22477883.788   118122100.766        1916.148          47.000    22477883.223    92043202.073        1493.038          46.000  
G18                                                                  25065257.221                3      -2448.594          26.000  
> 2024 04 15 08 53 00.4990000  0 27                     
S33  39436364.630   207239681.641        -652.142          42.000  
E02  26429776.467   138889417.552       -3662.294          42.000    26429777.975   106421789.967       -2806.200          47.000  
E05  23923380.894   125718229.353         943.254          47.000    23923380.205    96329567.580         722.834          51.000  
E36  26292923.699   138170188.230       -2274.114          42.000    26292923.992   105871186.505       -1742.609          45.000  
G26  23710872.712   124601477.341       -4098.147          35.000    23710876.278    97092031.671       -3193.060          35.000  
R20  22154924.190   118472408.796       -2554.669          36.000    22154923.820    92145295.421       -1986.656          37.000  
R06  19547781.406   104310753.504         580.524          45.000                                                                  
R05  22093090.061   118100253.247       -3820.625          50.000    22093083.962    91855708.934       -2971.607          48.000  
R22  21762044.647   116167215.497        1616.819          47.000    21762039.977    90352349.418        1257.557          45.000  
G16  21468632.730   112818428.983       -3098.615          46.000                                                                  
G08  21352769.754   112209714.009        1975.703          47.000    21352767.481    87436078.692        1539.524          46.000  
S31  38482174.867   202225337.091        -652.705          44.000  
E30  24423672.073   128347374.249       -2174.424          46.000    24423673.224    98343985.627       -1665.973          52.000  
R11  22355944.962   119463382.159       -4002.187          45.000    22355938.085    92916060.337       -3112.826          41.000  
R21  20008115.857   107067792.321        -237.777          52.000    20008111.059    83274787.878        -184.864          47.000  
R12  22132249.691   118226518.608        -970.261          47.000    22132248.727    91953936.573        -754.750          46.000  
E15  25087134.936   131833846.130         525.792          44.000    25087137.755   101015591.047         402.830          50.000  
G23  22549935.139   118500845.373       -3838.279          47.000    22549930.583    92338352.191       -2990.883          46.000  
E34  23686907.410   124475763.701       -1035.876          48.000    23686907.995    95377685.702        -793.849          51.000  
G27  19974434.518   104966331.442         113.870          50.000    19974431.291    81792041.108          88.710          46.000  
E09  27001043.581   141891431.689       -1371.623          32.000    27001040.552   108722011.786       -1050.971          38.000  
G10  20069691.343   105467074.177       -2155.928          50.000    20069688.280    82182103.899       -1679.877          48.000  
E03  26741914.702   140529737.909        2151.715          39.000    26741918.075   107678647.297        1648.771          48.000  
G21  23367487.393   122796980.514        1974.350          43.000                                                                  
E27  25953766.624   136387822.411         383.027          42.000    25953766.661   104505064.932         293.534          45.000  
E18  25063040.277   131707185.054       -1330.227          41.000                                                                  
G32  22466974.155   118064767.850        1906.103          47.000    22466973.082    91998527.105        1485.231          45.000  
> 2024 04 15 08 53 30.4990000  0 29                     
S33  39440087.627   207259246.215        -651.966          42.000  
E02  26450685.347   138999291.976       -3662.419          42.000    26450686.192   106505979.481       -2806.468          47.000  
E05  23918023.127   125690077.493         933.779          46.000    23918023.119    96307996.697         715.323          51.000  
E36  26305904.856   138238403.627       -2273.397          42.000    26305905.141   105923455.441       -1741.989          46.000  
G26  23734268.804   124724419.359       -4097.181          35.000    23734270.052    97187830.764       -3192.245          33.000  
R20  22169267.487   118549106.391       -2558.699          36.000    22169266.150    92204949.155       -1990.359          37.000  
R06  19544590.261   104293726.870         554.641          45.000                                                                  
R05  22114579.277   118215133.429       -3837.851          46.000    22114575.316    91945060.156       -2984.991          49.000  
R22  21752957.822   116118709.789        1616.959          47.000    21752953.394    90314622.812        1257.765          44.000  
G16  21486357.827   112911578.301       -3111.648          46.000                                                                  
G08  21341512.784   112150559.186        1967.946          47.000    21341510.768    87389984.060        1533.313          46.000  
S31  38485900.238   202244913.833        -652.365          44.000  
E30  24436117.269   128412776.794       -2185.612          47.000    24436118.423    98394099.277       -1674.789          52.000  
R11  22378435.141   119583562.424       -4009.958          44.000    22378428.228    93009533.814       -3118.729          43.000  
R21  20009465.076   107075006.833        -243.097          51.000    20009459.331    83280399.138        -189.087          47.000  
R12  22137766.665   118255985.554        -993.961          47.000    22137765.441    91976855.271        -773.003          48.000  
E15  25084137.522   131818095.262         524.579          44.000    25084140.479   101003522.225         401.809          51.000  
G23  22571862.811   118616078.215       -3843.796          46.000    22571857.957    92428144.002       -2995.106          45.000  
E34  23692826.074   124506865.862       -1037.382          49.000    23692826.569    95401517.230        -794.807          51.000  
G27  19973825.324   104963129.834          99.676          49.000    19973822.172    81789546.370          77.735          46.000  
E09  27008913.790   141932774.461       -1384.776          32.000    27008907.978   108753690.107       -1060.745          38.000  
G10  20082046.616   105532001.330       -2172.253          50.000    20082043.492    82232696.493       -1692.725          48.000  
E03  26729629.973   140465171.927        2152.500          41.000    26729631.402   107629174.741        1649.483          47.000  
G21  23356214.387   122737744.865        1974.658          43.000                                                                  
E27  25951615.341   136376523.513         370.170          40.000    25951615.914   104496407.324         283.568          44.000  
E18  25070642.019   131747128.692       -1332.694          41.000                                                                  
G32  22456122.048   118007737.143        1896.126          46.000    22456120.300    91954087.614        1477.493          44.000  
R07                                                                  21676036.910                3       2400.781          11.000  
G18                                                                  25101143.887                3      -2448.800          27.000  
> 2024 04 15 08 54 00.4990000  0 28                     
S33  39443808.913   207278803.575        -651.742          42.000  
E02  26471596.386   139109179.231       -3663.232          42.000    26471597.634   106590178.845       -2806.929          47.000  
E05  23912722.104   125662221.832         923.478          46.000    23912722.636    96286652.759         707.620          51.000  
E36  26318882.460   138306599.805       -2272.946          40.000    26318883.349   105975709.677       -1741.591          46.000  
G26  23757658.490   124847328.436       -4095.964          35.000    23757658.534    97283604.133       -3192.632          32.000  
R20  22183636.737   118625948.933       -2563.639          37.000    22183636.663    92264715.549       -1994.065          38.000  
R06  19541545.686   104277481.163         528.534          45.000                                                                  
R05  22136167.080   118330531.102       -3855.251          47.000    22136162.656    92034813.871       -2998.640          48.000  
R22  21743869.982   116070201.078        1617.018          46.000    21743867.145    90276893.856        1257.621          46.000  
G16  21504158.912   113005118.756       -3124.402          46.000                                                                  
G08  21330301.014   112091641.803        1959.788          47.000    21330299.112    87344074.393        1527.302          45.000  
S31  38489623.781   202264483.897        -652.146          43.000  
E30  24448627.531   128478518.557       -2197.188          47.000    24448628.290    98444472.833       -1683.513          51.000  
R11  22400967.337   119703972.376       -4017.636          43.000    22400963.027    93103185.922       -3124.754          44.000  
R21  20010844.414   107082384.809        -248.711          52.000    20010838.069    83286137.640        -193.270          49.000  
R12  22143416.516   118286161.491       -1017.700          48.000    22143415.007    92000325.447        -791.439          47.000  
E15  25081149.127   131802389.026         522.749          45.000    25081151.599   100991487.602         400.518          51.000  
G23  22593821.678   118731476.697       -3849.388          47.000    22593816.521    92518064.923       -2999.580          43.000  
E34  23698752.575   124538008.816       -1038.927          48.000    23698752.962    95425380.024        -795.984          52.000  
G27  19973298.700   104960359.790          85.139          50.000    19973295.008    81787387.895          66.283          47.000  
E09  27016854.416   141974507.787       -1397.411          32.000    27016849.562   108785667.576       -1071.119          39.000  
G10  20094494.789   105597420.177       -2188.738          49.000    20094492.475    82283672.226       -1705.487          48.000  
E03  26717338.497   140400579.554        2153.245          41.000    26717340.047   107579681.955        1649.987          47.000  
G21  23344942.340   122678509.961        1974.266          43.000                                                                  
E27  25949538.776   136365612.164         357.206          39.000    25949539.238   104488046.687         273.784          44.000  
E18  25078256.598   131787147.843       -1335.483          41.000                                                                  
G32  22445327.380   117951012.364        1885.708          47.000    22445325.787    91909886.518        1469.347          45.000  
G18                                                                  25119077.105                3      -2451.677          20.000  
> 2024 04 15 08 54 30.4990000  0 27                     
S33  39447530.543   207298358.097        -651.633          42.000  
E02  26492508.945   139219081.910       -3663.574          42.000    26492511.463   106674390.018       -2807.064          47.000  
E05  23907478.109   125634668.438         913.395          45.000    23907479.545    96265540.452         699.954          52.000  
E36  26331854.181   138374781.461       -2272.316          38.000    26331857.205   106027952.762       -1741.153          46.000  
G26  23781041.948   124970206.248       -4095.398          36.000    23781041.638    97379353.102       -3191.677          33.000  
R20  22198034.681   118702942.152       -2569.292          35.000    22198034.891    92324599.193       -1997.847          37.000  
R06  19538648.978   104262022.459         502.247          45.000                                                                  
R05  22157851.282   118446446.875       -3872.557          41.000    22157846.554    92124970.527       -3011.853          48.000  
R22  21734782.431   116021694.422        1617.015          46.000    21734780.021    90239166.532        1257.597          46.000  
G16  21522034.068   113099051.423       -3137.453          46.000                                                                  
G08  21319135.794   112032968.726        1951.722          47.000    21319133.624    87298355.123        1520.951          45.000  
S31  38493347.460   202284050.986        -652.258          44.000  
E30  24461202.489   128544602.649       -2208.365          47.000    24461203.897    98495108.694       -1692.167          51.000  
R11  22423542.016   119824612.365       -4025.012          38.000    22423538.276    93197016.991       -3130.424          43.000  
R21  20012256.051   107089932.405        -254.352          52.000    20012248.803    83292007.994        -197.846          48.000  
R12  22149199.233   118317049.918       -1041.312          50.000    22149196.436    92024349.769        -809.974          45.000  
E15  25078169.129   131786731.398         521.319          44.000    25078171.826   100979490.205         399.361          50.000  
G23  22615813.222   118847042.858       -3854.860          46.000    22615808.971    92608116.446       -3003.820          46.000  
E34  23704687.225   124569196.821       -1040.222          49.000    23704687.613    95449277.355        -797.112          51.000  
G27  19972854.314   104958027.524          70.483          50.000    19972850.996    81785570.582          54.753          47.000  
E09  27024868.990   142016635.499       -1410.493          36.000    27024865.425   108817947.289       -1080.873          36.000  
G10  20107037.063   105663332.907       -2205.169          48.000    20107035.215    82335032.808       -1718.248          48.000  
E03  26705043.939   140335967.227        2154.234          42.000    26705044.474   107530173.877        1650.521          47.000  
G21  23333671.849   122619280.728        1974.311          44.000                                                                  
E27  25947537.309   136355093.662         344.180          39.000    25947537.850   104479987.077         263.737          44.000  
E18  25085886.912   131827246.128       -1337.818          41.000                                                                  
G32  22434591.427   117894601.242        1875.092          45.000    22434590.171    91865929.879        1461.172          43.000  
> 2024 04 15 08 55 00.4990000  0 27                     
S33  39451249.138   207317899.823        -651.062          42.000  
E02  26513423.204   139328989.376       -3663.260          41.000    26513426.106   106758604.881       -2807.036          47.000  
E05  23902291.222   125607410.306         903.944          45.000    23902292.391    96244654.390         692.641          52.000  
E36  26344824.889   138442940.155       -2270.890          38.000    26344827.187   106080178.268       -1740.327          45.000  
G26  23804415.977   125093041.276       -4093.098          37.000    23804418.837    97475068.776       -3189.502          33.000  
R20  22212459.356   118780077.530       -2573.125          35.000    22212460.275    92384593.389       -2001.296          38.000  
R06  19535897.663   104247343.798         476.538          44.000                                                                  
R05  22179628.340   118562868.148       -3888.789          40.000    22179625.063    92215520.334       -3024.699          48.000  
R22  21725693.367   115973181.323        1617.301          45.000    21725690.824    90201434.203        1257.901          44.000  
G16  21539981.016   113193365.405       -3150.015          45.000                                                                  
G08  21308016.239   111974533.845        1944.105          47.000    21308013.880    87252821.476        1514.954          45.000  
S31  38497068.894   202303605.680        -651.494          44.000  
E30  24473840.427   128611018.919       -2219.173          46.000    24473842.241    98545999.064       -1700.314          51.000  
R11  22446157.595   119945468.773       -4031.737          39.000    22446156.271    93291016.442       -3135.796          45.000  
R21  20013696.174   107097641.755        -259.478          53.000    20013689.742    83298004.157        -201.738          49.000  
R12  22155113.048   118348640.407       -1064.417          50.000    22155110.380    92048920.113        -828.050          46.000  
E15  25075197.163   131771113.219         520.176          44.000    25075199.555   100967523.047         398.594          50.000  
G23  22637834.234   118962765.391       -3859.778          47.000    22637829.957    92698289.842       -3007.522          46.000  
E34  23710629.443   124600421.023       -1041.189          49.000    23710629.317    95473202.398        -797.833          51.000  
G27  19972492.435   104956126.161          56.427          50.000    19972489.053    81784088.996          43.977          47.000  
E09  27032960.347   142059148.625       -1423.395          37.000    27032956.198   108850522.255       -1090.783          36.000  
G10  20119672.023   105729728.479       -2221.071          49.000    20119670.073    82386769.627       -1730.652          48.000  
E03  26692743.331   140271328.150        2155.280          41.000    26692743.997   107480645.296        1651.474          47.000  
G21  23322400.389   122560048.356        1974.707          44.000                                                                  
E27  25945607.849   136344960.041         331.731          40.000    25945609.595   104472222.390         254.033          45.000  
E18  25093530.840   131867413.863       -1339.815          41.000                                                                  
G32  22423914.593   117838498.271        1865.089          45.000    22423914.363    91822213.356        1453.338          43.000  
> 2024 04 15 08 55 30.4990000  0 27                     
S33  39454964.769   207337426.188        -650.374          42.000  
E02  26534338.472   139438896.488       -3663.710          42.000    26534340.921   106842819.442       -2807.112          47.000  
E05  23897159.018   125580445.736         894.129          44.000    23897160.805    96223993.268         685.079          51.000  
E36  26357791.737   138511072.862       -2270.626          38.000    26357792.762   106132383.859       -1739.720          45.000  
G26  23827781.364   125215827.527       -4091.929          38.000    23827779.188                       -3187.442          31.000  
R20  22226911.876   118857353.337       -2578.311          37.000    22226911.033    92444696.736       -2004.814          37.000  
R06  19533293.167   104233443.592         450.369          45.000                                                                  
R05  22201501.707   118679787.250       -3905.220          43.000    22201497.988    92306457.397       -3037.635          50.000  
R22  21716603.329   115924658.857        1617.484          45.000    21716601.067    90163694.524        1258.137          44.000  
G16  21557999.250   113288054.108       -3162.485          46.000                                                                  
G08  21296941.854   111916336.284        1935.931          47.000    21296939.771    87207472.739        1508.482          46.000  
S31  38500787.175   202323145.859        -651.075          44.000  
E30  24486541.873   128677762.591       -2230.245          46.000    24486543.508    98597140.322       -1708.828          51.000  
R11  22468814.661   120066533.798       -4038.743          39.000    22468811.519    93385178.049       -3141.418          43.000  
R21  20015165.911   107105510.843        -264.861          53.000    20015159.770    83304124.545        -206.062          48.000  
R12  22161156.673   118380928.145       -1087.785          50.000    22161153.950    92074032.770        -846.010          45.000  
E15  25072232.307   131755530.740         518.753          44.000    25072234.352   100955583.225         397.573          50.000  
G23  22659884.746   119078638.496       -3864.816          48.000    22659880.111    92788580.574       -3011.617          46.000  
E34  23716576.256   124631677.871       -1042.350          48.000    23716577.496    95497152.446        -798.731          51.000  
G27  19972212.271   104954654.157          41.973          50.000    19972208.951    81782941.984          32.777          47.000  
E09  27041120.572   142102043.390       -1436.046          36.000    27041119.247   108883389.693       -1100.499          38.000  
G10  20132398.246   105796601.199       -2236.982          49.000    20132395.192    82438878.220       -1743.191          48.000  
E03  26680435.797   140206660.935        2156.128          39.000    26680437.859   107431095.185        1652.122          46.000  
G21  23311127.517   122500810.089        1974.824          44.000                                                                  
E27  25943753.477   136335208.753         318.855          42.000    25943754.474   104464750.648         244.207          45.000  
E18  25101185.596   131907646.839       -1342.076          40.000                                                                  
G32  22413297.855   117782703.440        1854.835          46.000    22413296.404    91778736.896        1445.398          42.000  
> 2024 04 15 08 56 00.4990000  0 27                     
S33  39458679.046   207356944.447        -650.499          41.000  
E02  26555254.634   139548806.673       -3663.831          43.000    26555256.121   106927036.406       -2807.262          47.000  
E05  23892084.316   125553781.818         883.514          44.000    23892086.673    96203562.495         677.058          51.000  
E36  26370752.224   138579185.104       -2270.101          38.000    26370754.057   106184573.799       -1739.560          45.000  
G26  23851139.321   125338567.631       -4090.662          37.000    23851143.726    97666388.148       -3186.471          32.000  
R20  22241390.940   118934775.610       -2583.317          32.000    22241388.067    92504914.053       -2009.233          35.000  
R06  19530836.010   104220328.932         423.680          45.000                                                                  
R05  22223465.984   118797206.043       -3922.331          39.000    22223463.525    92397783.057       -3050.667          48.000  
R22  21707515.071   115876132.928        1617.550          46.000    21707510.364    90125952.199        1258.028          45.000  
G16  21576089.635   113383119.770       -3175.173          46.000                                                                  
G08  21285913.742   111858383.940        1927.561          47.000    21285911.525    87162315.100        1502.097          46.000  
S31  38504503.697   202342676.393        -650.833          44.000  
E30  24499306.515   128744837.651       -2241.360          46.000    24499307.868    98648535.487       -1717.431          51.000  
R11  22491510.754   120187807.965       -4045.511          35.000    22491506.354    93479502.422       -3146.896          44.000  
R21  20016667.521   107113546.330        -270.612          53.000    20016661.923    83310374.380        -210.548          49.000  
R12  22167332.629   118413917.249       -1111.308          50.000    22167329.803    92099690.927        -864.317          45.000  
E15  25069274.325   131739988.834         517.404          44.000    25069276.733   100943674.528         396.353          49.000  
G23  22681963.797   119194664.985       -3870.056          48.000    22681958.811    92878990.830       -3015.763          46.000  
E34  23722531.481   124662972.540       -1043.805          48.000    23722532.639    95521131.507        -799.823          51.000  
G27  19972015.310   104953618.657          27.202          49.000    19972012.211    81782135.102          21.203          47.000  
E09  27049353.474   142145324.677       -1449.169          34.000    27049356.025   108916553.226       -1110.301          39.000  
G10  20145215.431   105863954.107       -2253.015          49.000    20145211.705    82491361.014       -1755.591          47.000  
E03  26668127.215   140141972.963        2156.664          41.000    26668128.097   107381529.171        1652.393          46.000  
G21  23299854.946   122441571.382        1974.762          44.000                                                                  
E27  25941971.855   136325845.964         305.490          42.000    25941972.982   104457576.553         234.187          46.000  
E18  25108855.005   131947949.454       -1344.652          40.000                                                                  
G32  22402742.032   117727225.287        1843.998          47.000    22402738.972    91735507.192        1437.076          42.000  
> 2024 04 15 08 56 30.4990000  0 27                     
S33  39462391.092   207376452.034        -650.170          42.000  
E02  26576169.811   139658717.764       -3663.632          43.000    26576171.522   107011254.032       -2807.238          47.000  
E05  23887068.113   125527419.758         873.762          44.000    23887069.783    96183363.017         669.467          50.000  
E36  26383709.680   138647276.858       -2269.163          38.000    26383710.225   106236748.031       -1738.940          43.000  
G26  23874485.595   125461258.589       -4089.349          33.000    23874489.617    97761991.615       -3185.677          32.000  
R20  22255896.995                       -2588.670          31.000    22255894.470    92565245.124       -2013.143          38.000  
R06  19528525.605   104208000.930         397.763          44.000                                                                  
R05  22245525.088   118915120.288       -3938.825          45.000    22245522.241    92489494.056       -3063.421          48.000  
R22  21698422.666   115827603.771        1617.600          46.000    21698420.413    90088207.359        1258.135          46.000  
G16  21594251.733   113478559.548       -3187.726          46.000                                                                  
G08  21274932.692   111800679.031        1919.392          47.000    21274930.497    87117350.274        1495.404          45.000  
S31  38508218.158   202362196.982        -650.604          44.000  
E30  24512132.765   128812242.291       -2252.335          47.000    24512133.841    98700183.197       -1725.786          50.000  
R11  22514241.496   120309286.788       -4052.865          35.000    22514240.048    93573985.859       -3151.983          44.000  
R21  20018200.410   107121749.037        -276.334          53.000    20018195.432    83316754.251        -214.902          49.000  
R12  22173638.754   118447605.638       -1134.643          50.000    22173637.130    92125893.011        -882.607          46.000  
E15  25066324.532   131724486.816         516.029          44.000    25066326.569   100931796.395         395.355          49.000  
G23  22704071.599   119310842.025       -3875.184          47.000    22704067.701    92969518.388       -3019.523          47.000  
E34  23728494.411   124694304.532       -1045.055          48.000    23728495.278    95545139.173        -800.769          52.000  
G27  19971901.725   104953021.081          12.620          49.000    19971898.733    81781669.475           9.750          48.000  
E09  27057666.485   142188991.742       -1462.298          38.000    27057666.152   108950012.410       -1120.186          40.000  
G10  20158122.520   105931784.515       -2268.953          50.000    20158119.559    82544215.897       -1768.080          47.000  
E03  26655812.520   140077265.858        2157.063          40.000    26655814.113   107331948.458        1652.844          46.000  
G21  23288582.357   122382332.242        1974.529          45.000                                                                  
E27  25940264.069   136316871.971         292.672          42.000    25940265.424   104450700.392         224.285          46.000  
E18  25116536.129   131988320.480       -1346.668          39.000                                                                  
G32  22392245.677   117672066.717        1833.131          46.000    22392242.999    91692526.500        1428.315          42.000  
> 2024 04 15 08 57 00.4990000  0 27                     
S33  39466101.476   207395950.939        -649.554          41.000  
E02  26597086.257   139768629.648       -3663.309          43.000    26597087.111   107095472.285       -2807.211          46.000  
E05  23882111.029   125501363.026         863.565          45.000    23882111.605    96163397.482         661.668          51.000  
E36  26396663.950   138715350.252       -2268.779          37.000    26396664.007   106288908.173       -1738.366          43.000  
G26  23897822.817   125583899.465       -4086.856          32.000    23897825.951                       -3184.255          30.000  
R20  22270428.992                       -2593.228          28.000    22270428.507    92625692.348       -2016.528          37.000  
R06  19526362.889   104196463.381         371.545          44.000                                                                  
R05  22267676.244   119033527.658       -3955.123          44.000    22267673.816    92581588.661       -3076.013          48.000  
R22  21689330.855   115779073.455        1617.719          45.000    21689329.621    90050461.604        1258.245          46.000  
G16  21612483.846   113574372.008       -3199.767          46.000                                                                  
G08  21263999.737   111743225.852        1911.112          47.000    21263997.516    87072581.548        1489.087          45.000  
S31  38511931.400   202381709.628        -650.246          44.000  
E30  24525022.543   128879976.868       -2263.115          47.000    24525023.612    98752083.725       -1734.146          50.000  
R11  22537012.049   120430967.474       -4058.985          32.000    22537010.708    93668626.204       -3157.092          42.000  
R21  20019764.412   107130121.926        -281.773          52.000    20019759.560    83323266.542        -219.084          48.000  
R12  22180077.296   118481993.628       -1157.747          50.000    22180074.732    92152639.198        -900.453          46.000  
E15  25063382.858   131709025.975         514.758          45.000    25063384.550   100919949.792         394.478          50.000  
G23  22726207.784   119427168.879       -3879.849          47.000    22726203.163    93060162.700       -3023.209          46.000  
E34  23734464.052   124725675.468       -1046.202          48.000    23734465.072    95569176.655        -801.636          52.000  
G27  19971872.799   104952864.961          -2.007          49.000    19971868.871    81781547.842          -1.710          48.000  
E09  27066049.022   142233045.921       -1474.721          36.000    27066049.093   108983768.183       -1129.817          40.000  
G10  20171121.854   106000091.814       -2284.582          50.000    20171118.539    82597442.370       -1780.292          48.000  
E03  26643496.151   140012543.327        2158.175          41.000    26643497.794   107282355.933        1653.435          46.000  
G21  23277308.911   122323094.312        1974.646          45.000                                                                  
E27  25938631.017   136308289.371         279.488          42.000    25938632.282   104444124.085         214.362          46.000  
E18  25124230.874   132028760.789       -1349.024          38.000                                                                  
G32  22381810.727   117617232.732        1822.517          47.000    22381807.710    91649798.743        1420.200          42.000  
> 2024 04 15 08 57 30.4990000  0 27                     
S33  39469810.726   207415442.546        -649.491          41.000  
E02  26618001.059   139878540.606       -3663.577          43.000    26618002.140   107179689.812       -2807.305          45.000  
E05  23877210.775   125475613.287         853.342          44.000    23877211.537    96143667.200         653.842          51.000  
E36  26409612.927   138783405.571       -2267.961          34.000    26409615.347   106341054.483       -1737.924          44.000  
R20  22284990.626                       -2598.170          29.000    22284989.300    92686256.648       -2020.671          37.000  
R06  19524349.433   104185717.477         345.345          44.000                                                                  
R05  22289919.053   119152424.639       -3971.150          48.000    22289915.456    92674064.078       -3088.811          48.000  
R22  21680238.377   115730542.710        1617.747          45.000    21680237.835    90012715.534        1258.286          47.000  
G16  21630786.407   113670554.501       -3212.126          46.000                                                                  
G08  21253115.018   111686027.050        1902.507          47.000    21253113.102    87028011.087        1482.412          45.000  
S31  38515642.906   202401214.259        -649.891          43.000  
E30  24537974.665   128948040.021       -2274.157          47.000    24537975.584    98804236.019       -1742.441          50.000  
R11  22559816.524                       -4065.410          31.000    22559817.705    93763420.065       -3162.265          41.000  
R21  20021360.902   107138666.792        -287.567          52.000    20021356.046    83329912.587        -223.738          49.000  
R12  22186645.303   118517079.682       -1181.106          50.000    22186642.399    92179928.326        -918.594          46.000  
E15  25060448.678   131693606.008         513.381          45.000    25060450.324   100908134.509         393.390          50.000  
G23  22748372.199   119543643.230       -3884.664          47.000    22748367.064    93150921.930       -3027.072          46.000  
E34  23740441.091   124757085.289       -1047.496          48.000    23740442.085    95593243.921        -802.647          52.000  
G27  19971925.970   104953152.186         -16.821          49.000    19971923.177    81781771.654         -13.086          47.000  
E09  27074506.443   142277486.860       -1487.614          40.000    27074506.878   109017820.325       -1139.835          42.000  
G10  20184210.747   106068873.732       -2300.464          50.000    20184207.492    82651038.668       -1792.541          48.000  
E03  26631177.944   139947807.478        2158.255          41.000    26631178.822   107232753.176        1653.665          46.000  
G21  23266037.129   122263857.749        1974.788          45.000                                                                  
E27  25937072.285   136300098.869         266.543          41.000    25937073.994   104437848.227         204.328          46.000  
E18  25131940.610   132069269.647       -1351.447          38.000                                                                  
G32  22371438.768   117562726.617        1811.617          47.000    22371434.788    91607326.488        1411.720          41.000  
G26                                                                  23921154.692                3      -3182.492          25.000  
> 2024 04 15 08 58 00.4990000  0 27                     
S33  39473518.443   207434926.181        -649.570          42.000  
E02  26638916.632   139988449.387       -3663.986          43.000    26638916.842   107263905.676       -2807.304          44.000  
E05  23872368.461   125450172.833         842.489          45.000    23872370.172    96124173.923         645.615          50.000  
E36  26422549.870                       -2267.911          29.000    26422562.603   106393187.680       -1737.688          44.000  
R20  22299581.417   119245949.902       -2603.464          33.000    22299579.387    92746938.596       -2025.268          37.000  
R06  19522483.583   104175765.723         318.364          43.000                                                                  
R05  22312252.121   119271807.677       -3987.724          48.000    22312248.684    92766917.507       -3101.592          48.000  
R22  21671148.311   115682012.621        1617.460          46.000    21671145.415    89974970.070        1257.803          46.000  
G16  21649159.044   113767104.869       -3224.728          47.000                                                                  
G08  21242279.271   111629085.776        1893.500          47.000    21242277.498    86983641.287        1475.209          45.000  
S31  38519353.177   202420711.360        -650.297          44.000  
E30  24550989.524   129016430.948       -2285.400          47.000    24550990.102    98856639.460       -1751.105          50.000  
R11  22582660.033   120674916.206       -4072.458          36.000    22582661.018    93858364.351       -3167.522          41.000  
R21  20022990.917   107147385.256        -293.875          52.000    20022984.508    83336693.635        -228.598          47.000  
R12  22193343.328   118552862.850       -1204.690          50.000    22193340.534    92207759.628        -937.000          46.000  
E15  25057521.978   131678227.134         511.634          45.000    25057524.183   100896350.727         392.122          50.000  
G23  22770564.116   119660263.171       -3889.993          46.000    22770559.977    93241794.600       -3031.200          47.000  
E34  23746426.516   124788534.500       -1049.275          49.000    23746426.540    95617341.371        -803.995          52.000  
G27  19972065.419   104953885.113         -32.201          49.000    19972062.721    81782342.779         -24.927          48.000  
E09  27083036.802   142322314.738       -1500.876          39.000    27083036.327   109052168.906       -1149.734          41.000  
G10  20197389.276   106138128.529       -2316.522          50.000    20197385.630    82705003.447       -1805.146          48.000  
E03  26618855.986   139883060.893        2158.043          40.000    26618857.526   107183142.224        1653.757          46.000  
G21  23254765.422   122204623.709        1974.212          44.000                                                                  
E27  25935588.185   136292301.868         253.213          41.000    25935590.173   104431873.903         193.888          46.000  
E18  25139661.029   132109846.666       -1353.559          37.000                                                                  
G32  22361128.846   117508552.261        1799.906          46.000    22361125.542    91565112.788        1402.497          41.000  
G26                                                                  23944477.411                3      -3182.721          25.000  
> 2024 04 15 08 58 30.4990000  0 27                     
S33  39477225.352   207454404.776        -649.357          42.000  
E02  26659830.164   140098355.223       -3663.472          42.000    26659831.152   107348119.302       -2807.070          43.000  
E05  23867587.766   125425044.392         832.274          45.000    23867588.416    96104919.702         637.745          51.000  
E36  26435500.628   138919466.425       -2267.396          32.000    26435506.996   106445308.868       -1737.325          44.000  
R20  22314200.675                       -2608.939          32.000    22314197.548    92807740.349       -2028.951          36.000  
R06  19520768.026   104166610.514         291.843          44.000                                                                  
R05  22334674.798   119391673.970       -4003.687          48.000    22334671.006    92860146.824       -3113.942          47.000  
R22  21662058.741   115633484.872        1617.422          47.000    21662053.618    89937226.275        1257.952          45.000  
G16  21667601.000   113864021.294       -3236.634          46.000                                                                  
G08  21231493.729   111572405.713        1884.966          47.000    21231491.688    86939475.015        1468.815          46.000  
S31  38523062.151   202440202.656        -649.687          44.000  
E30  24564065.286   129085149.250       -2296.095          46.000    24564066.585    98909293.768       -1759.328          50.000  
R11  22605542.809   120797177.684       -4078.668          39.000    22605541.705    93953456.540       -3172.176          41.000  
R21  20024653.161   107156279.972        -299.563          52.000    20024647.096    83343611.782        -233.028          49.000  
R12  22200172.253   118589342.889       -1227.646          50.000    22200169.777    92236132.991        -954.753          46.000  
E15  25054603.616   131662890.059         510.421          45.000    25054605.813   100884598.969         391.133          51.000  
G23  22792783.566   119777027.314       -3894.482          47.000    22792778.715    93332779.705       -3034.724          46.000  
E34  23752418.254   124820024.028       -1050.427          49.000    23752418.369    95641469.717        -804.894          51.000  
G27  19972291.001   104955066.583         -46.925          50.000    19972287.638    81783263.411         -36.611          48.000  
E09  27091639.426   142367530.101       -1513.714          41.000    27091640.799   109086814.465       -1160.084          42.000  
G10  20210657.642   106207854.866       -2332.111          51.000    20210654.392    82759335.679       -1817.139          48.000  
E03  26606534.900   139818306.658        2158.608          42.000    26606534.962   107133525.421        1653.851          45.000  
G21  23243494.419   122145394.114        1974.373          45.000                                                                  
E27  25934179.639   136284900.131         240.158          41.000    25934181.340   104426202.458         183.900          46.000  
E18  25147396.994   132150492.198       -1356.197          38.000                                                                  
G32  22350884.478   117454713.942        1788.969          46.000    22350882.135    91523160.889        1394.114          43.000  
G26                                                                  23967770.214                3      -3175.366          20.000  
> 2024 04 15 08 59 00.4990000  0 27                     
S33  39480929.609   207473873.212        -649.008          42.000  
E02  26680742.675   140208253.867       -3663.170          41.000    26680744.379   107432327.408       -2806.831          43.000  
E05  23862865.805   125400227.082         822.081          46.000    23862865.886    96085903.881         629.815          51.000  
E36  26448444.306                3      -2265.175          25.000    26448447.773   106497416.385       -1736.622          44.000  
R20  22328848.489                       -2613.059          30.000    22328845.626    92868659.996       -2032.297          38.000  
R06  19519201.684   104158250.774         265.393          44.000                                                                  
R05  22357188.152   119512017.345       -4019.462          49.000    22357183.886    92953747.205       -3126.120          47.000  
R22  21652967.257   115584957.633        1617.452          48.000    21652961.499    89899482.854        1258.132          44.000  
G16  21686113.191   113961298.497       -3248.517          47.000                                                                  
G08  21220757.583   111515986.986        1876.163          47.000    21220756.148    86895512.400        1461.841          46.000  
S31  38526769.215   202459684.769        -649.080          44.000  
E30  24577203.594   129154191.066       -2306.876          47.000    24577205.085    98962195.934       -1767.525          50.000  
R11  22628459.166   120919621.884       -4084.642          43.000    22628453.946    94048690.848       -3176.906          42.000  
R21  20026348.816   107165349.569        -305.269          52.000    20026342.691    83350665.935        -237.529          48.000  
R12  22207130.846   118626515.348       -1250.726          50.000    22207129.290    92265044.878        -972.559          46.000  
E15  25051692.337   131647591.935         509.191          44.000    25051694.432   100872877.044         390.231          50.000  
G23  22815028.926   119893930.880       -3899.044          47.000    22815024.685    93423873.356       -3038.323          46.000  
E34  23758417.219   124851551.317       -1051.583          48.000    23758417.816    95665626.997        -805.706          51.000  
G27  19972600.065   104956695.857         -61.888          48.000    19972597.623    81784533.005         -48.111          47.000  
E09  27100317.190   142413130.070       -1526.569          41.000    27100317.009   109121754.659       -1169.756          41.000  
G10  20224014.455   106278047.940       -2347.684          50.000    20224011.222    82814031.589       -1829.287          47.000  
E03  26594211.252   139753544.312        2158.993          42.000    26594211.430   107083902.374        1654.258          46.000  
G21  23232224.001   122086166.055        1974.323          45.000                                                                  
E27  25932845.831   136277891.940         226.941          41.000    25932847.177   104420832.545         173.985          46.000  
E18  25155144.101   132191202.914       -1358.204          38.000                                                                  
G32  22340703.562   117401212.465        1777.713          46.000    22340701.608    91481471.470        1385.195          43.000  
G26                                                                  23991076.442                3      -3174.656          19.000  
> 2024 04 15 08 59 30.4990000  0 27                     
S33  39484632.625   207493332.010        -648.617          41.000  
E02  26701655.193   140318142.294       -3662.561          42.000    26701654.800   107516527.680       -2806.489          41.000  
E05  23858202.133   125375721.376         811.535          46.000    23858202.967    96067126.828         621.806          52.000  
E36  26461372.352                       -2266.096          28.000    26461385.476   106549509.559       -1736.401          44.000  
R20  22343523.354   119480926.014       -2618.566          33.000    22343521.568    92929697.726       -2035.975          36.000  
R06  19517784.809   104150686.711         238.776          44.000                                                                  
R05  22379787.941   119632832.485       -4035.114          48.000    22379785.017    93047714.538       -3138.438          48.000  
R22  21643875.933   115536430.131        1617.390          47.000    21643870.445    89861739.276        1257.910          44.000  
G16  21704692.568   114058932.056       -3260.433          47.000                                                                  
G08  21210071.631   111459830.965        1867.312          47.000    21210070.029    86851754.472        1455.023          46.000  
S31  38530475.082   202479157.672        -649.272          44.000  
E30  24590403.392   129223553.699       -2317.623          47.000    24590403.874    99015343.942       -1775.650          49.000  
R11  22651406.285   121042243.265       -4090.088          42.000    22651400.200    94144063.049       -3181.202          40.000  
R21  20028076.523   107174594.212        -311.264          51.000    20028070.279    83357856.235        -241.993          50.000  
R12  22214219.434   118664377.347       -1273.651          51.000    22214218.040    92294493.034        -990.677          47.000  
E15  25048787.389   131632331.189         507.923          44.000    25048790.278   100861183.773         389.248          50.000  
G23  22837301.066   120010970.150       -3903.665          44.000    22837297.008    93515072.811       -3041.748          47.000  
E34  23764423.938   124883115.064       -1052.692          49.000    23764424.241    95689812.226        -806.773          51.000  
G27  19972995.668   104958773.528         -76.728          49.000    19972993.454    81786151.968         -59.885          48.000  
E09  27109068.234   142459112.977       -1539.084          44.000    27109066.799   109156988.352       -1179.569          39.000  
G10  20237459.858   106348704.180       -2363.088          50.000    20237456.431    82869088.413       -1841.316          47.000  
E03  26581887.446   139688774.731        2159.177          44.000    26581886.224   107034273.817        1654.265          46.000  
G21  23220952.839   122026938.854        1974.151          45.000                                                                  
E27  25931587.205   136271276.819         213.745          41.000    25931588.268   104415763.821         163.834          46.000  
E18  25162903.950   132231976.695       -1360.341          39.000                                                                  
G32  22330586.435   117348049.813        1766.356          46.000    22330584.514    91440046.082        1376.454          43.000  
G26                                                                  24014365.773                3      -3177.265          14.000  
