     3.00           OBSERVATION DATA    M: Mixed            RINEX VERSION / TYPE
CONVBIN 2.4.3                           20240415 064442 UTC PGM / RUN BY / DATE 
format: u-blox UBX                                          COMMENT             
log: /home/regis/git/gnsspwv/obsdata/VERT00CHL/2024-04-15/VECOMMENT             
{self.marker}                                               MARKER NAME         
                                                            MARKER NUMBER       
GEODETIC                                                    MARKER TYPE         
{self.observer}     {self.institution}                      OBSERVER / AGENCY   
UNKNOWN             UBLOX-ZED-F9P                           REC # / TYPE / VERS 
UNKNOWN             TWIVSP6037L                             ANT # / TYPE        
  1713381.0000 -5047934.0000 -3490983.0000                  APPROX POSITION XYZ 
        0.0000        0.0000        0.0000                  ANTENNA: DELTA H/E/N
G    8 C1C L1C D1C S1C C2L L2L D2L S2L                      SYS / # / OBS TYPES 
R    8 C1C L1C D1C S1C C2C L2C D2C S2C                      SYS / # / OBS TYPES 
E    8 C1C L1C D1C S1C C7Q L7Q D7Q S7Q                      SYS / # / OBS TYPES 
S    4 C1C L1C D1C S1C                                      SYS / # / OBS TYPES 
  2024    04    15    06    30   00.0160000     GPS         TIME OF FIRST OBS   
  2024    04    15    06    44   30.0170000     GPS         TIME OF LAST OBS    
                                                            END OF HEADER       
> 2024 04 15 06 30 00.0160000  0 25                     
S33  44657606.700   234677482.7201       -665.835          42.000  
E02  28215541.416   148273689.0411      -1245.626          47.000    28215540.510   113612340.4471       -954.425          52.000  
E36  28886731.252   151801150.0121      -1999.105          47.000    28886731.632   116315381.5981      -1531.826          52.000  
G26  25230520.245   132587311.5421       -694.816          50.000    25230517.402   103314746.8511       -541.391          44.000  
R20  25147909.317   134477241.7601      -1511.986          41.000    25147906.347   104593499.8541      -1175.949          44.000  
R10  24710623.272   131721605.7811      -1887.296          47.000                                                                  
R09  26475108.988   141375583.1461      -4632.326          52.000    26475105.389   109959045.0381      -3603.000          48.000  
R05  27581582.463   147439395.5531       2421.404          48.000    27581579.225   114675040.1201       1883.306          46.000  
R04  27506524.360   147296129.7501       -183.699          41.000    27506519.418   114563730.7761       -143.046          40.000  
G16  26852824.482   141112554.1481       1852.440          47.000                                                                  
E11  31439608.923   165216669.2721      -3100.606          40.000    31439605.767   126594819.7871      -2375.573          44.000  
G18  26246824.255   137928363.2351      -2737.375          48.000    26246820.047   107476761.9961      -2133.170          49.000  
G29  28613912.649   150367524.5761      -2793.250          43.000    28613906.795   117169770.3771      -2176.428          39.000  
S31  43703149.779   229661735.5351       -665.707          43.000  
E30  30222443.076   158820126.1881       1364.823          43.000    30222443.460   121693238.8291       1045.692          50.000  
R11  26637355.731   142341981.7391       2121.591          48.000    26637351.955   110710531.9731       1650.076          48.000  
R21  26908435.760   143992769.6511       1112.276          50.000    26908432.573   111994208.9371        865.075          46.000  
R19  28373252.729   151778131.3221      -3448.846          38.000    28373246.156   118049261.8791      -2682.613          45.000  
G23  25746901.011   135301018.7871        766.309          48.000    25746895.895   105429396.4851        597.046          47.000  
E34  29074095.696   152785617.1551        263.836          47.000    29074097.087   117069648.1341        202.111          52.000  
G27  28390293.791   149191948.7591       1718.698          43.000    28390291.501   116253556.5831       1339.231          42.000  
G10  27298922.064   143456909.2101       2855.723          49.000    27298919.303   111784566.8381       2225.251          45.000  
E25  30793274.213   161820037.6701      -3349.500          45.000    30793275.805   123992128.6761      -2566.545          50.000  
G31  28549699.516   150029583.2511      -3248.108          42.000    28549696.541   116906216.4031      -2530.542          36.000  
E14  35349309.886   185762021.1871       -632.789          38.000    35349309.658   142337187.6631       -485.253          42.000  
> 2024 04 15 06 30 30.0160000  0 25                     
S33  44661404.844   234697441.292        -665.418          42.000  
E02  28222687.728   148311239.107       -1258.177          48.000    28222685.999   113641112.550        -964.021          51.000  
E36  28898155.409   151861185.841       -2003.693          47.000    28898155.945   116361383.068       -1535.316          52.000  
G26  25234540.066   132608433.701        -713.857          50.000    25234537.577   103331205.668        -556.424          44.000  
R20  25156408.365   134522688.418       -1518.415          40.000    25156405.726   104628847.258       -1180.882          45.000  
R10  24721317.929   131778608.675       -1913.420          48.000                                                                  
R09  26501158.966   141514692.218       -4642.227          51.000    26501155.751   110067240.922       -3610.454          48.000  
R05  27568020.622   147366896.438        2411.413          49.000    27568017.920   114618651.970        1875.416          47.000  
R04  27507619.446   147301984.839        -207.485          41.000    27507612.479   114568284.664        -161.145          38.000  
G16  26842279.480   141057139.395        1841.219          48.000                                                                  
E11  31457301.861   165309647.199       -3098.102          40.000    31457298.998   126666062.618       -2374.094          45.000  
G18  26262471.323   138010588.036       -2744.751          47.000    26262467.079   107540833.250       -2138.832          50.000  
G29  28629866.301   150451367.416       -2796.472          41.000    28629860.245   117235102.482       -2179.425          39.000  
S31  43706947.324   229681691.747        -665.271          44.000  
E30  30214672.962   158779291.303        1357.174          44.000    30214672.902   121661949.780        1039.858          51.000  
R11  26625498.024   142278615.773        2102.166          49.000    26625494.909   110661247.356        1635.110          48.000  
R21  26902219.762   143959500.949        1105.188          51.000    26902215.031   111968333.333         859.520          46.000  
R19  28392584.528   151881546.541       -3445.742          39.000    28392578.977   118129695.935       -2680.104          46.000  
G23  25742578.689   135278304.520         747.473          48.000    25742573.657   105411697.075         582.562          47.000  
E34  29072610.097   152777814.019         255.973          47.000    29072612.201   117063669.123         196.163          52.000  
G27  28380477.704   149140365.461        1719.607          43.000    28380474.476   116213361.833        1340.001          41.000  
G10  27282640.037   143371348.815        2847.801          49.000    27282638.083   111717896.468        2219.106          45.000  
E25  30812411.973   161920606.608       -3355.436          46.000    30812413.581   124069187.961       -2571.072          50.000  
G31  28568251.892   150127081.371       -3252.130          41.000    28568250.694   116982188.883       -2533.801          36.000  
E14  35352905.436   185780908.485        -626.634          39.000    35352903.951   142351659.695        -480.001          43.000  
> 2024 04 15 06 31 00.0160000  0 25                     
S33  44665203.055   234717400.900        -665.685          42.000  
E02  28229906.298   148349176.453       -1271.460          48.000    28229905.174   113670181.420        -974.177          51.000  
E36  28909608.303   151921372.112       -2009.150          48.000    28909608.915   116407499.821       -1539.454          52.000  
G26  25238670.784   132630141.365        -733.803          50.000    25238668.724   103348120.718        -571.686          45.000  
R20  25164943.841   134568334.679       -1524.940          40.000    25164941.886   104664349.932       -1186.310          45.000  
R10  24732160.145   131836400.868       -1939.971          49.000                                                                  
R09  26527266.619   141654103.424       -4652.373          51.000    26527263.290   110175671.783       -3618.668          49.000  
R05  27554517.173   147294710.288        2400.523          49.000    27554513.436   114562507.243        1867.066          46.000  
R04  27508844.049   147308553.807        -231.364          42.000    27508838.407   114573393.883        -179.851          37.000  
G16  26831799.818   141002067.783        1829.720          48.000                                                                  
E11  31474985.736   165402575.888       -3096.691          40.000    31474982.808   126737267.727       -2373.241          46.000  
G18  26278161.738   138093042.296       -2752.687          47.000    26278157.463   107605083.299       -2144.941          50.000  
G29  28645843.791   150535326.433       -2801.099          41.000    28645838.922   117300525.052       -2182.623          41.000  
S31  43710745.043   229701648.321        -665.526          44.000  
E30  30206947.204   158738696.201        1348.760          43.000    30206947.840   121630844.475        1033.488          50.000  
R11  26613751.830   142215842.901        2082.103          49.000    26613748.102   110612424.014        1619.402          49.000  
R21  26896044.607   143926454.820        1097.430          51.000    26896038.526   111942630.886         853.542          46.000  
R19  28411900.402   151984872.698       -3443.216          40.000    28411895.042   118210060.733       -2677.924          45.000  
G23  25738364.173   135256162.328         728.162          47.000    25738360.240   105394443.424         567.322          47.000  
E34  29071172.123   152770255.811         247.480          47.000    29071173.758   117057877.788         189.635          51.000  
G27  28370657.259   149088764.326        1720.057          42.000    28370654.712   116173153.197        1340.185          40.000  
G10  27266406.804   143286042.134        2838.988          49.000    27266404.411   111651423.814        2212.006          44.000  
E25  30831585.287   162021361.954       -3361.968          46.000    30831586.970   124146390.087       -2576.123          50.000  
G31  28586831.728   150224717.013       -3257.239          42.000    28586830.080   117058268.491       -2538.165          36.000  
E14  35356465.543   185799612.554        -620.798          39.000    35356463.355   142365991.377        -475.746          42.000  
> 2024 04 15 06 31 30.0160000  0 25                     
S33  44669003.639   234737373.658        -665.896          41.000  
E02  28237202.162   148387515.707       -1284.541          48.000    28237200.978   113699558.241        -984.309          51.000  
E36  28921092.585   151981722.019       -2014.164          48.000    28921093.174   116453741.963       -1543.436          52.000  
G26  25242916.424   132652449.373        -753.511          50.000    25242913.715   103365503.568        -587.172          45.000  
R20  25173519.753   134614193.314       -1532.050          40.000    25173517.889   104700017.746       -1191.634          45.000  
R10  24743152.070   131894995.088       -1966.493          49.000                                                                  
R09  26553432.387   141793827.062       -4662.478          51.000    26553428.775   110284345.628       -3626.372          49.000  
R05  27541074.731   147222856.318        2389.572          49.000    27541071.391   114506620.865        1858.376          46.000  
R04  27510208.169   147315853.105        -255.593          43.000    27510201.484   114579071.107        -198.488          37.000  
G16  26821388.093   140947356.290        1817.764          47.000                                                                  
E11  31492662.745   165495469.254       -3095.957          40.000    31492659.943   126808445.717       -2372.178          46.000  
G18  26293898.517   138175738.486       -2760.355          48.000    26293893.486   107669521.885       -2151.051          50.000  
G29  28661845.983   150619416.740       -2805.054          41.000    28661840.961   117366049.932       -2185.748          41.000  
S31  43714545.414   229721618.653        -665.802          43.000  
E30  30199270.546   158698357.022        1340.606          43.000    30199271.355   121599935.261        1027.114          50.000  
R11  26602118.860   142153681.639        2061.934          49.000    26602114.647   110564076.381        1603.623          48.000  
R21  26889912.207   143893645.345        1089.842          50.000    26889906.945   111917112.433         847.549          46.000  
R19  28431202.084   152088123.365       -3440.381          41.000    28431196.880   118290366.826       -2676.028          45.000  
G23  25734262.983   135234608.410         708.691          47.000    25734258.951   105377648.168         552.203          48.000  
E34  29069783.469   152762956.528         239.160          47.000    29069784.697   117052284.857         183.137          51.000  
G27  28360836.908   149037160.424        1720.158          42.000    28360835.347   116132942.386        1340.596          41.000  
G10  27250225.520   143201006.889        2829.945          49.000    27250222.699   111585162.604        2205.122          44.000  
E25  30850795.687   162122316.980       -3368.459          45.000    30850797.722   124223745.202       -2581.008          50.000  
G31  28605440.343   150322501.431       -3262.048          43.000    28605436.896   117134464.029       -2541.870          36.000  
E14  35359992.359   185818148.928        -614.950          39.000    35359990.703   142380194.568        -471.183          42.000  
> 2024 04 15 06 32 00.0160000  0 25                     
S33  44672804.943   234757349.611        -665.518          42.000  
E02  28244571.908   148426246.287       -1297.268          48.000    28244571.183   113729234.908        -994.020          51.000  
E36  28932605.299   152042223.588       -2018.996          48.000    28932606.184   116500100.317       -1547.063          52.000  
G26  25247274.025   132675347.397        -772.957          50.000    25247270.937   103383346.159        -602.087          45.000  
R20  25182133.523   134660252.683       -1538.399          40.000    25182130.528   104735841.702       -1196.571          44.000  
R10  24754292.164   131954378.463       -1992.335          49.000                                                                  
R09  26579653.311   141933848.742       -4672.096          50.000    26579650.367   110393251.288       -3633.866          49.000  
R05  27527693.439   147151328.647        2378.983          49.000    27527690.096   114450988.215        1850.219          46.000  
R04  27511705.956   147323873.147        -279.434          43.000    27511698.761   114585308.983        -217.125          40.000  
G16  26811043.316   140892996.990        1806.248          47.000                                                                  
E11  31510331.425   165588315.737       -3093.946          40.000    31510327.622   126879587.834       -2370.649          46.000  
G18  26309678.763   138258663.835       -2767.791          48.000    26309673.720   107734139.050       -2156.720          49.000  
G29  28677872.162   150703628.020       -2808.673          43.000    28677865.456   117431669.094       -2188.788          41.000  
S31  43718346.008   229741591.827        -665.741          44.000  
E30  30191640.730   158658264.816        1332.608          43.000    30191642.201   121569215.266        1021.098          50.000  
R11  26590598.730   142092124.865        2041.878          48.000    26590595.510   110516198.900        1588.234          49.000  
R21  26883822.770   143861060.407        1082.707          50.000    26883817.879   111891768.620         842.122          44.000  
R19  28450487.418   152191287.912       -3437.078          40.000    28450482.295   118370605.934       -2673.334          45.000  
G23  25730271.623   135213633.739         689.642          47.000    25730267.189   105361304.273         537.390          47.000  
E34  29068441.879   152755904.927         231.158          47.000    29068442.913   117046881.689         177.176          51.000  
G27  28351015.403   148985543.542        1720.804          42.000    28351013.956   116092721.437        1341.219          41.000  
G10  27234094.085   143116235.632        2821.491          49.000    27234091.788   111519107.139        2198.564          45.000  
E25  30870042.853   162223459.740       -3374.298          45.000    30870044.282   124301244.171       -2585.511          49.000  
G31  28624074.149   150420421.014       -3266.205          41.000    28624069.780   117210764.919       -2544.995          35.000  
E14  35363485.206   185836507.793        -608.737          38.000    35363484.529   142394261.736        -466.474          43.000  
> 2024 04 15 06 32 30.0160000  0 25                     
S33  44676604.414   234777316.683        -665.379          42.000  
E02  28252014.142   148465355.828       -1310.103          47.000    28252013.373   113759201.936       -1003.859          51.000  
E36  28944144.460   152102863.033       -2023.730          48.000    28944145.608   116546564.317       -1550.649          52.000  
G26  25251740.667   132698823.231        -792.194          50.000    25251738.466   103401639.018        -617.377          44.000  
R20  25190780.808   134706497.391       -1544.877          41.000    25190777.855   104771809.807       -1201.411          43.000  
R10  24765577.533   132014537.268       -2018.381          49.000                                                                  
R09  26605927.162   142074151.236       -4681.587          49.000    26605925.382   110502375.366       -3641.241          49.000  
R05  27514370.906   147080118.954        2368.026          48.000    27514368.650   114395602.928        1841.943          46.000  
R04  27513336.775   147332603.110        -303.052          42.000    27513330.900   114592098.987        -235.643          40.000  
G16  26800764.007   140838980.001        1794.647          47.000                                                                  
E11  31527987.775   165681102.177       -3091.934          39.000    31527984.497   126950683.934       -2369.059          45.000  
G18  26325499.184   138341803.854       -2775.067          46.000    26325494.884   107798923.506       -2162.469          49.000  
G29  28693917.758   150787947.836       -2812.543          42.000    28693909.668   117497372.848       -2191.589          38.000  
S31  43722145.183   229761556.356        -665.250          44.000  
E30  30184055.802   158618408.690        1324.497          44.000    30184057.707   121538676.166        1014.832          50.000  
R11  26579191.631   142031163.090        2021.944          50.000    26579187.394   110468784.198        1572.697          48.000  
R21  26877773.683   143828686.823        1075.452          50.000    26877768.318   111866589.222         836.432          46.000  
R19  28469754.941   152294352.827       -3434.004          39.000    28469749.778   118450767.548       -2670.789          45.000  
G23  25726389.021   135193227.536         670.593          48.000    25726383.873   105345403.355         522.461          47.000  
E34  29067144.599   152749087.973         223.209          47.000    29067145.694   117041658.336         171.078          51.000  
G27  28341189.154   148933901.718        1721.802          43.000    28341187.133   116052481.097        1341.632          41.000  
G10  27218011.025   143031719.158        2812.770          50.000    27218009.001   111453250.204        2191.757          46.000  
E25  30889322.601   162324776.488       -3380.286          45.000    30889324.185   124378876.448       -2590.091          49.000  
G31  28642730.459   150518459.842       -3269.916          41.000    28642727.420   117287158.734       -2547.901          38.000  
E14  35366943.072   185854677.665        -602.543          39.000    35366942.583   142408184.115        -461.877          44.000  
> 2024 04 15 06 33 00.0160000  0 26                     
S33  44680403.458   234797281.349        -665.924          41.000  
E02  28259530.188   148504851.322       -1323.246          47.000    28259528.893   113789464.709       -1013.931          51.000  
E36  28955711.174   152163646.014       -2028.734          49.000    28955712.145   116593138.292       -1554.514          52.000  
G26  25256318.740   132722884.168        -812.185          49.000    25256317.247   103420387.798        -632.770          44.000  
R20  25199465.183   134752933.156       -1551.296          41.000    25199461.529   104807926.547       -1206.858          43.000  
R10  24777011.334   132075475.909       -2044.666          50.000                                                                  
R09  26632254.190   142214737.650       -4691.170          48.000    26632253.068   110611720.254       -3648.685          49.000  
R05  27501112.032   147009239.155        2356.831          49.000    27501110.224   114340474.215        1833.013          48.000  
R04  27515102.588   147342051.455        -327.211          46.000    27515094.386   114599447.733        -254.399          39.000  
G16  26790552.201   140785314.944        1782.704          47.000                                                                  
E11  31545634.461   165773834.713       -3090.293          40.000    31545630.954   127021738.747       -2367.866          45.000  
G18  26341360.973   138425163.430       -2782.605          46.000    26341357.854   107863879.003       -2168.197          49.000  
G29  28709983.824   150872383.179       -2816.693          41.000    28709977.548   117563166.586       -2194.800          38.000  
S31  43725943.814   229781518.352        -665.645          44.000  
E30  30176518.530   158578797.310        1315.970          44.000    30176519.907   121508324.601        1008.343          50.000  
R11  26567898.217   141970806.933        2001.352          50.000    26567892.364   110421840.529        1556.674          48.000  
R21  26871764.403   143796530.859        1067.944          50.000    26871760.560   111841579.069         830.558          48.000  
R19  28489004.635   152397325.166       -3431.256          38.000    28488999.425   118530857.178       -2668.860          44.000  
G23  25722615.448   135173398.335         651.007          48.000    25722611.086   105329952.062         507.367          47.000  
E34  29065893.195   152742512.062         214.764          47.000    29065894.517   117036619.683         164.611          52.000  
G27  28331358.900   148882242.455        1721.836          44.000    28331356.499   116012227.178        1341.741          41.000  
G10  27201978.241   142947467.668        2803.524          49.000    27201976.733   111387599.761        2184.698          46.000  
E25  30908637.338   162426272.933       -3386.458          45.000    30908638.414   124456646.403       -2594.898          49.000  
G31  28661409.182   150616622.045       -3274.438          39.000    28661407.396   117363648.617       -2551.550          38.000  
E14  35370366.252   185872666.402        -596.991          39.000    35370365.858   142421967.680        -457.416          44.000  
E09                                                                  33707082.306                3       1017.337          25.000  
> 2024 04 15 06 33 30.0160000  0 25                     
S33  44684202.201   234817244.244        -665.607          42.000  
E02  28267119.290   148544733.533       -1335.951          47.000    28267118.048   113820023.796       -1023.644          51.000  
E36  28967305.435   152224571.952       -2033.269          48.000    28967305.901   116639821.800       -1558.008          52.000  
G26  25261008.737   132747531.132        -831.360          50.000    25261007.109   103439593.223        -648.050          44.000  
R20  25208184.496   134799559.728       -1557.508          40.000    25208181.758   104844191.651       -1211.230          44.000  
R10  24788589.014   132137193.720       -2070.323          50.000                                                                  
R09  26658635.068   142355604.579       -4700.235          49.000    26658632.829   110721283.390       -3655.805          49.000  
R05  27487916.730   146938694.052        2345.783          50.000    27487912.970   114285605.865        1824.449          48.000  
R04  27517000.059   147352220.094        -351.170          45.000    27516993.478   114607356.678        -272.965          40.000  
G16  26780408.018   140732005.190        1770.966          47.000                                                                  
E11  31563270.627   165866513.447       -3088.515          39.000    31563267.022   127092752.316       -2366.595          46.000  
G18  26357265.551   138508741.274       -2789.669          46.000    26357261.760   107929004.573       -2173.710          49.000  
G29  28726073.364   150956935.179       -2820.599          42.000    28726066.676   117629051.273       -2198.083          38.000  
S31  43729741.921   229801478.715        -665.345          44.000  
E30  30169028.223   158539433.021        1308.074          44.000    30169029.014   121478162.351        1002.248          50.000  
R11  26556715.685   141911060.666        1981.164          48.000    26556711.288   110375371.230        1541.132          49.000  
R21  26865795.873   143764592.318        1060.896          51.000    26865791.976   111816737.994         825.197          47.000  
R19  28508236.356   152500205.013       -3427.960          37.000    28508231.319   118610874.824       -2666.272          43.000  
G23  25718951.976   135154148.474         631.848          49.000    25718948.107   105314952.208         492.413          47.000  
E34  29064686.498   152736177.313         207.159          46.000    29064688.982   117031765.843         158.587          52.000  
G27  28321525.088   148830567.031        1722.710          43.000    28321522.730   115971960.645        1342.313          41.000  
G10  27185996.933   142863485.113        2794.672          48.000    27185995.082   111322158.862        2177.681          46.000  
E25  30927985.465   162527948.476       -3392.114          46.000    30927986.416   124534553.586       -2599.260          49.000  
G31  28680112.313   150714904.915       -3278.320          40.000    28680109.484   117440232.610       -2554.315          38.000  
E14  35373755.844   185890475.656        -590.521          39.000    35373755.134   142435613.719        -452.686          44.000  
> 2024 04 15 06 34 00.0160000  0 26                     
S33  44688000.662   234837203.405        -665.498          42.000  
E02  28274780.390   148584999.582       -1348.730          46.000    28274780.533   113850877.013       -1033.500          51.000  
E36  28978924.707   152285636.609       -2038.006          48.000    28978926.260   116686611.608       -1561.584          52.000  
G26  25265810.592   132772761.449        -851.034          50.000    25265807.490   103459253.184        -663.050          43.000  
R20  25216938.415   134846372.644       -1563.955          40.000    25216936.448   104880601.723       -1216.299          44.000  
R10  24800311.298   132199684.920       -2096.143          49.000                                                                  
R09  26685066.032   142496744.483       -4709.385          49.000    26685063.990   110831058.779       -3662.928          48.000  
R05  27474782.724   146868485.836        2334.375          50.000    27474779.614   114230999.502        1815.596          50.000  
R04  27519033.963   147363107.593        -375.131          47.000    27519027.255   114615824.742        -291.790          39.000  
G16  26770330.666   140679050.371        1758.930          47.000                                                                  
E11  31580895.773   165959134.690       -3086.949          38.000    31580892.329   127163721.840       -2365.173          46.000  
G18  26373210.401   138592532.310       -2796.650          47.000    26373206.610   107994296.310       -2179.304          49.000  
G29  28742185.415   151041601.265       -2824.530          42.000    28742178.835   117695024.838       -2200.708          39.000  
S31  43733539.563   229821435.189        -665.336          44.000  
E30  30161584.548   158500314.504        1299.814          44.000    30161584.998   121448188.436         995.869          49.000  
R11  26545647.993   141851925.013        1960.693          47.000    26545644.977   110329376.848        1525.063          49.000  
R21  26859866.970   143732867.549        1053.767          50.000    26859863.384   111792063.232         819.540          47.000  
R19  28527451.204   152602989.650       -3424.488          37.000    28527446.500   118690818.437       -2663.483          42.000  
G23  25715399.358   135135476.594         612.573          49.000    25715394.404   105300402.715         477.258          47.000  
E34  29063527.143   152730080.261         199.247          48.000    29063528.758   117027094.119         152.576          52.000  
G27  28311687.030   148778873.031        1723.340          41.000    28311685.296   115931679.648        1342.637          40.000  
E09  33691933.960                1       1324.995          28.000    33691928.363                        1015.287          30.000  
G10  27170066.065   142779771.785        2785.574          47.000    27170064.308   111256927.763        2170.583          45.000  
E25  30947367.581   162629798.942       -3398.081          45.000    30947367.783   124612594.806       -2603.729          49.000  
G31  28698837.395   150813302.403       -3282.074          40.000    28698834.760   117516905.927       -2557.514          40.000  
E14  35377109.266   185908103.432        -584.868          39.000    35377109.840   142449120.714        -448.069          45.000  
> 2024 04 15 06 34 30.0160000  0 26                     
S33  44691797.568   234857157.111        -665.108          42.000  
E02  28282515.845   148625648.981       -1361.451          46.000    28282515.947   113882023.939       -1043.180          51.000  
E36  28990571.846   152346838.142       -2042.362          48.000    28990572.735   116733506.282       -1564.964          52.000  
G26  25270723.110   132798574.740        -870.363          51.000    25270718.988   103479367.418        -678.113          43.000  
R20  25225726.719   134893368.834       -1569.396          40.000    25225724.752   104917154.306       -1220.825          44.000  
R10  24812178.581   132262947.362       -2121.689          48.000                                                                  
R09  26711548.242   142638152.727       -4718.144          50.000    26711545.203   110941042.897       -3669.617          49.000  
R05  27461712.291   146798618.390        2323.089          49.000    27461708.333   114176658.210        1806.882          48.000  
R04  27521200.999   147374714.613        -398.984          49.000    27521193.824   114624852.525        -309.992          36.000  
G16  26760321.593   140626452.552        1747.357          47.000                                                                  
E11  31598509.914   166051697.094       -3084.577          39.000    31598506.503   127234646.286       -2363.441          46.000  
G18  26389196.259   138676534.031       -2803.573          46.000    26389191.923   108059752.189       -2184.641          49.000  
G29  28758319.662   151126380.973       -2827.826          43.000    28758312.684   117761086.942       -2203.705          40.000  
S31  43737336.064   229841386.550        -664.985          44.000  
E30  30154187.296   158461442.852        1291.454          44.000    30154187.899   121418403.671         989.653          49.000  
R11  26534698.041   141793402.579        1940.421          48.000    26534693.141   110283859.427        1509.231          48.000  
R21  26853978.134   143701355.019        1046.781          50.000    26853972.987   111767553.571         814.146          45.000  
R19  28546648.367   152705677.318       -3421.448          38.000    28546642.430   118770686.635       -2660.791          41.000  
G23  25711956.684   135117383.731         593.329          49.000    25711951.447   105286304.383         462.280          47.000  
E34  29062412.322   152724219.765         191.238          48.000    29062413.721   117022603.625         146.583          52.000  
G27  28301846.305   148727160.501        1723.856          41.000    28301844.428   115891384.155        1343.612          40.000  
E09  33684357.819                        1322.670          27.000    33684365.972                        1012.907          26.000  
G10  27154187.834   142696330.319        2776.832          47.000    27154185.323   111191908.512        2163.709          44.000  
E25  30966781.583   162731822.460       -3403.864          45.000    30966782.331   124690768.621       -2608.062          49.000  
G31  28717582.787   150911810.944       -3285.443          38.000    28717580.002   117593665.754       -2560.077          38.000  
E14  35380428.363   185925550.143        -578.483          38.000    35380429.969   142462488.980        -443.322          44.000  
> 2024 04 15 06 35 00.0170000  0 26                     
S33  44695593.464   234877104.717        -664.651          42.000  
E02  28290324.715   148666680.973       -1374.205          47.000    28290324.335   113913464.024       -1052.871          51.000  
E36  29002244.446   152408175.220       -2046.803          48.000    29002244.913   116780504.806       -1568.292          52.000  
G26  25275745.763   132824970.005        -889.491          50.000    25275742.533   103499935.142        -693.242          44.000  
R20  25234549.167   134940546.006       -1575.341          40.000    25234547.181   104953847.645       -1225.485          43.000  
R10  24824190.244   132326978.655       -2147.165          47.000                                                                  
R09  26738080.016   142779827.993       -4726.663          51.000    26738076.529   111051234.697       -3676.296          50.000  
R05  27448705.694   146729091.969        2311.646          48.000    27448702.527   114122582.180        1797.793          48.000  
R04  27523502.047   147387041.040        -422.933          48.000    27523493.546                        -328.860          30.000  
G16  26750380.493   140574210.649        1735.321          47.000                                                                  
E11  31616112.258   166144201.010       -3082.247          37.000    31616109.122   127305525.916       -2361.706          45.000  
G18  26405221.247   138760745.133       -2810.453          48.000    26405216.942   108125371.232       -2189.927          49.000  
G29  28774472.947   151211275.546       -2831.678          41.000    28774467.925   117827238.506       -2206.630          40.000  
S31  43741131.529   229861331.104        -664.879          44.000  
E30  30146836.646   158422816.347        1283.504          44.000    30146837.588   121388806.749         983.414          49.000  
R11  26523861.935   141735492.861        1919.971          49.000    26523855.516   110238818.575        1493.369          47.000  
R21  26848129.161   143670050.757        1039.865          51.000    26848123.301   111743205.862         808.883          46.000  
R19  28565826.885   152808269.263       -3418.075          36.000    28565820.889   118850480.422       -2658.650          39.000  
G23  25708623.823   135099868.705         574.181          49.000    25708618.299   105272656.330         447.257          47.000  
E34  29061341.578   152718592.939         183.600          48.000    29061342.737   117018292.195         140.670          52.000  
G27  28292002.101   148675426.139        1724.878          41.000    28292000.008   115851071.706        1344.260          40.000  
G10  27138361.316   142613159.168        2767.767          48.000    27138357.462   111127099.889        2156.563          44.000  
E25  30986229.849   162834019.078       -3409.218          45.000    30986229.949   124769075.063       -2612.382          49.000  
G31  28736349.603   151010428.675       -3288.442          39.000    28736345.457   117670510.663       -2562.776          37.000  
E14  35383715.045   185942815.185        -572.766          39.000    35383715.313   142475718.047        -438.664          44.000  
E09                                                                  33676822.965   135602604.7041       1012.267          32.000  
> 2024 04 15 06 35 30.0170000  0 26                     
S33  44699387.987   234897046.173        -665.295          42.000  
E02  28298205.732   148708094.865       -1387.152          47.000    28298205.423   113945196.738       -1062.861          52.000  
E36  29013940.960   152469644.455       -2051.455          48.000    29013942.150   116827604.607       -1571.853          52.000  
G26  25280879.423   132851947.631        -909.268          50.000    25280877.329   103520956.653        -708.492          45.000  
R20  25243404.406   134987902.300       -1581.611          39.000    25243402.083   104990680.299       -1230.232          42.000  
R10  24836346.166   132391774.802       -2172.823          48.000                                                                  
R09  26764658.753   142921758.580       -4735.484          51.000    26764655.878   111161625.048       -3683.130          50.000  
R05  27435765.958   146659917.615        2299.632          49.000    27435761.387   114068779.883        1788.644          47.000  
R04  27525937.217   147400089.190        -447.263          47.000    27525928.776   114644588.356        -348.139          31.000  
G16  26740508.676   140522332.880        1722.799          48.000                                                                  
E11  31633702.892   166236641.565       -3080.367          35.000    31633699.989   127376356.982       -2360.393          45.000  
G18  26421284.762   138845159.944       -2817.457          47.000    26421280.957   108191148.996       -2195.408          49.000  
G29  28790648.326   151296281.583       -2835.559          41.000    28790643.460   117893476.992       -2209.729          39.000  
S31  43744925.945   229881270.667        -664.745          44.000  
E30  30139533.777   158384441.227        1274.736          44.000    30139535.057   121359402.442         976.718          49.000  
R11  26513140.155   141678205.376        1899.036          47.000    26513134.605   110194261.672        1477.064          47.000  
R21  26842317.443   143638958.411        1032.580          49.000    26842312.629   111719022.956         803.220          45.000  
R19  28584986.471   152910760.529       -3415.109          34.000    28584979.961   118930195.773       -2656.258          38.000  
G23  25705401.322   135082936.233         554.331          48.000    25705395.574   105259462.217         431.901          46.000  
E34  29060315.452   152713201.591         175.594          47.000    29060316.711   117014161.186         134.461          52.000  
G27  28282155.345   148623676.026        1725.042          42.000    28282152.251   115810746.978        1344.093          41.000  
G10  27122587.731   142530269.085        2757.946          48.000    27122584.330   111062510.281        2148.995          44.000  
E25  31005708.947   162936382.689       -3415.268          45.000    31005709.208   124847509.467       -2616.771          49.000  
G31  28755134.657   151109147.836       -3292.660          39.000    28755131.165   117747434.620       -2565.921          38.000  
E14  35386965.689   185959900.385        -566.330          39.000    35386966.683   142488809.319        -434.252          44.000  
E09                                                                  33669287.095                        1009.983          25.000  
> 2024 04 15 06 36 00.0170000  0 26                     
S33  44703182.862   234916986.927        -664.877          42.000  
E02  28306160.037   148749895.750       -1399.983          47.000    28306160.083   113977225.981       -1072.671          52.000  
E36  29025664.550   152531250.350       -2055.802          48.000    29025665.207   116874809.141       -1575.218          52.000  
G26  25286124.926   132879512.373        -928.553          50.000    25286122.459   103542435.659        -723.492          45.000  
R20  25252295.692   135035441.031       -1587.649          41.000    25252292.146   105027654.890       -1234.941          42.000  
R10  24848645.744   132457339.117       -2198.283          48.000                                                                  
R09  26791286.328   143063948.640       -4744.012          50.000    26791283.020   111272217.225       -3689.686          50.000  
R05  27422891.883   146591101.508        2287.750          48.000    27422888.107   114015256.261        1779.304          48.000  
R04  27528509.622   147413864.525        -471.227          46.000    27528504.098                        -366.698          29.000  
G16  26730706.162   140470823.649        1710.725          47.000                                                                  
E11  31651282.477   166329024.837       -3078.628          35.000    31651279.719   127447144.189       -2359.088          46.000  
G18  26437388.071   138929783.005       -2824.197          47.000    26437383.505   108257089.041       -2200.704          49.000  
G29  28806846.990   151381405.549       -2839.532          43.000    28806841.840   117959807.335       -2212.402          39.000  
S31  43748719.975   229901209.081        -664.627          44.000  
E30  30132279.687   158346321.564        1266.381          44.000    30132281.120   121330193.877         970.259          49.000  
R11  26502536.757   141621545.195        1878.197          47.000    26502531.296   110150192.692        1460.790          46.000  
R21  26836545.871   143608079.482        1025.673          49.000    26836543.074   111695006.064         797.615          46.000  
R19  28604128.097                       -3412.318          30.000    28604122.195   119009838.227       -2653.257          37.000  
G23  25702289.921   135066590.902         535.113          47.000    25702285.382   105246725.612         416.924          47.000  
E34  29059335.449   152708048.659         167.716          48.000    29059336.076   117010212.854         128.523          52.000  
G27  28272305.893   148571912.707        1725.734          43.000    28272301.239   115770411.959        1344.595          40.000  
E09  33661769.020                1       1316.345          28.000    33661768.888                        1008.222          26.000  
G10  27106867.986   142447664.235        2748.693          48.000    27106865.407   110998142.929        2141.784          44.000  
E25  31025219.998   163038919.097       -3420.671          45.000    31025221.523   124926076.299       -2621.156          49.000  
G31  28773939.929   151207972.374       -3295.542          38.000    28773936.464   117824440.617       -2568.232          37.000  
E14  35390184.112   185976811.041        -560.782          40.000    35390184.500   142501766.799        -429.725          45.000  
> 2024 04 15 06 36 30.0170000  0 26                     
S33  44706976.104   234936921.999        -664.453          42.000  
E02  28314186.457   148792079.568       -1412.743          46.000    28314186.985   114009548.634       -1082.390          51.000  
E36  29037413.320   152592987.599       -2060.272          48.000    29037413.122   116922114.301       -1578.652          52.000  
G26  25291481.301   132907660.264        -948.103          50.000    25291479.383   103564369.085        -738.639          46.000  
R20  25261218.560   135083156.622       -1593.383          40.000    25261215.387   105064766.993       -1239.565          42.000  
R10  24861089.675   132523664.996       -2223.650          49.000                                                                  
R09  26817960.162   143206390.474       -4752.370          50.000    26817957.539   111383005.191       -3696.304          49.000  
R05  27410083.912   146522644.372        2275.797          47.000    27410082.083   113962011.840        1769.917          48.000  
R04  27531218.199   147428364.141        -495.540          47.000    27531219.245   114666580.236        -384.770          35.000  
G16  26720973.874   140419681.452        1698.450          47.000                                                                  
E11  31668851.611   166421346.196       -3076.750          34.000    31668848.177   127517883.918       -2357.414          46.000  
G18  26453529.120   139014608.236       -2831.008          46.000    26453525.747   108323186.622       -2206.097          50.000  
G29  28823068.022   151466644.150       -2843.304          43.000    28823062.949   118026226.965       -2215.485          39.000  
S31  43752513.127   229921141.437        -664.304          45.000  
E30  30125074.102   158308454.952        1257.912          44.000    30125075.342   121301179.199         963.744          49.000  
R11  26492051.052   141565511.471        1857.084          47.000    26492045.452   110106610.851        1444.526          47.000  
R21  26830814.579   143577409.294        1018.708          50.000    26830812.487   111671151.470         792.317          47.000  
R19  28623251.532                       -3408.472          28.000    28623246.137   119089404.267       -2651.365          35.000  
G23  25699290.842   135050830.147         515.417          48.000    25699286.102   105234444.521         401.629          46.000  
E34  29058399.832   152703129.522         159.899          48.000    29058400.353   117006443.670         122.528          52.000  
G27  28262451.492   148520132.748        1726.182          42.000    28262448.027   115730064.014        1344.850          39.000  
E09  33654262.322                        1313.737          28.000    33654264.060                        1006.593          30.000  
G10  27091202.385   142365343.840        2739.046          47.000    27091200.695   110933997.246        2134.170          44.000  
E25  31044763.956   163141622.976       -3426.361          46.000    31044765.631   125004771.447       -2625.410          50.000  
G31  28792764.139   151306894.955       -3299.127          38.000    28792761.124   117901523.005       -2570.752          37.000  
E14  35393367.627   185993543.983        -555.159          39.000    35393368.132   142514588.118        -425.400          44.000  
> 2024 04 15 06 37 00.0170000  0 26                     
S33  44710769.959   234956858.518        -664.463          42.000  
E02  28322288.863   148834652.952       -1425.456          47.000    28322288.332   114042169.805       -1092.325          51.000  
E36  29049186.904   152654861.574       -2064.783          48.000    29049187.328   116969524.236       -1582.072          52.000  
G26  25296950.402   132936398.058        -967.911          50.000    25296947.970   103586762.171        -754.268          46.000  
R20  25270174.999   135131054.704       -1599.726          39.000    25270171.944   105102021.078       -1244.169          42.000  
R10  24873676.165   132590757.496       -2249.202          50.000                                                                  
R09  26844683.145   143349086.274       -4760.857          50.000    26844678.849   111493990.709       -3702.868          48.000  
R05  27397345.763   146454557.027        2263.288          46.000    27397344.672   113909055.046        1760.365          48.000  
R04  27534061.919   147443595.895        -520.030          47.000    27534058.927   114678427.025        -404.600          37.000  
G16  26711313.840   140368915.679        1685.662          46.000                                                                  
E11  31686408.481   166513611.550       -3074.550          33.000    31686405.421   127588580.757       -2355.775          46.000  
G18  26469710.657   139099640.377       -2837.986          47.000    26469707.104   108389445.404       -2211.324          49.000  
G29  28839312.052   151552004.090       -2847.559          44.000    28839306.352   118092741.177       -2219.110          37.000  
S31  43756306.450   229941076.146        -664.416          44.000  
E30  30117918.021   158270849.705        1249.084          44.000    30117919.372   121272364.783         957.073          49.000  
R11  26481683.287   141510114.572        1835.851          46.000    26481679.253   110063524.365        1427.847          47.000  
R21  26825124.536   143546953.620        1011.550          51.000    26825120.637   111647463.741         786.688          47.000  
R19  28642359.513                3      -3407.445          15.000    28642352.367   119168898.987       -2648.733          36.000  
G23  25696404.896   135035662.062         495.527          48.000    25696399.029   105222625.236         386.252          45.000  
E34  29057508.860   152698450.221         151.993          48.000    29057510.043   117002858.274         116.428          52.000  
G27  28252595.767   148468343.440        1726.314          42.000    28252593.114   115689708.756        1345.415          40.000  
E09  33646776.549                1       1310.872          28.000    33646773.269   135481608.145        1004.429          34.000  
G10  27075593.325   142283317.762        2729.142          49.000    27075590.442   110870080.864        2126.693          43.000  
E25  31064340.661   163244499.695       -3432.104          46.000    31064342.555   125083599.029       -2629.753          50.000  
G31  28811609.517   151405919.741       -3302.277          39.000    28811603.915   117978685.069       -2573.450          34.000  
E14  35396519.763   186010106.867        -548.970          39.000    35396519.978   142527279.122        -421.141          44.000  
> 2024 04 15 06 37 30.0170000  0 26                     
S33  44714563.049   234976791.690        -664.316          42.000  
E02  28330463.688   148877611.220       -1438.420          47.000    28330462.924   114075085.879       -1102.213          51.000  
E36  29060985.377   152716866.386       -2069.159          47.000    29060986.475   117017034.414       -1585.342          52.000  
G26  25302529.106   132965721.163        -987.325          49.000    25302527.622   103609611.339        -769.156          46.000  
R20  25279164.655   135179127.811       -1605.846          39.000    25279161.724   105139411.273       -1248.758          42.000  
R10  24886405.568   132658609.747       -2274.434          50.000                                                                  
R09  26871451.192   143492027.180       -4768.814          50.000    26871447.334   111605166.876       -3709.144          47.000  
R05  27384680.620   146386839.748        2250.966          50.000    27384676.720   113856386.111        1750.697          48.000  
R04  27537042.047   147459556.300        -544.408          46.000    27537035.808   114690840.734        -423.300          35.000  
G16  26701725.048   140318524.194        1673.239          47.000                                                                  
E11  31703954.110   166605815.575       -3072.532          32.000    31703951.157   127659230.631       -2354.234          45.000  
G18  26485930.280   139184872.710       -2844.515          48.000    26485925.612   108455860.200       -2216.556          49.000  
G29  28855576.829   151637480.793       -2851.398          43.000    28855570.363   118159346.389       -2221.411          36.000  
S31  43760099.196   229961007.156        -664.294          44.000  
E30  30110811.827   158233502.799        1240.517          45.000    30110812.502   121243748.320         950.568          50.000  
R11  26471434.715   141455353.118        1814.761          45.000    26471431.426   110020932.145        1411.309          47.000  
R21  26819473.827   143516707.047        1004.713          51.000    26819467.614   111623938.692         781.469          47.000  
R19  28661465.217                3      -3401.874          23.000    28661441.400   119248318.403       -2645.803          36.000  
G23  25693630.698   135021083.394         476.012          48.000    25693625.070   105211265.278         370.978          46.000  
E34  29056662.024   152694005.514         144.138          47.000    29056664.000   116999452.607         110.460          52.000  
G27  28242738.433   148416540.807        1726.969          42.000    28242735.240   115649343.089        1345.538          40.000  
G10  27060040.256   142201584.604        2719.480          49.000    27060037.338   110806392.730        2118.935          44.000  
E25  31083949.641   163347543.306       -3437.672          46.000    31083950.949   125162554.478       -2634.071          50.000  
G31  28830469.809   151505038.119       -3305.432          37.000    28830465.808   118055920.071       -2576.074          36.000  
E14  35399638.535   186026496.026        -543.715          39.000    35399638.577   142539837.015        -416.533          43.000  
E09                                                                  33639297.512   135451506.267        1002.000          36.000  
> 2024 04 15 06 38 00.0170000  0 26                     
S33  44718355.345   234996720.102        -664.471          42.000  
E02  28338711.266   148920952.477       -1451.357          48.000    28338710.651   114108295.402       -1112.133          51.000  
E36  29072809.104   152778998.898       -2073.474          47.000    29072810.182   117064642.446       -1588.825          52.000  
G26  25308219.904   132995627.772       -1006.919          48.000    25308218.964   103632915.192        -784.615          46.000  
R20  25288186.813   135227373.413       -1611.456          40.000    25288184.332   105176935.633       -1253.094          44.000  
R10  24899275.302   132727216.953       -2299.757          49.000                                                                  
R09  26898264.273   143635207.085       -4776.915          50.000    26898260.737   111716528.932       -3715.459          47.000  
R05  27372084.093   146319494.881        2238.302          51.000    27372077.609   113804006.789        1740.839          47.000  
R04  27540159.430   147476244.462        -568.685          46.000    27540152.842   114703820.405        -442.310          40.000  
G16  26692207.426   140268508.047        1660.612          48.000                                                                  
E11  31721487.531                       -3071.490          31.000    31721484.974   127729831.616       -2352.781          45.000  
G18  26502186.387   139270301.375       -2851.206          47.000    26502181.764   108522427.989       -2221.791          49.000  
G29  28871864.262   151723072.775       -2855.170          44.000    28871858.040   118226041.506       -2225.262          38.000  
S31  43763891.026   229980933.359        -664.366          44.000  
E30  30103754.322   158196414.002        1231.682          46.000    30103754.706   121215329.633         943.766          50.000  
R11  26461306.328   141401228.645        1793.192          46.000    26461302.474   109978835.360        1394.696          46.000  
R21  26813859.924   143486666.791         997.719          51.000    26813853.531   111600574.102         775.997          47.000  
R19  28680507.335                3      -3400.364          24.000    28680512.836   119327660.733       -2643.902          35.000  
G23  25690968.138   135007093.697         456.199          47.000    25690963.274   105200364.233         355.480          46.000  
E34  29055859.475   152689792.913         136.234          47.000    29055862.154   116996224.795         104.378          52.000  
G27  28232878.287   148364723.544        1727.320          42.000    28232874.084   115608966.037        1345.757          40.000  
E09  33631838.788                        1305.293          27.000    33631836.226   135421463.912        1000.023          37.000  
G10  27044542.996   142120145.701        2709.460          48.000    27044539.789   110742933.867        2111.029          44.000  
E25  31103588.676   163450750.621       -3443.177          45.000    31103590.314   125241635.364       -2638.291          49.000  
G31  28849348.157   151604245.769       -3308.978          39.000    28849345.662   118133224.634       -2578.046          35.000  
E14  35402724.190   186042710.530        -537.693          39.000    35402724.073   142552261.101        -412.196          43.000  
> 2024 04 15 06 38 30.0170000  0 26                     
S33  44722148.664   235016653.236        -664.424          42.000  
E02  28347034.093   148964686.970       -1464.217          48.000    28347032.769   114141806.227       -1121.900          51.000  
E36  29084658.427   152841268.179       -2077.675          47.000    29084659.621   117112355.273       -1592.045          53.000  
G26  25314023.089   133026128.195       -1026.407          48.000    25314023.463   103656681.767        -799.881          46.000  
R20  25297243.273   135275800.481       -1617.229          40.000    25297241.500   105214601.149       -1257.673          44.000  
R10  24912288.882   132796587.622       -2324.921          49.000                                                                  
R09  26925123.125   143778632.435       -4784.768          49.000    26925120.270   111828081.877       -3721.579          48.000  
R05  27359556.451   146252537.994        2225.480          50.000    27359551.521   113751929.186        1730.907          46.000  
R04  27543415.129   147493672.239        -593.131          46.000    27543410.387   114717375.438        -461.295          39.000  
G16  26682763.734   140218880.016        1647.932          48.000                                                                  
E11  31739011.993                       -3068.661          30.000    31739008.401   127800391.098       -2351.242          45.000  
G18  26518481.665   139355934.792       -2857.624          47.000    26518477.080   108589155.300       -2226.835          48.000  
G29  28888176.395   151808790.518       -2859.119          45.000    28888170.810   118292834.521       -2227.893          39.000  
S31  43767683.789   230000864.580        -664.322          44.000  
E30  30096747.100   158159595.282        1222.948          46.000    30096748.203   121187117.901         937.095          50.000  
R11  26451300.762   141347754.376        1771.730          49.000    26451295.712   109937244.296        1378.042          47.000  
R21  26808285.858   143456842.471         990.673          51.000    26808279.739   111577377.439         770.590          47.000  
R19  28699571.009                1      -3395.488          29.000    28699568.505                       -2641.019          30.000  
G23  25688419.973   134993704.641         436.368          47.000    25688415.454   105189931.236         340.007          46.000  
E34  29055104.922   152685822.172         128.494          47.000    29055106.424   116993182.296          98.431          51.000  
G27  28223016.806   148312902.618        1727.630          43.000    28223013.208   115568586.153        1346.167          40.000  
E09  33624406.252                3       1301.925          27.000    33624392.447   135391490.705         998.229          36.000  
G10  27029104.466   142039014.572        2699.302          48.000    27029102.330   110679714.869        2103.167          44.000  
E25  31123261.422   163554130.685       -3448.615          45.000    31123262.448   125320848.615       -2642.576          48.000  
G31  28868244.684   151703549.802       -3311.414          37.000    28868243.065   118210604.300       -2579.846          34.000  
E14  35405777.763   186058761.750        -532.397          39.000    35405778.241   142564560.066        -408.023          42.000  
> 2024 04 15 06 39 00.0170000  0 26                     
S33  44725941.654   235036585.441        -664.160          42.000  
E02  28355429.421   149008808.161       -1477.026          47.000    28355428.439   114175613.364       -1131.813          51.000  
E36  29096531.979   152903666.507       -2081.960          47.000    29096533.709   117160166.968       -1595.276          53.000  
G26  25319939.149   133057215.943       -1045.743          48.000    25319938.874   103680905.974        -815.010          46.000  
R20  25306332.473   135324400.966       -1622.569          40.000    25306330.163   105252401.524       -1261.954          44.000  
R10  24925443.698   132866712.571       -2349.853          49.000                                                                  
R09  26952025.856   143922292.213       -4792.356          50.000    26952023.550   111939817.149       -3727.444          49.000  
R05  27347101.610   146185966.499        2212.711          49.000    27347098.102   113700151.426        1720.983          46.000  
R04  27546806.667   147511833.414        -617.409          46.000    27546801.706   114731500.792        -480.673          39.000  
G16  26673392.677   140169636.163        1635.195          48.000                                                                  
E11  31756519.562                       -3066.445          27.000    31756520.001   127870903.632       -2349.608          44.000  
G18  26534814.272   139441764.467       -2864.155          46.000    26534810.293   108656035.558       -2231.837          48.000  
G29  28904511.274   151894627.978       -2863.006          44.000    28904505.617   118359720.801       -2231.049          40.000  
S31  43771476.341   230020794.855        -664.155          44.000  
E30  30089791.292   158123041.785        1214.076          46.000    30089792.163   121159109.391         930.297          50.000  
R11  26441413.967   141294927.587        1750.192          48.000    26441409.386   109896156.790        1361.191          46.000  
R21  26802749.802   143427226.826         984.012          50.000    26802745.878   111554343.046         765.284          47.000  
R19  28718606.944                       -3392.578          27.000    28718605.879                       -2638.450          29.000  
G23  25685985.931   134980911.069         416.712          47.000    25685981.330   105179962.210         324.645          47.000  
E34  29054394.580   152682086.190         120.808          48.000    29054395.339   116990319.678          92.532          52.000  
G27  28213153.590   148261072.211        1728.158          42.000    28213151.011   115528198.863        1346.677          40.000  
E09  33616965.075                        1299.663          28.000    33616964.883   135361583.287         996.128          34.000  
G10  27013723.051   141958187.940        2689.242          48.000    27013721.549   110616733.142        2095.615          45.000  
E25  31142965.209   163657675.649       -3454.026          45.000    31142966.392   125400188.229       -2646.668          48.000  
G31  28887157.931   151802940.459       -3314.087          39.000    28887156.402   118288051.486       -2582.770          32.000  
E14  35408799.775   186074644.011        -526.441          38.000    35408800.604   142576729.585        -403.215          42.000  
> 2024 04 15 06 39 30.0170000  0 26                     
S33  44729733.638   235056512.147        -664.139          43.000  
E02  28363898.328   149053311.361       -1490.035          47.000    28363897.172   114209713.197       -1141.584          51.000  
E36  29108430.504   152966188.007       -2086.160          48.000    29108431.194   117208073.039       -1598.451          53.000  
G26  25325966.076   133088886.367       -1065.475          49.000    25325965.337   103705584.212        -830.296          45.000  
R20  25315452.069   135373167.982       -1628.189          40.000    25315449.692   105290331.407       -1266.472          43.000  
R10  24938740.108   132937584.611       -2374.844          49.000                                                                  
R09  26978971.975   144066177.842       -4799.875          51.000    26978968.756   112051728.102       -3733.327          48.000  
R05  27334719.791   146119780.366        2199.622          48.000    27334717.362   113648673.319        1710.837          48.000  
R04  27550335.844   147530724.876        -641.863          46.000    27550329.566   114746194.089        -499.160          39.000  
G16  26664094.833   140120774.652        1622.240          47.000                                                                  
G18  26551183.740   139527783.825       -2870.597          47.000    26551180.033   108723063.615       -2236.876          49.000  
G29  28920867.467   151980580.947       -2867.255          43.000    28920862.629   118426697.093       -2234.064          40.000  
S31  43775267.762   230040719.573        -664.046          44.000  
E30  30082885.679   158086750.554        1205.210          46.000    30082886.049   121131301.828         923.620          50.000  
R11  26431648.677   141242746.670        1728.489          49.000    26431644.808   109855571.614        1344.491          46.000  
R21  26797253.479   143397814.308         976.964          49.000    26797249.155   111531466.688         759.882          47.000  
R19  28737616.727                3      -3389.178          26.000    28737631.886                3      -2645.138          19.000  
G23  25683663.844   134968709.703         396.825          48.000    25683660.212   105170454.650         309.130          47.000  
E34  29053726.780   152678579.688         112.948          48.000    29053728.124   116987632.919          86.533          52.000  
G27  28203287.755   148209228.389        1728.295          42.000    28203285.762   115487801.121        1346.759          40.000  
E09  33609560.997                        1295.047          30.000    33609551.935                         994.210          30.000  
G10  26998400.443   141877664.453        2678.952          49.000    26998398.423   110553987.619        2087.542          44.000  
E25  31162699.073   163761379.597       -3459.525          44.000    31162700.968   125479649.649       -2650.805          49.000  
G31  28906088.556   151902410.018       -3317.291          39.000    28906083.937                       -2584.882          29.000  
E14  35411789.431   186090353.801        -520.931          38.000    35411790.171   142588766.925        -398.894          42.000  
E11                                                                  31774019.173   127941365.251       -2347.844          43.000  
> 2024 04 15 06 40 00.0170000  0 26                     
S33  44733524.390   235076433.938        -664.159          42.000  
E02  28372439.923   149098197.706       -1502.652          47.000    28372438.867   114244106.624       -1151.296          51.000  
E36  29120351.058   153028832.700       -2090.209          48.000    29120352.116   117256073.519       -1601.642          53.000  
G26  25332104.264   133121140.676       -1084.978          49.000    25332102.952   103730717.407        -845.445          46.000  
R20  25324603.035   135422102.581       -1634.194          40.000    25324600.606   105328391.667       -1270.882          43.000  
R10  24952175.360   133009202.486       -2399.729          49.000                                                                  
R09  27005959.190   144210286.722       -4807.380          50.000    27005956.417   112163812.665       -3739.090          49.000  
R05  27322411.770   146053985.742        2186.478          49.000    27322409.391   113597499.789        1700.597          48.000  
R04  27553997.503   147550348.513        -666.447          46.000    27553994.615   114761456.966        -518.652          37.000  
G16  26654870.257   140072299.310        1609.377          47.000                                                                  
G18  26567588.246   139613992.173       -2876.808          46.000    26567584.837   108790238.955       -2241.735          49.000  
G29  28937244.935   152066650.614       -2870.904          42.000    28937240.852   118493764.325       -2237.122          40.000  
S31  43779058.538   230060639.423        -664.235          44.000  
E30  30076030.150   158050724.458        1196.417          46.000    30076030.533   121103697.426         916.826          50.000  
R11  26422006.372   141191216.207        1706.844          50.000    26422001.700   109815492.395        1327.450          47.000  
R21  26791795.652   143368605.108         970.129          49.000    26791790.727   111508748.478         754.638          46.000  
R19  28756624.371                3      -3385.165          23.000                                                                  
G23  25681455.297   134957103.035         376.996          47.000    25681451.164   105161410.511         293.614          47.000  
E34  29053103.174   152675303.326         105.408          47.000    29053104.420   116985122.504          80.650          51.000  
G27  28193420.312   148157373.079        1728.506          42.000    28193418.244   115447394.412        1346.902          41.000  
E09  33602162.762                        1294.319          31.000    33602156.103                         991.510          27.000  
G10  26983136.292   141797448.595        2668.710          49.000    26983133.064   110491481.775        2079.679          44.000  
E25  31182463.571   163865242.474       -3464.902          44.000    31182465.842   125559232.840       -2654.828          50.000  
G31  28925032.051   152001957.219       -3319.214          39.000    28925026.458                       -2586.603          28.000  
E14  35414746.420   186105893.342        -515.313          38.000    35414747.215   142600673.847        -394.819          42.000  
E11                                                                  31791505.998   128011776.393       -2345.980          42.000  
> 2024 04 15 06 40 30.0170000  0 26                     
S33  44737315.090   235096355.793        -664.104          42.000  
E02  28381054.963   149143470.738       -1515.537          47.000    28381054.090   114278796.339       -1161.161          51.000  
E36  29132295.657   153091602.953       -2094.180          48.000    29132296.818   117304170.210       -1604.724          53.000  
G26  25338355.051   133153982.391       -1104.521          50.000    25338352.566   103756308.330        -860.568          46.000  
R20  25333785.016   135471206.310       -1639.354          39.000    25333784.155   105366583.472       -1275.092          44.000  
R10  24965750.886   133081567.362       -2424.493          49.000                                                                  
R09  27032988.366   144354617.892       -4814.582          50.000    27032985.117   112276070.124       -3744.697          48.000  
R05  27310179.445   145988590.853        2173.268          50.000    27310176.270   113546637.127        1690.355          47.000  
R04  27557801.504   147570708.726        -690.821          48.000    27557796.475   114777292.607        -537.503          39.000  
G16  26645720.106   140024216.236        1596.340          48.000                                                                  
G18  26584029.251   139700391.157       -2882.949          46.000    26584025.691   108857562.857       -2246.569          48.000  
G29  28953647.028   152152841.066       -2874.976          44.000    28953642.290   118560925.687       -2240.350          40.000  
S31  43782849.108   230080558.516        -663.767          44.000  
E30  30069225.950   158014968.730        1187.626          46.000    30069226.598   121076300.199         909.914          50.000  
R11  26412486.092   141140343.104        1684.889          50.000    26412481.248   109775924.397        1310.467          46.000  
R21  26786374.694   143339602.212         963.533          49.000    26786371.028   111486190.737         749.345          45.000  
R19  28775599.887                3      -3383.696          27.000                                                                  
G23  25679360.489   134946095.977         356.999          47.000    25679355.704   105152833.578         278.234          47.000  
E34  29052524.136   152672260.084          97.671          47.000    29052525.074   116982790.691          74.875          51.000  
G27  28183550.990   148105510.513        1728.985          41.000    28183549.003   115406982.081        1346.984          41.000  
E09  33594779.624                        1290.433          29.000    33594791.375                3        989.603          21.000  
G10  26967930.335   141717547.130        2658.254          47.000    26967927.456   110429220.937        2071.263          44.000  
E25  31202258.932   163969266.515       -3470.027          45.000    31202261.441   125638939.515       -2658.799          50.000  
G31  28943990.423   152101581.934       -3321.924          39.000    28943987.546                       -2588.556          29.000  
E14  35417674.069   186121267.203        -509.851          40.000    35417673.467   142612453.786        -390.365          44.000  
E11                                                                  31808980.472   128082139.363       -2344.486          42.000  
> 2024 04 15 06 41 00.0170000  0 27                     
S33  44741104.394   235116268.698        -663.708          42.000  
E02  28389742.169   149189123.905       -1528.213          47.000    28389741.776   114313777.347       -1170.992          51.000  
E36  29144263.071   153154491.166       -2098.309          48.000    29144263.850   117352357.270       -1607.785          53.000  
G26  25344715.478   133187404.963       -1123.724          50.000    25344713.400   103782351.882        -875.628          47.000  
R20  25342998.321   135520471.333       -1644.817          40.000    25342996.396   105404900.717       -1279.335          45.000  
R10  24979464.887   133154669.874       -2449.138          50.000                                                                  
R09  27060056.859   144499161.098       -4821.696          51.000    27060053.005   112388492.501       -3750.270          48.000  
R05  27298019.085   145923593.258        2159.824          49.000    27298015.833   113496083.441        1679.747          47.000  
R04  27561736.447   147591800.338        -715.332          46.000    27561735.293   114793697.146        -556.459          38.000  
G16  26636643.595   139976521.640        1583.314          47.000                                                                  
G18  26600505.143   139786972.511       -2889.200          46.000    26600501.640   108925028.816       -2251.355          49.000  
G29  28970070.319   152239146.062       -2878.796          44.000    28970065.350   118628176.326       -2243.457          40.000  
S31  43786638.271   230100470.629        -663.726          44.000  
E30  30062472.503   157979478.640        1178.600          46.000    30062473.153   121049106.501         902.954          50.000  
R11  26403087.338   141090124.005        1662.943          49.000    26403083.982   109736865.113        1293.360          47.000  
R21  26780993.300   143310798.402         956.804          51.000    26780988.161   111463787.812         744.186          46.000  
R19  28794566.681                1      -3378.992          27.000                                                                  
G23  25677378.801   134935683.358         337.145          48.000    25677373.835   105144719.873         262.750          46.000  
E34  29051987.809   152669442.955          90.095          48.000    29051988.917   116980632.135          69.066          51.000  
G27  28173679.011   148053635.051        1729.447          39.000    28173676.968   115366559.673        1347.600          40.000  
E09  33587415.773                        1287.156          28.000    33587419.528                3        987.195          26.000  
G10  26952784.663   141637956.876        2647.663          46.000    26952782.169   110367202.602        2063.169          44.000  
E25  31222083.314   164073444.030       -3475.281          44.000    31222085.767   125718763.801       -2662.819          50.000  
G31  28962961.317   152201275.062       -3324.146          41.000    28962959.672                       -2589.862          31.000  
E14  35420565.889   186136469.950        -503.877          39.000    35420566.265   142624102.647        -386.156          44.000  
E11                                                                  31826441.794   128152448.774       -2342.844          41.000  
G15                                                                  30335756.670                3       -113.366          20.000  
> 2024 04 15 06 41 30.0170000  0 27                     
S33  44744893.749   235136181.101        -663.375          42.000  
E02  28398503.657   149235162.716       -1541.015          47.000    28398503.012   114349053.832       -1180.828          51.000  
E36  29156254.031   153217501.655       -2102.343          48.000    29156254.531   117400638.026       -1610.882          53.000  
G26  25351186.927   133221413.884       -1143.445          50.000    25351184.796   103808852.317        -890.921          46.000  
R20  25352241.559   135569900.967       -1650.128          39.000    25352239.248   105443346.000       -1283.708          44.000  
R10  24993317.873   133228513.574       -2473.758          49.000                                                                  
R09  27087164.732   144643917.407       -4828.687          50.000    27087160.703   112501080.627       -3755.604          48.000  
R05  27285938.077   145859003.627        2146.157          50.000    27285933.292   113445847.095        1669.385          46.000  
R04  27565813.484   147613629.537        -739.840          46.000    27565808.879   114810675.297        -575.486          38.000  
G16  26627642.977   139929223.536        1570.037          47.000                                                                  
G18  26617016.700   139873739.806       -2895.409          47.000    26617012.857   108992639.681       -2255.986          49.000  
G29  28986516.394   152325571.132       -2883.002          44.000    28986511.453   118695520.529       -2246.399          40.000  
S31  43790427.248   230120381.296        -663.831          44.000  
E30  30055770.974   157944261.365        1169.337          46.000    30055771.443   121022121.838         896.067          50.000  
R11  26393814.475   141040567.430        1640.829          49.000    26393809.990   109698321.125        1276.237          47.000  
R21  26775649.130   143282198.258         949.944          51.000    26775644.229   111441543.292         738.836          47.000  
R19  28813501.886                3      -3377.388          19.000                                                                  
G23  25675512.447   134925871.974         317.020          48.000    25675506.864   105137074.664         246.939          46.000  
E34  29051495.705   152666856.869          82.455          47.000    29051496.910   116978650.588          63.203          51.000  
G27  28163805.158   148001752.928        1729.600          38.000    28163803.784   115326132.112        1347.643          40.000  
E09  33580075.747                        1285.190          31.000    33580076.382                         983.396          30.000  
G10  26937700.526   141558686.623        2637.040          48.000    26937697.641   110305433.653        2054.708          44.000  
E25  31241937.631   164177779.268       -3480.568          44.000    31241939.788   125798708.944       -2666.873          49.000  
G31  28981945.708   152301039.215       -3326.318          41.000    28981944.531                       -2592.383          29.000  
E14  35423428.607   186151508.160        -498.516          41.000    35423428.175   142635625.420        -382.001          45.000  
E11                                                                  31843890.823   128222708.477       -2341.296          41.000  
G15                                                                  30336608.922                3       -123.770          23.000  
> 2024 04 15 06 42 00.0170000  0 26                     
S33  44748684.320   235156099.446        -664.025          42.000  
E02  28407339.908   149281594.522       -1554.145          48.000    28407338.774   114384631.454       -1190.885          52.000  
E36  29168267.875   153280640.754       -2106.654          47.000    29168269.341   117449017.338       -1614.208          52.000  
G26  25357770.988   133256016.521       -1163.123          49.000    25357768.811   103835815.394        -906.418          46.000  
R20  25361516.443   135619502.010       -1655.995          38.000    25361515.236   105481924.580       -1288.007          44.000  
R10  25007310.102   133303103.395       -2498.580          49.000                                                                  
R09  27114313.236   144788890.681       -4836.041          50.000    27114309.915   112613837.493       -3761.277          48.000  
R05  27273933.083   145794834.087        2132.049          50.000    27273929.794   113395937.508        1658.277          47.000  
R04  27570030.396   147636204.850        -764.764          48.000    27570026.799   114828233.879        -594.933          39.000  
G16  26618719.736   139882332.448        1556.342          46.000                                                                  
G18  26633564.175   139960698.697       -2901.573          47.000    26633560.787   109060399.866       -2261.050          49.000  
G29  29002986.595   152412124.753       -2887.225          44.000    29002981.715   118762964.870       -2249.432          40.000  
S31  43794216.920   230140298.160        -663.616          44.000  
E30  30049122.439   157909326.027        1159.992          45.000    30049123.305   120995353.219         888.760          50.000  
R11  26384667.421   140991684.563        1618.347          50.000    26384662.365   109660301.111        1258.782          47.000  
R21  26770343.522   143253808.855         942.931          50.000    26770338.722   111419462.710         733.415          47.000  
G23  25673761.593   134916670.548         296.636          48.000    25673756.337   105129904.740         231.016          47.000  
E34  29051049.657   152664508.730          74.339          48.000    29051050.198   116976851.388          57.024          51.000  
G27  28153932.047   147949872.476        1729.316          38.000    28153930.468   115285705.837        1347.228          40.000  
E09  33572757.660   176426058.0771       1281.197          31.000    33572754.541   135183567.1491        981.233          32.000  
G10  26922678.968   141479747.077        2626.050          48.000    26922676.371   110243922.406        2046.087          45.000  
E25  31261822.824   164282278.433       -3485.858          44.000    31261825.312   125878779.698       -2671.030          49.000  
G31  29000943.878   152400878.715       -3329.034          40.000    29000944.158   118753976.574       -2594.513          33.000  
E14  35426259.568   186166390.345        -493.440          40.000    35426260.002   142647028.628        -378.021          45.000  
E11                                                                  31861328.213   128292923.761       -2339.518          40.000  
G15                                                                  30337537.301                3       -144.691          17.000  
> 2024 04 15 06 42 30.0170000  0 27                     
S33  44752476.743   235176030.063        -664.272          42.000  
E02  28416251.671   149328425.626       -1567.544          48.000    28416250.346   114420515.008       -1201.024          52.000  
E36  29180308.403   153343913.665       -2111.213          47.000    29180309.620   117497499.176       -1617.651          52.000  
G26  25364469.740   133291219.100       -1183.241          48.000    25364467.362   103863245.949        -921.923          45.000  
R20  25370825.054   135669279.931       -1662.030          39.000    25370824.405   105520640.725       -1292.365          45.000  
R10  25021443.025   133378442.887       -2523.559          48.000                                                                  
R09  27141502.747   144934083.009       -4843.062          49.000    27141499.821   112726764.728       -3766.815          47.000  
R05  27262010.319   145731095.419        2117.558          52.000    27262005.993   113346363.023        1646.991          48.000  
R04  27574387.534   147659533.376        -789.956          49.000    27574382.775   114846378.223        -614.311          39.000  
G16  26609875.838   139835856.851        1542.380          46.000                                                                  
G18  26650150.036   140047853.728       -2908.359          48.000    26650145.771   109128312.845       -2266.159          50.000  
G29  29019483.106   152498813.191       -2891.644          44.000    29019478.058   118830514.292       -2253.412          39.000  
S31  43798009.346   230160227.012        -664.166          44.000  
E30  30042529.858   157874680.710        1150.144          45.000    30042530.599   120968806.811         881.334          50.000  
R11  26375647.792   140943484.814        1595.462          51.000    26375642.339   109622812.441        1240.900          48.000  
R21  26765077.436   143225635.803         935.626          49.000    26765073.886   111397550.389         727.964          47.000  
G23  25672128.407   134908086.654         276.019          48.000    25672124.158   105123216.003         215.069          48.000  
E34  29050648.745   152662404.311          66.237          47.000    29050649.748   116975238.959          50.780          51.000  
G27  28144061.322   147898000.825        1729.032          39.000    28144059.437   115245286.374        1347.422          40.000  
E09  33565455.904   176387690.266        1277.674          32.000    33565453.636   135154168.357         978.490          34.000  
G10  26907721.760   141401147.909        2614.346          48.000    26907719.444   110182676.363        2037.238          45.000  
E25  31281740.747   164386946.620       -3491.603          44.000    31281743.093   125958979.944       -2675.326          49.000  
G31  29019958.421   152500796.628       -3331.543          42.000    29019961.736   118831834.474       -2595.367          32.000  
E14  35429064.707   186181123.935        -488.647          41.000    35429063.259   142658317.996        -374.549          45.000  
E11                                                                  31878756.572   128363099.103       -2338.313          40.000  
E15                                                                  32777823.112                1       1141.323          28.000  
G15                                                                  30338538.576                3       -138.438          20.000  
> 2024 04 15 06 43 00.0170000  0 27                     
S33  44756271.114   235195970.022        -664.526          42.000  
E02  28425238.549   149375652.266       -1580.499          48.000    28425237.117   114456701.648       -1211.024          52.000  
E36  29192373.510   153407315.605       -2115.353          47.000    29192374.601   117546079.880       -1620.790          52.000  
G26  25371281.501   133327017.818       -1202.943          48.000    25371279.887   103891141.045        -937.429          45.000  
R20  25380165.951   135719229.445       -1667.167          38.000    25380164.652   105559490.394       -1297.042          44.000  
R10  25035717.150   133454525.803       -2548.283          49.000                                                                  
R09  27168731.810   145079486.906       -4850.072          48.000    27168729.834   112839856.556       -3772.154          48.000  
R05  27250166.921   145667788.735        2103.250          51.000    27250161.966   113297124.512        1635.853          45.000  
R04  27578882.278   147683612.272        -815.091          49.000    27578879.399   114865106.276        -634.026          42.000  
G16  26601111.073   139789795.797        1528.667          46.000                                                                  
G18  26666771.681   140135199.310       -2914.443          49.000    26666766.964   109196374.340       -2271.045          49.000  
G29  29036004.019   152585633.131       -2896.204          44.000    29035998.844   118898166.167       -2256.629          38.000  
S31  43801803.593   230180164.877        -664.551          44.000  
E30  30035992.388   157840323.412        1140.682          46.000    30035992.648   120942481.098         874.037          50.000  
R11  26366754.231   140895967.778        1572.688          49.000    26366749.949   109585854.725        1223.157          48.000  
R21  26759852.649   143197674.447         928.789          50.000    26759848.246   111375802.707         722.300          46.000  
G23  25670611.571   134900117.804         255.448          48.000    25670607.488   105117006.513         199.169          48.000  
E34  29050293.672   152660539.340          58.438          47.000    29050294.804   116973809.979          44.758          51.000  
G27  28134192.158   147846135.040        1729.122          41.000    28134189.790   115204871.490        1347.347          40.000  
E09  33558173.228   176349434.484        1273.588          35.000    33558172.283   135124855.383         976.081          34.000  
G10  26892829.613   141322888.668        2603.056          48.000    26892827.816   110121695.188        2028.397          46.000  
E25  31301689.499   164491778.830       -3496.801          44.000    31301692.088   126039305.883       -2679.405          49.000  
G31  29038985.897   152600786.781       -3333.783          39.000    29038984.459   118909748.783       -2598.114          32.000  
E14  35431839.518   186195706.265        -483.280          41.000    35431838.486   142669491.457        -370.282          45.000  
E11                                                                  31896173.759   128433231.315       -2336.904          40.000  
E15                                                                  32769331.969                        1137.884          29.000  
G15                                                                  30339601.010                3       -146.362          25.000  
> 2024 04 15 06 43 30.0170000  0 27                     
S33  44760068.179   235215922.522        -665.211          42.000  
E02  28434301.461   149423278.601       -1594.178          48.000    28434300.018   114493194.539       -1221.540          51.000  
E36  29204464.375   153470849.707       -2119.929          48.000    29204464.809   117594761.849       -1624.364          52.000  
G26  25378207.746   133363416.799       -1223.209          48.000    25378206.876   103919503.879        -953.270          46.000  
R20  25389540.296   135769353.790       -1673.440          40.000    25389537.303   105598476.029       -1301.710          43.000  
R10  25050130.594   133531354.148       -2573.277          49.000                                                                  
R09  27196001.777   145225102.823       -4857.334          50.000    27195999.779   112953113.273       -3777.811          49.000  
R05  27238405.468   145604922.823        2088.146          50.000    27238401.338   113248228.852        1623.975          45.000  
R04  27583519.131   147708446.590        -840.465          47.000    27583516.004   114884421.825        -653.602          43.000  
G16  26592426.312   139744156.694        1514.344          47.000                                                                  
G18  26683429.709   140222737.945       -2921.162          48.000    26683424.538   109264586.271       -2276.190          48.000  
G29  29052552.100   152672588.819       -2900.702          45.000    29052546.060   118965923.832       -2260.486          38.000  
S31  43805600.332   230200116.449        -665.285          44.000  
E30  30029510.141   157806260.121        1130.708          46.000    30029510.688   120916380.668         866.260          50.000  
R11  26357990.583   140849141.069        1549.308          49.000    26357987.048   109549433.944        1204.942          49.000  
R21  26754667.088   143169928.409         921.265          50.000    26754662.756   111354222.498         716.583          46.000  
G23  25669213.788   134892769.485         234.660          49.000    25669208.663   105111280.576         182.742          48.000  
E34  29049985.454   152658917.549          50.054          48.000    29049986.285   116972567.323          38.356          51.000  
G27  28124324.862   147794280.296        1728.342          42.000    28124322.352   115164465.239        1346.532          41.000  
E09  33550917.140   176311297.021        1269.637          34.000    33550914.951   135095633.200         972.620          38.000  
G10  26878003.456   141244976.922        2591.247          47.000    26878001.411   110060984.769        2018.988          45.000  
E25  31321670.320   164596778.134       -3502.779          44.000    31321672.554   126119759.833       -2683.849          49.000  
G31  29058026.591   152700850.410       -3336.493          35.000    29058024.475   118987720.313       -2599.524          33.000  
E14  35434585.356   186210142.713        -478.764          39.000    35434585.484   142680553.127        -366.819          45.000  
E11                                                                  31913581.297   128503323.302       -2335.562          40.000  
E15                                                                  32760871.120                        1133.158          29.000  
G15                                                                  30340731.348                3       -149.391          18.000  
> 2024 04 15 06 44 00.0170000  0 27                     
S33  44763866.594   235235883.443        -665.370          42.000  
E02  28443439.371   149471299.643       -1607.050          48.000    28443438.190   114529989.859       -1231.366          51.000  
E36  29216579.250   153534509.962       -2123.916          48.000    29216578.957   117643540.481       -1627.369          52.000  
G26  25385247.734   133400410.985       -1242.867          47.000    25385247.149   103948330.500        -968.409          46.000  
R20  25398945.637   135819646.197       -1678.894          39.000    25398942.359   105637592.345       -1305.935          44.000  
R10  25064681.305   133608919.357       -2597.648          48.000                                                                  
R09  27223310.219   145370921.238       -4863.844          51.000    27223307.505   113066527.470       -3782.859          50.000  
R05  27226728.663   145542497.340        2073.674          50.000    27226724.088   113199675.744        1612.771          46.000  
R04  27588296.650   147734032.122        -865.138          47.000    27588292.937   114904321.683        -672.692          41.000  
G16  26583821.427   139698937.133        1500.509          46.000                                                                  
G18  26700123.032   140310462.908       -2927.087          48.000    26700118.145   109332943.371       -2280.768          49.000  
G29  29069123.303   152759676.178       -2904.834          44.000    29069118.877   119033784.081       -2263.544          38.000  
S31  43809398.528   230220076.268        -665.104          44.000  
E30  30023083.580   157772487.657        1121.087          46.000    30023084.037   120890503.057         859.040          51.000  
R11  26349357.201   140803002.566        1526.684          49.000    26349353.361   109513548.441        1187.425          49.000  
R21  26749521.393   143142392.220         914.648          50.000    26749517.470   111332805.486         711.418          46.000  
G23  25667932.824   134886037.980         214.281          49.000    25667927.730   105106035.241         167.065          48.000  
E34  29049721.831   152657533.497          42.448          47.000    29049722.937   116971506.836          32.466          51.000  
G27  28114458.740   147742432.500        1728.421          42.000    28114456.437   115124064.391        1346.734          41.000  
E09  33543680.064   176273275.279        1265.502          36.000    33543679.183   135066499.566         969.688          41.000  
G10  26863242.127   141167410.965        2580.067          46.000    26863241.184   110000543.822        2010.408          45.000  
E25  31341681.872   164701938.311       -3507.606          44.000    31341683.847   126200337.086       -2687.782          49.000  
G31  29077081.194   152800979.617       -3338.623          34.000    29077081.894   119065742.910       -2601.264          33.000  
E14  35437303.773   186224429.515        -473.425          40.000    35437304.446   142691500.136        -362.716          45.000  
E11                                                                  31930977.347   128573370.947       -2333.774          39.000  
E15                                                                  32752439.563                        1129.739          31.000  
G15                                                                  30341951.001                3       -184.224          14.000  
> 2024 04 15 06 44 30.0170000  0 27                     
S33  44767664.010   235255839.522        -665.149          42.000  
E02  28452650.318   149519701.581       -1619.682          48.000    28452648.830   114567077.027       -1241.013          52.000  
E36  29228713.508   153598281.476       -2127.392          48.000    29228714.161   117692404.373       -1630.053          52.000  
G26  25392398.075   133437986.405       -1261.987          48.000    25392397.303   103977610.026        -983.406          46.000  
R20  25408378.407   135870091.693       -1683.807          38.000    25408376.494   105676827.752       -1309.638          45.000  
R10  25079365.518   133687205.718       -2621.395          47.000                                                                  
R09  27250652.365   145516924.640       -4869.778          50.000    27250649.467   113180085.529       -3787.508          50.000  
R05  27215129.736   145480502.731        2059.342          48.000    27215124.997   113151457.727        1601.744          42.000  
R04  27593213.164   147760355.452        -889.630          48.000    27593206.263   114924795.357        -691.842          42.000  
G16  26575294.233   139654125.951        1487.003          46.000                                                                  
G18  26716848.848   140398358.696       -2932.571          48.000    26716843.941   109401433.591       -2285.156          49.000  
G29  29085718.012   152846881.778       -2908.902          45.000    29085713.809   119101736.478       -2266.846          38.000  
S31  43813195.801   230240030.662        -665.164          44.000  
E30  30016710.038   157738993.918        1111.941          46.000    30016710.410   120864839.029         852.005          51.000  
R11  26340849.301   140757541.659        1503.962          49.000    26340845.427   109478189.976        1169.884          49.000  
R21  26744412.055   143115050.980         908.308          49.000    26744407.593   111311540.079         706.362          46.000  
G23  25666766.495   134879910.674         194.280          48.000    25666761.801   105101260.712         151.378          47.000  
E34  29049501.393   152656372.864          35.110          47.000    29049502.370   116970617.544          26.815          51.000  
G27  28104591.241   147690578.792        1728.674          41.000    28104589.355   115083658.921        1347.014          42.000  
E09  33536463.951   176235357.421        1262.074          35.000    33536463.492   135037445.661         967.077          40.000  
G10  26848545.615   141090180.391        2568.898          47.000    26848544.501   109940364.215        2001.714          45.000  
E25  31361721.511   164807244.406       -3512.553          43.000    31361723.009   126281026.118       -2691.474          49.000  
G31  29096144.970   152901157.638       -3339.723          35.000    29096140.152   119143803.610       -2602.911          33.000  
E14  35439991.857   186238553.930        -467.975          40.000    35439992.617   142702322.757        -358.594          46.000  
E11                                                                  31948360.195   128643363.342       -2332.320          39.000  
E15                                                                  32744032.805   131846659.6881       1127.116          30.000  
G15                                                                  30343233.696                3       -172.352          18.000  
