     3.00           OBSERVATION DATA    M: Mixed            RINEX VERSION / TYPE
CONVBIN 2.4.3                           20240415 095942 UTC PGM / RUN BY / DATE 
format: u-blox UBX                                          COMMENT             
log: /home/regis/git/gnsspwv/obsdata/VERT00CHL/2024-04-15/VECOMMENT             
{self.marker}                                               MARKER NAME         
                                                            MARKER NUMBER       
GEODETIC                                                    MARKER TYPE         
{self.observer}     {self.institution}                      OBSERVER / AGENCY   
UNKNOWN             UBLOX-ZED-F9P                           REC # / TYPE / VERS 
UNKNOWN             TWIVSP6037L                             ANT # / TYPE        
  1713381.0000 -5047934.0000 -3490983.0000                  APPROX POSITION XYZ 
        0.0000        0.0000        0.0000                  ANTENNA: DELTA H/E/N
G    8 C1C L1C D1C S1C C2L L2L D2L S2L                      SYS / # / OBS TYPES 
R    8 C1C L1C D1C S1C C2C L2C D2C S2C                      SYS / # / OBS TYPES 
E    8 C1C L1C D1C S1C C7Q L7Q D7Q S7Q                      SYS / # / OBS TYPES 
S    4 C1C L1C D1C S1C                                      SYS / # / OBS TYPES 
  2024    04    15    09    45   00.0000000     GPS         TIME OF FIRST OBS   
  2024    04    15    09    59   30.0010000     GPS         TIME OF LAST OBS    
                                                            END OF HEADER       
> 2024 04 15 09 45 00.0000000  0 25                     
S33  39820437.190   209258019.7691       -642.972          42.000  
E05  23721194.682   124655750.3901       -330.144          46.000    23721194.052    95515463.5951       -252.975          51.000  
E36  27638909.146   145243416.3931      -2285.079          33.000    27638911.478   111290924.0971      -1751.163          40.000  
G02  23282945.034   122352719.5571       2017.811          45.000                                                                  
R20  23820045.423   127376553.6661      -3189.240          38.000    23820044.122    99070741.1881      -2480.225          38.000  
R08  23550883.785   126113932.8111       3872.045          48.000    23550877.926    98088757.4051       3011.553          45.000  
R06  20026167.021   106863526.4681      -2189.255          40.000                                                                  
R22  20843619.793   111264630.3691       1460.834          50.000    20843615.638    86539233.0611       1136.182          49.000  
G16  23608789.176   124065030.8161      -3923.345          39.000                                                                  
G08  20516101.829   107813008.7611        693.302          49.000    20516098.828    84010077.7261        540.344          46.000  
S31  38866552.390   204245271.9161       -643.814          44.000  
E30  26011401.197   136690948.8851      -3066.979          43.000    26011399.734   104737116.5041      -2350.143          49.000  
R21  20363680.126   108970489.1691      -1073.708          52.000    20363674.328    84754665.6661       -835.016          50.000  
E15  24812420.822   130390224.2621        415.105          47.000    24812421.098    99909443.7851        318.033          51.000  
G23  24922439.277                2      -4029.735          25.000    24922427.370                3      -3138.350          22.000  
E34  24346174.775   127940251.9321      -1190.915          45.000    24346176.373    98032296.0031       -912.530          54.000  
G27  20405191.810   107229981.0051      -1627.028          49.000    20405187.874    83555925.7641      -1267.941          48.000  
G10  21772157.311   114413597.2521      -3422.556          50.000    21772152.619    89153422.4291      -2667.215          43.000  
E03  25510631.443   134059310.5211       1875.199          46.000    25510631.000   102720792.1781       1436.829          48.000  
G21  22212495.966   116727462.8851       1884.421          46.000                                                                  
E27  26144703.583   137391221.1871      -1032.729          44.000    26144704.620   105273905.5091       -791.271          47.000  
E18  25906227.333   136138189.2201      -1468.717          45.000                                                                  
G32  21758309.104   114340719.7371        321.475          48.000    21758304.953    89096674.7731        250.353          44.000  
E09                                                                  28196759.440                3      -1989.798          26.000  
R12                                                                  23344508.624                3      -2360.349          10.000  
> 2024 04 15 09 45 30.0000000  0 25                     
S33  39824109.075   209277313.794        -642.998          42.000  
E05  23723119.074   124665868.345        -344.100          46.000    23723119.322    95523216.340        -263.708          51.000  
E36  27651958.352   145311999.089       -2286.067          32.000    27651962.313   111343474.383       -1752.037          39.000  
G02  23271430.705   122292209.083        2016.510          45.000                                                                  
R20  23837956.595   127472334.807       -3196.198          37.000    23837954.980    99145237.532       -2485.638          38.000  
R08  23529201.518   125997824.305        3868.952          48.000    23529195.230    97998450.862        3009.217          44.000  
R06  20038545.078   106929577.009       -2213.790          39.000                                                                  
R22  20835421.805   111220867.371        1456.982          52.000    20835417.183    86505195.248        1133.209          49.000  
G16  23631193.924   124182772.890       -3925.868          40.000                                                                  
G08  20512191.379   107792458.906         676.854          50.000    20512188.636    83994064.866         527.428          46.000  
S31  38870226.880   204264583.910        -643.525          43.000  
E30  26028924.710   136783045.447       -3072.383          42.000    26028925.106   104807684.022       -2354.205          49.000  
R21  20369730.374   109002863.514       -1084.314          53.000    20369724.554    84779845.725        -843.553          50.000  
E15  24810053.725   130377787.441         414.264          47.000    24810054.369    99899914.300         317.399          51.000  
E34  24352980.582   127976014.802       -1192.867          46.000    24352981.714    98059698.735        -914.043          54.000  
G27  20414532.506   107279064.674       -1644.855          50.000    20414528.170    83594172.798       -1281.837          48.000  
G10  21791718.557   114516392.048       -3430.198          50.000    21791714.514    89233522.269       -2672.816          44.000  
E03  25499946.050   134003153.335        1868.981          47.000    25499944.554   102677762.645        1431.920          48.000  
G21  22201745.004   116670965.811        1882.339          46.000                                                                  
E27  26150637.642   137422408.851       -1046.028          43.000    26150639.427   105297802.565        -801.557          47.000  
E18  25914614.622   136182262.680       -1469.044          45.000                                                                  
G32  21756529.283   114331368.727         302.277          49.000    21756526.040    89089388.272         235.468          45.000  
E09                                                                  28211626.674                3      -1998.826          25.000  
G23                                                                  24945431.037                3      -3144.208          21.000  
R07                                                                  19970693.710                3       1654.352          14.000  
> 2024 04 15 09 46 00.0000000  0 24                     
S33  39827778.421   209296595.920        -642.519          42.000  
E05  23725122.356   124676391.173        -357.456          47.000    23725121.797    95531279.280        -273.891          51.000  
E36  27665012.020   145380598.174       -2286.428          31.000    27665016.471   111396037.306       -1752.312          41.000  
G02  23259920.905   122231724.376        2015.727          45.000                                                                  
R20  23855904.431   127568311.001       -3202.337          37.000    23855902.848    99219885.742       -2490.930          37.000  
R08  23507536.704   125881802.942        3866.083          49.000    23507529.111    97908212.065        3006.865          43.000  
R06  20051058.996   106996350.444       -2237.880          40.000                                                                  
R22  20827243.486   111177209.687        1453.552          51.000    20827238.531    86471239.325        1130.603          48.000  
G16  23653610.612   124300575.049       -3927.612          40.000                                                                  
G08  20508373.524   107772395.029         660.680          49.000    20508370.987    83978430.670         514.775          46.000  
S31  38873899.879   204283883.317        -643.085          43.000  
E30  26046478.439   136875288.748       -3077.251          44.000    26046478.465   104878363.960       -2357.859          49.000  
R21  20375837.633   109035550.931       -1094.791          51.000    20375832.764    84805269.258        -851.473          49.000  
E15  24807689.231   130365362.871         414.067          47.000    24807690.051    99890394.223         317.224          51.000  
E34  24359795.230   128011822.276       -1194.259          46.000    24359795.742    98087135.631        -915.082          54.000  
G27  20423972.145   107328676.003       -1662.441          48.000    20423968.280    83632830.947       -1295.455          48.000  
G10  21811320.635   114619402.705       -3437.166          50.000    21811316.303    89313790.334       -2678.253          43.000  
E03  25489292.430   133947172.214        1863.107          46.000    25489292.228   102634868.036        1427.503          49.000  
G21  22191003.649   116614520.374        1880.689          46.000                                                                  
E27  26156647.384   137453986.616       -1059.119          43.000    26156648.126   105321998.521        -811.501          47.000  
E18  25923001.095   136226332.813       -1468.974          46.000                                                                  
G32  21754858.445   114322588.436         283.286          48.000    21754854.715    89082546.517         220.738          44.000  
E09                                                                  28226542.779                3      -2000.036          17.000  
G23                                                                  24968447.042                3      -3139.887          22.000  
> 2024 04 15 09 46 30.5000000  0 23                     
S33  39831506.450   209316189.102        -642.021          42.000  
E05  23727236.920   124687506.486        -371.552          46.000    23727236.679    95539796.236        -284.618          51.000  
E36  27678293.597   145450359.862       -2287.960          33.000    27678291.826   111449490.945       -1752.864          42.000  
G02  23248224.811   122170260.550        2014.467          46.000                                                                  
R20  23874190.433   127666089.367       -3209.290          38.000    23874188.642    99295935.545       -2496.527          37.000  
R08  23485526.048   125763942.500        3862.344          49.000    23485519.095    97816542.884        3004.044          43.000  
R06  20063919.894   107064976.902       -2262.527          40.000                                                                  
R22  20818949.801   111132935.884        1449.487          53.000    20818944.688    86436804.191        1127.393          49.000  
G16  23676412.862   124420400.981       -3929.873          41.000                                                                  
G08  20504587.125   107752498.659         643.735          49.000    20504584.682    83962927.009         501.776          46.000  
S31  38877631.732   204303494.789        -642.988          44.000  
E30  26064353.358   136969219.468       -3082.378          45.000    26064353.334   104950336.843       -2361.745          49.000  
R21  20382108.403   109069107.181       -1105.842          51.000    20382102.835    84831368.580        -860.063          49.000  
E15  24805287.157   130352745.516         413.367          46.000    24805288.946    99880726.420         316.603          51.000  
E34  24366732.101   128048274.284       -1196.134          46.000    24366732.466    98115066.418        -916.507          54.000  
G27  20433673.570   107379656.629       -1680.735          49.000    20433669.460    83672556.124       -1309.646          47.000  
G10  21831291.660   114724350.563       -3444.813          50.000    21831287.085    89395567.893       -2684.156          42.000  
E03  25478497.203   133890442.200        1856.728          46.000    25478496.573   102591399.590        1422.674          48.000  
G21  22180093.704   116557188.835        1878.638          45.000                                                                  
E27  26162832.674   137486491.487       -1072.471          44.000    26162833.973   105346904.920        -821.752          47.000  
E18  25931526.370   136271135.167       -1469.021          45.000                                                                  
G32  21753271.583   114314250.129         263.478          48.000    21753268.026    89076049.120         205.382          45.000  
G23                                                                  24991791.060                3      -3136.787          19.000  
> 2024 04 15 09 47 00.5000000  0 23                     
S33  39835173.469   209335457.986        -642.483          42.000  
E05  23729395.573   124698859.020        -385.384          44.000    23729396.789    95548494.959        -295.388          49.000  
E36  27691356.026   145519005.886       -2288.352          34.000    27691354.678   111502089.838       -1753.708          41.000  
G02  23236726.951   122109842.235        2013.239          44.000                                                                  
R20  23892214.594   127762474.074       -3216.314          38.000    23892213.027    99370901.287       -2501.428          39.000  
R08  23463896.902   125648119.528        3858.916          49.000    23463890.251    97726458.396        3001.380          44.000  
R06  20076706.798   107133212.593       -2286.534          39.000                                                                  
R22  20810813.538   111089508.206        1445.483          51.000    20810808.464    86403027.171        1124.219          48.000  
G16  23698854.003   124538327.393       -3932.166          42.000                                                                  
G08  20500958.980   107733432.995         627.149          49.000    20500956.566    83948070.676         488.659          46.000  
S31  38881301.525   204322782.506        -643.049          43.000  
E30  26081964.298   137061764.568       -3087.602          45.000    26081963.177   105021248.057       -2365.751          48.000  
R21  20388337.894   109102442.906       -1116.860          52.000    20388333.064    84857296.394        -868.678          49.000  
E15  24802930.768   130340357.760         412.312          47.000    24802931.689    99871234.521         316.021          51.000  
E34  24373565.399   128084184.890       -1198.074          46.000    24373566.002    98142582.334        -918.020          54.000  
G27  20443318.760   107430343.732       -1698.603          48.000    20443314.345    83712052.576       -1323.567          47.000  
G10  21850976.922   114827800.875       -3452.264          49.000    21850973.061    89476178.520       -2689.919          44.000  
E03  25467914.792   133834834.046        1850.264          46.000    25467915.167   102548790.765        1417.694          49.000  
G21  22169374.842   116500862.599        1876.338          46.000                                                                  
E27  26168993.943   137518865.897       -1085.802          45.000    26168994.456   105371711.333        -832.030          47.000  
E18  25939913.859   136315209.160       -1469.430          45.000                                                                  
G32  21751822.798   114306637.501         243.852          47.000    21751819.263    89070117.242         190.014          44.000  
G23                                                                  25014772.288                3      -3133.614          18.000  
> 2024 04 15 09 47 30.5000000  0 23                     
S33  39838839.894   209354726.002        -641.974          42.000  
E05  23731635.410   124710627.725        -398.906          44.000    23731636.268    95557512.555        -305.809          49.000  
E36  27704423.153   145587679.978       -2289.072          35.000    27704423.051   111554710.220       -1754.371          41.000  
G02  23225237.127   122049461.765        2012.361          45.000                                                                  
R20  23910277.544   127859064.958       -3223.236          38.000    23910275.825    99446027.440       -2506.458          39.000  
R08  23442287.628   125532404.941        3855.461          49.000    23442280.921    97636458.185        2998.716          44.000  
R06  20089629.377   107202173.304       -2310.548          39.000                                                                  
R22  20802700.238   111046201.636        1441.724          51.000    20802695.806    86369344.336        1121.234          48.000  
G16  23721306.387   124656314.429       -3933.838          41.000                                                                  
G08  20497426.382   107714869.508         610.496          49.000    20497424.608    83933605.643         475.509          47.000  
S31  38884971.904   204342068.163        -642.496          43.000  
E30  26099602.974   137154460.297       -3092.228          44.000    26099602.693   105092274.662       -2369.284          48.000  
R21  20394629.630   109136106.608       -1127.442          53.000    20394623.516    84883479.294        -876.930          49.000  
E15  24800577.614   130327992.342         412.018          47.000    24800578.720    99861759.745         315.688          51.000  
E34  24380409.736   128120151.283       -1199.527          47.000    24380409.987    98170141.016        -919.143          54.000  
G27  20453066.313   107481568.264       -1716.396          48.000    20453062.190    83751967.808       -1337.441          47.000  
G10  21870704.430   114931469.464       -3459.085          50.000    21870700.228    89556959.285       -2695.444          45.000  
E03  25457369.652   133779417.871        1844.117          46.000    25457369.870   102506329.030        1413.095          50.000  
G21  22158669.131   116444600.897        1874.372          46.000                                                                  
E27  26175230.610   137551638.412       -1098.865          45.000    26175230.526   105396822.790        -841.939          47.000  
E18  25948301.973   136359288.403       -1469.154          46.000                                                                  
G32  21750485.767   114299610.352         224.674          48.000    21750481.392    89064641.539         175.150          43.000  
G23                                                                  25037741.668                3      -3135.144          19.000  
> 2024 04 15 09 48 00.5000000  0 24                     
S33  39842503.798   209373980.837        -641.373          42.000  
E05  23733953.704   124722802.174        -412.327          46.000    23733953.280    95566841.047        -315.915          50.000  
E36  27717493.803   145656371.937       -2290.128          35.000    27717494.238   111607344.292       -1754.604          42.000  
G02  23213752.259   121989108.969        2011.591          45.000                                                                  
R20  23928377.959   127955851.620       -3229.010          38.000    23928375.839    99521305.896       -2511.462          39.000  
R08  23420697.359   125416791.305        3852.331          50.000    23420690.271    97546536.545        2996.309          44.000  
R06  20102686.258   107271845.335       -2334.367          40.000                                                                  
R22  20794609.063   111003006.943        1438.110          52.000    20794603.748    86335748.498        1118.622          49.000  
G16  23743766.865   124774348.513       -3935.046          39.000                                                                  
G08  20493987.477   107696799.421         594.408          50.000    20493985.865    83919525.077         463.208          47.000  
S31  38888638.779   204361341.375        -641.964          44.000  
E30  26117267.865   137247293.856       -3096.446          44.000    26117268.680   105163406.895       -2372.600          48.000  
R13  23946125.790                3      -1054.617          10.000    23946351.785                3       -377.367          11.000  
R21  20400979.923   109170088.804       -1137.806          52.000    20400973.971    84909909.870        -884.919          49.000  
E15  24798226.891   130315638.523         411.776          47.000    24798227.582    99852293.864         315.575          51.000  
E34  24387262.589   128156163.098       -1201.005          47.000    24387262.890    98197734.480        -920.125          54.000  
G27  20462913.262   107533319.224       -1733.478          47.000    20462910.925    83792293.263       -1350.843          48.000  
G10  21890471.407   115035343.038       -3465.399          50.000    21890467.046    89637899.735       -2700.437          45.000  
E03  25446859.828   133724184.860        1838.214          47.000    25446859.607   102464007.661        1408.488          50.000  
G21  22147972.391   116388394.454        1872.909          46.000                                                                  
E27  26181540.207   137584797.589       -1111.498          45.000    26181540.405   105422230.495        -851.641          46.000  
E18  25956688.435   136403361.733       -1468.794          45.000                                                                  
G32  21749258.570   114293159.435         205.674          47.000    21749253.035    89059614.848         160.399          42.000  
G23                                                                  25060692.751                3      -3124.592          21.000  
> 2024 04 15 09 48 30.0000000  0 24                     
S33  39846105.279   209392907.080        -641.337          42.000  
E05  23736308.688   124735174.760        -425.991          45.000    23736307.260    95576321.337        -326.424          49.000  
E36  27730352.872   145723941.764       -2290.464          34.000    27730352.151   111659118.600       -1755.320          42.000  
G02  23202465.611   121929795.004        2010.296          46.000                                                                  
R20  23946212.333   128051220.959       -3236.096          40.000    23946210.873    99595481.969       -2516.998          39.000  
R08  23399486.965   125303211.511        3848.664          48.000    23399479.076    97458196.761        2993.390          45.000  
R06  20115655.683   107341052.339       -2357.460          40.000    20116500.438                3      -1463.844          12.000  
R22  20786673.555   110960648.179        1434.009          52.000    20786667.855    86302802.861        1115.326          48.000  
G16  23765863.033   124890463.332       -3936.694          41.000                                                                  
G08  20490698.998   107679518.584         577.616          49.000    20490697.779    83906059.500         450.170          47.000  
S31  38892243.660   204380286.040        -642.092          43.000  
E30  26134665.177   137338717.606       -3101.289          44.000    26134666.251   105233458.861       -2376.230          49.000  
R21  20407283.370   109203821.862       -1148.707          52.000    20407277.887    84936146.693        -893.458          49.000  
E15  24795917.308   130303506.914         411.098          46.000    24795919.057    99842998.257         315.026          51.000  
E34  24394011.545   128191624.350       -1202.774          47.000    24394010.750    98224906.118        -921.620          54.000  
G27  20472695.508   107584725.900       -1751.093          47.000    20472693.406    83832350.415       -1364.595          48.000  
G10  21909947.405   115137687.839       -3472.362          50.000    21909942.902    89717648.940       -2705.914          44.000  
E03  25436558.872   133670057.878        1831.644          46.000    25436559.520   102422533.759        1403.450          50.000  
G21  22137466.772   116333184.614        1870.592          46.000                                                                  
E27  26187816.384   137617785.422       -1124.500          44.000    26187817.538   105447506.942        -861.649          46.000  
E18  25964935.564   136446699.232       -1468.864          46.000                                                                  
G32  21748158.605   114287384.310         186.397          47.000    21748155.665    89055114.804         145.225          44.000  
G23                                                                  25083253.942                3      -3128.173          17.000  
R07                                                                  19904606.698                3       1610.335          12.000  
> 2024 04 15 09 49 00.0000000  0 23                     
S33  39849767.247   209412150.279        -641.198          41.000  
E05  23738781.121   124748168.240        -440.019          45.000    23738779.867    95586277.424        -337.129          48.000  
E36  27743434.742   145792683.781       -2292.280          34.000    27743433.859   111711790.924       -1756.041          43.000  
G02  23190994.361   121869512.464        2008.799          45.000                                                                  
R20  23964387.337   128148409.480       -3243.085          38.000    23964385.687    99671072.929       -2522.308          40.000  
R08  23377939.325   125187822.091        3844.488          48.000    23377930.876    97368449.493        2990.167          45.000  
R06  20128977.247   107412140.530       -2381.759          40.000                                                                  
R22  20778626.805   110917694.459        1429.749          51.000    20778621.649    86269394.438        1112.122          48.000  
G16  23788342.764   125008594.865       -3938.220          42.000                                                                  
G08  20487451.250   107662446.292         560.723          50.000    20487448.550    83892756.427         436.753          46.000  
S31  38895909.801   204399547.492        -641.904          44.000  
E30  26152385.467   137431831.714       -3105.975          44.000    26152385.354   105304806.055       -2379.922          49.000  
R21  20413754.372   109238453.822       -1159.687          51.000    20413749.642    84963082.664        -902.033          49.000  
E15  24793573.061   130291189.416         410.405          45.000    24793575.026    99833560.226         314.373          51.000  
E34  24400884.112   128227740.653       -1204.743          48.000    24400883.802    98252579.664        -923.112          54.000  
G27  20482744.946   107637533.806       -1769.099          47.000    20482742.013    83873499.403       -1378.517          47.000  
G10  21929791.504   115241973.776       -3479.524          49.000    21929787.910    89798910.790       -2711.132          44.000  
E03  25426122.623   133615207.123        1825.130          47.000    25426121.240   102380505.257        1398.371          49.000  
G21  22126795.453   116277103.656        1868.442          46.000                                                                  
E27  26194275.394   137651722.559       -1137.605          45.000    26194275.184   105473510.741        -871.805          45.000  
E18  25973322.411   136490772.620       -1468.881          45.000                                                                  
G32  21747150.815   114282093.776         166.642          46.000    21747148.362    89050992.320         129.903          44.000  
R07                                                                  19896305.497                3       1599.680          11.000  
> 2024 04 15 09 49 30.0000000  0 23                     
S33  39853429.437   209431395.963        -641.252          42.000  
G23  25129102.838                3      -4015.367          26.000                                                                  
E05  23741335.615   124761584.124        -454.012          46.000    23741333.169    95596557.121        -347.919          49.000  
E36  27756522.119   145861460.548       -2292.828          34.000    27756522.141   111764489.956       -1756.948          45.000  
G02  23179531.473   121809275.097        2007.429          45.000                                                                  
R20  23982601.412   128245809.292       -3250.085          39.000    23982599.762    99746828.224       -2527.533          38.000  
R08  23356414.828   125072560.617        3839.910          48.000    23356406.854    97278801.695        2986.511          46.000  
R06  20142434.404   107483947.499       -2405.463          40.000                                                                  
R22  20770605.813   110874874.084        1425.238          51.000    20770599.962    86236089.738        1108.575          49.000  
G16  23810832.525   125126779.576       -3940.308          43.000                                                                  
G08  20484300.319   107645888.904         543.572          50.000    20484297.040    83879854.566         423.411          46.000  
S31  38899575.211   204418811.531        -642.010          43.000  
E30  26170130.599   137525093.089       -3110.862          42.000    26170132.353   105376266.097       -2383.680          49.000  
R21  20420290.409   109273424.692       -1171.162          52.000    20420285.315    84990282.239        -910.926          49.000  
E15  24791235.581   130278899.204         409.302          47.000    24791236.309    99824143.051         313.649          51.000  
E34  24407767.746   128263919.100       -1206.814          47.000    24407768.305    98280300.831        -924.738          54.000  
G27  20492897.259   107690883.174       -1787.221          48.000    20492894.185    83915070.366       -1392.499          48.000  
G10  21949676.964   115346472.774       -3486.525          49.000    21949673.520    89880338.546       -2716.909          44.000  
E03  25415722.668   133560560.867        1818.201          46.000    25415722.420   102338633.449        1393.195          49.000  
G21  22116137.149   116221096.046        1865.848          46.000                                                                  
E27  26200809.239   137686059.722       -1150.876          45.000    26200810.074   105499821.089        -881.986          47.000  
E18  25981711.525   136534854.281       -1469.431          46.000                                                                  
G32  21746258.779   114277399.385         146.810          48.000    21746255.382    89047334.347         114.436          44.000  
> 2024 04 15 09 50 00.5000000  0 22                     
S33  39857152.626   209450962.272        -641.513          41.000  
E05  23744012.031   124775653.222        -468.464          45.000    23744010.555    95607337.329        -358.918          50.000  
E36  27769833.081                       -2294.307          31.000    27769834.175   111818092.233       -1757.902          45.000  
G02  23167885.407   121748076.977        2005.640          44.000                                                                  
R20  24001159.010   128345045.859       -3257.525          40.000    24001156.794    99824012.129       -2533.506          37.000  
R08  23334555.606   124955508.812        3835.458          48.000    23334549.246    97187761.432        2983.151          47.000  
R06  20156252.129   107557681.533       -2429.756          40.000                                                                  
R22  20762474.476   110831474.994        1420.575          50.000    20762469.605    86202334.906        1104.913          48.000  
G16  23833706.613   125246981.515       -3941.845          45.000                                                                  
G08  20481197.065   107629581.719         525.889          50.000    20481193.361    83867147.697         409.771          46.000  
S31  38903302.306   204438395.998        -642.271          44.000  
E30  26188201.815   137620054.006       -3115.922          43.000    26188203.005   105449028.346       -2387.479          49.000  
R21  20426998.004   109309323.593       -1182.815          51.000    20426993.705    85018203.622        -920.060          49.000  
E15  24788862.798   130266428.373         408.478          47.000    24788863.178    99814587.509         312.971          51.000  
E34  24414777.866   128300760.967       -1208.834          46.000    24414779.076    98308530.330        -926.368          54.000  
G27  20503322.919   107745672.855       -1805.594          47.000    20503320.446    83957763.619       -1406.880          47.000  
G10  21969934.486   115452925.554       -3493.798          48.000    21969930.050    89963288.746       -2722.430          42.000  
E03  25405189.926   133505211.749        1811.174          46.000    25405189.967   102296223.125        1387.811          49.000  
G21  22105314.976   116164227.982        1863.145          46.000                                                                  
E27  26207530.306   137721374.814       -1164.583          46.000    26207530.784   105526880.709        -892.399          48.000  
E18  25990240.952   136579674.846       -1469.617          46.000                                                                  
G32  21745466.315   114273235.588         126.381          48.000    21745463.840    89044089.825          98.355          44.000  
> 2024 04 15 09 50 30.5000000  0 22                     
S33  39860814.810   209470206.359        -641.156          42.000  
E05  23746724.298   124789913.921        -481.931          44.000    23746724.309    95618264.398        -369.368          49.000  
E36  27782936.801   146000256.788       -2295.126          33.000    27782934.459   111870840.211       -1758.612          45.000  
G02  23156439.209   121687924.916        2004.555          44.000                                                                  
R20  24019451.405   128442864.917       -3263.626          41.000    24019449.524    99900093.585       -2538.655          37.000  
R08  23313079.736   124840508.363        3831.431          47.000    23313072.795    97098316.691        2980.041          46.000  
R06  20169977.807   107630921.592       -2452.648          40.000                                                                  
R22  20754502.749   110788921.335        1416.571          50.000    20754498.467    86169237.676        1101.715          49.000  
G16  23856213.904   125365256.289       -3942.859          45.000                                                                  
G08  20478242.713   107614060.820         509.080          49.000    20478239.838    83855053.491         396.876          45.000  
S31  38906967.518   204457658.218        -641.788          44.000  
E30  26206002.926   137713598.240       -3120.022          43.000    26206003.891   105520705.115       -2390.763          49.000  
R21  20433660.984   109344974.540       -1193.777          51.000    20433655.335    85045932.148        -928.382          48.000  
E15  24786533.301   130254185.335         407.887          48.000    24786533.512    99805206.487         312.661          51.000  
E34  24421685.069   128337058.189       -1210.494          46.000    24421686.239    98336342.503        -927.611          54.000  
G27  20513681.352   107800105.623       -1823.153          48.000    20513678.593    84000178.766       -1420.447          47.000  
G10  21989898.947   115557838.785       -3500.293          49.000    21989894.013    90045039.351       -2727.344          44.000  
E03  25394869.899   133450975.929        1804.776          46.000    25394868.413   102254665.814        1382.933          48.000  
G21  22094684.822   116108364.695        1861.221          46.000                                                                  
E27  26214216.656   137756508.591       -1177.378          46.000    26214216.667   105553801.430        -902.127          49.000  
E18  25998631.214   136623763.878       -1469.338          46.000                                                                  
G32  21744801.238   114269739.768         106.863          48.000    21744798.095    89041365.817          83.187          44.000  
> 2024 04 15 09 51 00.5000000  0 24                     
S33  39864475.430   209489442.392        -641.020          43.000  
E05  23749515.221   124804587.726        -495.725          43.000    23749516.629    95629507.967        -379.959          50.000  
E36  27796039.655   146069123.508       -2295.983          33.000    27796039.377   111923608.226       -1758.980          45.000  
G02  23144999.982   121627810.004        2003.493          44.000                                                                  
R20  24037782.023   128540885.208       -3270.762          40.000    24037780.221    99976331.499       -2543.844          40.000  
R08  23291628.424   124725636.036        3827.044          47.000    23291621.336    97008971.568        2976.523          47.000  
R06  20183834.073   107704861.271       -2476.486          39.000                                                                  
R22  20746555.495   110746496.514        1412.140          51.000    20746550.446    86136240.635        1098.315          49.000  
G16  23878727.092   125483565.319       -3944.073          46.000                                                                  
G08  20475386.528   107599050.484         492.004          50.000    20475383.594    83843357.149         383.367          45.000  
S31  38910631.668   204476913.395        -641.810          44.000  
E30  26223830.341   137807273.391       -3124.450          44.000    26223829.720   105592482.175       -2394.115          48.000  
R21  20440385.127   109380958.496       -1204.834          51.000    20440378.856    85073919.668        -937.128          47.000  
E15  24784206.872   130241959.452         407.486          48.000    24784207.088    99795838.623         312.137          51.000  
E34  24428602.868   128373408.604       -1212.394          46.000    24428603.259    98364195.432        -928.998          54.000  
G27  20524140.448   107855068.865       -1840.759          48.000    20524137.902    84043007.305       -1434.529          48.000  
G10  22009900.723   115662947.347       -3506.740          48.000    22009895.325    90126942.161       -2732.673          42.000  
E03  25384587.080   133396940.212        1798.136          46.000    25384586.769   102213261.829        1377.707          50.000  
G21  22084067.188   116052568.183        1858.832          47.000                                                                  
E27  26220975.758   137792029.890       -1190.338          45.000    26220975.957   105581019.075        -912.110          49.000  
E18  26007019.758   136667849.540       -1469.339          46.000                                                                  
G32  21744248.077   114266834.003          87.165          48.000    21744245.041    89039101.609          67.850          44.000  
G03                                                                  24551204.712                3       1855.760          22.000  
R07                                                                  19856161.440                3       1553.562          11.000  
> 2024 04 15 09 51 30.0000000  0 24                     
S33  39868072.590   209508346.811        -640.851          42.000  
E05  23752338.184   124819415.092        -509.492          44.000    23752338.019    95640869.211        -390.443          49.000  
E36  27808929.174   146136863.529       -2296.995          34.000    27808930.511   111975512.835       -1759.825          46.000  
G02  23133756.360   121568728.880        2002.103          43.000                                                                  
R20  24055842.664   128637463.743       -3277.223          41.000    24055841.604   100051448.045       -2548.932          39.000  
R08  23270556.911   124612802.011        3822.647          46.000    23270549.971    96921211.844        2973.216          46.000  
R06  20197584.652   107778243.027       -2498.763          37.000                                                                  
R22  20738763.290   110704901.201        1407.776          51.000    20738758.574    86103888.764        1095.074          49.000  
G16  23900869.790   125599927.711       -3945.148          45.000                                                                  
G08  20472671.555   107584785.068         475.108          48.000    20472669.132    83832241.260         370.134          45.000  
S31  38914232.539   204495835.463        -641.291          44.000  
E30  26241380.054   137899507.880       -3128.812          43.000    26241381.377   105663155.366       -2397.356          47.000  
R21  20447057.447   109416663.912       -1215.926          52.000    20447051.048    85101690.561        -945.612          48.000  
E15  24781921.627   130229949.177         406.760          48.000    24781921.536    99786635.964         311.637          51.000  
E34  24435413.688   128409200.543       -1214.269          46.000    24435414.332    98391620.416        -930.410          54.000  
G27  20534523.606   107909628.148       -1858.254          49.000    20534520.663    84085521.020       -1447.951          48.000  
G10  22029603.777   115766487.244       -3513.052          48.000    22029598.481    90207622.577       -2737.481          42.000  
E03  25374512.838   133343997.130        1791.140          47.000    25374511.405   102172695.085        1372.460          49.000  
G21  22073638.047   115997762.595        1856.488          46.000                                                                  
E27  26227693.531   137827331.344       -1203.103          44.000    26227693.373   105608068.262        -921.790          48.000  
E18  26015268.020   136711191.801       -1469.242          46.000                                                                  
G32  21743813.330   114264548.398          67.677          48.000    21743809.744    89037320.615          52.672          44.000  
G03                                                                  24537875.256                3       1847.117          26.000  
G23                                                                  25220643.758                3      -3119.122          19.000  
> 2024 04 15 09 52 00.0000000  0 26                     
S33  39871730.457   209527570.441        -640.793          42.000  
E05  23755286.678   124834910.787        -523.527          44.000    23755286.670    95652742.537        -401.082          49.000  
E36  27822046.375   146205785.249       -2298.025          36.000    27822045.095   112028323.048       -1760.875          43.000  
G02  23122330.717   121508691.353        2000.518          41.000                                                                  
R20  24074248.110   128735885.938       -3284.068          39.000    24074246.580   100127998.504       -2554.442          39.000  
R08  23249154.892   124498197.417        3817.753          46.000    23249148.144    96832074.998        2969.279          46.000  
R06  20211699.299   107853563.643       -2522.080          37.000                                                                  
R22  20730864.507   110662739.431        1403.052          51.000    20730860.082    86071096.331        1091.241          50.000  
G16  23923394.159   125718296.478       -3946.307          44.000                                                                  
G08  20470009.922   107570794.794         457.677          49.000    20470006.659    83821339.748         356.572          45.000  
S31  38917894.168   204515078.092        -641.381          43.000  
E30  26259254.922   137993438.260       -3133.190          43.000    26259254.923   105735127.994       -2400.788          46.000  
R21  20453906.818   109453314.701       -1227.412          52.000    20453901.133    85130196.731        -954.652          48.000  
E15  24779601.192   130217759.352         405.777          47.000    24779601.679    99777295.719         311.029          51.000  
G03  24524378.398                3       2366.073          26.000    24524361.028                3       1843.572          26.000  
E34  24442351.104   128445659.545       -1216.333          46.000    24442352.307    98419556.543        -931.957          54.000  
G27  20545182.574   107965644.482       -1876.013          48.000    20545180.072    84129170.112       -1461.859          48.000  
G10  22049677.525   115871977.702       -3519.552          48.000    22049672.097    90289822.968       -2742.493          43.000  
E03  25364307.235   133290365.787        1784.131          47.000    25364305.574   102131600.944        1367.121          48.000  
G21  22063046.343   115942103.194        1854.032          46.000                                                                  
E27  26234598.227   137863620.698       -1216.291          44.000    26234598.860   105635874.405        -931.911          48.000  
E18  26023655.917   136755271.381       -1469.311          46.000                                                                  
G32  21743484.091   114262818.646          47.819          49.000    21743480.885    89035972.774          37.107          45.000  
G23                                                                  25243507.878                3      -3121.983          22.000  
R13                                                                  23988595.122                3       -402.047          10.000  
R07                                                                  19835858.402                3       1556.727          15.000  
> 2024 04 15 09 52 30.0000000  0 25                     
S33  39875389.693   209546798.791        -641.188          42.000  
E05  23758316.594   124850832.100        -537.894          45.000    23758316.552    95664942.016        -412.085          49.000  
E36  27835166.990   146274746.431       -2299.234          34.000    27835167.938   112081163.399       -1761.797          43.000  
G02  23110915.998   121448704.783        1998.656          43.000                                                                  
R20  24092693.678   128834521.441       -3291.510          39.000    24092692.260   100204714.843       -2560.135          38.000  
R08  23227781.936   124383744.229        3812.323          46.000    23227775.526    96743055.875        2965.057          46.000  
R07  20426510.791                3       1269.138          15.000    19830469.220                3       1539.739          15.000  
R06  20225946.714   107929587.053       -2545.510          38.000                                                                  
R22  20722993.210   110620724.281        1398.096          50.000    20722989.109    86038417.927        1087.451          49.000  
G16  23945926.002   125836701.934       -3947.235          44.000                                                                  
G08  20467447.420   107557332.516         439.953          49.000    20467444.239    83810849.654         342.704          45.000  
S31  38921556.936   204534324.913        -641.419          44.000  
E30  26277154.980   138087505.076       -3137.727          44.000    26277155.306   105807205.197       -2404.287          45.000  
R21  20460821.599   109490315.036       -1239.198          52.000    20460815.871    85158974.783        -963.875          49.000  
E15  24777286.181   130205598.651         404.952          46.000    24777287.488    99767977.809         310.312          51.000  
G03  24510873.240                1       2358.033          26.000    24510870.843                3       1836.761          26.000  
E34  24449302.712   128482184.797       -1218.597          46.000    24449302.688    98447543.427        -933.764          54.000  
G27  20555945.185   108022202.125       -1894.442          49.000    20555942.910    84173241.016       -1476.155          48.000  
G10  22069789.677   115977667.973       -3526.221          46.000    22069784.423    90372179.037       -2747.825          42.000  
E03  25354142.144   133236952.034        1776.635          47.000    25354141.573   102090673.545        1361.409          49.000  
G21  22052469.795   115886525.511        1851.192          45.000                                                                  
E27  26241580.491   137900306.945       -1229.527          44.000    26241579.863   105663984.676        -942.023          48.000  
E18  26032045.561   136799358.094       -1469.665          46.000                                                                  
G32  21743270.805   114261694.663          27.329          50.000    21743266.133    89035096.974          21.322          44.000  
G23                                                                  25266357.445                3      -3115.899          19.000  
> 2024 04 15 09 53 00.5000000  0 26                     
S33  39879109.108   209566344.666        -640.746          42.000  
E05  23761479.509   124867448.097        -551.703          46.000    23761478.153    95677673.760        -422.719          49.000  
E36  27848516.587   146344890.640       -2300.514          37.000    27848515.797   112134910.137       -1762.554          42.000  
G02  23099319.969   121387764.076        1997.345          43.000                                                                  
R20  24111485.833   128935011.622       -3298.049          38.000    24111485.050   100282873.807       -2565.203          39.000  
R08  23206081.145   124267535.386        3807.816          46.000    23206074.809    96652671.255        2961.520          46.000  
R06  20240564.125   108007587.383       -2569.235          37.000                                                                  
R22  20715018.440   110578153.814        1393.408          51.000    20715013.594    86005307.576        1083.722          49.000  
G16  23968838.727   125957107.761       -3948.004          43.000                                                                  
G08  20464945.255   107544181.765         422.447          49.000    20464941.340    83800602.331         329.074          45.000  
S31  38925280.079   204553890.355        -641.340          44.000  
E30  26295379.365   138183270.227       -3141.784          44.000    26295379.023   105880583.696       -2407.310          46.000  
R21  20467917.195   109528284.325       -1250.513          53.000    20467911.108    85188506.460        -972.596          49.000  
E15  24774938.109   130193257.961         404.410          45.000    24774939.113    99758521.970         309.917          51.000  
G03  24497217.813                3       2352.641          29.000    24497200.240                3       1825.409          22.000  
E34  24456379.864   128519379.853       -1220.271          46.000    24456380.515    98476043.555        -935.094          54.000  
G27  20566990.906   108080249.666       -1912.105          48.000    20566988.834    84218472.857       -1489.863          48.000  
G10  22090274.219   116085314.666       -3532.330          48.000    22090269.555    90456059.520       -2752.452          46.000  
E03  25343850.144   133182865.826        1769.869          47.000    25343849.411   102049230.867        1356.200          49.000  
G21  22041732.127   115830099.136        1848.805          44.000                                                                  
E27  26248752.550   137938003.356       -1242.377          44.000    26248753.241   105692868.986        -951.897          48.000  
E18  26040574.242   136844179.193       -1469.276          46.000                                                                  
G32  21743170.474   114261166.903           7.252          49.000    21743166.302    89034685.740           5.636          45.000  
G23                                                                  25289575.868                3      -3115.453          26.000  
R13                                                                  24004828.139                3       -410.595          11.000  
R07                                                                  19815812.045                3       1526.392          11.000  
> 2024 04 15 09 53 30.5000000  0 25                     
S33  39882767.503   209585571.212        -640.704          41.000  
E05  23764669.410   124884216.946        -566.079          45.000    23764668.746    95690522.622        -433.634          48.000  
E36  27861651.005   146413921.155       -2301.761          36.000    27861652.761   112187803.563       -1763.658          42.000  
G02  23087922.795   121327870.789        1995.825          44.000                                                                  
R20  24130009.123   129034065.482       -3304.883          37.000    24130008.243   100359915.614       -2570.494          37.000  
R08  23184764.382   124153387.255        3802.495          47.000    23184758.860    96563889.408        2957.532          46.000  
R07  20411110.579                3       1239.666          17.000                                                                  
R06  20255072.130   108085007.060       -2592.329          38.000                                                                  
R22  20707202.799   110536428.606        1388.464          52.000    20707197.629    85972854.662        1080.029          49.000  
G16  23991381.137   126075566.066       -3949.183          44.000                                                                  
G08  20462584.964   107531778.329         404.648          50.000    20462581.743    83790937.316         315.392          46.000  
S31  38928942.598   204573135.046        -641.579          44.000  
E30  26313327.967   138277594.468       -3146.058          44.000    26313328.518   105952858.132       -2410.797          46.000  
R21  20474962.196   109565982.042       -1262.447          52.000    20474955.781    85217826.921        -981.898          49.000  
E15  24772632.953   130181144.700         403.460          45.000    24772633.848    99749240.399         309.133          51.000  
G03  24483794.626                1       2345.736          30.000    24483790.686                        1828.050          28.000  
E34  24463354.079   128556028.460       -1222.742          46.000    24463354.550    98504124.965        -936.771          54.000  
G27  20577959.521   108137886.290       -1930.190          49.000    20577956.678    84263384.512       -1503.987          48.000  
G10  22110459.718   116191388.722       -3538.753          48.000    22110455.288    90538714.664       -2757.546          46.000  
E03  25333767.247   133129885.150        1762.505          46.000    25333767.644   102008635.297        1350.539          50.000  
G21  22031185.886   115774678.072        1846.038          45.000                                                                  
E27  26255883.348   137975475.902       -1255.622          44.000    26255884.065   105721581.770        -961.998          48.000  
E18  26048963.588   136888267.456       -1469.688          46.000                                                                  
G32  21743187.619   114261256.720         -13.193          49.000    21743183.059    89034755.732         -10.198          44.000  
G23                                                                  25312392.710                3      -3113.618          24.000  
> 2024 04 15 09 54 00.5000000  0 25                     
S33  39886426.775   209604800.505        -640.703          42.000  
E05  23767941.304   124901411.177        -580.040          45.000    23767940.834    95703697.426        -444.457          48.000  
E36  27874795.848   146482991.733       -2302.709          36.000    27874795.784   112240727.671       -1764.562          40.000  
G02  23076535.528   121268029.504        1993.992          44.000                                                                  
R20  24148572.649   129133332.206       -3312.690          37.000    24148571.486   100437122.935       -2576.113          36.000  
R08  23163478.067   124039400.747        3797.120          46.000    23163471.626    96475233.301        2953.320          45.000  
R07  19800865.367                3       1232.921          10.000                                                                  
R06  20269709.951   108163119.401       -2614.680          37.000                                                                  
R22  20699414.975   110494855.085        1383.386          52.000    20699409.865    85940519.745        1075.934          50.000  
G16  24013928.443   126194050.493       -3949.785          43.000                                                                  
G08  20460326.713   107519907.550         386.943          50.000    20460323.228    83781687.374         301.506          46.000  
S31  38932604.941   204592383.470        -641.499          44.000  
E30  26331302.034   138372048.069       -3150.482          43.000    26331302.494   106025231.685       -2413.985          45.000  
R21  20482072.493   109604032.676       -1274.098          52.000    20482066.230    85247421.840        -990.894          49.000  
E15  24770333.375   130169059.921         402.485          46.000    24770334.288    99739980.654         308.459          51.000  
G03  24470430.136                3       2341.000          31.000    24470418.846                        1822.683          29.000  
E34  24470340.877   128592743.708       -1224.804          46.000    24470341.296    98532257.444        -938.460          54.000  
G27  20589030.214   108196062.101       -1948.043          48.000    20589027.096    84308716.294       -1517.884          47.000  
G10  22130681.918   116297654.221       -3545.084          49.000    22130677.234    90621518.913       -2762.474          46.000  
E03  25323728.636   133077126.900        1755.109          48.000    25323728.421   101968210.139        1344.847          50.000  
G21  22020655.999   115719340.955        1843.246          46.000                                                                  
E27  26263089.049   138013341.889       -1268.558          44.000    26263089.642   105750595.987        -972.142          48.000  
E18  26057354.202   136932360.612       -1469.727          45.000                                                                  
G32  21743319.569   114261954.992         -33.372          48.000    21743315.935    89035299.857         -25.904          44.000  
G23                                                                  25335202.761                3      -3113.042          19.000  
> 2024 04 15 09 54 30.5000000  0 26                     
S33  39890087.810   209624037.930        -641.574          43.000  
E05  23771294.814   124919035.495        -594.692          46.000    23771294.173    95717201.795        -455.643          48.000  
E36  27887948.153   146552107.147       -2304.786          37.000    27887949.151   112293686.224       -1765.942          41.000  
G02  23065159.051   121208245.885        1991.809          44.000                                                                  
R20  24167176.874   129232815.526       -3319.678          38.000    24167175.110   100514498.744       -2581.853          36.000  
R08  23142224.481   123925584.269        3790.978          48.000    23142218.105    96386709.394        2948.592          44.000  
R06  20284477.848   108241925.811       -2638.388          37.000                                                                  
R13  24024151.261                3      -1119.000          11.000                                                                  
R22  20691656.567   110453439.902        1377.862          52.000    20691651.570    85908307.958        1071.710          50.000  
G16  24036480.192   126312562.995       -3950.963          42.000                                                                  
G08  20458170.216   107508575.707         368.861          50.000    20458167.211    83772857.390         287.248          46.000  
S31  38936269.291   204611640.063        -642.052          44.000  
E30  26349301.216   138466633.474       -3155.302          43.000    26349301.772   106097706.221       -2417.524          45.000  
R21  20489249.848   109642442.231       -1286.371          52.000    20489244.492    85277295.955       -1000.606          49.000  
E15  24768040.383   130157008.205         401.187          46.000    24768041.153    99730746.242         307.367          51.000  
G03  24457082.593   128522834.5983       2332.522          32.000    24457075.834                        1817.865          26.000  
E34  24477340.475   128629530.563       -1227.378          46.000    24477341.822    98560444.789        -940.569          54.000  
G27  20600204.076   108254781.220       -1966.407          48.000    20600200.313    84354471.446       -1532.430          47.000  
G10  22150940.472   116404113.279       -3551.957          49.000    22150935.671    90704474.057       -2767.615          46.000  
E03  25313732.254   133024597.455        1747.111          47.000    25313732.497   101927960.319        1338.840          50.000  
G21  22010142.958   115664093.752        1840.039          46.000                                                                  
E27  26270370.444   138051604.973       -1282.177          44.000    26270371.079   105779914.479        -982.392          48.000  
E18  26065746.096   136976462.783       -1470.336          45.000                                                                  
G32  21743569.680   114263267.470         -54.092          48.000    21743565.639    89036322.569         -41.990          44.000  
G23                                                                  25357998.594                3      -3108.188          19.000  
R07                                                                  19791207.725                3       1506.888          11.000  
> 2024 04 15 09 55 00.0000000  0 25                     
S33  39893690.119   209642969.101        -642.087          41.000  
E05  23774673.582   124936791.735        -609.026          45.000    23774673.023    95730807.248        -466.692          47.000  
E36  27900889.853   146620120.970       -2306.377          38.000    27900892.268   112345800.703       -1767.424          41.000  
G02  23053984.134   121149521.441        1989.463          43.000                                                                  
R20  24185511.728   129330858.730       -3327.410          39.000    24185510.622   100590754.448       -2587.914          36.000  
R08  23121356.347   123813840.312        3784.888          46.000    23121350.913    96299797.451        2943.851          44.000  
R07  19780105.000                3       1201.731          13.000                                                                  
R06  20299127.857   108320098.732       -2661.464          38.000                                                                  
R22  20684058.105   110412877.444        1372.214          51.000    20684052.601    85876759.433        1067.351          50.000  
G16  24058662.027   126429130.847       -3952.112          42.000                                                                  
G08  20456151.095   107497966.139         350.756          50.000    20456148.000    83764590.201         273.265          47.000  
S31  38939875.568   204630589.680        -642.732          44.000  
E30  26367025.535   138559775.019       -3159.616          42.000    26367025.932   106169074.432       -2420.879          44.000  
R21  20496375.911   109680569.438       -1298.569          52.000    20496368.666    85306950.455       -1009.981          49.000  
E15  24765792.622   130145195.783         399.752          46.000    24765793.626    99721695.205         306.208          51.000  
E34  24484239.077   128665780.676       -1230.210          46.000    24484239.688    98588220.840        -942.577          54.000  
G27  20611293.420   108313057.091       -1984.408          49.000    20611289.337    84399881.240       -1546.383          46.000  
G10  22170897.754   116508990.441       -3558.507          49.000    22170893.486    90786196.497       -2772.738          47.000  
E03  25303946.850   132973174.566        1739.336          47.000    25303946.999   101888558.387        1332.727          50.000  
G21  21999822.641   115609862.346        1836.700          46.000                                                                  
E27  26277604.724   138089622.730       -1295.308          44.000    26277605.576   105809045.021        -992.552          48.000  
E18  26074001.437   137019844.388       -1470.836          45.000                                                                  
G32  21743930.389   114265164.171         -74.629          48.000    21743926.694    89037800.538         -58.293          44.000  
G03                                                                  24443999.072                        1811.750          30.000  
G23                                                                  25380418.317                3      -3107.039          21.000  
> 2024 04 15 09 55 30.0010000  0 25                     
S33  39897355.807   209662231.219        -642.408          42.000  
E05  23778192.056   124955277.432        -623.534          46.000    23778191.101    95744971.621        -477.618          47.000  
E36  27914060.318   146689336.519       -2308.074          37.000    27914062.690   112398835.850       -1768.312          40.000  
G02  23042631.089   121089859.132        1987.529          43.000                                                                  
R20  24204197.792   129430783.085       -3334.637          38.000    24204197.414   100668473.288       -2593.756          37.000  
R08  23100166.518   123700375.687        3778.917          46.000    23100161.931    96211547.211        2939.192          44.000  
R06  20314155.127   108400282.357       -2683.964          38.000                                                                  
R22  20676360.787   110371788.151        1366.817          52.000    20676354.844    85844801.127        1063.007          49.000  
G16  24081225.209   126547700.849       -3952.630          42.000                                                                  
G08  20454200.195   107487715.378         332.489          50.000    20454197.047    83756602.598         259.207          46.000  
S31  38943544.337   204649870.680        -642.819          44.000  
E30  26385075.160   138654626.038       -3163.768          42.000    26385075.784   106241752.504       -2424.195          45.000  
R21  20503688.885   109719704.089       -1310.533          53.000    20503681.431    85337388.501       -1019.317          49.000  
E15  24763512.871   130133216.717         398.646          47.000    24763513.923    99712516.465         305.525          51.000  
E34  24491268.367   128702719.292       -1232.660          47.000    24491268.850    98616524.465        -944.329          54.000  
G27  20622674.393   108372861.551       -2002.552          49.000    20622670.202    84446482.105       -1560.431          47.000  
G10  22191230.019   116615836.900       -3564.650          49.000    22191225.673    90869453.532       -2777.573          46.000  
E03  25294039.841   132921109.998        1731.511          48.000    25294039.303   101848664.765        1326.666          50.000  
G21  21989344.068   115554802.149        1833.598          45.000                                                                  
E27  26285036.681   138128679.180       -1308.308          44.000    26285037.897   105838971.423       -1002.628          48.000  
E18  26082398.982   137063971.840       -1470.993          46.000                                                                  
G32  21744413.637   114267705.352         -95.126          47.000    21744410.248    89039780.679         -74.028          45.000  
G03                                                                  24430741.548                        1807.190          29.000  
G23                                                                  25403186.437                3      -3105.413          17.000  
R07                                                                  19776909.932                3       1484.328          11.000  
> 2024 04 15 09 56 00.0010000  0 25                     
S33  39901023.123   209681503.065        -642.458          42.000  
E05  23781792.730   124974194.983        -637.782          47.000    23781790.885    95759466.900        -488.670          48.000  
E36  27927238.848   146758598.105       -2309.651          35.000    27927242.120   112451906.304       -1769.604          38.000  
G02  23031288.998   121030260.578        1985.631          42.000                                                                  
R20  24222925.075   129530923.048       -3341.754          39.000    24222923.853   100746359.816       -2599.329          37.000  
R08  23079013.717   123587097.623        3772.855          48.000    23079008.490    96123442.103        2934.467          45.000  
R07  19766941.460                3       1175.367          10.000    19763479.664                3       1472.819          14.000  
R06  20329309.231   108481149.946       -2707.230          39.000                                                                  
R22  20668694.022   110330866.665        1361.288          51.000    20668689.055    85812973.320        1058.662          49.000  
G16  24103791.322   126666288.224       -3953.241          43.000                                                                  
G08  20452353.833   107478011.122         314.257          50.000    20452350.782    83749040.846         244.941          46.000  
S31  38947215.233   204669161.305        -643.291          44.000  
E30  26403148.871   138749601.390       -3167.735          42.000    26403149.180   106314525.861       -2427.433          44.000  
R21  20511069.898   109759202.762       -1322.721          53.000    20511063.079    85368109.704       -1028.906          49.000  
E15  24761239.487   130121273.324         397.508          46.000    24761241.216    99703365.073         304.597          51.000  
E34  24498311.943   128739731.558       -1234.956          47.000    24498312.145    98644884.524        -946.287          54.000  
G27  20634157.314   108433207.789       -2020.610          49.000    20634153.345    84493505.172       -1574.647          46.000  
G10  22211597.034   116722868.061       -3570.715          49.000    22211592.583    90952854.425       -2782.372          47.000  
E03  25284177.305   132869283.526        1723.784          48.000    25284177.055   101808953.582        1320.770          50.000  
G21  21978885.774   115499839.224        1830.458          46.000                                                                  
E27  26292543.078   138168130.654       -1321.556          42.000    26292544.847   105869200.479       -1012.623          48.000  
E18  26090798.243   137108107.509       -1471.382          46.000                                                                  
G32  21745015.352   114270865.841        -115.757          48.000    21745012.054    89042243.431         -90.281          45.000  
G03                                                                  24417520.860                1       1802.724          26.000  
G23                                                                  25425949.880                3      -3108.167          19.000  
> 2024 04 15 09 56 30.0010000  0 24                     
S33  39904692.583   209700787.823        -643.008          42.000  
E05  23785475.094   124993548.341        -652.200          47.000    23785474.075    95774296.104        -499.711          48.000  
E36  27940430.963   146827911.694       -2310.776          37.000    27940431.137   112505016.672       -1771.000          36.000  
G02  23019959.748   120970727.600        1983.658          42.000                                                                  
R20  24241692.704   129631284.990       -3349.011          40.000    24241691.842   100824418.919       -2604.382          37.000  
R08  23057895.620   123474009.873        3766.586          49.000    23057889.683    96035484.973        2929.651          45.000  
R06  20344592.394   108562703.987       -2729.753          38.000                                                                  
R22  20661059.955   110290116.834        1355.578          51.000    20661054.393    85781279.019        1054.265          48.000  
G16  24126361.974   126784896.430       -3953.796          43.000                                                                  
G08  20450612.610   107468857.931         296.132          50.000    20450609.253    83741908.498         230.713          46.000  
S31  38950888.599   204688464.757        -643.469          44.000  
E30  26421245.749   138844705.456       -3172.078          42.000    26421247.143   106387397.801       -2430.597          44.000  
R21  20518520.152   109799071.432       -1334.929          53.000    20518513.497    85399118.669       -1038.167          49.000  
E15  24758973.922   130109368.563         396.320          46.000    24758975.588    99694243.269         303.720          51.000  
G03  24404341.330                1       2305.967          33.000    24404343.546                        1796.494          28.000  
E34  24505369.762   128776822.344       -1237.626          47.000    24505370.267    98673304.736        -948.285          54.000  
G27  20645745.224   108494100.460       -2038.733          49.000    20645741.330    84540954.000       -1588.630          47.000  
G10  22232000.610   116830088.238       -3576.935          49.000    22231995.655    91036402.587       -2787.172          45.000  
E03  25274360.911   132817698.473        1715.597          47.000    25274360.031   101769427.385        1314.574          50.000  
G21  21968445.963   115444975.746        1827.172          47.000                                                                  
E27  26300125.954   138207980.705       -1334.891          42.000    26300128.205   105899734.949       -1022.693          48.000  
E18  26099198.845   137152255.628       -1471.665          45.000                                                                  
G32  21745736.356   114274649.996        -136.455          48.000    21745732.932    89045192.106        -106.290          46.000  
G23                                                                  25448707.660                3      -3107.470          21.000  
> 2024 04 15 09 57 00.0010000  0 24                     
S33  39908365.037   209720085.753        -643.368          42.000  
E05  23789240.078   125013337.486        -666.634          46.000    23789239.888    95789459.218        -510.842          48.000  
E36  27953629.529   146897277.693       -2312.850          38.000    27953633.124   112558167.165       -1772.189          40.000  
G02  23008643.792   120911260.794        1981.326          42.000                                                                  
R20  24260502.769   129731868.594       -3356.256          40.000    24260501.322   100902650.477       -2610.583          38.000  
R08  23036813.996   123361115.652        3760.186          50.000    23036806.492    95947678.407        2924.605          45.000  
R06  20360003.366   108644941.270       -2752.391          39.000                                                                  
R22  20653458.663   110249540.574        1349.776          51.000    20653453.064    85749719.722        1049.814          49.000  
G16  24148935.731   126903522.301       -3954.364          42.000                                                                  
G08  20448975.653   107460257.405         277.576          50.000    20448972.976    83735206.802         216.286          47.000  
S31  38954564.426   204707781.751        -643.759          43.000  
E30  26439368.950   138939935.957       -3176.268          42.000    26439368.550   106460366.667       -2433.977          44.000  
R21  20526040.220   109839311.204       -1347.368          53.000    20526033.953    85430416.255       -1047.904          49.000  
E15  24756716.527   130097502.336         395.094          46.000    24756717.553    99685150.998         302.680          51.000  
G03  24391199.958   128176615.1991       2299.110          35.000    24391195.793                        1791.001          28.000  
E34  24512444.025   128813991.977       -1240.150          47.000    24512443.532    98701785.372        -950.227          54.000  
G27  20657436.575   108555538.856       -2056.809          49.000    20657432.222    84588828.083       -1602.812          46.000  
G10  22252438.873   116937494.942       -3583.085          48.000    22252434.842    91120096.135       -2792.052          46.000  
E03  25264590.984   132766356.567        1707.664          48.000    25264589.844   101730087.499        1308.365          49.000  
G21  21958025.103   115390212.725        1823.883          47.000                                                                  
E27  26307786.008   138248228.231       -1348.006          43.000    26307786.592   105930573.975       -1032.948          47.000  
E18  26107601.983   137196415.659       -1472.096          45.000                                                                  
G32  21746574.937   114279058.667        -157.423          48.000    21746571.502    89048627.438        -122.491          45.000  
G23                                                                  25471452.411                3      -3102.923          21.000  
> 2024 04 15 09 57 30.0010000  0 26                     
S33  39912038.713   209739390.981        -643.257          42.000  
E05  23793088.463   125033557.211        -680.912          47.000    23793087.693    95804952.242        -521.722          49.000  
E36  27966839.359   146966691.144       -2314.156          38.000    27966841.367   112611354.003       -1773.560          39.000  
G02  22997339.079   120851855.550        1979.457          40.000                                                                  
R20  24279353.235   129832668.152       -3363.452          41.000    24279351.669   100981049.925       -2615.967          39.000  
R08  23015767.342   123248413.088        3753.826          51.000    23015761.017    95860020.896        2919.514          46.000  
R07  20635259.048                3       1144.984          11.000                                                                  
R06  20375540.901   108727853.084       -2774.749          38.000                                                                  
R13  24065547.725                3      -1148.094          12.000                                                                  
R22  20645889.324   110209134.524        1344.343          52.000    20645884.398    85718292.852        1045.520          50.000  
G16  24171510.605   127022158.035       -3954.724          42.000                                                                  
G08  20447443.261   107452205.882         259.409          50.000    20447441.014    83728932.884         202.208          47.000  
S31  38958241.795   204727106.626        -643.966          43.000  
E30  26457512.265   139035285.533       -3180.083          41.000    26457512.802   106533426.698       -2436.553          43.000  
R21  20533628.327   109879918.064       -1359.424          52.000    20533622.346    85461999.382       -1057.343          48.000  
E15  24754464.657   130085669.449         394.223          47.000    24754465.506    99676084.276         301.956          51.000  
G03  24378099.324   128107761.617        2292.018          37.000    24378096.375    99824224.0291       1785.663          30.000  
E34  24519530.789   128851235.561       -1242.357          47.000    24519530.801    98730322.687        -952.019          54.000  
G27  20669231.089   108617517.124       -2074.688          49.000    20669226.108    84637122.818       -1616.645          46.000  
G10  22272911.512   117045080.392       -3588.835          48.000    22272908.157    91203928.942       -2796.680          46.000  
E03  25254866.935   132715254.371        1699.674          48.000    25254865.913   101690931.251        1302.391          50.000  
G21  21947622.759   115335546.413        1820.898          47.000                                                                  
E27  26315520.259   138288866.944       -1360.818          45.000    26315519.919   105961712.759       -1042.750          47.000  
E18  26116006.201   137240581.835       -1472.138          45.000                                                                  
G32  21747532.077   114284087.518        -177.734          49.000    21747528.205    89052546.019        -138.533          45.000  
G23                                                                  25494179.975                3      -3101.127          24.000  
> 2024 04 15 09 58 00.0010000  0 24                     
S33  39915712.336   209758697.236        -643.420          42.000  
E05  23797017.332   125054199.552        -695.014          47.000    23797016.053    95820769.103        -532.527          49.000  
E36  27980057.233   147036144.625       -2315.478          40.000    27980057.199   112664571.491       -1774.402          39.000  
G02  22986045.496   120792505.172        1977.691          43.000                                                                  
R20  24298242.335   129933675.544       -3370.195          38.000    24298241.357   101059611.109       -2621.448          39.000  
R08  22994756.351   123135898.039        3747.490          49.000    22994749.252    95772509.221        2914.648          45.000  
R06  20391202.954   108811427.965       -2797.049          38.000                                                                  
R22  20638350.632   110168892.772        1338.675          51.000    20638346.283    85686993.737        1041.326          50.000  
G16  24194085.949   127140792.637       -3954.224          40.000                                                                  
G08  20446014.180   107444697.108         241.336          49.000    20446011.351    83723081.896         188.027          45.000  
S31  38961919.418   204746431.882        -644.155          44.000  
E30  26475674.932   139130743.984       -3183.545          36.000    26475676.892   106606570.233       -2439.488          42.000  
R21  20541284.753   109920885.497       -1371.439          53.000    20541278.049    85493862.913       -1066.764          49.000  
E15  24752217.944   130073862.086         393.412          46.000    24752219.203    99667037.084         301.372          52.000  
G03  24365032.155   128039105.644        2284.742          36.000    24365032.691                        1780.488          28.000  
E34  24526630.041   128888545.599       -1244.554          48.000    24526630.704    98758910.922        -953.688          54.000  
G27  20681125.957   108680026.620       -2092.416          49.000    20681122.006    84685831.511       -1630.422          47.000  
G10  22293416.658   117152834.286       -3594.631          49.000    22293412.670    91287893.018       -2801.043          45.000  
E03  25245185.624   132664385.688        1691.943          46.000    25245185.980   101651953.988        1296.390          50.000  
G21  21937237.512   115280969.955        1817.938          47.000                                                                  
E27  26323325.488   138329887.943       -1373.615          44.000    26323326.047   105993144.466       -1052.489          47.000  
E18  26124410.389   137284745.774       -1471.942          46.000                                                                  
G32  21748605.790   114289729.553        -198.179          48.000    21748601.534    89056942.411        -154.543          45.000  
G23                                                                  25516889.517                3      -3099.072          22.000  
> 2024 04 15 09 58 30.0010000  0 25                     
S33  39919386.057   209778001.403        -643.570          41.000  
E05  23801025.107   125075263.377        -709.235          47.000    23801024.467    95836908.933        -543.393          50.000  
E36  27993281.291   147105637.356       -2317.490          39.000    27993282.417   112717819.129       -1775.866          41.000  
G02  22974761.429   120733208.720        1975.702          43.000                                                                  
R20  24317169.795   130034889.061       -3377.560          41.000    24317168.279   101138332.560       -2626.691          38.000  
R08  22973780.447   123023573.065        3740.869          49.000    22973773.277    95685145.364        2909.602          46.000  
R06  20406988.308   108895661.282       -2818.721          39.000                                                                  
R22  20630843.382   110128816.084        1333.051          51.000    20630838.545    85655823.049        1036.830          50.000  
G16  24216660.333   127259421.507       -3954.175          41.000                                                                  
G08  20444688.768   107437731.431         223.097          49.000    20444685.903    83717654.104         173.827          46.000  
S31  38965596.743   204765755.172        -644.051          44.000  
E30  26493863.514   139226308.172       -3187.407          40.000    26493863.058   106679794.756       -2442.342          43.000  
R21  20549007.482   109962213.350       -1383.636          52.000    20549001.076    85526006.808       -1076.178          49.000  
E15  24749975.384   130062079.090         392.388          46.000    24749976.352    99658008.599         300.481          51.000  
G03  24352005.811   127970646.998        2279.174          38.000    24352005.349                        1775.648          27.000  
E34  24533743.072   128925921.360       -1247.000          48.000    24533742.958    98787549.477        -955.608          54.000  
G27  20693121.360   108743065.476       -2110.150          49.000    20693118.135    84734952.715       -1644.263          48.000  
G10  22313952.853   117260752.915       -3600.046          49.000    22313948.110    91371985.466       -2805.259          44.000  
E03  25235550.699   132613751.156        1683.879          47.000    25235550.254   101613156.107        1290.267          50.000  
G21  21926868.814   115226483.118        1814.664          48.000                                                                  
E27  26331203.699   138371288.960       -1386.341          44.000    26331204.549   106024867.344       -1062.289          48.000  
E18  26132813.517   137328905.889       -1472.021          45.000                                                                  
G32  21749795.752   114295984.403        -218.689          48.000    21749791.684    89061816.339        -170.425          45.000  
G23                                                                  25539586.830                3      -3095.193          23.000  
R07                                                                  19722396.946                3       1415.219          13.000  
> 2024 04 15 09 59 00.0010000  0 25                     
S33  39923059.209   209797306.785        -643.649          42.000  
E05  23805113.361   125096750.928        -723.325          46.000    23805113.653    95853373.429        -554.228          50.000  
E36  28006512.877   147175172.033       -2318.446          39.000    28006514.534   112771098.805       -1776.436          42.000  
G02  22963488.919   120673969.349        1973.614          43.000                                                                  
R20  24336136.336   130136311.981       -3384.411          36.000    24336134.839   101217216.888       -2632.493          33.000  
R08  22952840.545   122911443.605        3733.934          49.000    22952833.968    95597933.624        2904.151          47.000  
R06  20422896.884   108980552.016       -2840.523          40.000                                                                  
R13  24084837.175                3      -1169.547          10.000                                                                  
R22  20623367.571   110088908.904        1327.428          51.000    20623363.081    85624784.148        1032.265          51.000  
G16  24239234.034   127378043.865       -3953.992          43.000                                                                  
G08  20443467.469   107431312.711         204.824          50.000    20443464.220    83712652.504         159.833          46.000  
S31  38969273.725   204785079.321        -644.067          44.000  
E30  26512069.163   139321978.096       -3190.648          40.000    26512068.615   106753100.274       -2444.904          44.000  
R21  20556798.468   110003905.656       -1395.921          52.000    20556791.743    85558434.149       -1085.642          48.000  
E15  24747738.362   130050322.822         391.242          46.000    24747739.412    99649000.568         299.838          51.000  
G03  24339016.258   127902388.942        2271.978          39.000    24339021.910                1       1768.480          30.000  
E34  24540867.894   128963365.444       -1249.389          47.000    24540868.250    98816240.410        -957.323          54.000  
G27  20705218.369   108806635.300       -2127.944          49.000    20705215.110    84784487.614       -1658.089          47.000  
G10  22334520.323   117368836.207       -3605.664          49.000    22334516.571    91456093.1691      -2809.738          45.000  
E03  25225960.229   132563354.792        1675.827          47.000    25225959.999   101574540.716        1284.099          50.000  
G21  21916517.718   115172089.439        1811.430          47.000                                                                  
E27  26339155.027   138413071.211       -1399.201          44.000    26339155.531   106056882.314       -1072.054          48.000  
E18  26141216.006   137373063.910       -1472.107          45.000                                                                  
G32  21751102.907   114302855.245        -239.362          48.000    21751099.152    89067170.269        -186.635          45.000  
G23                                                                  25562272.614                3      -3097.262          21.000  
> 2024 04 15 09 59 30.0010000  0 24                     
S33  39926731.881   209816605.720        -643.345          42.000  
E05  23809281.985   125118655.360        -737.136          46.000    23809282.251    95870157.341        -564.777          51.000  
E36  28019751.408   147244742.267       -2319.502          38.000    28019753.715   112824405.750       -1777.271          41.000  
G02  22952225.692   120614780.989        1971.958          43.000                                                                  
R20  24355139.520                       -3389.862          29.000    24355138.806                1      -2637.171          27.000  
R08  22931936.713   122799507.076        3728.151          48.000    22931931.456    95510871.921        2899.553          47.000  
R06  20438926.305   109066089.867       -2861.968          39.000                                                                  
R22  20615921.852   110049166.370        1322.097          51.000    20615917.700    85593873.333        1028.193          50.000  
G16  24261804.097   127496650.055       -3953.113          42.000                                                                  
G08  20442349.241   107425435.696         187.009          50.000    20442345.458    83708073.044         145.594          46.000  
S31  38972950.009   204804398.045        -643.578          44.000  
E30  26530291.537   139417744.810       -3193.667          38.000    26530293.044   106826479.967       -2447.043          45.000  
R21  20564656.350   110045956.178       -1407.622          52.000    20564650.165    85591140.115       -1094.622          49.000  
E15  24745505.254   130038586.514         391.060          46.000    24745506.405    99640007.839         299.560          52.000  
G03  24326065.179   127834325.514        2265.599          40.000    24326066.109                        1765.797          30.000  
E34  24548005.850   129000871.483       -1251.063          48.000    24548005.290    98844978.808        -958.713          53.000  
G27  20717415.396   108870728.461       -2145.083          49.000    20717411.509    84834430.346       -1671.510          47.000  
G10  22355117.955   117477074.908       -3610.643          48.000    22355114.667    91540434.965       -2813.320          46.000  
E03  25216414.342   132513191.586        1668.344          47.000    25216414.363   101536103.971        1278.410          50.000  
G21  21906183.157   115117783.143        1808.761          47.000                                                                  
E27  26347177.668   138455226.787       -1411.217          45.000    26347177.484   106089183.357       -1081.308          48.000  
E18  26149617.510   137417212.563       -1471.361          45.000                                                                  
G32  21752526.803   114310336.039        -259.506          48.000    21752523.127    89072999.466        -202.043          45.000  
G23                                                                  25584937.973                3      -3092.363          14.000  
