     3.00           OBSERVATION DATA    M: Mixed            RINEX VERSION / TYPE
CONVBIN 2.4.3                           20240415 125942 UTC PGM / RUN BY / DATE 
format: u-blox UBX                                          COMMENT             
log: /home/regis/git/gnsspwv/obsdata/VERT00CHL/2024-04-15/VECOMMENT             
{self.marker}                                               MARKER NAME         
                                                            MARKER NUMBER       
GEODETIC                                                    MARKER TYPE         
{self.observer}     {self.institution}                      OBSERVER / AGENCY   
UNKNOWN             UBLOX-ZED-F9P                           REC # / TYPE / VERS 
UNKNOWN             TWIVSP6037L                             ANT # / TYPE        
  1713381.0000 -5047934.0000 -3490983.0000                  APPROX POSITION XYZ 
        0.0000        0.0000        0.0000                  ANTENNA: DELTA H/E/N
G    8 C1C L1C D1C S1C C2L L2L D2L S2L                      SYS / # / OBS TYPES 
R    8 C1C L1C D1C S1C C2C L2C D2C S2C                      SYS / # / OBS TYPES 
E    8 C1C L1C D1C S1C C7Q L7Q D7Q S7Q                      SYS / # / OBS TYPES 
S    4 C1C L1C D1C S1C                                      SYS / # / OBS TYPES 
  2024    04    15    12    45   00.0050000     GPS         TIME OF FIRST OBS   
  2024    04    15    12    59   30.0050000     GPS         TIME OF LAST OBS    
                                                            END OF HEADER       
> 2024 04 15 12 45 00.0050000  0 23                     
S33  41152301.693   216256953.5421       -661.696          42.000  
G09  25635069.117   134713132.0031       2772.460          35.000    25635074.348   104971301.2981       2159.876          35.000  
G04  22390679.892   117663782.5421       1573.627          47.000    22390678.077    91686076.5571       1226.337          46.000  
G02  21496506.616   112964910.5241      -1468.565          49.000                                                                  
R08  21061223.672   112781902.7251      -2158.871          50.000    21061217.709    87719396.8241      -1679.052          49.000  
R01  22450394.528   120010168.3931       1427.246          46.000    22450394.561    93341228.3701       1110.059          42.000  
R22  22414133.768   119648087.4801      -3982.928          51.000    22414132.527    93059686.5731      -3097.876          49.000  
G28  25021054.441   131486522.3361      -1271.199          36.000    25021053.828   102457001.9191       -990.344          40.000  
G08  25437959.619   133677336.6111      -4310.224          36.000    25437962.787   104164081.4891      -3358.875          37.000  
G17  23593570.232   123985002.6451        704.012          46.000    23593566.933    96611700.0801        548.503          41.000  
E08  24971842.095   131227886.1221        323.988          47.000    24971842.566   100551224.9131        248.253          50.000  
S31  40200150.675   211253326.3511       -663.150          43.000  
R24  23437220.205   125329278.3821       3098.345          48.000    23437216.652    97478346.5131       2409.804          44.000  
R23  20602998.606   110212039.6841       -284.325          49.000                                                                  
E15  24970862.483   131222820.1601      -1179.477          46.000    24970866.181   100547399.7151       -903.750          54.000  
G03  22446137.047   117955224.1121       -128.174          49.000    22446135.802    91913157.1671        -99.945          46.000  
E34  28283904.707   148633039.1171      -2960.021          45.000    28283910.391   113887778.4951      -2268.065          45.000  
G31  24617063.521   129363562.5581        392.516          46.000    24617061.853   100802759.0751        305.876          44.000  
E07  28369448.440   149082503.2521       2072.738          36.000    28369453.940   114232032.8131       1588.160          44.000  
E03  25757623.264   135357229.1521      -2274.842          45.000    25757626.610   103715292.0081      -1743.034          53.000  
G21  21518592.963   113080947.5301      -2433.722          50.000                                                                  
E18  28624482.031   150422669.3451      -1049.508          45.000                                                                  
E13  25920591.789   136213662.0891       1195.939          46.000    25920594.373   104371470.9541        916.438          50.000  
> 2024 04 15 12 45 30.0050000  0 23                     
S33  41156078.602   216276802.831        -661.310          42.000  
G09  25619260.856   134630040.127        2767.512          36.000    25619262.451   104906554.408        2156.191          36.000  
G04  22381736.213   117616782.586        1559.467          47.000    22381734.841    91649453.234        1215.344          47.000  
G02  21504940.334   113009231.818       -1486.100          48.000                                                                  
R08  21073356.339   112846869.973       -2172.090          51.000    21073350.419    87769926.883       -1689.308          49.000  
R01  22442422.280   119967554.050        1413.800          47.000    22442421.619    93308083.850        1099.616          41.000  
R22  22436560.368   119767800.666       -3997.949          51.000    22436559.293    93152796.704       -3109.473          50.000  
G28  25028359.403   131524912.948       -1288.406          37.000    25028358.930   102486916.653       -1003.743          38.000  
G08  25462563.829   133806627.265       -4309.094          36.000    25462566.227   104264827.169       -3357.666          36.000  
G17  23589607.268   123964175.847         684.522          46.000    23589603.739    96595471.352         533.527          41.000  
E08  24970024.548   131218334.669         312.903          47.000    24970024.793   100543906.254         239.860          50.000  
S31  40203933.851   211273205.265        -662.390          44.000  
R24  23419860.532   125236450.926        3090.194          48.000    23419857.369    97406147.417        2403.645          43.000  
R23  20604660.796   110220928.813        -308.362          50.000                                                                  
E15  24977622.324   131258339.812       -1188.461          46.000    24977625.175   100574616.033        -910.585          54.000  
G03  22446880.945   117959132.928        -132.343          49.000    22446879.394    91916202.980        -103.210          46.000  
E34  28300816.857   148721919.194       -2965.275          44.000    28300823.338   113955881.206       -2272.074          44.000  
G31  24614861.489   129351990.001         379.153          46.000    24614858.539   100793741.486         295.393          43.000  
E07  28357628.733   149020386.733        2068.558          38.000    28357633.623   114184437.052        1585.042          44.000  
E03  25770633.726   135425596.537       -2282.708          46.000    25770636.380   103767677.353       -1749.048          53.000  
G21  21532538.597   113154236.165       -2451.970          50.000                                                                  
E18  28630465.065   150454109.653       -1046.405          45.000                                                                  
E13  25913776.056   136177845.476        1192.066          47.000    25913778.678   104344027.058         913.385          50.000  
> 2024 04 15 12 46 00.0050000  0 24                     
S33  41159853.723   216296639.990        -661.169          41.000  
G09  25603477.384   134547099.992        2761.908          36.000    25603478.205   104841925.773        2152.330          37.000  
G04  22372875.965   117570219.726        1544.690          47.000    22372874.593    91613170.484        1203.717          47.000  
G02  21513477.346   113054090.527       -1504.334          48.000                                                                  
R08  21085563.586   112912240.550       -2185.778          51.000    21085557.400    87820770.645       -1700.093          48.000  
R01  22434528.749   119925357.323        1399.378          48.000    22434527.724    93275264.209        1088.477          41.000  
R09  25866105.875                3       1345.087          10.000    25871337.625                3        378.576          13.000  
R22  22459073.228   119887975.102       -4013.598          51.000    22459072.361    93246265.577       -3121.656          50.000  
G28  25035766.295   131563828.044       -1306.038          36.000    25035765.130   102517240.010       -1017.758          40.000  
G08  25487163.857   133935894.175       -4309.021          35.000    25487164.313   104365554.331       -3356.947          33.000  
G17  23585756.977   123943942.106         664.523          46.000    23585753.213    96579704.769         517.893          41.000  
E08  24968272.878   131209124.012         301.119          48.000    24968272.465   100536848.718         230.740          51.000  
S31  40207714.198   211293072.060        -662.125          44.000  
R24  23402547.974   125143876.959        3081.401          47.000    23402545.232    97334145.497        2396.563          43.000  
R23  20606460.151   110230553.148        -333.192          50.000                                                                  
E15  24984434.738   131294142.198       -1198.240          46.000    24984438.240   100602049.000        -918.120          54.000  
G03  22447651.502   117963179.268        -137.280          50.000    22447649.328    91919355.949        -106.879          46.000  
E34  28317762.825   148810967.594       -2970.937          43.000    28317769.185   114024112.901       -2276.615          44.000  
G31  24612736.351   129340826.560         365.198          46.000    24612734.336   100785042.728         284.702          44.000  
E07  28345832.689   148958401.554        2064.013          39.000    28345838.489   114136941.950        1581.390          44.000  
E03  25783691.075   135494211.955       -2291.410          46.000    25783693.614   103820252.751       -1755.720          53.000  
G21  21546590.537   113228078.235       -2470.749          49.000                                                                  
E18  28636432.823   150485467.877       -1044.038          45.000                                                                  
E13  25906985.164   136142158.808        1187.151          46.000    25906987.825   104316682.716         909.658          50.000  
> 2024 04 15 12 46 30.0050000  0 23                     
S33  41163630.042   216316482.631        -661.432          41.000  
G09  25587726.890   134464331.111        2756.608          37.000    25587727.943   104777430.632        2147.550          38.000  
G04  22364102.197   117524113.007        1529.419          46.000    22364100.795    91577243.158        1191.754          47.000  
G02  21522118.292   113099504.760       -1522.874          47.000                                                                  
R08  21097849.216   112978029.646       -2199.746          50.000    21097842.872    87871939.907       -1710.941          48.000  
R01  22426717.000   119883596.276        1384.955          47.000    22426715.278    93242783.381        1077.295          41.000  
R22  22481675.883   120008626.245       -4029.419          51.000    22481674.143    93340105.245       -3134.003          50.000  
G28  25043271.707   131603285.038       -1324.382          37.000    25043273.648   102547985.684       -1031.720          39.000  
G08  25511759.134                       -4308.539          31.000    25511758.046                       -3356.928          29.000  
G17  23582023.373   123924320.344         643.942          46.000    23582019.556    96564415.066         501.840          42.000  
E08  24966588.329   131200271.797         289.249          48.000    24966588.107   100530065.838         221.650          51.000  
S31  40211495.649   211312944.887        -662.587          43.000  
R24  23385288.070   125051578.265        3072.209          48.000    23385284.359    97262357.663        2389.536          43.000  
R23  20608399.570   110240932.168        -358.284          48.000                                                                  
E15  24991305.221   131330245.702       -1208.358          46.000    24991308.651   100629712.676        -925.864          54.000  
G03  22448450.645   117967380.562        -142.548          49.000    22448448.653    91922629.671        -111.133          46.000  
E34  28334741.571   148900201.598       -2977.230          41.000    28334750.618   114092486.798       -2281.328          45.000  
G31  24610694.053   129330091.729         350.766          46.000    24610692.179   100776677.968         273.367          44.000  
E07  28334065.438   148896566.550        2059.011          40.000    28334071.521   114089561.920        1577.591          44.000  
E03  25796798.406   135563091.572       -2300.104          46.000    25796801.263   103873030.597       -1762.437          53.000  
G21  21560750.018   113302490.600       -2489.764          49.000                                                                  
E18  28642387.217   150516761.475       -1041.840          45.000                                                                  
E13  25900222.935   136106621.270        1182.260          46.000    25900225.243   104289452.653         905.892          50.000  
> 2024 04 15 12 47 00.0050000  0 24                     
S33  41167406.546   216336330.270        -661.429          41.000  
G09  25572007.187   134381733.143        2750.556          36.000    25572011.194   104713068.633        2143.441          39.000  
G04  22355414.222   117478461.564        1514.447          45.000    22355413.531    91541670.620        1180.048          47.000  
G02  21530865.682   113145472.589       -1541.271          48.000                                                                  
R08  21110211.836   113044231.965       -2213.435          50.000    21110205.784    87923430.552       -1721.552          49.000  
R01  22418984.938   119842268.754        1370.624          46.000    22418983.531    93210639.750        1065.985          41.000  
R09  25859398.390                3       1385.878          13.000                                                                  
R22  22504365.744   120129749.152       -4045.083          51.000    22504364.425    93434311.791       -3146.225          50.000  
G28  25050884.995   131643281.759       -1342.228          39.000    25050886.099   102579151.873       -1045.594          39.000  
G08  25536354.257                       -4307.937          27.000    25536356.234                       -3355.709          29.000  
G17  23578405.224   123905309.280         623.588          46.000    23578401.816    96549601.230         485.858          43.000  
E08  24964971.607   131191775.926         277.466          48.000    24964971.355   100523556.007         212.559          51.000  
S31  40215277.648   211332821.809        -662.413          43.000  
R24  23368080.230   124959556.501        3062.852          48.000    23368076.492    97190785.242        2382.328          44.000  
R23  20610481.181   110252065.529        -383.605          48.000                                                                  
E15  24998232.499   131366648.844       -1218.155          46.000    24998235.993   100657605.951        -933.521          54.000  
G03  22449278.969   117971734.364        -147.552          49.000    22449276.640    91926022.226        -114.777          45.000  
E34  28351759.275   148989618.636       -2983.537          42.000    28351766.709   114161000.898       -2285.991          47.000  
G31  24608732.157   129319785.409         336.531          46.000    24608731.198   100768647.098         262.036          44.000  
E07  28322326.195   148834880.687        2053.800          40.000    28322333.362   114042296.164        1573.964          44.000  
E03  25809955.116   135632231.794       -2308.796          46.000    25809958.265   103926008.100       -1769.092          53.000  
G21  21575018.615   113377470.565       -2508.739          49.000                                                                  
E18  28648329.186   150547988.067       -1039.638          44.000                                                                  
E13  25893488.874   136071232.236        1177.443          46.000    25893490.990   104262336.378         902.108          50.000  
> 2024 04 15 12 47 30.0050000  0 24                     
S33  41171183.379   216356176.917        -661.140          41.000  
G09  25556322.337   134299303.798        2745.366          37.000    25556324.503   104648838.028        2139.278          38.000  
G04  22346812.752   117433262.579        1499.658          45.000    22346811.242    91506450.675        1168.365          46.000  
G02  21539717.640   113191989.827       -1559.286          48.000                                                                  
R08  21122650.378   113110840.848       -2226.607          51.000    21122645.190    87975237.444       -1731.909          49.000  
R01  22411335.259   119801370.786        1356.427          48.000    22411334.334    93178830.234        1055.090          44.000  
R22  22527143.447   120251336.942       -4060.238          51.000    22527142.271    93528879.953       -3158.027          50.000  
G28  25058599.752   131683813.851       -1359.645          40.000    25058602.014   102610735.242       -1059.567          40.000  
G17  23574903.119   123886906.629         603.655          45.000    23574900.565    96535261.474         470.336          42.000  
E08  24963421.509   131183632.271         265.918          47.000    24963422.013   100517316.053         203.772          51.000  
S31  40219060.416   211352697.930        -662.068          43.000  
R24  23350922.861   124867811.600        3053.932          47.000    23350919.953    97119428.160        2375.283          46.000  
R23  20612703.856   110263950.613        -408.230          49.000                                                                  
E15  25005215.965   131403348.154       -1227.761          46.000    25005219.314   100685726.162        -940.836          54.000  
G03  22450135.290   117976236.209        -152.161          49.000    22450133.917    91929530.123        -118.591          46.000  
E34  28368808.669   149079213.955       -2989.022          43.000    28368816.632   114229651.631       -2290.372          47.000  
G31  24606851.616   129309905.163         322.455          46.000    24606851.573   100760948.221         251.320          45.000  
E07  28310615.739   148773340.913        2049.077          42.000    28310622.086   113995142.360        1570.250          44.000  
E03  25823161.267   135701626.931       -2316.973          46.000    25823163.726   103979180.947       -1775.323          53.000  
G21  21589393.533   113453013.064       -2527.085          49.000                                                                  
E18  28654258.253   150579143.272       -1036.874          45.000                                                                  
E13  25886782.027   136035989.066        1172.732          46.000    25886784.479   104235331.860         898.555          50.000  
G08                                                                  25560952.883                3      -3356.487          25.000  
R07                                                                  23985100.845                3      -3226.328          13.000  
> 2024 04 15 12 48 00.0050000  0 24                     
S33  41174958.338   216376015.175        -661.414          42.000  
G09  25540668.817   134217037.030        2739.509          38.000    25540669.913   104584734.124        2134.678          38.000  
G04  22338297.204   117388509.542        1484.222          46.000    22338294.417    91471578.149        1156.519          46.000  
G02  21548673.431   113239048.868       -1577.701          48.000                                                                  
R08  21135162.863   113177845.175       -2240.256          51.000    21135157.034    88027351.903       -1742.442          48.000  
R01  22403764.149   119760894.712        1342.059          49.000    22403763.933    93147348.838        1043.878          43.000  
R22  22550006.208   120373379.019       -4075.716          51.000    22550004.530    93623801.457       -3170.008          49.000  
G28  25066412.203   131724873.340       -1377.654          36.000    25066413.299   102642729.646       -1073.152          37.000  
G17  23571514.977   123869105.504         583.152          45.000    23571513.549    96521390.455         454.271          44.000  
E08  24961937.585   131175832.983         254.267          47.000    24961937.834   100511339.961         194.771          51.000  
S31  40222841.773   211372566.663        -662.148          44.000  
G19  25875078.039                3       1745.075          23.000                                                                  
R24  23333816.275   124776339.703        3044.322          46.000    23333814.727    97048283.417        2367.806          46.000  
R23  20615065.637   110276581.098        -433.596          50.000                                                                  
E15  25012254.835   131440336.514       -1237.743          46.000    25012257.986   100714067.850        -948.495          54.000  
G03  22451018.751   117980878.000        -157.092          49.000    22451018.042    91933147.097        -122.534          46.000  
E34  28385891.663   149168979.371       -2995.053          44.000    28385898.694   114298432.681       -2295.014          48.000  
G31  24605052.219   129300444.770         308.262          47.000    24605050.140   100753576.529         240.016          43.000  
E07  28298931.317   148711940.485        2044.314          42.000    28298937.239   113948095.367        1566.165          43.000  
E03  25836412.938   135771267.685       -2325.481          46.000    25836415.998   104032541.984       -1781.886          53.000  
G21  21603874.779   113529109.193       -2545.897          49.000                                                                  
E18  28660172.070   150610219.076       -1034.749          45.000                                                                  
E13  25880102.302   136000885.485        1167.693          46.000    25880104.522   104208434.305         894.636          50.000  
G08                                                                  25585531.430                3      -3353.350          19.000  
> 2024 04 15 12 48 30.0050000  0 24                     
S33  41178734.707   216395857.499        -661.638          41.000  
G09  25525047.758   134134946.124        2733.312          35.000    25525047.845   104520767.248        2129.640          35.000  
G04  22329868.236   117344215.234        1468.549          45.000    22329866.066    91437063.096        1144.318          46.000  
G02  21557733.731   113286661.427       -1596.529          48.000                                                                  
R08  21147751.864   113245253.913       -2253.835          51.000    21147745.362    88079780.910       -1753.081          48.000  
R01  22396272.786   119720852.004        1327.338          48.000    22396273.118    93116204.478        1032.379          42.000  
R22  22572955.486   120495884.463       -4091.506          51.000    22572954.552    93719083.291       -3182.162          49.000  
G28  25074328.930   131766471.732       -1395.685          36.000    25074326.819   102675143.910       -1087.687          36.000  
G17  23568244.668   123851918.398         562.588          46.000    23568243.360    96507997.877         438.112          44.000  
E08  24960520.622   131168389.610         242.042          47.000    24960521.571   100505636.575         185.391          51.000  
S31  40226623.216   211392438.346        -662.570          43.000  
G19  25865151.997                1       1731.785          27.000                                                                  
R24  23316763.690   124685156.421        3034.505          46.000    23316763.321    96977363.119        2360.236          46.000  
R23  20617568.538   110289970.317        -459.093          50.000                                                                  
E15  25019350.520   131477626.117       -1248.139          46.000    25019354.159   100742640.362        -956.432          54.000  
G03  22451931.004   117985671.035        -162.445          49.000    22451930.433    91936881.912        -126.575          47.000  
E34  28403007.317   149258925.896       -3001.359          44.000    28403014.967   114367352.515       -2300.011          47.000  
G31  24603333.160   129291418.058         293.427          47.000    24603332.743   100746542.759         228.627          44.000  
E07  28287276.967   148650692.121        2038.738          43.000    28287282.057   113901164.831        1562.278          43.000  
E03  25849713.561   135841164.061       -2334.272          47.000    25849716.764   104086098.895       -1788.596          52.000  
G21  21618463.244   113605769.851       -2564.996          50.000                                                                  
E18  28666071.573   150641226.752       -1032.579          44.000                                                                  
E13  25873451.139   135965934.570        1162.314          46.000    25873453.650   104181653.723         890.583          51.000  
G08                                                                  25610124.232                3      -3361.649          20.000  
> 2024 04 15 12 49 00.0050000  0 25                     
S33  41182511.610   216415706.355        -661.663          41.000  
G09  25509460.536   134053035.664        2727.410          37.000    25509459.243   104456940.930        2125.962          33.000  
G04  22321527.380   117300383.711        1453.564          46.000    22321525.700    91402908.674        1132.587          46.000  
G02  21566900.534   113334830.208       -1614.879          48.000                                                                  
R08  21160415.569   113313066.278       -2267.122          51.000    21160408.353    88132523.799       -1763.284          48.000  
R01  22388863.238   119681245.556        1312.921          48.000    22388863.522    93085399.463        1021.332          41.000  
R22  22595991.523   120618853.268       -4106.643          51.000    22595991.639    93814725.550       -3193.969          50.000  
G28  25082345.934   131808611.403       -1413.218          34.000    25082346.226   102707980.018       -1101.097          34.000  
G17  23565092.329   123835349.763         541.975          47.000    23565090.117    96495087.190         422.384          44.000  
E08  24959172.734   131161304.905         230.249          47.000    24959173.192   100500208.006         176.382          51.000  
S31  40230405.902   211412316.734        -662.738          43.000  
G19  25855305.287                        1719.351          25.000                                                                  
R24  23299766.857   124594268.670        3024.639          46.000    23299766.662    96906672.711        2352.512          46.000  
R23  20620213.997   110304122.634        -484.544          50.000                                                                  
E15  25026505.483   131515220.396       -1258.199          47.000    25026508.242   100771446.328        -964.114          54.000  
G03  22452871.332   117990617.852        -167.389          48.000    22452871.696    91940736.546        -130.377          47.000  
E34  28420158.697   149349055.898       -3007.165          44.000    28420165.710   114436412.924       -2304.427          46.000  
G31  24601699.543   129282829.276         279.019          47.000    24601699.539   100739850.231         217.416          45.000  
E07  28275652.006   148589599.656        2033.908          44.000    28275656.580   113854353.769        1558.427          43.000  
E03  25863063.763   135911317.395       -2342.681          46.000    25863066.538   104139852.689       -1795.004          52.000  
G21  21633159.167   113682996.889       -2583.504          50.000                                                                  
E18  28671960.595   150672168.921       -1030.377          45.000                                                                  
E13  25866829.282   135931140.630        1157.227          45.000    25866832.699   104154993.432         886.751          51.000  
G08                                                                  25634716.265                3      -3356.102          21.000  
R07                                                                  24057732.032                3      -3263.126          12.000  
> 2024 04 15 12 49 30.0050000  0 22                     
S33  41186289.857   216435561.890        -661.915          41.000  
G09  25493907.664   133971308.523        2721.037          36.000    25493907.739   104393257.552        2120.000          35.000  
G04  22313275.375   117257017.250        1437.738          46.000    22313273.629    91369116.639        1120.209          46.000  
G02  21576172.293   113383556.595       -1633.613          47.000                                                                  
R08  21173153.119   113381281.228       -2280.565          50.000    21173147.501    88185579.843       -1773.804          49.000  
R01  22381535.826   119642076.632        1298.358          49.000    22381535.934    93054934.645        1009.906          42.000  
R22  22619114.930   120742283.905       -4122.066          51.000    22619114.387    93910727.031       -3206.040          49.000  
G28  25090470.051                       -1432.302          31.000    25090468.622   102741238.568       -1115.624          35.000  
G17  23562057.733   123819401.419         521.247          47.000    23562055.205    96482659.912         406.041          44.000  
E08  24957892.898   131154579.900         218.148          47.000    24957893.529   100495055.059         167.130          51.000  
S31  40234190.113   211432202.605        -663.085          44.000  
R24  23282827.745   124503681.605        3014.356          47.000    23282826.392    96836216.172        2344.597          46.000  
R23  20623001.782   110319040.354        -510.195          49.000                                                                  
E15  25033717.409   131553121.070       -1268.528          47.000    25033720.408   100800487.051        -971.956          54.000  
G03  22453842.495   117995719.253        -172.687          48.000    22453842.554    91944711.639        -134.509          47.000  
E34  28437345.315   149439369.943       -3013.694          44.000    28437351.981   114505614.344       -2309.165          45.000  
G31  24600149.396   129274681.368         264.045          47.000    24600149.065   100733501.250         205.920          45.000  
E07  28264055.340   148528665.225        2028.468          43.000    28264061.845   113807663.779        1554.262          44.000  
E03  25876462.535   135981727.184       -2351.252          47.000    25876465.196   104193803.004       -1801.666          52.000  
G21  21647962.954   113760790.363       -2602.640          50.000                                                                  
E18  28677836.403   150703046.361       -1028.292          45.000                                                                  
E13  25860238.540   135896506.289        1151.880          45.000    25860242.068   104128455.436         882.511          51.000  
> 2024 04 15 12 50 00.0050000  0 22                     
S33  41190071.578   216455434.661        -662.407          41.000  
G09  25478390.883   133889775.427        2714.478          36.000    25478393.738   104329725.276        2115.045          36.000  
G04  22305113.815   117214126.044        1421.838          46.000    22305111.792    91335694.914        1107.886          47.000  
G02  21585552.625   113432849.894       -1652.537          48.000                                                                  
R08  21185968.853   113449904.743       -2294.823          50.000    21185963.431    88238953.662       -1784.787          49.000  
R01  22374292.918   119603353.909        1283.374          49.000    22374291.758    93024817.031         998.029          42.000  
R22  22642324.891   120866182.698       -4137.663          51.000    22642324.696    94007092.603       -3218.201          49.000  
G28  25098697.560   131894537.1721      -1450.264          29.000    25098692.939   102774926.547       -1129.567          33.000  
G17  23559142.521   123804083.427         500.197          46.000    23559139.721    96470723.794         389.699          44.000  
E08  24956683.197   131148223.457         205.879          47.000    24956683.735   100490184.523         157.649          51.000  
S31  40237977.174   211452104.430        -663.512          44.000  
R24  23265946.999   124413408.177        3003.769          48.000    23265944.707    96766003.574        2336.438          47.000  
R23  20625936.030   110334734.352        -536.124          49.000                                                                  
E15  25040990.596   131591337.713       -1279.195          47.000    25040992.829   100829769.871        -980.101          54.000  
G03  22454844.168   118000983.849        -178.149          49.000    22454844.168    91948813.876        -138.660          46.000  
E34  28454568.308   149529876.430       -3019.969          44.000    28454574.770   114574963.231       -2314.062          45.000  
G31  24598684.306   129266984.939         249.051          47.000    24598682.582   100727504.041         194.132          43.000  
E07  28252492.484   148467898.827        2022.851          43.000    28252498.372   113761102.567        1549.942          44.000  
E03  25889911.310   136052400.867       -2360.089          47.000    25889913.994   104247955.504       -1808.387          52.000  
G21  21662875.723   113839158.403       -2621.875          50.000                                                                  
E18  28683702.134   150733867.734       -1026.260          46.000                                                                  
E13  25853679.995   135862042.001        1145.973          45.000    25853683.579   104102047.722         878.127          51.000  
> 2024 04 15 12 50 30.0050000  0 23                     
S33  41193855.865   216475320.072        -663.058          41.000  
G09  25462910.707   133808434.284        2707.996          36.000    25462915.153   104266342.641        2109.882          35.000  
G04  22297041.334   117171707.459        1406.226          46.000    22297039.254    91302641.507        1095.880          46.000  
G02  21595040.160   113482705.410       -1670.983          48.000                                                                  
R08  21198858.420   113518930.104       -2307.319          50.000    21198853.259    88292640.016       -1794.659          48.000  
R01  22367131.735   119565073.989        1268.781          49.000    22367130.116    92995043.750         986.853          41.000  
R22  22665622.421   120990542.945       -4152.835          51.000    22665622.845    94103817.087       -3230.006          50.000  
G28  25107037.863                       -1468.869          27.000    25107026.184   102809040.346       -1143.871          36.000  
G17  23556346.610   123789393.451         479.400          46.000    23556344.027    96459277.060         373.517          44.000  
E08  24955543.713   131142231.708         193.747          48.000    24955543.501   100485593.419         148.510          50.000  
S31  40241766.936   211472018.857        -663.827          44.000  
G19  25826181.614                3       1681.625          25.000                                                                  
R24  23249124.567   124323448.598        2993.564          48.000    23249121.926    96696035.095        2328.223          47.000  
R23  20629013.892   110351201.846        -561.572          49.000                                                                  
E15  25048321.088   131629867.121       -1289.291          47.000    25048324.655   100859292.360        -987.982          54.000  
G03  22455876.970   118006407.651        -183.276          49.000    22455875.909    91953040.198        -142.767          47.000  
E34  28471827.366   149620571.042       -3026.016          44.000    28471834.004   114644456.265       -2318.713          46.000  
G31  24597305.859   129259737.923         234.326          47.000    24597302.725   100721857.054         182.476          41.000  
E07  28240960.671   148407297.755        2017.412          43.000    28240966.596   113714668.016        1545.812          45.000  
E03  25903409.714   136123333.123       -2368.535          47.000    25903411.815   104302306.136       -1814.804          52.000  
G21  21677896.779   113918096.036       -2640.497          49.000                                                                  
E18  28689556.347   150764629.023       -1024.252          47.000                                                                  
E13  25847153.374   135827745.485        1140.576          45.000    25847157.090   104075768.556         873.938          51.000  
> 2024 04 15 12 51 00.0050000  0 24                     
S33  41197641.466   216495212.203        -663.016          42.000  
G09  25447468.899   133727282.324        2702.081          39.000    25447471.177   104203107.378        2105.798          33.000  
G04  22289058.746   117129758.219        1390.680          46.000    22289056.107    91269953.816        1083.594          46.000  
G02  21604632.911   113533119.191       -1689.372          47.000                                                                  
R08  21211822.043   113588350.114       -2320.262          50.000    21211816.378    88346633.310       -1804.525          48.000  
R01  22360052.390   119527231.887        1254.413          49.000    22360050.539    92965611.061         975.641          40.000  
R09  25817926.095                3       1329.403          14.000    25814925.454                3        699.180          12.000  
R22  22689003.625   121115357.295       -4167.640          50.000    22689004.107    94200894.818       -3241.502          49.000  
G28  25115468.504                3      -1486.102          30.000    25115460.097   102843576.594       -1158.055          36.000  
G17  23553670.086   123775327.865         458.767          46.000    23553668.175    96448316.868         357.410          44.000  
E08  24954471.785   131136600.064         181.972          47.000    24954471.499   100481278.259         139.512          50.000  
S31  40245557.514   211491941.631        -664.002          43.000  
G19  25816622.363                3       1668.048          25.000                                                                  
R24  23232360.523   124233802.401        2983.326          49.000    23232357.456    96626310.316        2320.351          48.000  
R23  20632236.618   110368439.912        -587.138          49.000                                                                  
E15  25055712.185   131668705.445       -1299.394          46.000    25055715.258   100889051.546        -995.582          54.000  
G03  22456937.795   118011985.849        -188.171          49.000    22456937.537    91957386.830        -146.680          47.000  
E34  28489120.209   149711448.741       -3031.820          43.000    28489127.939   114714089.579       -2323.253          47.000  
G31  24596011.963   129252937.525         219.536          47.000    24596009.331   100716558.069         170.964          42.000  
E07  28229457.694   148346858.527        2012.123          41.000    28229464.845   113668357.484        1541.886          45.000  
E03  25916955.216   136194517.893       -2376.709          47.000    25916957.734   104356850.277       -1821.085          51.000  
G21  21693026.507   113997597.763       -2659.207          51.000                                                                  
E18  28695397.044   150795325.437       -1021.752          46.000                                                                  
E13  25840658.778   135793613.788        1135.233          45.000    25840662.136   104049615.686         869.944          51.000  
> 2024 04 15 12 51 30.0050000  0 24                     
S33  41201429.245   216515117.281        -663.304          42.000  
G09  25432064.447   133646325.142        2695.508          41.000    25432065.465   104140023.917        2100.324          33.000  
G04  22281165.476   117088283.169        1374.921          46.000    22281163.994    91237635.582        1071.332          47.000  
G02  21614334.130   113584094.845       -1708.239          47.000                                                                  
R08  21224859.339   113658165.096       -2333.461          50.000    21224853.435    88400933.817       -1814.863          48.000  
R01  22353055.683   119489831.428        1239.673          49.000    22353054.032    92936521.764         964.081          42.000  
R09  25810831.853                3        801.874          14.000    25813640.688                3        251.502          12.000  
R22  22712470.890   121240626.817       -4182.789          49.000    22712470.457    94298326.541       -3253.298          48.000  
G28  25123992.560                3      -1504.698          31.000    25124000.097   102878537.838       -1172.094          37.000  
G17  23551113.272   123761891.359         437.661          48.000    23551111.005    96437846.862         340.952          44.000  
E08  24953468.734   131131332.195         169.872          47.000    24953469.286   100477241.843         130.231          50.000  
S31  40249351.515   211511875.811        -664.222          43.000  
G19  25807167.276                2       1655.610          25.000                                                                  
R24  23215655.792   124144477.329        2972.329          48.000    23215652.975    96556835.278        2311.892          47.000  
R23  20635604.438   110386453.283        -613.113          50.000                                                                  
E15  25063163.069   131707857.019       -1310.074          47.000    25063165.680   100919050.766       -1003.770          54.000  
G03  22458029.782   118017721.980        -193.744          49.000    22458029.400    91961856.520        -150.879          47.000  
E34  28506449.008   149802512.701       -3038.035          43.000    28506457.279   114783865.636       -2327.988          47.000  
G31  24594803.534   129246589.552         204.277          46.000    24594801.877   100711611.656         159.136          43.000  
E07  28217990.076   148286586.018        2006.517          40.000    28217995.700   113622174.678        1537.489          47.000  
E03  25930550.473   136265957.441       -2385.249          48.000    25930552.061   104411589.633       -1827.755          51.000  
G21  21708262.345   114077666.452       -2678.074          49.000                                                                  
E18  28701225.032   150825960.538       -1019.792          44.000                                                                  
E13  25834196.842   135759652.205        1129.362          45.000    25834199.594   104023593.160         865.471          51.000  
> 2024 04 15 12 52 00.0050000  0 25                     
S33  41205218.106   216535028.791        -663.533          41.000  
G09  25416695.134   133565559.355        2688.837          40.000    25416701.429   104077089.582        2095.636          34.000  
G04  22273363.265   117047278.505        1358.850          47.000    22273361.066    91205683.907        1059.045          47.000  
G02  21624140.277   113635627.195       -1727.079          47.000                                                                  
R07  24196770.943                3      -3850.117          10.000                                                                  
R08  21237969.421   113728366.866       -2346.667          50.000    21237963.625    88455535.152       -1825.077          48.000  
R01  22346140.862   119452867.590        1224.878          48.000    22346138.572    92907772.166         952.490          42.000  
R09  25803392.985                3       1294.219          11.000                                                                  
R22  22736022.089   121366343.499       -4198.073          50.000    22736022.556    94396106.006       -3265.226          49.000  
G28  25132646.926                1      -1522.750          28.000    25132640.754   102913919.785       -1186.371          38.000  
G17  23548676.107   123749079.709         416.510          48.000    23548672.557    96427863.757         324.740          43.000  
E08  24952533.934   131126422.984         157.647          47.000    24952535.252   100473480.251         120.805          51.000  
S31  40253146.122   211531817.510        -664.965          44.000  
G19  25797712.104   135567886.2553       1643.379          27.000                                                                  
R24  23199011.011   124055472.421        2961.404          48.000    23199009.145    96487609.295        2303.301          47.000  
R23  20639115.633   110405238.288        -639.100          50.000                                                                  
E15  25070672.353   131747317.414       -1320.591          47.000    25070675.021   100949286.614       -1011.871          54.000  
G03  22459150.031   118023610.720        -198.859          49.000    22459149.786    91966445.132        -154.907          46.000  
E34  28523813.121   149893757.526       -3044.580          43.000    28523820.484   114853780.187       -2332.823          47.000  
G31  24593681.026   129240690.031         189.108          46.000    24593680.747   100707014.684         147.374          43.000  
E07  28206551.235   148226476.166        2001.134          40.000    28206557.017   113576116.538        1533.241          47.000  
E03  25944191.664   136337645.157       -2393.911          47.000    25944193.664   104466519.129       -1834.212          51.000  
G21  21723605.822   114158296.201       -2697.118          49.000                                                                  
E18  28707043.235   150856529.070       -1017.843          44.000                                                                  
E13  25827766.317   135725857.220        1123.446          45.000    25827768.498   103997698.296         860.997          51.000  
> 2024 04 15 12 52 30.0050000  0 23                     
S33  41209009.089   216554950.489        -664.126          42.000  
G09  25401364.150   133484990.153        2682.550          41.000    25401366.446   104014308.433        2090.851          33.000  
G04  22265650.403   117006748.661        1343.060          47.000    22265648.400    91174102.239        1046.613          47.000  
G02  21634052.940   113687719.879       -1745.683          47.000                                                                  
R08  21251151.383   113798956.604       -2359.319          50.000    21251145.541    88510438.233       -1834.929          48.000  
R01  22339307.231   119416343.505        1210.193          48.000    22339306.738    92879364.563         941.327          43.000  
R22  22759659.015   121492508.052       -4212.885          51.000    22759657.334    94494233.839       -3276.674          49.000  
G28  25141389.759                3      -1542.150          25.000    25141385.120   102949725.057       -1200.347          38.000  
G17  23546357.490   123736897.467         395.683          48.000    23546354.195    96418371.100         308.375          43.000  
E08  24951669.671   131121875.711         145.750          48.000    24951670.221   100469995.986         111.657          51.000  
S31  40256943.035   211551769.198        -665.012          44.000  
G19  25788373.301   135518790.260        1630.934          31.000                                                                  
R24  23182428.136   123966795.039        2950.433          49.000    23182426.287    96418638.050        2294.878          47.000  
R23  20642772.969   110424799.787        -664.884          50.000                                                                  
E15  25078240.720   131787090.649       -1330.834          47.000    25078243.746   100979762.172       -1019.751          54.000  
G03  22460300.430   118029655.331        -204.034          49.000    22460299.234    91971155.217        -158.929          46.000  
E34  28541211.408   149985185.898       -3050.422          44.000    28541218.583   114923835.450       -2337.354          45.000  
G31  24592644.148   129235244.451         174.057          45.000    24592642.756   100702771.429         135.616          42.000  
E07  28195142.196   148166533.491        1995.215          37.000    28195150.286   113530186.477        1528.844          47.000  
E03  25957880.361   136409582.946       -2401.785          47.000    25957882.814   104521640.264       -1840.493          50.000  
G21  21739056.004   114239489.052       -2715.614          49.000                                                                  
E18  28712847.422   150887034.127       -1015.646          43.000                                                                  
E13  25821367.814   135692233.817        1118.094          46.000    25821369.925   103971934.918         856.648          51.000  
> 2024 04 15 12 53 00.0050000  0 23                     
S33  41212802.665   216574884.712        -664.633          42.000  
G09  25386069.452   133404620.277        2675.616          41.000    25386064.280   103951682.628        2084.900          33.000  
G04  22258029.507   116966695.873        1327.173          48.000    22258026.683    91142892.272        1034.174          48.000  
G02  21644072.480   113740373.646       -1764.511          48.000                                                                  
R08  21264405.566   113869932.246       -2372.287          50.000    21264399.947    88565641.474       -1845.173          48.000  
R01  22332557.926   119380260.440        1195.392          49.000    22332556.510    92851299.965         929.865          43.000  
R22  22783376.632   121619118.664       -4227.726          51.000    22783375.133    94592708.600       -3288.196          48.000  
G28  25150218.273                       -1558.956          26.000    25150231.216   102985953.977       -1215.050          37.000  
G17  23544159.121   123725346.828         374.503          47.000    23544156.748    96409370.600         291.494          43.000  
E08  24950873.975   131117691.336         133.423          48.000    24950873.944   100466789.766         102.264          51.000  
S31  40260741.606   211571731.990        -665.667          43.000  
G19  25779107.769   135470084.175        1617.182          29.000                                                                  
R24  23165908.171   123878450.519        2939.121          49.000    23165905.280    96349925.655        2286.102          48.000  
R23  20646575.821   110445139.993        -691.014          50.000                                                                  
E15  25085869.599   131827178.370       -1341.445          48.000    25085872.214   101010478.694       -1027.886          54.000  
G03  22461480.256   118035856.570        -209.375          48.000    22461479.739    91975987.333        -163.300          46.000  
E34  28558645.260   150076798.422       -3056.792          45.000    28558652.281   114994031.832       -2342.312          45.000  
G31  24591693.664   129230255.556         158.528          45.000    24591693.620   100698884.021         123.544          43.000  
E07  28183768.594   148106760.091        1989.783          37.000    28183775.811   113484386.078        1524.541          47.000  
E03  25971616.881   136481770.359       -2410.447          47.000    25971619.765   104576952.648       -1847.068          50.000  
G21  21754613.100   114321245.029       -2734.616          49.000                                                                  
E18  28718640.114   150917476.541       -1013.699          44.000                                                                  
E13  25815002.316   135658784.581        1111.923          46.000    25815004.901   103946304.980         852.048          51.000  
> 2024 04 15 12 53 30.0050000  0 23                     
S33  41216596.549   216594822.665        -664.576          42.000  
G09  25370812.121   133324444.431        2669.312          39.000    25370813.002   103889208.049        2079.889          36.000  
G04  22250497.370   116927114.146        1311.505          47.000    22250494.579    91112049.346        1021.918          47.000  
G02  21654197.207   113793581.220       -1782.691          48.000                                                                  
R08  21277730.342   113941283.622       -2384.561          51.000    21277723.245    88621136.917       -1854.621          48.000  
R01  22325889.013   119344610.850        1181.207          50.000    22325887.812    92823572.538         918.817          43.000  
R22  22807176.959   121746165.292       -4242.072          50.000    22807174.102    94691522.485       -3299.355          47.000  
G28  25159172.125                3      -1586.230          29.000    25159181.623   103022600.631       -1228.460          38.000  
G17  23542080.387   123714421.391         353.819          47.000    23542078.012    96400857.228         275.630          44.000  
E08  24950144.931   131113862.599         121.809          47.000    24950145.050   100463856.063          93.229          50.000  
S31  40264541.344   211591699.946        -665.631          42.000  
G19  25769911.044                        1604.107          26.000                                                                  
R24  23149449.332   123790435.622        2928.418          50.000    23149446.051    96281469.657        2277.573          48.000  
R23  20650522.331   110466252.829        -716.482          50.000                                                                  
E15  25093555.885   131867574.034       -1351.558          47.000    25093559.478   101041431.188       -1035.672          54.000  
G03  22462688.609   118042207.129        -214.117          48.000    22462688.573    91980935.805        -166.827          46.000  
E34  28576111.442   150168587.446       -3062.563          44.000    28576119.403   115064363.459       -2346.564          45.000  
G31  24590831.595   129225717.692         143.778          46.000    24590831.202   100695348.084         111.865          43.000  
E07  28172426.650   148047149.871        1983.968          38.000    28172432.531   113438710.750        1520.540          47.000  
E03  25985399.397   136554198.761       -2418.342          46.000    25985402.530   104632449.681       -1852.919          50.000  
G21  21770277.038   114403555.985       -2752.907          49.000                                                                  
E18  28724421.180   150947848.953       -1011.217          45.000                                                                  
E13  25808669.124   135625503.999        1106.571          46.000    25808671.849   103920804.267         847.908          51.000  
> 2024 04 15 12 54 00.0050000  0 23                     
S33  41220390.536   216614758.351        -664.789          42.000  
G09  25355592.029   133244458.897        2663.062          39.000    25355593.540   103826881.735        2075.018          38.000  
G04  22243053.528   116887999.044        1295.947          47.000    22243051.856    91081570.069        1009.882          48.000  
G02  21664427.145   113847337.366       -1800.959          48.000                                                                  
R08  21291123.815   114013002.373       -2396.737          51.000    21291117.451    88676918.158       -1864.169          48.000  
R01  22319300.386   119309388.952        1166.956          49.000    22319298.794    92796177.784         907.556          43.000  
R22  22831056.269   121873639.538       -4256.328          50.000    22831056.548    94790668.967       -3310.403          49.000  
G28  25168232.549   132259883.2631      -1594.752          35.000    25168232.288   103059660.500       -1241.965          36.000  
G17  23540119.336   123704116.569         332.951          48.000    23540117.325    96392827.459         259.492          45.000  
E08  24949482.632   131110383.920         110.035          47.000    24949483.111   100461190.563          84.334          50.000  
S31  40268340.717   211611665.699        -665.443          44.000  
G19  25760791.838                3       1591.553          26.000                                                                  
R24  23133050.320   123702748.975        2917.334          48.000    23133047.390    96213268.936        2269.022          46.000  
R23  20654613.252   110488134.047        -742.272          50.000                                                                  
E15  25101300.865   131908272.824       -1361.831          47.000    25101304.246   101072615.925       -1043.469          54.000  
G03  22463924.835   118048701.389        -219.110          48.000    22463923.942    91985996.239        -170.752          46.000  
E34  28593612.006   150260547.010       -3068.190          45.000    28593619.828   115134825.692       -2350.808          46.000  
G31  24590052.716   129221626.927         128.857          47.000    24590052.224   100692160.512         100.370          43.000  
E07  28161112.246   147987698.439        1979.175          37.000    28161118.954   113393157.089        1516.282          47.000  
E03  25999227.544   136626861.160       -2426.046          47.000    25999229.913   104688126.011       -1858.965          50.000  
G21  21786044.581   114486415.273       -2771.275          49.000                                                                  
E18  28730186.467   150978145.685       -1008.731          45.000                                                                  
E13  25802366.925   135592388.185        1100.953          45.000    25802370.247   103895429.813         843.648          51.000  
> 2024 04 15 12 54 30.0050000  0 23                     
S33  41224185.046   216634698.908        -664.786          42.000  
G09  25340408.658   133164669.574        2656.390          38.000    25340410.430   103764708.322        2069.940          38.000  
G04  22235700.195   116849355.980        1280.212          46.000    22235698.049    91051458.581         997.534          47.000  
G02  21674761.718   113901645.877       -1819.449          49.000                                                                  
R07  24316382.771                3      -3910.867          13.000                                                                  
R08  21304585.741   114085089.707       -2409.064          51.000    21304579.996    88732986.029       -1873.681          49.000  
R01  22312792.814   119274598.970        1152.533          49.000    22312791.017    92769118.929         896.527          44.000  
R22  22855016.870   122001542.800       -4270.431          50.000    22855017.526    94890149.067       -3321.478          49.000  
G28  25177385.093   132307977.617       -1612.223          34.000    25177384.152   103097136.633       -1255.839          34.000  
G17  23538277.782   123694437.400         312.402          47.000    23538274.677    96385285.233         243.390          44.000  
E08  24948888.127   131107259.390          98.229          47.000    24948888.673   100458796.443          75.365          51.000  
S31  40272141.226   211631635.083        -665.671          44.000  
R24  23116715.102   123615398.806        2906.112          48.000    23116712.331    96145329.960        2260.284          46.000  
R23  20658846.890   110510788.820        -767.937          49.000                                                                  
E15  25109104.272   131949279.498       -1372.009          48.000    25109107.885   101104036.581       -1051.332          55.000  
G03  22465188.645   118055343.326        -223.920          48.000    22465188.155    91991171.772        -174.469          46.000  
E34  28611142.655   150352680.726       -3074.050          43.000    28611153.027   115205421.382       -2355.400          47.000  
G31  24589361.725   129217989.188         113.668          46.000    24589360.443   100689325.953          88.671          44.000  
E07  28149830.808   147928411.087        1973.484          37.000    28149836.901   113347729.114        1512.169          47.000  
E03  26013100.239   136699760.274       -2433.931          47.000    26013102.374   104743983.725       -1864.922          51.000  
G21  21801916.577   114569826.045       -2789.581          49.000                                                                  
E18  28735938.444   151008370.744       -1006.333          45.000                                                                  
E13  25796097.980   135559442.916        1095.280          46.000    25796101.004   103870186.037         839.271          51.000  
> 2024 04 15 12 55 00.0050000  0 23                     
S33  41227979.727   216654641.029        -664.702          41.000  
G09  25325261.490   133085077.682        2649.835          37.000    25325264.096   103702688.778        2065.070          38.000  
G04  22228436.213   116811185.449        1264.417          48.000    22228435.010    91021715.324         985.175          48.000  
G02  21685201.146   113956506.231       -1838.062          48.000                                                                  
R07  24340203.734                3      -3920.110          10.000                                                                  
R08  21318115.543   114157542.226       -2421.146          51.000    21318109.402    88789337.966       -1883.180          48.000  
R01  22306364.641   119240240.397        1137.927          49.000    22306363.620    92742395.609         885.382          43.000  
R22  22879057.687   122129871.654       -4284.798          50.000    22879057.502    94989960.237       -3332.554          49.000  
G17  23536554.946   123685384.300         291.165          47.000    23536551.359    96378230.840         227.073          42.000  
E08  24948361.232   131104488.416          86.342          47.000    24948361.275   100456673.212          66.125          51.000  
S31  40275941.496   211651607.560        -665.998          44.000  
R24  23100442.089   123528388.738        2894.505          47.000    23100441.238    96077655.505        2251.360          46.000  
R23  20663226.767   110534217.932        -793.866          49.000                                                                  
E15  25116965.311   131990594.162       -1382.402          47.000    25116969.704   101135693.231       -1059.229          54.000  
G03  22466479.896   118062132.305        -228.796          48.000    22466479.964    91996461.893        -178.271          46.000  
E34  28628709.178   150444987.568       -3079.940          43.000    28628717.916   115276149.707       -2359.818          46.000  
G31  24588755.137   129214805.825          98.558          47.000    24588753.306   100686845.417          76.651          43.000  
E07  28138580.186   147869288.335        1968.120          39.000    28138586.322   113302427.303        1507.855          47.000  
E03  26027016.576   136772894.111       -2441.897          47.000    26027019.420   104800021.288       -1870.977          51.000  
G21  21817894.600   114653786.777       -2807.914          49.000                                                                  
E18  28741676.285   151038523.390       -1003.990          45.000                                                                  
E13  25789861.189   135526669.313        1089.519          46.000    25789864.398   103845073.796         834.763          51.000  
G28                                                                  25186637.910                       -1269.958          29.000  
> 2024 04 15 12 55 30.0050000  0 22                     
S33  41231775.349   216674586.514        -665.284          42.000  
G09  25310152.676   133005685.154        2642.889          36.000    25310156.491   103640824.566        2059.418          39.000  
G04  22221263.240   116773488.620        1248.553          47.000    22221261.078    90992341.154         972.955          48.000  
G02  21695746.046   114011918.165       -1856.420          48.000                                                                  
R08  21331712.735   114230357.377       -2433.350          50.000    21331707.106    88845971.933       -1892.720          48.000  
R01  22300017.176   119206312.912        1123.584          49.000    22300017.239    92716007.565         873.944          44.000  
R22  22903177.698   122258623.411       -4298.867          50.000    22903177.529    95090100.314       -3343.622          49.000  
G28  25195998.046                3      -1648.266          27.000    25195991.628                       -1282.880          26.000  
G17  23534951.354   123676958.228         270.330          47.000    23534948.468    96371665.063         210.579          43.000  
E08  24947900.785   131102070.858          74.618          47.000    24947901.160   100454820.803          57.218          50.000  
S31  40279742.025   211671582.195        -666.145          44.000  
R24  23084235.899   123441723.163        2882.953          47.000    23084233.945    96010248.912        2242.256          46.000  
R23  20667752.325   110558422.137        -819.966          49.000                                                                  
E15  25124885.892   132032217.434       -1392.650          47.000    25124890.275   101167586.362       -1067.121          54.000  
G03  22467800.070   118069068.261        -233.643          48.000    22467799.801    92001866.509        -182.050          46.000  
E34  28646309.014   150537467.112       -3085.503          44.000    28646316.253   115347010.364       -2364.386          46.000  
G31  24588236.065   129212078.351          83.226          46.000    24588232.779   100684720.108          64.633          41.000  
E07  28127361.165   147810331.309        1962.412          38.000    28127367.469   113257252.437        1503.682          47.000  
E03  26040977.934   136846261.177       -2449.669          47.000    26040980.659   104856237.581       -1877.006          50.000  
G21  21833976.335   114738296.193       -2826.163          49.000                                                                  
E18  28747400.712   151068603.476       -1001.508          45.000                                                                  
E13  25783656.960   135494069.004        1083.717          45.000    25783660.610   103820094.332         830.419          51.000  
> 2024 04 15 12 56 00.0050000  0 22                     
S33  41235572.984   216694540.924        -665.272          41.000  
G09  25295085.807   132926500.356        2636.023          36.000    25295087.627   103579122.171        2053.894          40.000  
G04  22214180.714   116736273.273        1232.458          46.000    22214179.476    90963342.187         960.370          48.000  
G02  21706397.087   114067888.506       -1875.036          49.000                                                                  
R08  21345378.773   114303539.059       -2445.434          50.000    21345373.768    88902890.967       -1902.012          49.000  
R01  22293752.321   119172823.417        1109.015          49.000    22293752.028    92689960.170         862.659          43.000  
R22  22927378.719   122387801.910       -4313.017          52.000    22927376.135    95190572.360       -3354.639          48.000  
G28  25205454.805   132455604.5061      -1665.930          36.000    25205451.387   103212109.4541      -1297.845          37.000  
G17  23533468.134   123669166.806         249.021          46.000    23533465.694    96365593.790         194.057          43.000  
E08  24947509.542   131100013.409          62.495          47.000    24947509.702   100453244.303          47.958          51.000  
S31  40283545.782   211691566.980        -666.472          44.000  
R24  23068096.424   123355412.856        2870.975          49.000    23068094.252    95943118.731        2232.983          47.000  
R23  20672423.611   110583409.424        -845.928          50.000                                                                  
E15  25132867.161   132074156.703       -1403.247          47.000    25132871.238   101199721.592       -1075.249          54.000  
G03  22469150.033   118076157.782        -238.831          49.000    22469148.849    92007390.797        -186.078          46.000  
E34  28663940.767   150630125.545       -3091.617          43.000    28663949.106   115418008.117       -2368.894          46.000  
G31  24587804.783   129209814.841          67.603          44.000    24587803.670   100682956.381          52.761          44.000  
E07  28116175.650   147751547.789        1956.645          39.000    28116180.387   113212210.571        1499.232          45.000  
E03  26054984.787   136919866.808       -2457.571          48.000    26054987.604   104912636.651       -1883.029          51.000  
G21  21850163.487   114823359.813       -2844.706          49.000                                                                  
E18  28753111.332   151098617.553        -999.221          45.000                                                                  
E13  25777487.373   135461650.347        1077.513          45.000    25777491.521   103795254.077         825.734          51.000  
> 2024 04 15 12 56 30.0050000  0 23                     
S33  41239371.450   216714502.643        -665.506          41.000  
G09  25280057.091   132847522.479        2628.967          35.000    25280058.958   103517580.969        2048.773          41.000  
G04  22207190.682   116699537.810        1216.412          47.000    22207188.990    90934717.160         947.919          48.000  
G02  21717153.061   114124414.342       -1893.383          49.000                                                                  
R08  21359112.860   114377081.487       -2457.505          51.000    21359107.307    88960090.579       -1911.360          49.000  
R01  22287568.347   119139769.101        1094.483          48.000    22287567.759    92664251.290         851.215          43.000  
R22  22951656.630   122517401.679       -4327.124          52.000    22951654.969    95291372.034       -3365.454          48.000  
G28  25215008.873   132505839.438       -1683.539          33.000    25215010.144   103251253.489       -1311.542          36.000  
G17  23532106.932   123662008.144         228.027          47.000    23532103.444    96360015.551         177.657          43.000  
E08  24947186.207   131098313.173          50.630          47.000    24947186.090   100451941.532          38.835          50.000  
S31  40287349.962   211711558.682        -666.644          44.000  
R24  23052022.326   123269459.391        2858.969          48.000    23052020.185    95876266.095        2223.769          46.000  
R23  20677240.960   110609178.211        -872.040          50.000                                                                  
E15  25140907.281   132116409.842       -1413.767          47.000    25140911.676   101232097.329       -1083.240          54.000  
G03  22470527.532   118083398.059        -243.884          49.000    22470526.542    92013032.537        -189.941          46.000  
E34  28681605.809   150722959.620       -3097.441          43.000    28681614.503   115489140.438       -2373.336          45.000  
G31  24587462.298   129208014.570          52.172          45.000    24587461.522   100681553.593          40.696          44.000  
E07  28105020.308   147692936.239        1950.763          38.000    28105026.801   113167300.441        1494.721          45.000  
E03  26069036.500   136993706.830       -2465.343          48.000    26069038.642   104969215.298       -1888.858          50.000  
G21  21866453.634   114908974.079       -2863.120          47.000                                                                  
E18  28758810.192   151128562.727        -997.024          46.000                                                                  
E13  25771353.290   135429412.341        1071.447          45.000    25771356.762   103770552.217         820.975          51.000  
R07                                                                  24414819.093                3      -3409.092          13.000  
> 2024 04 15 12 57 00.0050000  0 24                     
S33  41243170.367   216734466.650        -665.329          42.000  
G09  25265065.513   132768747.095        2622.504          34.000    25265068.523   103456197.632        2043.353          41.000  
G04  22200290.510   116663277.258        1200.861          47.000    22200287.900    90906462.179         935.730          48.000  
G02  21728014.038   114181489.394       -1911.692          48.000                                                                  
R07  24435924.492                3      -3969.792          12.000                                                                  
R08  21372912.783   114450975.589       -2468.973          51.000    21372906.018    89017563.705       -1920.203          48.000  
R01  22281466.510   119107143.403        1080.591          49.000    22281464.893    92638875.745         840.497          43.000  
R09  25760714.419                3       1154.681          14.000    25760938.855                3        542.102          10.000  
R22  22976012.154   122647413.631       -4340.482          51.000    22976009.921    95392492.258       -3375.891          47.000  
G28  25224668.903   132556603.600       -1700.122          32.000    25224669.267   103290809.952       -1325.256          34.000  
G17  23530863.859   123655476.942         207.267          47.000    23530859.781    96354926.226         161.721          43.000  
E08  24946930.020   131096964.092          39.075          48.000    24946929.264   100450907.818          30.021          51.000  
S31  40291154.396   211731551.481        -666.339          44.000  
R24  23036014.772   123183860.863        2847.399          49.000    23036012.180    95809689.488        2214.685          46.000  
R23  20682202.662   110635723.432        -897.656          49.000                                                                  
E15  25149006.440   132158971.466       -1423.816          47.000    25149010.825   101264709.440       -1090.987          54.000  
G03  22471932.422   118090782.997        -248.492          49.000    22471931.629    92018787.050        -193.689          45.000  
E34  28699304.482   150815962.866       -3102.815          42.000    28699312.595   115560402.371       -2377.500          44.000  
G31  24587206.996   129206672.805          37.082          46.000    24587205.564   100680508.044          29.073          44.000  
E07  28093899.446   147634491.666        1945.343          39.000    28093905.280   113122518.275        1490.688          44.000  
E03  26083131.804   137067773.797       -2472.659          49.000    26083133.035   105025967.841       -1894.466          50.000  
G21  21882849.102   114995131.706       -2880.810          48.000                                                                  
E18  28764494.969   151158432.832        -994.417          46.000                                                                  
E13  25765252.352   135397350.579        1065.808          46.000    25765255.579   103745985.413         816.594          51.000  
> 2024 04 15 12 57 30.0050000  0 24                     
S33  41246968.551   216754426.193        -665.485          42.000  
G09  25250113.172   132690171.032        2615.674          37.000    25250115.881   103394969.542        2038.165          41.000  
G04  22193479.601   116627487.482        1185.004          47.000    22193477.478    90878574.056         923.468          48.000  
G02  21738978.524   114239108.449       -1929.876          48.000                                                                  
R08  21386776.193   114525213.779       -2480.536          51.000    21386769.418    89075304.508       -1929.304          49.000  
R01  22275442.862   119074941.116        1066.107          49.000    22275440.979    92613829.538         829.395          43.000  
R09  25759197.851                3        564.946          10.000                                                                  
R22  23000442.497   122777829.758       -4354.100          50.000    23000441.302    95493926.834       -3386.488          48.000  
G28  25234428.140                       -1718.250          30.000    25234428.855   103330774.428       -1339.227          37.000  
G17  23529739.404   123649568.922         186.130          47.000    23529735.872    96350322.555         144.987          43.000  
E08  24946739.527   131095960.885          27.414          48.000    24946738.468   100450139.110          21.065          51.000  
S31  40294958.451   211751540.221        -666.436          44.000  
G19  25699025.729                        1499.207          27.000                                                                  
R24  23020073.307   123098616.208        2835.304          48.000    23020071.079    95743388.142        2205.278          46.000  
R23  20687309.256   110663040.783        -923.648          50.000                                                                  
E15  25157163.510   132201837.038       -1434.206          47.000    25157167.898   101297554.437       -1098.931          54.000  
G03  22473364.372   118098307.366        -253.406          49.000    22473363.847    92024650.182        -197.479          46.000  
E34  28717034.608   150909129.629       -3108.558          43.000    28717042.616   115631789.590       -2381.834          45.000  
G31  24587039.264   129205786.194          21.735          45.000    24587037.203   100679817.167          17.048          45.000  
E07  28082808.798   147576209.989        1939.724          38.000    28082813.900   113077860.918        1486.340          43.000  
E03  26097267.646   137142061.074       -2480.131          48.000    26097269.446   105082889.214       -1900.478          50.000  
G21  21899347.063   115081826.213       -2899.043          47.000                                                                  
E18  28770162.910   151188222.528        -991.853          46.000                                                                  
E13  25759184.262   135365461.595        1059.872          46.000    25759187.357   103721550.994         812.012          52.000  
> 2024 04 15 12 58 00.0050000  0 24                     
S33  41250767.223   216774388.852        -665.690          42.000  
G09  25235200.741   132611803.143        2608.600          39.000    25235202.860   103333903.699        2032.489          40.000  
G04  22186760.760   116592176.828        1169.031          47.000    22186758.238    90851059.262         910.944          48.000  
G02  21750047.841   114297278.348       -1948.362          47.000                                                                  
R08  21400704.430   114599800.384       -2492.156          50.000    21400698.101    89133316.273       -1938.286          48.000  
R01  22269498.136   119043169.137        1051.654          48.000    22269498.010    92589118.056         817.963          45.000  
R09  25751880.420                3       1139.588          12.000                                                                  
R22  23024951.103   122908654.456       -4367.704          51.000    23024949.740    95595679.181       -3397.091          48.000  
G28  25244285.535   132659709.536       -1736.304          34.000    25244287.782   103371152.125       -1353.131          34.000  
G17  23528735.445   123644292.085         165.033          48.000    23528732.572    96346210.676         128.698          43.000  
E08  24946615.014   131095310.631          15.694          48.000    24946614.783   100449640.861          12.089          51.000  
S31  40298762.630   211771532.696        -666.396          44.000  
G19  25690508.997                3       1485.403          26.000                                                                  
R24  23004200.433   123013736.769        2822.982          48.000    23004198.688    95677370.829        2195.677          46.000  
R23  20692562.399   110691138.453        -949.691          50.000                                                                  
E15  25165380.379   132245014.399       -1444.469          47.000    25165384.179   101330638.336       -1106.853          54.000  
G03  22474824.595   118105978.347        -258.240          49.000    22474823.733    92030627.570        -201.288          46.000  
E34  28734796.752   151002466.590       -3114.104          45.000    28734804.582   115703307.196       -2386.183          46.000  
G31  24586958.143   129205363.452           6.403          45.000    24586957.649   100679487.763           4.905          46.000  
E07  28071750.379   147518099.599        1934.099          39.000    28071756.485   113033334.813        1481.958          43.000  
E03  26111447.030   137216574.496       -2487.508          48.000    26111449.044   105139983.835       -1906.039          50.000  
G21  21915948.406   115169063.795       -2917.289          48.000                                                                  
E18  28775817.365   151217938.916        -989.512          46.000                                                                  
E13  25753150.565   135333754.320        1053.662          46.000    25753153.788   103697255.798         807.486          52.000  
> 2024 04 15 12 58 30.0050000  0 24                     
S33  41254568.720   216794363.362        -666.546          42.000  
G09  25220328.509   132533653.720        2601.025          41.000    25220330.795   103273008.068        2026.837          40.000  
G04  22180133.965   116557354.718        1152.282          47.000    22180131.512    90823925.184         897.912          48.000  
G02  21761223.943   114356007.454       -1967.325          47.000                                                                  
R08  21414698.735   114674741.471       -2504.312          50.000    21414692.936    89191603.746       -1947.711          49.000  
R01  22263635.997   119011836.197        1036.847          48.000    22263636.402    92564748.002         806.409          43.000  
R22  23049537.303   123039893.470       -4381.924          51.000    23049534.676    95697753.818       -3408.052          47.000  
G28  25254252.427   132712065.971       -1754.571          39.000    25254251.985   103411949.227       -1367.236          38.000  
G17  23527853.836   123639655.484         143.562          48.000    23527849.887    96342597.684         111.953          43.000  
E08  24946559.720   131095021.677           3.354          47.000    24946559.673   100449419.471           2.572          51.000  
S31  40302569.939   211791537.617        -667.254          44.000  
G19  25682060.627                3       1471.477          24.000                                                                  
R24  22988399.365   122929235.720        2810.071          50.000    22988396.346    95611647.817        2185.572          46.000  
R23  20697963.122   110720025.747        -976.415          50.000                                                                  
E15  25173657.855   132288512.632       -1455.698          47.000    25173661.517   101363968.110       -1115.406          54.000  
G03  22476312.919   118113804.368        -263.745          47.000    22476312.699    92036725.762        -205.603          46.000  
E34  28752591.793   151095981.760       -3120.488          45.000    28752600.397   115774961.346       -2390.944          46.000  
G31  24586967.752   129205414.685          -9.969          45.000    24586967.765   100679527.670          -7.878          46.000  
E07  28060727.570   147460170.064        1927.434          40.000    28060732.989   112988947.281        1476.874          42.000  
E03  26125670.695   137291321.094       -2495.745          48.000    26125673.135   105197257.137       -1912.464          50.000  
G21  21932654.325   115256851.565       -2935.663          48.000                                                                  
E18  28781459.905   151247590.301        -987.605          45.000                                                                  
E13  25747153.914   135302238.861        1046.933          47.000    25747156.507   103673107.587         802.192          52.000  
R07                                                                  24506848.359                3      -3441.672          15.000  
> 2024 04 15 12 59 00.0050000  0 22                     
S33  41258373.546   216814358.278        -667.062          42.000  
G09  25205501.510   132455732.133        2593.494          42.000    25205502.806   103212290.018        2021.179          40.000  
G04  22173602.482   116523029.776        1135.803          46.000    22173600.065    90797178.489         884.997          48.000  
G02  21772508.157   114415302.855       -1986.104          48.000                                                                  
R08  21428760.457   114750041.822       -2516.091          50.000    21428755.005    89250170.673       -1956.955          49.000  
R01  22257858.900   118980949.454        1021.997          49.000    22257857.992    92540724.956         795.013          43.000  
R22  23074200.544   123171551.630       -4395.615          50.000    23074199.310    95800154.425       -3418.896          47.000  
G28  25264317.590   132764967.599       -1772.461          39.000    25264318.449   103453171.242       -1381.903          36.000  
G17  23527094.394   123635667.609         121.903          47.000    23527091.941    96339490.217          95.130          44.000  
E08  24946575.157   131095101.475          -8.921          47.000    24946575.014   100449480.605          -6.811          51.000  
S31  40306380.421   211811561.470        -667.965          44.000  
R24  22972670.886   122845124.763        2797.111          50.000    22972667.437    95546228.209        2175.466          46.000  
R23  20703512.549   110749711.347       -1002.995          50.000                                                                  
E15  25181997.558   132332339.893       -1466.544          47.000    25182001.404   101397549.991       -1123.707          53.000  
G03  22477833.585   118121792.962        -269.165          48.000    22477832.981    92042950.634        -209.698          46.000  
E34  28770422.161   151189682.175       -3126.748          44.000    28770430.548   115846757.449       -2395.785          45.000  
G31  24587068.653   129205948.908         -26.053          44.000    24587068.701   100679943.936         -20.184          45.000  
E07  28049739.706   147402429.978        1921.157          39.000    28049744.803   112944704.921        1472.235          41.000  
E03  26139940.350   137366307.000       -2503.567          48.000    26139942.575   105254713.791       -1918.267          50.000  
G21  21949465.276   115345195.837       -2954.132          48.000                                                                  
E18  28787091.231   151277184.107        -985.664          45.000                                                                  
E13  25741194.970   135270924.478        1040.308          47.000    25741197.598   103649113.446         797.102          52.000  
> 2024 04 15 12 59 30.0050000  0 23                     
S33  41262181.747   216834369.457        -667.321          42.000  
G09  25190716.318   132378036.244        2586.017          42.000    25190717.768   103151747.839        2015.125          40.000  
G04  22167164.565   116489199.081        1119.494          46.000    22167162.270    90770816.935         872.351          48.000  
G02  21783898.172   114475160.948       -2004.593          48.000                                                                  
R08  21442888.300   114825694.690       -2527.596          50.000    21442882.554    89309011.722       -1965.801          48.000  
R01  22252163.716   118950505.047        1007.471          49.000    22252162.094    92517045.962         783.453          43.000  
R22  23098941.418   123303622.080       -4409.183          50.000    23098940.832    95902875.704       -3429.369          48.000  
G28  25274488.284   132818410.066       -1790.607          41.000    25274488.339   103494814.610       -1395.233          37.000  
G17  23526458.038   123632325.379         100.631          46.000    23526456.285    96336885.836          78.434          44.000  
E08  24946659.491   131095545.982         -20.819          47.000    24946660.096   100449821.192         -15.950          51.000  
S31  40310194.336   211831602.243        -668.430          44.000  
R24  22957014.445   122761404.310        2783.984          50.000    22957011.762    95481112.308        2165.361          47.000  
R23  20709210.363   110780192.115       -1029.289          50.000                                                                  
E15  25190400.278   132376492.897       -1477.099          48.000    25190403.528   101431381.473       -1131.853          53.000  
G03  22479384.076   118129940.171        -274.274          48.000    22479382.974    92049299.084        -213.745          46.000  
E34  28788287.098   151283563.453       -3132.298          44.000    28788295.535   115918692.145       -2400.118          45.000  
G31  24587262.760   129206963.975         -42.016          45.000    24587261.717   100680734.883         -32.525          45.000  
E07  28038787.119   147344876.576        1915.300          38.000    28038792.204   112900605.593        1467.820          41.000  
E03  26154254.291   137441526.933       -2511.179          48.000    26154256.322   105312349.784       -1924.130          50.000  
G21  21966380.625   115434091.666       -2972.587          47.000                                                                  
E18  28792711.918   151306716.308        -983.393          46.000                                                                  
E13  25735273.802   135239809.037        1033.861          47.000    25735276.551   103625271.736         792.311          52.000  
R10                                                                  27605275.415                3       1433.380          16.000  
