     3.00           OBSERVATION DATA    M: Mixed            RINEX VERSION / TYPE
CONVBIN 2.4.3                           20240415 162941 UTC PGM / RUN BY / DATE 
format: u-blox UBX                                          COMMENT             
log: /home/regis/git/gnsspwv/obsdata/VERT00CHL/2024-04-15/VECOMMENT             
{self.marker}                                               MARKER NAME         
                                                            MARKER NUMBER       
GEODETIC                                                    MARKER TYPE         
{self.observer}     {self.institution}                      OBSERVER / AGENCY   
UNKNOWN             UBLOX-ZED-F9P                           REC # / TYPE / VERS 
UNKNOWN             TWIVSP6037L                             ANT # / TYPE        
  1713381.0000 -5047934.0000 -3490983.0000                  APPROX POSITION XYZ 
        0.0000        0.0000        0.0000                  ANTENNA: DELTA H/E/N
G    8 C1C L1C D1C S1C C2L L2L D2L S2L                      SYS / # / OBS TYPES 
R    8 C1C L1C D1C S1C C2C L2C D2C S2C                      SYS / # / OBS TYPES 
E    8 C1C L1C D1C S1C C7Q L7Q D7Q S7Q                      SYS / # / OBS TYPES 
S    4 C1C L1C D1C S1C                                      SYS / # / OBS TYPES 
  2024    04    15    16    15   00.0060000     GPS         TIME OF FIRST OBS   
  2024    04    15    16    29   30.0070000     GPS         TIME OF LAST OBS    
                                                            END OF HEADER       
> 2024 04 15 16 15 00.0060000  0 25                     
G03  24651333.097   129543611.9911      -3330.399          45.000    24651340.318   100943102.3711      -2595.269          43.000  
G04  24239593.502   127379915.0861      -3046.375          45.000    24239596.540    99257079.9521      -2373.711          44.000  
G09  22574354.698   118629033.1211      -1288.849          49.000    22574354.614    92438206.2361      -1004.327          44.000  
G11  24862812.715   130654965.4741       1104.710          39.000    24862813.496   101809067.9191        860.867          44.000  
R13  24720170.774   132004359.5341       3486.717          37.000    24720180.348   102670124.5011       2711.446          34.000  
R02  22305139.827   119024500.0761        -13.061          51.000    22305141.231    92574618.0111        -10.192          48.000  
R11  23409300.258   125092193.0641      -2667.197          50.000    23409301.568    97293929.9571      -2074.415          47.000  
R01  22938179.801   122617713.6711      -2116.867          47.000    22938183.069    95369337.2751      -1646.375          42.000  
R24  24910065.897   133205286.8501      -4902.441          45.000    24910072.049   103604129.7341      -3812.957          41.000  
G07  22263650.849   116996274.0041       1341.528          48.000    22263650.409    91165931.0101       1045.262          45.000  
S31  40617014.154   213443848.2661       -823.747          44.000  
S33  41566895.498   218435504.6611       -822.326          42.000  
G16  26666406.119   140132903.9251       -681.180          37.000                                                                  
R18  24223101.057   129304454.8171        634.037          38.000    24223098.978   100570190.1381        492.615          41.000  
R12  22379207.036   119545716.5021       1663.691          49.000    22379210.977    92980015.7571       1293.914          50.000  
R17  23121693.862   123728845.0681      -2747.531          51.000    23121693.223    96233539.3951      -2136.986          48.000  
E07  25626001.739   134665548.7621       -747.202          48.000    25626005.997   103185305.8081       -572.511          51.000  
E08  27207810.296   142977993.2891      -2377.210          45.000    27207815.728   109554585.6841      -1821.390          51.000  
E13  26989530.721   141830935.5541      -3500.328          46.000    26989539.281   108675678.0071      -2682.009          49.000  
E26  26036399.648   136822199.4321       -997.355          48.000    26036403.050   104837802.1421       -764.302          52.000  
G06  22899675.272   120338596.4081      -1277.475          48.000    22899677.318    93770345.0111       -995.413          46.000  
G30  24645660.703   129513831.3881       2580.050          43.000    24645665.764   100919898.1421       2010.431          42.000  
E30  28468511.745   149603055.7081       1488.012          45.000    28468523.493   114630966.8981       1140.173          47.000  
E02  28703533.841   150838085.8411       -274.814          38.000    28703546.897   115577291.0391       -210.229          36.000  
E33                                                                  28860733.769   116210208.8271        984.822          35.000  
> 2024 04 15 16 15 30.0060000  0 25                     
G03  24670373.845   129643674.923       -3341.714          44.000    24670382.294   101021073.240       -2603.538          44.000  
G04  24256992.417   127471343.221       -3049.463          46.000    24256993.730    99328322.466       -2376.209          43.000  
G09  22581733.436   118667803.912       -1296.344          50.000    22581732.355    92468417.195       -1010.138          44.000  
G11  24856554.916   130622079.347        1087.019          40.000    24856556.354   101783442.348         847.016          44.000  
R13  24700591.079   131899804.893        3482.931          38.000    24700600.429   102588804.694        2709.325          34.000  
R02  22305227.453   119024967.770         -18.674          52.000    22305229.081    92574981.742         -14.555          49.000  
R11  23424344.065   125172580.095       -2692.508          52.000    23424346.220    97356453.109       -2094.229          49.000  
R01  22950076.615   122681307.421       -2123.263          48.000    22950079.824    95418798.901       -1651.483          42.000  
R24  24937575.376   133352391.961       -4905.282          45.000    24937582.961   103718544.354       -3815.187          43.000  
E33  28853420.865                1       1274.300          28.000    28853428.649   116180791.303         975.975          35.000  
G07  22256045.899   116956309.422        1322.077          48.000    22256045.098    91134789.805        1030.134          46.000  
S31  40621718.387   213468567.044        -824.803          44.000  
S33  41571591.598   218460186.717        -823.796          42.000  
G16  26670338.276   140153565.642        -697.238          39.000                                                                  
R18  24219611.812   129285821.633         607.728          37.000    24219609.506   100555697.672         472.688          40.000  
R12  22369924.432   119496129.254        1641.629          49.000    22369927.732    92941447.990        1276.693          50.000  
R17  23137159.075   123811608.687       -2770.521          50.000    23137159.103    96297910.981       -2155.111          48.000  
E07  25630279.561   134688027.715        -751.918          48.000    25630283.170   103202529.906        -576.007          50.000  
E08  27221383.199   143049321.872       -2378.802          44.000    27221389.417   109609239.910       -1822.628          52.000  
E13  27009536.203   141936065.453       -3508.736          45.000    27009545.089   108756231.979       -2688.653          49.000  
E26  26042136.945   136852354.389       -1013.393          47.000    26042141.247   104860907.840        -776.531          52.000  
G06  22907029.059   120377241.717       -1299.331          48.000    22907031.422    93800458.204       -1012.623          46.000  
G30  24630957.692   129436569.192        2570.210          44.000    24630963.648   100859694.054        2002.874          42.000  
E30  28460031.606   149558489.147        1482.621          45.000    28460043.004   114596818.683        1135.990          48.000  
E02  28705139.874   150846522.092        -288.563          39.000    28705151.892   115583755.196        -220.996          37.000  
> 2024 04 15 16 16 00.0060000  0 25                     
G03  24689473.244   129744040.345       -3350.673          45.000    24689481.331   101099279.814       -2610.800          43.000  
G04  24274404.106   127562844.767       -3051.425          46.000    24274407.189    99399622.222       -2377.578          44.000  
G09  22589148.820   118706775.167       -1302.521          48.000    22589148.767    92498784.390       -1015.033          44.000  
G11  24850394.165   130589704.530        1070.423          41.000    24850395.539   101758215.235         834.127          44.000  
R13  24681030.270   131795353.952        3479.724          38.000    24681041.011                        2706.329          33.000  
R02  22305342.450   119025581.592         -23.072          52.000    22305343.933    92575459.162         -18.000          49.000  
R11  23439525.307   125253705.948       -2716.657          51.000    23439526.153    97419550.919       -2112.869          46.000  
R01  22962005.682   122745072.713       -2128.577          48.000    22962008.198    95468393.979       -1655.420          40.000  
R24  24965097.136   133499557.472       -4906.535          43.000    24965104.405   103833005.923       -3816.217          42.000  
E33  28846189.425                        1263.665          29.000    28846182.810   116151618.615         968.270          35.000  
G07  22248548.074   116916908.153        1303.782          49.000    22248546.991    91104087.592        1015.873          46.000  
S31  40626426.595   213493306.940        -825.078          44.000  
S33  41576292.818   218484890.238        -824.017          42.000  
G16  26674356.431   140174682.426        -711.692          40.000                                                                  
R18  24216260.585   129267945.630         582.950          38.000    24216260.427   100541794.097         453.243          41.000  
R12  22360761.822   119447187.736        1620.458          49.000    22360765.588    92903382.455        1260.393          50.000  
R17  23152750.778   123895040.283       -2792.242          51.000    23152751.028    96362802.112       -2171.858          49.000  
E07  25634579.848   134710626.433        -755.381          48.000    25634583.380   103219845.795        -578.765          50.000  
E08  27234962.936   143120679.179       -2379.060          44.000    27234967.725   109663916.151       -1823.046          51.000  
E13  27029586.960   142041432.751       -3516.348          46.000    27029596.247   108836967.839       -2694.355          49.000  
E26  26047963.423   136882972.859       -1028.440          46.000    26047967.848   104884368.699        -787.978          52.000  
G06  22914505.017   120416528.327       -1320.397          48.000    22914506.853    93831071.083       -1028.873          45.000  
G30  24616306.890   129359584.136        2561.249          44.000    24616313.156   100799705.905        1995.895          41.000  
E30  28451577.913   149514067.151        1478.249          45.000    28451590.098   114562781.256        1132.589          49.000  
E02  28706820.347   150855355.470        -301.653          38.000    28706831.469   115590523.656        -230.999          35.000  
> 2024 04 15 16 16 30.0060000  0 25                     
G03  24708631.079   129844705.589       -3360.553          47.000    24708636.671   101177720.058       -2618.805          42.000  
G04  24291830.354   127654416.941       -3053.660          47.000    24291832.238    99470977.009       -2379.413          44.000  
G09  22596602.261   118745944.080       -1309.045          48.000    22596601.880    92529305.598       -1019.952          43.000  
G11  24844330.062   130557840.781        1053.588          40.000    24844331.036   101733386.336         820.772          43.000  
R13  24661488.493   131691008.444        3476.702          37.000    24661501.034   102426408.304        2703.800          35.000  
R02  22305485.399   119026339.931         -27.784          52.000    22305486.505    92576048.972         -21.638          49.000  
R11  23454845.006   125335565.916       -2740.994          51.000    23454846.912    97483219.679       -2131.850          48.000  
R01  22973966.464   122809007.921       -2134.121          47.000    22973968.833    95518121.219       -1659.817          41.000  
R24  24992626.689   133646777.280       -4908.303          40.000    24992634.914   103947509.696       -3817.830          42.000  
E33  28838995.502                        1252.756          28.000    28838997.297   116122690.341         960.469          34.000  
G07  22241157.880   116878069.794        1285.069          49.000    22241155.984    91073823.978        1001.458          46.000  
S31  40631137.802   213518064.760        -825.686          44.000  
S33  41580997.356   218509611.351        -824.502          42.000  
G16  26678461.640   140196252.703        -726.726          40.000                                                                  
R18  24213047.879   129250826.120         557.611          35.000    24213054.425   100528478.836         433.812          42.000  
R12  22351721.040   119398893.302        1598.857          49.000    22351724.768    92865820.219        1243.516          50.000  
R17  23168466.316   123979134.200       -2814.216          51.000    23168465.991    96428208.373       -2188.782          48.000  
E07  25638902.192   134733342.190        -759.169          48.000    25638906.403   103237251.365        -581.733          50.000  
E08  27248545.538   143192062.780       -2380.153          43.000    27248551.876   109718612.542       -1823.669          51.000  
E13  27049681.690   142147033.343       -3524.005          45.000    27049691.122   108917882.444       -2700.189          49.000  
E26  26053878.406   136914052.546       -1043.778          47.000    26053882.298   104908182.976        -799.796          52.000  
G06  22922102.305   120456453.293       -1341.694          47.000    22922104.674    93862181.395       -1045.262          46.000  
G30  24601710.268   129282876.312        2552.259          46.000    24601715.879   100739933.747        1988.760          41.000  
E30  28443152.016   149469789.702        1473.377          44.000    28443164.077   114528854.592        1129.010          48.000  
E02  28708577.112   150864584.554        -314.345          38.000    28708586.507   115597595.368        -240.681          35.000  
> 2024 04 15 16 17 00.0060000  0 25                     
G03  24727843.214   129945665.452       -3370.425          47.000    24727849.630   101256389.832       -2626.325          43.000  
G04  24309268.449   127746054.529       -3055.927          47.000    24309271.951    99542382.777       -2381.233          45.000  
G09  22604092.574   118785305.412       -1315.417          49.000    22604092.076    92559976.725       -1025.006          43.000  
G11  24838362.766   130526485.384        1036.571          39.000    24838363.447   101708953.578         807.772          42.000  
R13  24641967.078   131586768.142        3472.916          36.000    24641978.718   102345333.003        2700.322          35.000  
R02  22305653.064   119027238.461         -32.416          51.000    22305655.577    92576747.814         -25.307          50.000  
R11  23470299.132   125418152.964       -2765.222          51.000    23470300.520    97547453.950       -2150.599          46.000  
R01  22985957.486   122873109.288       -2139.552          47.000    22985961.872    95567977.724       -1664.223          42.000  
R24  25020166.493   133794042.051       -4909.893          38.000    25020173.466   104062048.399       -3818.667          40.000  
E33  28831870.299                1       1242.252          28.000    28831872.244   116094004.297         951.765          33.000  
G07  22233873.309   116839791.186        1266.436          49.000    22233871.433    91043996.556         986.864          45.000  
S31  40635851.636   213542835.473        -825.991          44.000  
S33  41585704.091   218534345.675        -824.959          42.000  
G16  26682650.962   140218272.927        -741.560          41.000                                                                  
R18  24209984.109   129234459.774         532.830          41.000    24209988.536   100515749.520         414.329          42.000  
R12  22342801.904   119351245.078        1577.299          51.000    22342804.957    92828760.568        1226.775          51.000  
R17  23184303.366   124063882.353       -2835.930          51.000    23184303.951    96494123.503       -2205.668          49.000  
E07  25643246.297   134756169.834        -762.918          48.000    25643250.356   103254742.677        -584.533          50.000  
E08  27262133.624   143263467.901       -2380.575          43.000    27262140.004   109773325.430       -1824.142          51.000  
E13  27069820.780   142252860.754       -3531.601          46.000    27069828.711   108998970.844       -2705.932          47.000  
E26  26059879.579   136945588.760       -1059.034          47.000    26059883.408   104932347.053        -811.374          52.000  
G06  22929820.365   120497011.154       -1362.529          48.000    22929822.687    93893784.887       -1061.691          46.000  
G30  24587164.824   129206443.290        2542.974          45.000    24587171.789   100680375.743        1981.700          42.000  
E30  28434752.924   149425654.278        1468.583          45.000    28434764.771   114495036.726        1125.303          48.000  
E02  28710406.960   150874205.730        -327.636          38.000    28710417.808   115604967.463        -250.407          35.000  
> 2024 04 15 16 17 30.0060000  0 26                     
G03  24747111.013   130046914.371       -3379.972          47.000    24747117.659   101335284.873       -2633.953          45.000  
G04  24326717.135   127837751.938       -3057.730          46.000    24326722.166    99613835.170       -2382.635          45.000  
G09  22611618.087   118824853.562       -1321.564          48.000    22611617.404    92590793.424       -1029.858          43.000  
G11  24832492.714   130495635.249        1019.729          40.000    24832492.950   101684914.516         794.672          41.000  
R13  24622465.676   131482632.238        3468.827          37.000    24622475.829   102264338.825        2698.285          36.000  
R02  22305845.834   119028272.474         -36.878          50.000    22305848.890    92577552.030         -28.668          49.000  
R11  23485888.950   125501459.619       -2789.121          50.000    23485891.518    97612247.967       -2169.236          48.000  
R01  22997979.367   122937372.493       -2145.083          47.000    22997983.226    95617960.100       -1668.260          40.000  
R24  25047713.549   133941342.575       -4910.674          43.000    25047721.177   104176615.041       -3819.524          43.000  
E33  28824803.904                        1231.587          28.000    28824807.305   116065557.855         944.277          34.000  
G07  22226694.998   116802069.062        1247.875          49.000    22226693.738    91014602.750         972.411          46.000  
S31  40640566.907   213567615.903        -826.434          44.000  
S33  41590412.235   218559088.656        -825.143          41.000  
G16  26686926.627   140240738.652        -755.854          41.000                                                                  
R18  24207062.168   129218843.283         507.838          40.000    24207063.868   100503603.398         395.027          41.000  
R12  22334002.512   119304242.105        1555.810          50.000    22334006.427    92792202.786        1210.119          51.000  
R17  23200261.323   124149275.850       -2857.373          50.000    23200261.799    96560540.554       -2222.478          49.000  
E07  25647609.938   134779103.921        -766.516          47.000    25647614.826   103272315.537        -587.288          51.000  
E08  27275726.070   143334889.426       -2381.274          44.000    27275731.099   109828050.875       -1824.607          51.000  
E13  27090001.151   142358908.182       -3538.834          46.000    27090009.693   109080227.846       -2711.511          48.000  
E26  26065967.125   136977576.409       -1074.129          48.000    26065970.627   104956857.045        -822.912          52.000  
G06  22937656.826   120538196.250       -1383.450          47.000    22937660.738    93925877.109       -1077.875          46.000  
G30  24572672.425   129130282.433        2533.925          46.000    24572679.035   100621029.785        1974.743          42.000  
E30  28426380.183   149381658.093        1463.893          44.000    28426392.355   114461325.510        1121.816          47.000  
E02  28712313.058   150884214.874        -340.165          40.000    28712323.022   115612636.899        -260.438          36.000  
R03                                                                  25040100.178                3       1280.629          11.000  
> 2024 04 15 16 18 00.0060000  0 25                     
G03  24766433.282   130148455.591       -3389.672          47.000    24766440.950   101414407.634       -2641.426          44.000  
G04  24344178.733   127929512.435       -3059.497          45.000    24344182.934    99685336.670       -2384.329          44.000  
G09  22619180.298   118864591.670       -1327.856          48.000    22619179.567    92621758.149       -1034.845          43.000  
G11  24826718.982   130465295.932        1002.565          42.000    24826719.214   101661273.525         780.991          40.000  
R13  24602984.888   131378608.678        3465.346          37.000    24602994.831   102183432.061        2695.524          37.000  
R02  22306065.855   119029446.498         -41.500          50.000    22306068.620    92578465.130         -32.326          50.000  
R11  23501613.835   125585487.277       -2812.985          50.000    23501614.197    97677602.702       -2187.980          46.000  
R01  23010032.712   123001802.137       -2150.484          48.000    23010036.405    95668071.930       -1672.581          41.000  
R24  25075266.361   134088678.551       -4911.751          42.000    25075274.510   104291209.134       -3820.390          41.000  
G07  22219623.217   116764908.942        1229.130          49.000    22219621.787    90985646.850         957.915          45.000  
S31  40645284.611   213592407.427        -826.617          44.000  
S33  41595123.180   218583844.248        -825.552          41.000  
G16  26691287.440   140263654.373        -771.499          41.000                                                                  
R18  24204273.316   129203982.048         482.182          34.000    24204279.244   100492044.685         375.503          40.000  
R12  22325325.876   119257891.597        1534.087          50.000    22325329.176    92756152.471        1193.138          51.000  
R17  23216339.516   124235315.279       -2878.820          50.000    23216341.012    96627459.987       -2239.055          49.000  
E07  25651995.202   134802147.647        -769.979          47.000    25651999.909   103289972.393        -589.975          51.000  
E08  27289320.273   143406330.828       -2381.667          44.000    27289326.464   109882791.552       -1825.033          51.000  
E13  27110223.428   142465177.427       -3546.026          45.000    27110231.543   109161654.762       -2717.117          47.000  
E26  26072139.839   137010019.127       -1089.019          47.000    26072144.662   104981715.716        -834.440          52.000  
G06  22945615.095   120580011.451       -1404.457          49.000    22945617.216    93958460.342       -1094.207          45.000  
G30  24558232.981   129054399.658        2524.543          46.000    24558238.404   100561900.547        1967.156          41.000  
E30  28418036.822   149337806.970        1459.246          44.000    28418047.466   114427725.444        1118.084          47.000  
E02  28714291.482   150894616.608        -353.492          39.000    28714305.038   115620607.175        -270.815          40.000  
E33                                                                  28817802.838   116037355.324         936.138          34.000  
> 2024 04 15 16 18 30.0060000  0 25                     
G03  24785811.221   130250289.349       -3399.021          45.000    24785818.795   101493758.341       -2648.598          42.000  
G04  24361652.781   128021336.296       -3061.853          46.000    24361656.139    99756887.549       -2385.938          44.000  
G09  22626778.149   118904520.000       -1334.149          49.000    22626778.539    92652871.084       -1039.581          45.000  
G11  24821044.439   130435470.251         985.748          43.000    24821044.246   101638032.721         767.985          40.000  
R13  24583525.967   131274702.550        3461.364          36.000    24583536.580   102102616.653        2692.389          38.000  
R02  22306313.831   119030761.628         -46.257          52.000    22306315.802    92579487.991         -35.887          49.000  
R11  23517472.705   125670234.421       -2836.945          48.000    23517474.763    97743517.082       -2206.497          48.000  
R01  23022116.452   123066399.872       -2156.100          47.000    23022120.526    95718314.475       -1676.841          40.000  
R24  25102825.533   134236046.758       -4912.797          43.000    25102834.072   104405828.338       -3821.049          42.000  
E33  28810852.850                1       1210.151          29.000    28810861.040   116009398.595         927.818          35.000  
G07  22212659.509   116728313.589        1210.377          48.000    22212658.133    90957131.059         943.208          45.000  
S31  40650004.302   213617213.151        -827.105          43.000  
S33  41599836.471   218608613.326        -825.684          41.000  
G16  26695733.764   140287022.245        -786.613          40.000                                                                  
R18  24201630.311   129189878.473         457.290          33.000    24201637.645   100481075.182         356.079          42.000  
R12  22316771.768   119212198.271        1512.202          51.000    22316775.209    92720613.300        1176.087          51.000  
R17  23232539.279   124321997.786       -2900.084          51.000    23232540.185    96694879.627       -2255.527          49.000  
E07  25656400.811   134825301.410        -773.611          47.000    25656405.987   103307713.563        -592.774          51.000  
E08  27302920.230   143477792.921       -2382.505          45.000    27302925.517   109937548.064       -1825.575          52.000  
E13  27130487.959   142571667.536       -3553.329          45.000    27130496.112   109243250.931       -2722.700          47.000  
E26  26078400.478   137042917.628       -1104.226          48.000    26078405.006   105006923.641        -846.122          52.000  
G06  22953691.998   120622456.773       -1425.279          48.000    22953694.809    93991534.585       -1110.635          46.000  
G30  24543846.613   128978798.118        2515.425          47.000    24543851.664   100502990.428        1960.030          41.000  
E30  28409718.982   149294103.878        1454.333          44.000    28409731.007   114394238.848        1114.369          47.000  
E02  28716346.038   150905412.684        -366.351          40.000    28716358.696   115628879.599        -281.195          39.000  
> 2024 04 15 16 19 00.0060000  0 25                     
G03  24805246.628   130352418.521       -3409.473          47.000    24805253.559   101573339.270       -2656.571          43.000  
G04  24379138.449   128113226.424       -3064.232          46.000    24379142.499    99828490.067       -2387.629          44.000  
G09  22634413.204   118944641.471       -1340.723          49.000    22634413.800    92684134.521       -1044.647          45.000  
G11  24815467.767   130406163.510         968.308          44.000    24815466.924   101615196.305         754.461          39.000  
R13  24564090.564   131170921.738        3456.951          37.000    24564100.755   102021898.689        2688.734          39.000  
R02  22306586.996   119032222.302         -51.180          52.000    22306589.081    92580624.076         -39.877          49.000  
R11  23533467.679   125755702.190       -2860.879          49.000    23533468.816    97809991.947       -2225.069          47.000  
R01  23034233.863   123131169.905       -2161.993          48.000    23034236.294    95768691.037       -1681.389          39.000  
R24  25130390.922   134383446.523       -4913.759          43.000    25130398.443   104520472.053       -3821.786          40.000  
G07  22205803.992   116692288.116        1191.281          48.000    22205801.807    90929059.326         928.232          45.000  
S31  40654728.629   213642035.222        -827.755          44.000  
S33  41604552.906   218633399.199        -826.575          42.000  
G16  26700267.661   140310847.058        -801.801          39.000                                                                  
R18  24199133.623   129176537.313         431.743          38.000    24199139.216   100470698.686         335.831          42.000  
R12  22308342.884   119167169.104        1489.879          51.000    22308345.566    92685590.680        1158.701          50.000  
R17  23248858.147   124409323.333       -2921.594          52.000    23248859.391    96762799.419       -2272.350          49.000  
E07  25660828.228   134848568.226        -777.405          47.000    25660833.377   103325541.346        -595.634          51.000  
E08  27316523.559   143549278.951       -2383.264          44.000    27316528.946   109992322.912       -1826.070          52.000  
E13  27150794.505   142678380.072       -3560.652          45.000    27150802.962   109325017.531       -2728.344          47.000  
E26  26084747.878   137076275.296       -1119.613          47.000    26084752.594   105032483.364        -857.819          52.000  
G06  22961889.480   120665534.807       -1446.511          49.000    22961892.173    94025101.841       -1127.206          46.000  
G30  24529514.207   128903483.498        2505.583          46.000    24529519.549   100444303.867        1952.461          41.000  
E30  28401431.011   149250554.502        1449.080          43.000    28401443.825   114360870.052        1110.259          48.000  
E02  28718476.019   150916607.469        -379.570          39.000    28718488.494   115637457.421        -290.914          41.000  
E33                                                                  28803980.004   115981691.623         919.500          36.000  
> 2024 04 15 16 19 30.0060000  0 25                     
G03  24824736.154   130454838.688       -3419.422          46.000    24824743.839   101653146.940       -2664.350          42.000  
G04  24396636.813   128205178.508       -3066.540          46.000    24396639.536    99900140.869       -2389.542          43.000  
G09  22642084.303   118984951.669       -1347.180          49.000    22642083.973    92715545.002       -1049.762          44.000  
G11  24809988.713   130377373.716         950.631          43.000    24809989.395   101592762.708         740.936          41.000  
R13  24544679.551   131067266.555        3452.484          39.000    24544688.425   101941278.436        2685.243          39.000  
R02  22306887.052   119033825.077         -56.229          51.000    22306889.396    92581870.663         -43.709          49.000  
R11  23549594.919   125841884.220       -2885.019          48.000    23549596.300    97877022.322       -2243.923          48.000  
R01  23046382.157   123196109.042       -2167.819          48.000    23046384.925    95819199.131       -1686.428          39.000  
R24  25157959.214   134530869.680       -4914.779          42.000    25157969.095   104635133.957       -3822.634          41.000  
E33  28797175.590                1       1189.226          27.000    28797160.793   115954232.847         910.938          37.000  
G07  22199056.810   116656830.486        1172.080          48.000    22199054.873    90901430.028         913.279          45.000  
S31  40659454.801   213666870.511        -828.297          44.000  
S33  41609272.602   218658198.187        -827.493          42.000  
G16  26704887.824   140335124.783        -817.652          39.000                                                                  
R18  24196774.981   129163956.030         406.586          35.000    24196782.318   100460913.356         315.815          41.000  
R12  22300037.836   119122804.175        1467.300          51.000    22300039.809    92651084.688        1141.165          50.000  
R17  23265294.897   124497284.621       -2943.029          50.000    23265297.348    96831213.667       -2289.067          50.000  
E07  25665277.016   134871943.775        -781.321          47.000    25665281.601   103343452.461        -598.702          51.000  
E08  27330131.000   143620785.081       -2384.224          44.000    27330135.918   110047113.170       -1826.880          52.000  
E13  27171143.250   142785309.387       -3568.235          45.000    27171150.501   109406950.216       -2734.033          47.000  
E26  26091182.514   137110088.152       -1135.078          46.000    26091186.998   105058391.891        -869.786          52.000  
G06  22970206.556   120709240.915       -1467.767          48.000    22970209.455    94059158.480       -1143.717          46.000  
G30  24515236.088   128828454.248        2495.775          45.000    24515241.421   100385839.711        1944.764          40.000  
E30  28393173.456   149207157.197        1443.590          44.000    28393185.376   114327617.753        1106.178          47.000  
E02  28720683.610   150928198.035        -393.416          39.000    28720694.106   115646338.515        -301.264          42.000  
> 2024 04 15 16 20 00.0060000  0 26                     
G03  24844280.543   130557548.094       -3428.671          45.000    24844288.318   101733179.990       -2671.831          42.000  
G04  24414147.378   128297190.797       -3068.212          46.000    24414149.602    99971838.599       -2390.524          43.000  
G09  22649790.147   119025448.791       -1353.137          49.000    22649790.593    92747101.184       -1054.456          45.000  
G11  24804608.549   130349101.484         933.724          44.000    24804609.415   101570732.419         727.362          41.000  
R13  24525292.458   130963739.978        3448.518          40.000    24525301.028   101860758.185        2682.555          39.000  
R02  22307214.697   119035569.226         -60.560          51.000    22307216.277    92583227.233         -47.152          48.000  
R11  23565857.236   125928776.278       -2908.334          48.000    23565857.419    97944604.918       -2262.011          47.000  
R01  23058561.231   123261217.122       -2173.208          47.000    23058566.006    95869838.551       -1690.285          42.000  
R24  25185532.788   134678310.858       -4915.040          42.000    25185540.953   104749809.841       -3822.878          40.000  
E33  28790398.478   151294529.5061       1178.214          34.000    28790403.788   115927022.450         902.871          37.000  
G07  22192417.357   116621941.113        1153.330          49.000    22192415.991    90874243.566         898.914          46.000  
S31  40664182.693   213691717.456        -828.199          44.000  
S33  41613993.765   218683008.488        -827.621          41.000  
G16  26709593.394   140359855.385        -831.681          39.000                                                                  
R18  24194545.103                3        381.216          27.000    24194568.262   100451719.234         296.472          41.000  
R12  22291856.672   119079105.608        1445.372          50.000    22291859.718    92617096.988        1124.150          50.000  
R17  23281850.910   124585876.539       -2963.551          49.000    23281852.456    96900118.364       -2305.027          49.000  
E07  25669745.649   134895426.331        -784.653          48.000    25669750.232   103361445.564        -601.086          51.000  
E08  27343740.968   143692309.848       -2384.623          45.000    27343746.868   110101917.733       -1827.104          52.000  
E13  27191532.210   142892452.325       -3575.059          45.000    27191539.471   109489046.620       -2739.312          47.000  
E26  26097702.889   137144354.809       -1149.941          46.000    26097707.644   105084648.126        -881.019          52.000  
G06  22978642.947   120753572.793       -1488.144          49.000    22978644.987    94093702.766       -1159.664          46.000  
G30  24501012.633   128753711.390        2486.561          46.000    24501017.792   100327598.676        1937.582          41.000  
E30  28384944.393   149163912.885        1438.901          44.000    28384955.787   114294482.659        1102.504          47.000  
E02  28722965.574   150940183.916        -406.039          39.000    28722975.409   115655522.581        -311.158          43.000  
R03                                                                  24996544.076                3       1209.349          15.000  
> 2024 04 15 16 20 30.0060000  0 25                     
G03  24863882.379   130660550.468       -3437.746          46.000    24863889.237   101813441.286       -2678.661          43.000  
G04  24431668.541   128389267.201       -3069.777          44.000    24431672.131   100043586.243       -2392.050          45.000  
G09  22657533.147   119066136.661       -1358.966          49.000    22657533.207    92778805.991       -1059.033          44.000  
G11  24799328.578   130321352.961         916.885          45.000    24799328.608   101549110.212         714.425          42.000  
R13  24505930.122   130860350.809        3444.527          38.000    24505939.176   101780344.838        2678.722          40.000  
R02  22307568.177   119037459.409         -64.967          51.000    22307570.572    92584697.354         -50.470          49.000  
R11  23582248.549   126016380.525       -2931.538          44.000    23582251.444    98012741.428       -2280.048          47.000  
R01  23070774.042   123326499.198       -2178.505          46.000    23070778.713    95920613.419       -1694.258          42.000  
R24  25213109.652   134825770.465       -4915.003          45.000    25213117.258   104864500.060       -3822.785          41.000  
E33  28783705.424   151259347.920        1167.651          36.000    28783709.987   115900065.176         894.689          39.000  
G07  22185887.582   116587625.564        1134.777          49.000    22185885.789    90847504.228         884.233          46.000  
S31  40668913.822   213716580.995        -828.624          44.000  
S33  41618718.273   218707836.095        -827.327          40.000  
G16  26714386.118   140385044.341        -847.099          39.000                                                                  
R18  24192488.002   129141064.0931        356.412          39.000    24192496.296   100443120.863         277.176          40.000  
R12  22283803.812   119036081.720        1423.406          50.000    22283805.280    92583634.031        1107.042          50.000  
R17  23298524.287   124675100.049       -2984.077          50.000    23298524.746    96969514.278       -2321.056          48.000  
E07  25674236.138   134919019.822        -787.826          48.000    25674240.033   103379523.676        -603.592          51.000  
E08  27357354.816   143763857.563       -2384.674          44.000    27357361.723   110156739.912       -1827.232          52.000  
E13  27211960.595   142999811.376       -3581.819          45.000    27211970.281   109571308.635       -2744.472          48.000  
E26  26104311.685   137179079.451       -1164.717          47.000    26104315.342   105111255.295        -892.449          51.000  
G06  22987198.106   120798533.931       -1508.795          48.000    22987200.895    94128737.390       -1175.696          46.000  
G30  24486845.299   128679261.493        2477.284          44.000    24486849.763   100269585.949        1930.320          41.000  
E30  28376745.469   149120828.019        1434.102          45.000    28376756.746   114261469.723        1098.826          47.000  
E02  28725320.665   150952570.416        -419.021          38.000    28725333.316   115665013.546        -321.070          44.000  
> 2024 04 15 16 21 00.0060000  0 25                     
G03  24883535.819   130763831.890       -3447.155          44.000    24883544.044   101893920.098       -2686.228          42.000  
G04  24449200.065   128481393.861       -3071.570          45.000    24449203.750   100115373.097       -2393.403          44.000  
G09  22665309.589   119107001.494       -1364.917          49.000    22665309.138    92810648.679       -1063.464          44.000  
G11  24794145.717   130294116.665         899.426          44.000    24794145.993   101527887.109         700.797          42.000  
R13  24486592.591   130757089.980        3439.828          40.000    24486601.319   101700031.287        2675.576          40.000  
R02  22307948.034   119039483.021         -69.408          52.000    22307950.058    92586271.288         -53.929          49.000  
R11  23598773.556   126104680.715       -2954.795          47.000    23598777.113    98081419.303       -2298.087          48.000  
R01  23083016.255   123391942.516       -2184.075          46.000    23083021.093    95971513.639       -1698.545          42.000  
R24  25240685.932   134973230.686       -4915.254          44.000    25240694.130   104979190.800       -3822.912          44.000  
E33  28777071.978   151224485.218        1157.030          36.000    28777075.819   115873352.135         886.487          38.000  
G07  22179464.844   116553872.349        1115.899          49.000    22179463.260    90821203.105         869.643          46.000  
S31  40673645.753   213741447.777        -828.959          44.000  
S33  41623443.142   218732666.748        -827.469          42.000  
G16  26719264.826   140410679.286        -861.740          39.000                                                                  
R18  24190562.616   129130762.801         330.972          37.000    24190565.496   100435108.760         257.476          37.000  
R12  22275872.172   118993722.454        1401.117          51.000    22275876.263    92550687.988        1089.765          51.000  
R17  23315312.883   124764937.645       -3004.568          52.000    23315311.693    97039387.828       -2336.825          47.000  
E07  25678743.887   134942710.492        -791.172          48.000    25678748.520   103397676.259        -606.163          51.000  
E08  27370972.867   143835414.875       -2385.221          45.000    27370979.142   110211569.404       -1827.698          52.000  
E13  27232428.955   143107371.420       -3588.439          44.000    27232438.296   109653724.625       -2749.653          48.000  
E26  26111003.009   137214248.621       -1179.534          47.000    26111007.664   105138203.097        -903.858          51.000  
G06  22995870.841   120844110.099       -1529.334          47.000    22995873.440    94164251.216       -1191.634          45.000  
G30  24472731.371   128605093.593        2467.712          45.000    24472736.854   100211792.969        1922.709          43.000  
E30  28368574.329   149077891.476        1428.882          44.000    28368586.650   114228570.450        1094.810          48.000  
E02  28727751.742   150965344.994        -432.244          39.000    28727762.993   115674801.894        -331.161          44.000  
> 2024 04 15 16 21 30.0060000  0 25                     
G03  24903242.656   130867390.223       -3456.723          46.000    24903249.816   101974614.642       -2693.695          41.000  
G04  24466740.664   128573568.785       -3073.450          45.000    24466744.070   100187197.520       -2394.935          44.000  
G09  22673119.090   119148041.110       -1371.026          50.000    22673118.735    92842627.570       -1068.481          44.000  
G11  24789059.525   130267392.742         882.111          42.000    24789060.757   101507063.294         687.408          42.000  
R13  24467279.762   130653960.028        3435.466          40.000    24467288.332   101619819.485        2672.118          41.000  
R02  22308352.149   119041638.983         -74.257          52.000    22308354.514    92587948.134         -57.827          49.000  
R11  23615427.263   126193672.777       -2978.250          49.000    23615428.905    98150635.191       -2316.448          47.000  
R01  23095289.408   123457546.582       -2189.583          47.000    23095292.590    96022538.927       -1703.185          42.000  
R24  25268259.502   135120686.170       -4915.199          44.000    25268269.371   105093877.764       -3823.000          45.000  
E33  28770497.845   151189941.237        1146.004          34.000    28770502.898   115846883.360         878.290          38.000  
G07  22173148.525   116520681.796        1096.705          48.000    22173146.535    90795340.370         854.590          45.000  
S31  40678378.325   213766316.216        -829.342          44.000  
S33  41628168.362   218757499.095        -828.077          42.000  
G16  26724227.054   140436758.933        -877.332          38.000                                                                  
R18  24188773.974   129121215.168         305.189          35.000    24188773.618   100427682.729         237.374          38.000  
R12  22268067.643   118952029.713        1378.452          51.000    22268071.619    92518260.375        1072.074          51.000  
R17  23332215.400   124855384.251       -3025.109          51.000    23332213.836    97109735.116       -2353.049          46.000  
E07  25683270.390   134966496.338        -794.580          48.000    25683274.886   103415901.769        -608.916          51.000  
E08  27384590.981   143906980.012       -2385.892          45.000    27384597.390   110266404.918       -1828.125          52.000  
E13  27252934.462   143215128.978       -3595.292          44.000    27252944.238   109736291.959       -2754.986          48.000  
E26  26117780.392   137249860.569       -1194.698          47.000    26117784.563   105165490.129        -915.407          51.000  
G06  23004660.590   120890298.720       -1549.862          47.000    23004663.247    94200242.310       -1207.806          46.000  
G30  24458671.831   128531208.266        2457.831          46.000    24458677.368   100154220.171        1915.335          44.000  
E30  28360430.866   149035103.830        1423.630          43.000    28360444.965   114195785.272        1090.721          49.000  
E02  28730254.277   150978506.949        -445.726          38.000    28730267.709   115684887.073        -341.335          45.000  
> 2024 04 15 16 22 00.0060000  0 26                     
G03  24923003.790   130971233.011       -3466.234          46.000    24923010.647   102055530.843       -2701.043          42.000  
G04  24484292.084   128665799.688       -3075.365          45.000    24484296.013   100259065.625       -2396.397          45.000  
G09  22680963.326   119189263.190       -1377.216          49.000    22680963.060    92874748.645       -1073.340          44.000  
G11  24784072.526   130241191.228         864.657          43.000    24784074.352   101486646.551         673.734          42.000  
R13  24447993.550   130550973.607        3430.142          38.000    24448002.608   101539719.358        2668.033          41.000  
R02  22308781.980   119043936.191         -79.067          52.000    22308785.293    92589734.830         -61.562          49.000  
R11  23632209.854   126283362.524       -3001.453          49.000    23632214.840    98220393.779       -2334.431          48.000  
R01  23107595.252   123523320.402       -2195.289          49.000    23107597.281    96073696.224       -1707.794          42.000  
R24  25295834.597   135268140.935       -4915.322          45.000    25295845.246   105208564.197       -3822.994          46.000  
E33  28763986.452   151155725.962        1134.801          34.000    28763991.775   115820666.468         869.614          38.000  
G07  22166940.635   116488063.594        1077.465          48.000    22166939.612    90769923.643         839.744          45.000  
S31  40683112.664   213791194.590        -829.587          44.000  
S33  41632896.519   218782341.818        -828.418          42.000  
G16  26729276.323   140463292.920        -891.870          38.000                                                                  
R18  24187124.699   129112430.320         280.079          34.000    24187131.511   100420850.256         217.793          40.000  
R12  22260389.506   118911015.604        1355.649          50.000    22260393.131    92486360.586        1054.368          51.000  
R17  23349230.862   124946444.676       -3045.651          50.000    23349232.347    97180559.780       -2368.695          48.000  
E07  25687815.997   134990385.143        -798.079          48.000    25687820.695   103434206.148        -611.471          51.000  
E08  27398212.256   143978561.184       -2386.545          45.000    27398218.940   110321252.707       -1828.523          52.000  
E13  27273479.740   143323090.405       -3602.252          44.000    27273488.364   109819015.497       -2760.120          48.000  
E26  26124642.799   137285923.286       -1209.787          47.000    26124647.033   105193122.565        -926.908          51.000  
G06  23013568.482   120937106.988       -1570.876          48.000    23013570.686    94236716.231       -1224.033          46.000  
G30  24444667.370   128457616.021        2447.951          46.000    24444672.632   100096875.741        1907.459          43.000  
E30  28352319.928   148992475.487        1418.107          44.000    28352332.927   114163122.179        1086.620          50.000  
E02  28732835.635   150992065.327        -458.672          38.000    28732847.802   115695276.028        -351.530          46.000  
R03                                                                  24961589.974                3       1218.367          18.000  
> 2024 04 15 16 22 30.0060000  0 25                     
G03  24942819.085   131075366.274       -3476.056          44.000    24942827.534   102136673.374       -2708.732          43.000  
G04  24501854.699   128758092.813       -3077.710          45.000    24501858.697   100330982.159       -2397.882          44.000  
G09  22688843.120   119230673.864       -1383.734          49.000    22688843.748    92907016.681       -1078.149          45.000  
G11  24779188.453   130215520.551         846.842          43.000    24779189.541   101466643.438         659.656          42.000  
R13  24428736.517   130448141.974        3424.865          39.000    24428744.594   101459739.608        2663.749          40.000  
R02  22309239.468   119046382.192         -84.132          51.000    22309242.664    92591637.256         -65.492          48.000  
R11  23649126.943   126373753.680       -3024.894          49.000    23649129.048    98290697.963       -2352.595          46.000  
R01  23119932.558   123589271.328       -2201.559          47.000    23119936.404    96124991.245       -1712.157          43.000  
R24  25323411.118   135415597.719       -4915.245          46.000    25323420.705   105323252.153       -3823.084          45.000  
E33  28757538.355   151121847.682        1123.265          32.000    28757544.450   115794707.776         860.855          36.000  
G07  22160844.709   116456025.871        1058.153          49.000    22160842.405    90744959.201         824.517          45.000  
S31  40687849.962   213816089.027        -830.212          44.000  
S33  41637626.800   218807200.266        -829.136          43.000  
G16  26734413.516   140490288.071        -907.665          35.000                                                                  
R18  24185623.436   129104416.689         254.373          40.000    24185632.513   100414617.375         197.698          41.000  
R12  22252840.746   118870690.144        1332.537          50.000    22252844.129    92454996.416        1036.326          51.000  
R17  23366363.073   125038121.662       -3066.239          51.000    23366364.143    97251863.983       -2384.755          47.000  
E07  25692382.667   135014383.095        -801.904          48.000    25692387.344   103452594.173        -614.431          51.000  
E08  27411838.176   144050164.886       -2387.390          45.000    27411844.796   110376117.765       -1829.234          52.000  
E13  27294063.393   143431260.466       -3609.256          45.000    27294072.243   109901898.908       -2765.569          48.000  
E26  26131592.124   137322443.161       -1225.062          46.000    26131596.728   105221105.289        -938.707          51.000  
G06  23022594.594   120984540.462       -1591.913          48.000    23022596.862    94273677.328       -1240.262          46.000  
G30  24430720.647   128384325.648        2438.021          46.000    24430725.510   100039766.538        1899.432          43.000  
E30  28344239.649   148950015.169        1412.324          44.000    28344252.477   114130587.836        1082.230          49.000  
E02  28735492.612   151006027.542        -471.948          39.000    28735504.702   115705974.441        -361.972          46.000  
> 2024 04 15 16 23 00.0060000  0 25                     
G03  24962691.441   131179794.224       -3485.990          45.000    24962699.566   102218045.510       -2716.518          43.000  
G04  24519429.345   128850452.436       -3079.857          45.000    24519434.201   100402950.549       -2399.844          44.000  
G09  22696760.167   119272277.424       -1390.063          49.000    22696761.379    92939435.003       -1083.191          45.000  
G11  24774406.773   130190387.176         828.596          46.000    24774407.617   101447058.999         645.514          44.000  
R13  24409510.619   130345474.154        3419.243          40.000    24409517.278   101379887.245        2659.174          39.000  
R02  22309727.596   119048982.233         -89.394          52.000    22309729.677    92593659.494         -69.570          47.000  
R11  23666173.874   126464848.640       -3048.360          48.000    23666177.405    98361549.449       -2370.943          47.000  
R01  23132303.321   123655405.540       -2207.592          46.000    23132308.337    96176428.818       -1716.902          42.000  
R24  25350987.884   135563057.434       -4915.517          47.000    25350997.264   105437942.347       -3823.102          45.000  
E33  28751152.276                        1111.839          28.000    28751161.750   115769012.312         851.811          34.000  
G07  22154859.552   116424574.978        1038.399          48.000    22154857.881    90720452.047         809.112          45.000  
S31  40692591.458   213841005.664        -831.114          43.000  
S33  41642361.559   218832081.508        -829.903          42.000  
G16  26739640.317   140517750.041        -923.444          36.000                                                                  
R18  24184272.102   129097179.990         228.106          47.000    24184273.676   100408988.701         177.257          37.000  
R12  22245422.031   118831061.719        1309.116          50.000    22245424.967    92424174.365        1018.217          51.000  
R17  23383611.080   125130416.405       -3086.906          52.000    23383611.703    97323648.673       -2400.847          48.000  
E07  25696970.643   135038494.533        -805.828          48.000    25696975.487   103471069.163        -617.384          51.000  
E08  27425468.542   144121795.880       -2388.261          44.000    27425475.846   110431003.748       -1829.982          52.000  
E13  27314689.027   143539642.057       -3616.199          45.000    27314697.274   109984944.403       -2770.935          49.000  
E26  26138630.244   137359424.743       -1240.606          47.000    26138634.129   105249441.789        -950.528          51.000  
G06  23031740.754   121032602.899       -1612.626          49.000    23031742.928    94311128.524       -1256.610          46.000  
G30  24416831.938   128311344.204        2427.466          46.000    24416837.177    99982898.042        1891.390          43.000  
E30  28336193.288   148907729.902        1406.265          44.000    28336205.445   114098187.610        1077.594          49.000  
E02  28738228.194   151020399.210        -485.868          39.000    28738239.729   115716986.534        -372.416          46.000  
> 2024 04 15 16 23 30.0060000  0 25                     
G03  24982621.928   131284524.226       -3495.745          46.000    24982629.897   102299653.039       -2724.083          44.000  
G04  24537019.762   128942886.306       -3082.174          44.000    24537024.212   100474976.779       -2401.734          43.000  
G09  22704715.322   119314081.495       -1396.710          49.000    22704716.153    92972009.557       -1088.287          45.000  
G11  24769728.546   130165800.988         810.530          46.000    24769729.418   101427900.899         631.506          44.000  
R13  24390316.876   130242982.761        3413.594          40.000    24390323.271   101300172.087        2654.916          40.000  
R02  22310245.442   119051745.439         -94.764          52.000    22310247.608    92595808.642         -73.714          48.000  
R11  23683354.113   126556652.957       -3071.871          49.000    23683356.503    98432952.726       -2389.138          46.000  
R01  23144710.908   123721731.847       -2213.931          46.000    23144715.362    96228015.810       -1721.910          41.000  
R24  25378564.914   135710524.001       -4915.584          46.000    25378574.872   105552637.909       -3823.114          44.000  
E33  28744844.574   151055131.249        1100.209          35.000    28744847.968   115743587.420         843.575          34.000  
G07  22148987.733   116393720.765        1018.538          48.000    22148986.101    90696409.869         793.641          45.000  
S31  40697338.523   213865952.349        -831.833          44.000  
S33  41647101.736   218856991.883        -830.895          42.000  
G16  26744957.534   140545687.920        -939.726          36.000                                                                  
R18  24183061.923   129090729.610         201.804          43.000    24183066.007   100403971.699         156.985          40.000  
R12  22238137.107   118792142.192        1285.471          51.000    22238138.423    92393903.679         999.778          50.000  
R17  23400975.060   125223333.592       -3107.551          51.000    23400976.373    97395917.468       -2416.938          49.000  
E07  25701581.657   135062727.213        -809.826          47.000    25701587.009   103489637.046        -620.384          52.000  
E08  27439107.088   144193462.252       -2389.451          44.000    27439113.677   110485916.829       -1830.730          52.000  
E13  27335355.553   143648241.450       -3623.374          46.000    27335363.081   110068156.766       -2776.447          49.000  
E26  26145756.971   137396875.969       -1256.158          47.000    26145760.714   105278138.122        -962.421          51.000  
G06  23041007.251   121081301.370       -1633.764          48.000    23041009.810    94349075.346       -1273.198          45.000  
G30  24403005.365   128238682.097        2416.524          46.000    24403009.968    99926278.363        1883.185          43.000  
E30  28328182.782   148865629.932        1400.268          45.000    28328193.712   114065929.370        1073.066          49.000  
E02  28741040.966   151035189.239        -500.235          38.000    28741053.323   115728319.194        -382.937          45.000  
> 2024 04 15 16 24 00.0060000  0 25                     
G03  25002606.441   131389544.849       -3505.132          45.000    25002614.486   102381487.014       -2731.412          43.000  
G04  24554621.322   129035383.143       -3083.953          44.000    24554623.976   100547052.049       -2403.048          40.000  
G09  22712706.493   119356074.726       -1402.704          49.000    22712706.671    93004731.532       -1092.834          45.000  
G11  24765151.619   130141752.818         792.878          46.000    24765153.211   101409162.082         617.924          43.000  
R13  24371154.878   130140661.224        3408.208          39.000    24371161.954   101220589.009        2650.889          40.000  
R02  22310791.641   119054661.518         -99.403          52.000    22310794.229    92598076.699         -77.364          48.000  
R11  23700665.485   126649152.721       -3094.652          51.000    23700668.185    98504896.835       -2406.803          47.000  
R01  23157151.924   123788240.105       -2219.647          45.000    23157157.546    96279744.288       -1726.569          42.000  
R24  25406141.394   135857982.779       -4914.795          47.000    25406151.244   105667327.342       -3822.478          44.000  
E33  28738589.923   151022293.596        1089.381          31.000    28738599.502   115718426.258         834.031          31.000  
G07  22143228.654   116363453.412         999.425          48.000    22143226.994    90672824.966         778.794          46.000  
S31  40702089.050   213890917.362        -832.250          44.000  
S33  41651846.039   218881921.619        -831.046          42.000  
G16  26750361.522   140574091.165        -954.016          37.000                                                                  
R18  24181999.196   129085055.795         176.304          47.000    24182003.464   100399558.667         137.183          41.000  
R12  22230982.177   118753923.798        1262.578          51.000    22230983.734    92364178.305         981.975          50.000  
R17  23418452.268   125316858.195       -3127.323          51.000    23418454.181    97468658.724       -2432.402          48.000  
E07  25706214.195   135087069.853        -812.942          48.000    25706219.391   103508289.177        -622.792          52.000  
E08  27452748.924   144265153.026       -2389.536          44.000    27452755.949   110540848.634       -1831.041          52.000  
E13  27356060.602   143757045.912       -3629.834          46.000    27356068.059   110151526.255       -2781.280          49.000  
E26  26152970.939   137434785.676       -1270.930          47.000    26152974.622   105307185.779        -973.804          51.000  
G06  23050392.850   121130623.818       -1654.190          48.000    23050395.477    94387508.364       -1289.059          45.000  
G30  24389237.033   128166330.573        2406.624          46.000    24389241.641    99869900.712        1875.338          43.000  
E30  28320204.620   148823706.580        1394.822          45.000    28320215.402   114033806.459        1068.739          48.000  
E02  28743932.214   151050387.486        -513.002          38.000    28743944.888   115739964.684        -393.176          44.000  
> 2024 04 15 16 24 30.0060000  0 26                     
G03  25022643.968   131494846.304       -3514.485          44.000    25022651.936   102463539.836       -2738.367          42.000  
G04  24572233.185   129127933.406       -3085.708          44.000    24572235.995   100619168.991       -2404.475          41.000  
G09  22720731.285   119398247.504       -1408.453          49.000    22720731.765    93037593.415       -1097.473          44.000  
G11  24760676.592   130118235.262         775.285          46.000    24760677.226   101390836.698         604.301          43.000  
R13  24352023.756   130038504.701        3402.595          39.000    24352031.824   101141134.297        2646.902          41.000  
R02  22311365.108   119057721.623        -104.163          52.000    22311367.116    92600456.765         -80.969          48.000  
R11  23718101.414   126742336.037       -3117.268          49.000    23718104.907    98577372.602       -2424.492          46.000  
R03  24918015.251                3       1559.194          23.000                                                                  
R01  23169627.735   123854921.969       -2225.435          46.000    23169631.315    96331607.867       -1730.964          40.000  
R24  25433713.598   136005420.204       -4913.780          47.000    25433723.144   105782000.175       -3821.800          44.000  
E33  28732401.691                        1078.510          30.000    28732414.598   115693522.889         826.393          31.000  
G07  22137578.290   116333765.569         980.125          48.000    22137577.666    90649691.643         763.725          46.000  
S31  40706842.199   213915892.901        -832.590          44.000  
S33  41656591.576   218906861.191        -831.113          42.000  
G16  26755854.500   140602952.020        -969.700          37.000                                                                  
R18  24181081.360   129080150.150         150.827          47.000    24181084.326   100395743.109         117.477          41.000  
R12  22223958.189   118716400.873        1239.317          51.000    22223960.458    92334993.876         963.933          51.000  
R17  23436040.898   125410977.147       -3146.938          51.000    23436042.377    97541862.225       -2447.530          49.000  
E07  25710865.775   135111512.942        -816.260          48.000    25710870.666   103527018.289        -625.346          52.000  
E08  27466394.683   144336859.149       -2390.328          44.000    27466401.502   110595792.166       -1831.495          52.000  
E13  27376801.658   143866044.486       -3636.353          45.000    27376809.940   110235044.491       -2786.234          49.000  
E26  26160270.479   137473144.574       -1285.989          47.000    26160274.192   105336577.619        -985.312          51.000  
G06  23059895.917   121180560.067       -1674.515          48.000    23059897.843    94426419.697       -1304.906          45.000  
G30  24375527.066   128094282.816        2396.652          48.000    24375530.947    99813759.741        1867.632          43.000  
E30  28312258.896   148781952.890        1389.284          45.000    28312270.384   114001813.556        1064.361          49.000  
E02  28746901.249   151065985.738        -526.130          39.000    28746913.343   115751916.666        -403.389          45.000  
> 2024 04 15 16 25 00.0060000  0 27                     
G03  25042735.147   131600425.512       -3523.816          44.000    25042742.491   102545809.093       -2745.777          41.000  
G04  24589855.839   129220534.224       -3087.559          45.000    24589856.639   100691325.282       -2405.811          40.000  
G09  22728790.611   119440596.932       -1414.612          49.000    22728790.515    93070592.970       -1102.283          44.000  
G11  24756301.661   130095247.524         757.458          45.000    24756302.312   101372924.182         590.363          43.000  
R13  24332924.423   129936514.874        3396.891          39.000    24332931.870   101061809.244        2641.735          40.000  
R02  22311966.571   119060924.317        -109.169          52.000    22311967.471    92602947.773         -84.840          49.000  
R11  23735668.441   126836197.680       -3140.046          49.000    23735669.755    98650375.994       -2442.230          47.000  
R03  24909262.817                3       1557.361          24.000                                                                  
R01  23182133.097   123921775.795       -2231.348          46.000    23182137.392    96383605.184       -1735.261          42.000  
R24  25461279.379   136152829.709       -4913.199          46.000    25461289.985   105896651.240       -3821.185          44.000  
E33  28726281.833                        1066.488          31.000    28726293.236                         817.015          28.000  
G07  22132039.304   116304656.201         960.733          48.000    22132038.568    90627009.035         748.710          46.000  
S31  40711596.202   213940876.147        -832.675          44.000  
S33  41661338.847   218931808.441        -831.981          42.000  
G16  26761432.194   140632267.969        -984.831          34.000                                                                  
G20  26132226.542                3       2493.688          25.000                                                                  
R18  24180304.754   129076011.296         125.287          45.000    24180309.626   100392523.977          97.369          43.000  
R12  22217064.783   118679573.968        1215.916          52.000    22217066.298    92306350.807         945.707          51.000  
R17  23453738.578   125505684.116       -3166.637          50.000    23453740.941    97615523.077       -2462.913          49.000  
E07  25715536.026   135136053.606        -819.633          48.000    25715540.846   103545822.164        -627.969          52.000  
E08  27480041.565   144408578.020       -2390.870          44.000    27480049.346   110650745.473       -1831.858          52.000  
E13  27397578.868   143975232.810       -3642.831          43.000    27397588.030   110318708.105       -2791.071          49.000  
E26  26167654.993   137511949.839       -1300.947          47.000    26167658.764   105366311.496        -996.767          51.000  
G06  23069515.078   121231106.486       -1694.984          48.000    23069516.848    94465806.445       -1320.709          46.000  
G30  24361874.376   128022538.531        2386.487          47.000    24361878.587    99757855.270        1859.311          44.000  
E30  28304345.459   148740368.555        1383.343          45.000    28304356.916   113969950.415        1060.016          49.000  
E02  28749944.604   151081982.186        -539.879          39.000    28749956.888   115764173.755        -413.678          44.000  
> 2024 04 15 16 25 30.0060000  0 27                     
G03  25062880.010   131706281.880       -3533.009          44.000    25062888.108   102628294.282       -2752.905          42.000  
G04  24607486.449   129313185.336       -3088.908          45.000    24607488.982   100763520.794       -2407.024          40.000  
G09  22736883.563   119483122.656       -1420.154          50.000    22736882.975    93103729.879       -1106.763          44.000  
G11  24752027.797   130072791.361         739.799          45.000    24752028.652   101355425.886         576.682          43.000  
R13  24313856.251   129834696.353        3391.182          39.000    24313863.174   100982617.370        2637.546          39.000  
R02  22312593.617   119064270.085        -113.738          52.000    22312594.909    92605550.019         -88.501          50.000  
R11  23753358.967   126930734.772       -3162.239          49.000    23753362.384    98723904.704       -2459.447          47.000  
R03  24900537.269                1       1557.970          28.000    24900537.908                2       1211.946          27.000  
R01  23194672.069   123988802.713       -2236.908          46.000    23194676.600    96435737.119       -1739.762          41.000  
R24  25488840.164   136300207.774       -4911.957          46.000    25488851.789   106011277.856       -3820.306          44.000  
E33  28720230.068                1       1056.001          31.000    28720240.333                         808.684          28.000  
G07  22126610.590   116276127.048         941.548          48.000    22126609.809    90604778.570         733.693          47.000  
S31  40716351.279   213965866.775        -832.943          43.000  
S33  41666088.249   218956763.982        -831.904          42.000  
G16  26767097.504   140662040.180        -999.908          32.000                                                                  
G20  26118001.352                2       2492.097          27.000                                                                  
R18  24179673.099   129072640.452          99.829          45.000    24179677.272   100389902.221          77.767          43.000  
R12  22210300.121   118643446.949        1192.744          50.000    22210303.455    92278252.083         927.661          51.000  
R17  23471546.676   125600975.311       -3185.930          51.000    23471547.859    97689638.345       -2477.903          49.000  
E07  25720223.835   135160691.612        -822.640          48.000    25720229.277   103564700.618        -630.310          52.000  
E08  27493691.879   144480309.787       -2391.079          44.000    27493699.480   110705708.676       -1831.977          52.000  
E13  27418391.125   144084609.144       -3648.752          42.000    27418401.906   110402515.783       -2795.761          49.000  
E26  26175123.242   137551201.359       -1315.533          46.000    26175128.213   105396387.299       -1008.097          51.000  
G06  23079248.993   121282262.021       -1715.101          47.000    23079252.613    94505667.853       -1336.512          47.000  
G30  24348279.907   127951100.090        2376.301          48.000    24348284.347    99702189.073        1851.770          44.000  
E30  28296464.762   148698955.866        1377.941          45.000    28296475.789   113938218.781        1055.693          49.000  
E02  28753064.487   151098377.705        -552.859          40.000    28753076.779   115776736.662        -423.887          44.000  
> 2024 04 15 16 26 00.0060000  0 27                     
G03  25083077.358   131812415.278       -3542.583          45.000    25083085.231   102710995.369       -2760.396          42.000  
G04  24625126.952   129405886.949       -3091.094          44.000    24625129.369   100835755.657       -2408.147          34.000  
G09  22745008.998   119525824.779       -1426.391          48.000    22745009.499    93137004.223       -1111.517          45.000  
G11  24747856.508   130050869.006         721.667          45.000    24747857.763   101338343.523         562.199          44.000  
R13  24294821.366   129733054.213        3384.925          39.000    24294828.728   100903562.657        2632.455          40.000  
R02  22313247.475   119067760.469        -118.978          52.000    22313248.929    92608264.722         -92.525          49.000  
R11  23771176.525   127025944.916       -3184.948          50.000    23771179.016    98797956.955       -2477.112          47.000  
R03  24891790.760                        1556.950          30.000    24891792.294   103637167.9321       1211.629          32.000  
R01  23207244.633   124056003.764       -2242.989          46.000    23207247.897    96488004.548       -1744.552          42.000  
R24  25516394.508   136447550.934       -4910.724          45.000    25516405.733   106125877.311       -3819.556          43.000  
E33  28714233.101                        1044.021          27.000    28714245.835   115620362.280         800.073          32.000  
G07  22121292.036   116248179.898         921.588          48.000    22121291.303    90583001.585         718.148          46.000  
S31  40721108.730   213990866.122        -833.463          44.000  
S33  41670838.266   218981727.994        -832.126          42.000  
G16  26772843.987                       -1015.518          27.000                                                                  
G20  26103759.508   137176271.9161       2489.836          31.000                                                                  
R18  24179185.973   129070039.035          73.745          46.000    24179191.189   100387878.847          57.358          44.000  
R12  22203668.740   118608023.516        1168.956          50.000    22203672.476    92250700.623         909.110          51.000  
R17  23489461.991   125696847.514       -3205.637          51.000    23489464.491    97764205.467       -2493.245          48.000  
E07  25724930.664   135185427.126        -826.265          48.000    25724936.167   103583653.784        -633.062          52.000  
E08  27507344.454   144552054.985       -2392.018          43.000    27507352.428   110760682.163       -1832.704          52.000  
E13  27439240.338   144194172.123       -3655.312          42.000    27439251.353   110486466.470       -2800.796          49.000  
E26  26182677.398   137590899.398       -1330.720          46.000    26182682.710   105426805.217       -1019.685          51.000  
G06  23089099.378   121334025.982       -1735.690          47.000    23089102.795    94546003.355       -1352.506          46.000  
G30  24334744.180   127879970.161        2365.708          48.000    24334748.245    99646763.348        1843.321          43.000  
E30  28288618.376   148657717.612        1371.654          46.000    28288628.193   113906620.792        1050.874          48.000  
E02  28756261.977   151115173.593        -566.602          43.000    28756273.330   115789606.351        -434.214          45.000  
> 2024 04 15 16 26 30.0060000  0 27                     
G03  25103327.847   131918833.313       -3551.948          45.000    25103336.425   102793918.242       -2767.652          42.000  
G04  24642778.809   129498646.918       -3092.690          43.000    24642779.150   100908036.108       -2410.059          32.000  
G09  22753169.552   119568711.110       -1432.300          48.000    22753170.886    93170422.108       -1116.156          46.000  
G11  24743788.428   130029490.388         703.819          46.000    24743789.399   101321684.863         548.556          44.000  
R13  24275822.241   129631601.089        3379.056          39.000    24275829.476   100824654.997        2627.797          39.000  
R02  22313929.514   119071404.578        -123.724          52.000    22313931.630    92611099.009         -96.222          48.000  
R11  23789121.050   127121833.882       -3207.245          50.000    23789124.682    98872537.103       -2494.580          49.000  
R03  24883058.885   133201005.5091       1558.134          32.000    24883058.418                        1211.948          31.000  
R01  23219850.778   124123388.617       -2248.860          48.000    23219853.063    96540414.891       -1749.281          40.000  
R24  25543943.960   136594863.598       -4909.644          48.000    25543953.828   106240452.980       -3818.579          43.000  
E33  28708297.074                        1032.147          26.000    28708321.359   115596503.084         790.481          34.000  
G07  22116086.612   116220824.528         902.190          48.000    22116085.152    90561685.741         703.008          45.000  
S31  40725868.978   214015882.606        -834.193          44.000  
S33  41675592.009   219006708.855        -832.722          42.000  
G16  26778686.068                1      -1030.777          30.000                                                                  
G20  26089549.313   137101599.599        2488.281          33.000                                                                  
R18  24178844.396   129068216.202          47.937          45.000    24178849.651   100386461.082          37.323          45.000  
R12  22197171.805   118573315.435        1145.208          50.000    22197174.519    92223705.501         890.722          51.000  
R17  23507488.490   125793305.342       -3224.635          51.000    23507490.369    97839228.116       -2508.162          49.000  
E07  25729658.093   135210268.052        -829.565          48.000    25729663.102   103602687.738        -635.617          52.000  
E08  27521001.688   144623821.940       -2392.329          43.000    27521009.258   110815672.310       -1833.125          52.000  
E13  27460128.766   144303928.277       -3661.500          43.000    27460137.264   110570565.136       -2805.495          49.000  
E26  26190317.901   137631051.874       -1345.599          46.000    26190323.672   105457571.356       -1031.130          51.000  
G06  23099067.066   121386405.419       -1755.983          47.000    23099070.603    94586818.458       -1368.462          47.000  
G30  24321268.679   127809159.291        2355.368          47.000    24321272.557    99591586.167        1835.215          43.000  
E30  28280806.183   148616664.160        1365.662          47.000    28280816.350   113875164.399        1046.331          49.000  
E02  28759534.890   151132378.964        -580.118          41.000    28759547.907   115802789.759        -444.569          45.000  
> 2024 04 15 16 27 00.0060000  0 27                     
G03  25123630.705   132025528.326       -3560.916          43.000    25123640.174   102877056.905       -2774.551          42.000  
G04  24660439.923   129591458.032       -3094.360          43.000    24660440.872   100980356.182       -2411.085          32.000  
G09  22761364.484   119611774.269       -1438.165          49.000    22761365.661    93203977.803       -1120.697          45.000  
G11  24739822.885   130008650.144         685.958          47.000    24739823.194   101305445.699         534.759          43.000  
R13  24256858.127   129530334.628        3372.751          38.000    24256864.719   100745892.522        2623.351          39.000  
R02  22314639.869   119075196.239        -128.603          51.000    22314641.958    92614048.096         -99.884          49.000  
R11  23807190.313   127218391.549       -3229.408          50.000    23807194.024    98947637.377       -2511.633          49.000  
R03  24874322.204   133154257.373        1558.857          36.000    24874322.786   103564454.525        1212.426          35.000  
R01  23232489.301   124190951.100       -2254.746          47.000    23232492.474    96592963.363       -1753.703          41.000  
R24  25571484.773   136742134.749       -4908.026          46.000    25571496.563   106354996.412       -3817.224          45.000  
E33  28702453.211                        1021.592          31.000    28702461.153   115572907.667         782.505          37.000  
G07  22110993.036   116194055.328         882.827          49.000    22110991.281    90540826.648         687.818          46.000  
S31  40730631.299   214040908.869        -833.918          43.000  
S33  41680347.797   219031700.556        -833.114          42.000  
G16  26784617.657                       -1045.503          28.000                                                                  
G20  26075351.674   137026985.965        2486.450          32.000                                                                  
R18  24178646.630   129067165.921          22.557          44.000    24178653.012   100385644.191          17.443          45.000  
R12  22190806.453   118539318.812        1121.660          50.000    22190809.752    92197263.723         872.417          50.000  
R17  23525621.758   125890337.839       -3243.630          51.000    23525622.708    97914697.698       -2522.916          48.000  
E07  25734403.623   135235207.056        -832.603          48.000    25734408.970   103621796.834        -637.909          52.000  
E08  27534660.695   144695603.610       -2392.621          43.000    27534668.942   110870673.752       -1833.352          52.000  
E13  27481049.072   144413868.611       -3667.344          43.000    27481058.137   110654805.000       -2810.012          49.000  
E26  26198045.619   137671651.520       -1360.497          47.000    26198049.310   105488680.150       -1042.435          51.000  
G06  23109149.714   121439392.097       -1776.014          47.000    23109153.576    94628106.736       -1383.696          47.000  
G30  24307854.136   127738662.743        2344.905          48.000    24307857.982    99536653.893        1827.347          43.000  
E30  28273027.680   148575790.755        1359.818          47.000    28273038.624   113843845.956        1041.969          50.000  
E02  28762885.403   151149987.489        -593.326          41.000    28762898.409   115816282.103        -454.605          45.000  
> 2024 04 15 16 27 30.0060000  0 27                     
G03  25143985.642   132132491.708       -3570.033          44.000    25143993.963   102960404.683       -2781.855          43.000  
G04  24678108.376   129684311.872       -3095.961          42.000    24678110.456                3      -2409.010          17.000  
G09  22769590.928   119655005.846       -1443.939          49.000    22769592.138    93237664.735       -1125.220          45.000  
G11  24735958.301   129988341.888         668.011          46.000    24735958.675   101289621.119         520.657          43.000  
R13  24237928.393   129429250.864        3366.520          38.000    24237934.601   100667272.143        2618.188          38.000  
R02  22315377.452   119079127.759        -133.471          53.000    22315379.102    92617105.966        -103.852          49.000  
R11  23825382.547   127315607.081       -3251.350          50.000    23825386.349    99023249.310       -2528.896          50.000  
R03  24865584.285   133107493.793        1558.979          42.000    24865584.249   103528082.871        1212.672          39.000  
R01  23245161.082   124258683.498       -2260.602          47.000    23245163.892    96645643.992       -1758.512          41.000  
R24  25599014.686   136889352.310       -4906.451          44.000    25599028.273   106469498.107       -3816.199          45.000  
E33  28696659.267   150801974.0711       1009.316          31.000    28696664.567   115549571.196         773.395          37.000  
G07  22106009.052   116167865.735         863.350          49.000    22106007.374    90520419.227         672.568          46.000  
S31  40735394.502   214065937.546        -834.318          44.000  
S33  41685104.104   219056694.048        -833.151          42.000  
G16  26790633.177                       -1060.300          30.000                                                                  
G20  26061163.520   136952424.731        2484.721          33.000                                                                  
R18  24178594.878   129066880.840          -3.520          46.000    24178599.311   100385422.423          -2.681          45.000  
R12  22184575.253   118506028.838        1097.765          51.000    22184578.048    92171371.569         853.826          50.000  
R17  23543858.328   125987932.652       -3262.459          50.000    23543860.438    97990604.652       -2537.514          49.000  
E07  25739166.266   135260235.802        -835.687          48.000    25739171.622   103640974.709        -640.335          52.000  
E08  27548321.145   144767392.096       -2393.208          42.000    27548329.991   110925680.417       -1833.629          52.000  
E13  27502002.590   144523983.421       -3673.404          44.000    27502012.502   110739178.502       -2814.658          48.000  
E26  26205855.023   137712690.027       -1375.243          47.000    26205858.504   105520125.208       -1053.804          51.000  
G06  23119346.440   121492976.829       -1796.147          48.000    23119350.601    94669861.030       -1399.736          47.000  
G30  24294498.321   127668474.625        2334.313          46.000    24294501.125    99481962.000        1818.868          43.000  
E30  28265281.071   148535091.502        1353.786          45.000    28265293.659   113812660.982        1037.243          49.000  
E02  28766313.020   151167991.912        -606.795          42.000    28766324.342   115830077.796        -464.907          45.000  
> 2024 04 15 16 28 00.0070000  0 27                     
G03  25164393.052   132239732.833       -3579.146          44.000    25164402.012   103043968.873       -2788.893          42.000  
G04  24695788.447   129777217.900       -3097.333          43.000    24695765.801                3      -2409.631          19.000  
G09  22777851.753   119698413.533       -1449.844          50.000    22777852.866    93271488.863       -1129.838          46.000  
G11  24732196.585   129968573.110         650.018          46.000    24732197.155   101274216.876         506.347          44.000  
R13  24219033.891   129328357.493        3359.641          39.000    24219040.334   100588799.816        2613.221          39.000  
R02  22316142.441   119083206.833        -138.346          52.000    22316143.532    92620278.571        -107.571          49.000  
R11  23843698.301   127413487.316       -3273.520          48.000    23843702.655    99099378.279       -2546.077          49.000  
R03  24856846.943   133060719.883        1559.348          45.000    24856846.539   103491703.124        1212.864          41.000  
R01  23257863.580   124326596.411       -2266.712          47.000    23257867.941    96698465.029       -1762.878          41.000  
R24  25626536.386   137036524.208       -4904.296          41.000    25626550.926   106583964.305       -3814.804          44.000  
E33  28690927.215                         998.271          28.000    28690933.310   115526499.251         764.595          36.000  
G07  22101137.507   116142262.642         843.678          49.000    22101135.719    90500468.778         657.535          46.000  
S31  40740159.610   214090976.044        -834.657          44.000  
S33  41689862.093   219081697.795        -833.831          42.000  
G16  26796729.119   140817789.3183      -1076.950          31.000                                                                  
G20  26046985.615   136877922.497        2482.507          32.000                                                                  
R18  24178686.111   129067368.517         -29.152          45.000    24178689.574   100385801.717         -22.636          44.000  
R12  22178476.457   118473454.447        1073.888          50.000    22178479.206    92146036.010         835.218          50.000  
R17  23562203.784   126086096.096       -3281.315          52.000    23562205.907    98066953.885       -2552.159          50.000  
E07  25743947.064   135285361.409        -839.030          48.000    25743953.216   103660226.793        -642.875          52.000  
E08  27561983.973   144839196.353       -2393.735          41.000    27561994.098   110980699.159       -1834.060          52.000  
E13  27522991.883   144634281.019       -3679.316          44.000    27523001.627   110823692.077       -2819.284          48.000  
E26  26213749.978   137754175.060       -1390.182          47.000    26213753.150   105551912.387       -1065.195          51.000  
G06  23129658.798   121547166.701       -1816.173          48.000    23129662.308    94712086.837       -1415.396          46.000  
G30  24281201.306   127598601.425        2323.844          46.000    24281204.779    99427515.477        1810.799          43.000  
E30  28257570.273   148494573.905        1347.505          44.000    28257582.591   113781615.184        1032.537          48.000  
E02  28769815.504   151186400.135        -620.189          41.000    28769827.002   115844182.905        -475.235          45.000  
> 2024 04 15 16 28 30.0070000  0 27                     
G03  25184845.579   132347203.535       -3584.266          46.000    25184853.671   103127711.974       -2792.572          43.000  
G04  24713468.564   129870129.248       -3095.202          43.000    24713476.654                       -2411.752          32.000  
G09  22786137.857   119741953.667       -1451.477          50.000    22786137.615    93305416.205       -1131.091          45.000  
G11  24728529.957   129949306.379         635.851          46.000    24728531.159   101259203.808         495.481          45.000  
R13  24200169.458   129227624.900        3356.931          38.000    24200177.053   100510452.537        2611.084          40.000  
R02  22316926.831   119087393.473        -139.362          52.000    22316927.813    92623534.822        -108.355          49.000  
R11  23862131.319   127511981.826       -3291.156          49.000    23862134.826    99175985.020       -2559.943          48.000  
R03  24848099.255   133013897.335        1563.517          42.000    24848099.643   103455285.605        1216.333          39.000  
R01  23270594.228   124394644.755       -2268.543          48.000    23270598.743    96751391.409       -1764.420          43.000  
R24  25654040.425   137183595.526       -4898.589          43.000    25654054.334   106698352.241       -3810.119          41.000  
G07  22096369.987   116117208.990         827.891          48.000    22096368.723    90480946.483         645.192          46.000  
S31  40744918.647   214115983.073        -830.977          45.000  
S33  41694614.120   219106669.220        -830.010          42.000  
G16  26802917.025                1      -1088.216          31.000                                                                  
G20  26032815.479   136803446.122        2484.399          32.000                                                                  
R18  24178913.560   129068588.589         -50.807          44.000    24178917.809   100386750.681         -39.632          44.000  
R12  22172506.423   118441559.855        1053.794          51.000    22172508.903    92121229.151         819.697          50.000  
R17  23580644.461   126184776.496       -3295.940          50.000    23580646.729    98143705.167       -2563.577          50.000  
E07  25748739.539   135310541.525        -838.263          48.000    25748744.804   103679520.645        -642.208          52.000  
E08  27575643.489   144910971.386       -2390.338          40.000    27575652.754   111035695.477       -1831.303          52.000  
E13  27544006.487   144744711.923       -3681.288          45.000    27544016.428   110908307.806       -2820.730          49.000  
E26  26221720.636   137796063.142       -1400.991          47.000    26221724.015   105584008.402       -1073.514          51.000  
G06  23140078.272   121601916.496       -1832.416          48.000    23140080.879    94754748.944       -1427.677          46.000  
G30  24267958.533   127529009.701        2317.077          47.000    24267961.621    99373288.302        1805.632          43.000  
E30  28249889.081   148454202.565        1345.325          46.000    28249899.683   113750681.425        1030.778          47.000  
E02  28773388.079   151205171.305        -629.791          41.000    28773398.265   115858566.104        -482.563          44.000  
E33                                                                  28685262.168   115503663.712         758.445          37.000  
> 2024 04 15 16 29 00.0070000  0 27                     
G03  25205333.261   132454866.622       -3593.382          44.000    25205340.045   103211605.035       -2799.897          41.000  
G04  24731143.607   129963008.657       -3096.900          43.000    24731145.100                       -2412.964          27.000  
G09  22794440.772   119785587.220       -1457.300          50.000    22794440.506    93339416.357       -1135.474          45.000  
G11  24724951.768   129930502.512         617.667          46.000    24724952.910   101244551.408         481.183          45.000  
R13  24181327.390   129127013.487        3350.530          38.000    24181335.494   100432199.557        2605.846          40.000  
R02  22317723.344   119091647.433        -144.308          51.000    22317725.042    92626843.468        -112.301          49.000  
R11  23880671.545   127611050.416       -3313.209          50.000    23880674.447    99253038.219       -2576.734          48.000  
R03  24839335.120   132966984.362        1563.900          43.000    24839338.317   103418797.763        1216.138          42.000  
R01  23283343.367   124462791.146       -2274.526          48.000    23283347.564    96804394.028       -1768.848          43.000  
R24  25681519.790   137330526.643       -4896.557          43.000    25681531.039   106812631.102       -3808.626          39.000  
G07  22091698.394   116092665.233         808.196          47.000    22091697.572    90461821.511         629.661          46.000  
S31  40749662.872   214140918.258        -831.256          44.000  
S33  41699352.073   219131569.870        -830.253          42.000  
G16  26809171.498                       -1103.077          30.000                                                                  
R18  24179272.287   129070501.351         -76.828          44.000    24179275.977   100388238.436         -59.838          44.000  
R12  22166655.246   118410306.460        1029.645          51.000    22166658.413    92096921.011         800.889          51.000  
R17  23599174.530   126283932.426       -3314.476          50.000    23599176.972    98220826.313       -2577.802          50.000  
E07  25753534.026   135335736.561        -841.382          48.000    25753539.562   103698825.943        -644.642          53.000  
E08  27589289.781   144982679.485       -2390.712          41.000    27589298.446   111090640.517       -1831.691          52.000  
E13  27565038.841   144855237.838       -3687.133          45.000    27565048.993   110992996.336       -2825.252          49.000  
E26  26229760.559   137838315.212       -1415.818          46.000    26229764.056   105616383.314       -1084.914          51.000  
G06  23150595.933   121657186.522       -1852.506          48.000    23150598.479    94797816.456       -1443.412          47.000  
G30  24254761.536   127459659.213        2306.208          47.000    24254764.771    99319249.100        1796.932          43.000  
E30  28242227.330   148413938.210        1338.834          46.000    28242237.748   113719829.612        1026.032          48.000  
E02  28777022.387   151224266.688        -643.416          43.000    28777032.318   115873197.714        -492.838          44.000  
E33                                                                  28679641.795   115481034.333         749.952          37.000  
R19                                                                  26684408.720                3       1931.000          11.000  
> 2024 04 15 16 29 30.0070000  0 26                     
G03  25225871.904   132562803.520       -3602.129          42.000    25225880.576   103295711.385       -2807.020          41.000  
G04  24748826.942   130055937.843       -3098.391          43.000    24748829.459   101342253.8611      -2414.304          35.000  
G09  22802776.890   119829395.895       -1462.921          50.000    22802777.665    93373552.986       -1140.076          46.000  
G11  24721477.422   129912245.125         599.622          46.000    24721478.568   101230324.844         467.317          45.000  
R13  24162525.567   129026611.092        3343.236          38.000    24162532.250   100354109.097        2600.274          40.000  
R02  22318548.012   119096052.979        -149.094          52.000    22318550.673    92630269.964        -115.903          50.000  
R11  23899333.480   127710773.267       -3334.789          50.000    23899336.311    99330600.321       -2593.652          49.000  
R03  24830571.382   132920064.605        1564.286          45.000    24830575.368   103382304.651        1216.565          42.000  
R01  23296125.027   124531119.975       -2280.493          48.000    23296130.137    96857538.529       -1773.836          42.000  
R24  25708986.052   137477397.513       -4894.248          40.000    25708994.775   106926862.997       -3806.646          33.000  
G07  22087140.489   116068714.576         788.599          48.000    22087140.058    90443158.647         614.576          46.000  
S31  40754410.153   214165864.907        -831.690          44.000  
S33  41704093.064   219156481.582        -830.150          42.000  
G16  26815516.694                       -1118.211          31.000                                                                  
R18  24179776.369   129073190.630        -102.413          43.000    24179781.073   100390330.102         -79.441          46.000  
R12  22160940.600   118379780.819        1005.555          51.000    22160944.104    92073178.901         782.162          51.000  
R17  23617808.470   126383643.616       -3332.747          52.000    23617811.263    98298379.292       -2592.104          50.000  
E07  25758346.809   135361028.330        -844.443          48.000    25758352.426   103718205.338        -647.021          53.000  
E08  27602939.849   145054402.807       -2390.826          42.000    27602947.149   111145597.220       -1831.876          52.000  
E13  27586104.352   144965939.003       -3692.710          45.000    27586114.576   111077819.134       -2829.472          49.000  
E26  26237886.069   137881012.977       -1430.503          47.000    26237889.310   105649099.737       -1096.093          51.000  
G06  23161227.387   121713057.501       -1872.139          48.000    23161230.517    94841352.252       -1458.726          47.000  
G30  24241626.397   127390634.211        2295.699          46.000    24241630.136    99265463.521        1788.741          45.000  
E30  28234600.929   148373865.058        1332.757          46.000    28234611.818   113689124.349        1021.223          48.000  
E02  28780730.798   151243768.987        -656.713          42.000    28780744.028   115888141.159        -503.160          45.000  
E33                                                                  28674089.694   115458675.206         740.909          38.000  
