     3.00           OBSERVATION DATA    M: Mixed            RINEX VERSION / TYPE
CONVBIN 2.4.3                           20240415 001442 UTC PGM / RUN BY / DATE 
format: u-blox UBX                                          COMMENT             
log: /home/regis/git/gnsspwv/obsdata/VERT00CHL/2024-04-15/VECOMMENT             
{self.marker}                                               MARKER NAME         
                                                            MARKER NUMBER       
GEODETIC                                                    MARKER TYPE         
{self.observer}     {self.institution}                      OBSERVER / AGENCY   
UNKNOWN             UBLOX-ZED-F9P                           REC # / TYPE / VERS 
UNKNOWN             TWIVSP6037L                             ANT # / TYPE        
  1713381.0000 -5047934.0000 -3490983.0000                  APPROX POSITION XYZ 
        0.0000        0.0000        0.0000                  ANTENNA: DELTA H/E/N
G    8 C1C L1C D1C S1C C2L L2L D2L S2L                      SYS / # / OBS TYPES 
R    8 C1C L1C D1C S1C C2C L2C D2C S2C                      SYS / # / OBS TYPES 
E    8 C1C L1C D1C S1C C7Q L7Q D7Q S7Q                      SYS / # / OBS TYPES 
S    4 C1C L1C D1C S1C                                      SYS / # / OBS TYPES 
  2024    04    15    00    00   00.0060000     GPS         TIME OF FIRST OBS   
  2024    04    15    00    14   30.0060000     GPS         TIME OF LAST OBS    
                                                            END OF HEADER       
> 2024 04 15 00 00 00.0060000  0 26                     
S33  41431042.546   217721673.2391       -772.997          43.000  
E33  28989787.366   152342364.3061       -329.957          38.000    28989788.319   116729910.0541       -252.607          43.000  
G13  25261959.374   132752145.1911      -4509.065          45.000                                                                  
G15  23895918.486   125573846.1751      -3536.753          47.000    23895920.095    97849768.1631      -2755.923          44.000  
R14  22808565.370   121582553.0011      -2152.088          51.000    22808564.301    94564291.4431      -1673.854          51.000  
R17  22884879.652   122462066.8111       2531.739          52.000    22884878.072    95248491.9931       1969.151          50.000  
R05  22612321.955   120875846.4151      -2162.225          51.000    22612320.979    94014558.6151      -1681.744          49.000  
R04  23971811.187   128367784.6671      -4791.780          44.000    23971816.606    99841584.1861      -3727.108          43.000  
G19  24293412.211   127662922.1301      -3564.243          46.000                                                                  
G06  25343555.319   133181456.4061        787.418          44.000    25343554.193   103777805.3731        613.406          41.000  
S31  40478683.604   212716980.0051       -772.654          44.000  
E03  28397767.982                1       1240.684          27.000    28397767.640   114346014.5221        950.275          38.000  
R15  22206233.593   118663597.5501         89.153          52.000    22206230.648    92294079.3661         69.366          49.000  
R24  22813446.853   121994084.9261      -1165.947          48.000    22813446.308    94884308.5371       -906.854          49.000  
E31  27569747.180   144880022.7801      -2567.287          41.000    27569748.049   111012002.6431      -1967.060          46.000  
E09  27235394.267   143122910.1001      -3529.902          47.000    27235399.994   109665609.9241      -2704.677          49.000  
G11  26003830.628   136651337.0931       1844.166          44.000    26003836.651   106481706.1631       1437.028          44.000  
E24  25597465.396   134515710.3871      -1116.092          47.000    25597465.837   103070537.4911       -855.105          52.000  
G24  22268092.161   117019717.6601         42.229          50.000    22268090.100    91184266.1531         32.896          46.000  
G12  23047439.157   121115402.6051        -83.201          47.000    23047435.551    94375760.5281        -64.940          45.000  
E05  24319626.296   127800564.6131      -1204.058          48.000    24319628.833    97925148.6241       -922.646          52.000  
G25  24638386.251   129475760.0961       1067.471          46.000    24638386.024   100890259.4571        831.666          41.000  
E10  29288057.152   153909916.2721       1897.831          44.000    29288080.762   117931132.4121       1454.116          46.000  
E25  27362500.276   143791155.6561        622.795          46.000    27362504.379   110177778.7501        477.174          49.000  
E12  28831523.634   151510959.4961       1540.684          41.000    28831527.366   116093009.4551       1180.429          46.000  
E14  20422185.849   107319418.7521       -601.089          50.000    20422187.529    82231808.8541       -460.594          53.000  
> 2024 04 15 00 00 30.0060000  0 26                     
S33  41435455.715   217744864.890        -773.388          42.000  
E33  28991708.679   152352462.944        -343.573          36.000    28991709.415   116737648.009        -263.175          43.000  
G13  25287712.426   132887470.413       -4513.065          44.000                                                                  
G15  23916134.315   125680081.991       -3546.054          47.000    23916135.866    97932548.969       -2763.191          44.000  
R14  22820685.839   121647172.469       -2156.181          50.000    22820686.351    94614551.017       -1677.055          50.000  
R17  22870729.006   122386343.072        2516.196          52.000    22870727.766    95189595.967        1957.023          50.000  
R05  22624525.649   120941076.529       -2186.756          51.000    22624523.623    94065293.073       -1700.794          48.000  
R04  23998676.051   128511629.687       -4798.338          44.000    23998682.116    99953462.021       -3731.821          45.000  
G19  24313792.503   127770017.794       -3575.870          45.000                                                                  
G06  25339096.276   133158027.249         774.087          43.000    25339096.211   103759548.973         603.176          41.000  
S31  40483093.781   212740155.613        -772.962          43.000  
R15  22205743.582   118660981.854          84.941          51.000    22205740.813    92292044.982          66.014          49.000  
R24  22820062.351   122029459.335       -1192.751          48.000    22820059.341    94911821.986        -927.627          47.000  
E31  27584401.459   144957030.342       -2567.057          42.000    27584402.862   111071008.448       -1966.883          46.000  
E09  27255562.071   143228893.449       -3536.052          46.000    27255568.651   109746817.653       -2709.478          49.000  
G11  25993308.633   136596048.010        1841.232          44.000    25993315.389   106438624.886        1434.731          44.000  
E24  25603846.548   134549240.714       -1119.650          47.000    25603846.696   103096229.568        -857.875          52.000  
G24  22267885.052   117018626.852          30.106          50.000    22267882.807    91183416.166          23.558          46.000  
G12  23047935.626   121118005.485         -90.843          47.000    23047931.495    94377788.791         -70.655          46.000  
E05  24326540.230   127836895.942       -1218.335          48.000    24326542.639    97952986.872        -933.506          52.000  
G25  24632304.303   129443802.382        1062.494          46.000    24632303.994   100865357.482         827.984          41.000  
E10  29277218.360   153852966.770        1898.457          43.000    29277241.972   117887497.826        1454.611          47.000  
E25  27358955.099   143772528.150         618.662          45.000    27358959.272   110163505.835         474.049          49.000  
E12  28822741.269   151464812.153        1535.634          39.000    28822744.795   116057650.108        1176.701          45.000  
E14  20425724.430   107338017.583        -639.128          50.000    20425726.379    82246060.011        -489.769          53.000  
E03                                                                  28390714.770   114317609.419         943.000          41.000  
> 2024 04 15 00 01 00.0060000  0 26                     
S33  41439869.244   217768058.752        -773.635          43.000  
E33  28993706.485   152362962.556        -356.886          37.000    28993707.592   116745693.186        -273.461          43.000  
G13  25313486.934   133022907.709       -4516.788          44.000                                                                  
G15  23936402.720   125786591.394       -3555.156          47.000    23936404.482    98015542.941       -2770.270          44.000  
R14  22832831.074   121711912.975       -2160.422          51.000    22832829.934    94664904.741       -1680.284          49.000  
R17  22856663.906   122311083.703        2500.561          51.000    22856662.903    95131061.125        1944.881          50.000  
R05  22636863.675   121007034.672       -2211.017          50.000    22636862.708    94116593.794       -1719.605          48.000  
R04  24025570.999   128655656.948       -4804.074          43.000    24025580.165   100065481.608       -3736.489          42.000  
G19  24334237.569   127877458.615       -3587.317          45.000                                                                  
G06  25334711.207   133134991.128         760.899          42.000    25334712.366   103741598.822         592.906          42.000  
S31  40487504.429   212763333.927        -773.010          44.000  
R15  22205277.612   118658491.689          80.644          51.000    22205274.332    92290108.221          62.737          48.000  
R24  22826828.536   122065633.983       -1219.465          50.000    22826824.358    94939957.909        -948.512          47.000  
E31  27599051.306   145034029.488       -2566.855          40.000    27599054.815   111130007.776       -1966.662          46.000  
E09  27275763.741   143335056.088       -3542.031          45.000    27275770.608   109828162.736       -2713.953          49.000  
G11  25982803.817   136540848.968        1838.152          45.000    25982809.757   106395613.721        1432.499          44.000  
E24  25610247.088   134582876.003       -1123.198          48.000    25610247.287   103122002.083        -860.527          52.000  
G24  22267745.990   117017894.125          18.236          49.000    22267743.613    91182845.219          14.184          47.000  
G12  23048473.454   121120832.137         -98.207          47.000    23048469.438    94379991.445         -76.526          46.000  
E05  24333533.536   127873649.547       -1232.459          47.000    24333536.493    97981148.693        -944.268          52.000  
G25  24626249.432   129411983.225        1058.019          47.000    24626249.057   100840563.478         824.464          41.000  
E10  29266374.858   153795994.661        1899.107          43.000    29266398.657   117843845.938        1455.156          47.000  
E25  27355432.937   143754017.092         614.609          46.000    27355436.649   110149322.171         471.109          49.000  
E12  28813987.126   151418806.116        1530.770          41.000    28813989.705   116022399.044        1172.950          45.000  
E14  20429480.227   107357755.828        -677.136          50.000    20429482.039    82261184.215        -518.851          52.000  
E03                                                                  28383716.715   114289428.508         935.573          42.000  
> 2024 04 15 00 01 30.0060000  0 26                     
S33  41444284.045   217791259.254        -773.256          42.000  
E33  28995781.810   152373868.864        -370.462          37.000    28995783.276   116754049.999        -283.801          42.000  
G13  25339282.444   133158459.687       -4520.024          44.000                                                                  
G15  23956723.594   125893376.399       -3563.965          46.000    23956725.957    98098751.654       -2777.222          44.000  
R14  22845001.678   121776779.652       -2164.259          51.000    22845000.572    94715356.626       -1683.322          51.000  
R17  22842688.386   122236298.303        2484.991          51.000    22842686.351    95072894.905        1932.799          49.000  
R05  22649339.639   121073723.159       -2234.924          52.000    22649337.429    94168462.546       -1738.367          48.000  
R04  24052505.301   128799867.086       -4809.785          46.000    24052510.415   100177643.357       -3740.938          41.000  
G19  24354747.758   127985246.821       -3598.579          45.000                                                                  
G06  25330404.738   133112355.532         747.955          41.000    25330405.699   103723960.771         582.696          43.000  
S31  40491916.090   212786518.705        -772.875          44.000  
E03  28376763.722                3       1211.141          25.000    28376774.065   114261476.706         927.960          42.000  
R15  22204835.864   118656131.952          76.667          52.000    22204833.174    92288272.894          59.626          48.000  
R24  22833742.405   122102613.849       -1245.988          49.000    22833740.583    94968720.026        -969.110          48.000  
E31  27613705.899   145111024.796       -2566.480          43.000    27613706.410   111189004.178       -1966.454          46.000  
E09  27296000.656   143441401.092       -3547.897          45.000    27296007.776   109909647.524       -2718.364          49.000  
G11  25972317.798   136485747.924        1835.083          45.000    25972324.734   106352678.925        1430.023          44.000  
E24  25616667.826   134616620.391       -1126.616          47.000    25616668.736   103147858.186        -863.188          52.000  
G24  22267675.738   117017526.071           6.305          50.000    22267673.239    91182558.435           4.901          46.000  
G12  23049054.181   121123886.290        -105.470          47.000    23049050.989    94382371.357         -82.239          46.000  
E05  24340609.265   127910830.050       -1246.446          47.000    24340611.654    98009637.617        -955.070          52.000  
G25  24620221.151   129380307.151        1053.608          46.000    24620221.955   100815880.976         820.972          41.000  
E10  29255529.163   153739007.001        1900.059          43.000    29255552.237   117800182.092        1455.638          47.000  
E25  27351933.414   143735626.938         611.143          46.000    27351936.723   110135231.154         468.165          48.000  
E12  28805260.258   151372948.455        1526.066          40.000    28805262.095   115987261.584        1169.499          43.000  
E14  20433453.551   107378637.008        -715.067          49.000    20433455.796    82277184.180        -547.913          53.000  
> 2024 04 15 00 02 00.0060000  0 28                     
S33  41448700.590   217814465.354        -773.896          43.000  
E33  28997934.849   152385180.280        -383.704          38.000    28997935.486   116762717.257        -294.251          42.000  
G13  25365098.873   133294121.651       -4523.988          44.000                                                                  
G15  23977095.466   126000431.604       -3573.162          47.000    23977097.770    98182170.915       -2784.214          43.000  
R14  22857193.012   121841770.983       -2168.744          51.000    22857191.872    94765905.413       -1686.789          49.000  
R17  22828802.206   122161989.340        2468.794          52.000    22828799.751    95015099.213        1920.160          49.000  
R06  25289899.223                3       1674.801          24.000                                                                  
R05  22661950.754   121141136.883       -2259.442          51.000    22661948.557    94220895.350       -1757.312          47.000  
R16  25206776.254                3       1567.340          11.000                                                                  
R04  24079469.388   128944253.001       -4816.047          46.000    24079476.190   100289941.781       -3746.114          41.000  
G19  24375324.609   128093377.127       -3610.100          44.000                                                                  
G06  25326173.742   133090120.752         734.485          43.000    25326173.548   103706635.039         572.254          42.000  
S31  40496328.836   212809708.291        -773.218          43.000  
E03  28369891.116   149084799.9341       1200.571          32.000    28369889.114   114233753.412         920.274          42.000  
R15  22204418.962   118653900.452          72.025          52.000    22204415.305    92286537.325          55.930          48.000  
R24  22840808.761   122140396.068       -1272.876          50.000    22840804.469    94998106.252        -990.063          47.000  
E31  27628355.373   145188013.661       -2566.201          42.000    27628357.387   111247995.598       -1966.429          47.000  
E09  27316271.944   143547924.324       -3553.750          45.000    27316278.718   109991268.890       -2723.075          49.000  
G11  25961850.987   136430745.666        1831.562          47.000    25961856.350   106309821.006        1427.283          43.000  
E24  25623110.195   134650470.915       -1130.188          48.000    25623110.482   103173795.607        -866.076          53.000  
G24  22267673.215   117017522.219          -6.260          50.000    22267672.124    91182555.436          -4.843          46.000  
G12  23049678.065   121127165.086        -113.225          46.000    23049675.388    94384926.289         -88.166          47.000  
E05  24347764.781   127948434.829       -1260.737          47.000    24347767.470    98038451.647        -966.045          52.000  
G25  24614219.564   129348771.483        1048.671          44.000    24614220.503   100791307.856         817.009          42.000  
E10  29244681.208   153682003.545        1900.057          44.000    29244702.876   117756506.092        1455.845          47.000  
E25  27348456.006   143717354.949         606.923          45.000    27348459.572   110121230.652         465.006          48.000  
E12  28796561.091   151327238.991        1520.956          40.000    28796563.537   115952237.705        1165.454          43.000  
E14  20437644.063   107400657.336        -753.114          50.000    20437646.046    82294057.012        -577.080          53.000  
> 2024 04 15 00 02 30.0060000  0 28                     
S33  41453118.529   217837684.668        -774.498          42.000  
E33  29000165.795   152396906.712        -398.373          35.000    29000166.520   116771702.410        -305.040          41.000  
G13  25390937.283   133429899.642       -4528.312          43.000                                                                  
G15  23997519.294   126107763.493       -3582.572          45.000    23997522.753    98265805.756       -2791.735          44.000  
R14  22869410.918   121906896.210       -2173.299          51.000    22869408.635    94816558.404       -1690.263          49.000  
R17  22815006.843   122088170.035        2452.206          51.000    22815004.706    94957684.382        1907.277          49.000  
R06  25280548.055                1       1652.587          25.000                                                                  
R05  22674698.330   121209282.408       -2283.893          51.000    22674697.278    94273897.359       -1776.404          48.000  
R16  25196210.743                3       1557.406          14.000    25196948.773                3       1540.533          12.000  
R04  24106467.210   129088819.397       -4821.917          45.000    24106475.033   100402380.454       -3750.400          44.000  
G19  24395967.525   128201856.183       -3622.082          44.000                                                                  
G06  25322021.040   133068298.368         720.207          43.000    25322021.296   103689630.620         561.117          41.000  
S31  40500744.205   212832911.446        -774.042          45.000  
E03  28363060.586   149048927.382        1190.256          32.000    28363062.093   114206266.734         912.264          41.000  
R15  22204027.550   118651806.545          67.235          52.000    22204023.903    92284908.784          52.368          49.000  
R24  22848027.318   122178989.596       -1300.122          51.000    22848022.244    95028123.461       -1011.206          46.000  
E31  27643007.698   145265004.823       -2566.691          42.000    27643006.662   111306988.827       -1966.547          45.000  
E09  27336577.875   143654633.044       -3560.233          45.000    27336585.130   110073032.368       -2727.936          50.000  
G11  25951404.434   136375854.299        1827.633          45.000    25951410.753   106267049.524        1424.052          45.000  
E24  25629573.732   134684435.873       -1134.206          48.000    25629573.615   103199820.713        -869.097          52.000  
G24  22267744.432   117017893.274         -18.880          49.000    22267743.235    91182844.559         -14.717          47.000  
G12  23050345.813   121130676.808        -121.017          46.000    23050344.035    94387662.766         -94.328          47.000  
E05  24355002.854   127986472.617       -1275.418          47.000    24355005.997    98067597.450        -977.158          52.000  
G25  24608246.767   129317384.792        1043.572          45.000    24608248.471   100766850.846         813.211          43.000  
E10  29233832.085   153624995.394        1900.064          45.000    29233852.475   117712826.495        1455.875          46.000  
E25  27345002.410   143699209.653         602.570          45.000    27345006.789   110107327.234         461.622          49.000  
E12  28787894.298   151281688.960        1515.544          41.000    28787896.184   115917336.028        1161.108          44.000  
E14  20442052.358   107423824.319        -791.614          50.000    20442054.480    82311808.435        -606.500          53.000  
> 2024 04 15 00 03 00.0060000  0 27                     
S33  41457539.401   217860915.905        -774.866          42.000  
E33  29002476.285   152409047.512        -411.378          37.000    29002478.481   116781005.179        -315.222          43.000  
G13  25416797.415   133565789.775       -4531.852          43.000                                                                  
G15  24017996.298   126215368.255       -3591.403          46.000    24017999.555    98349653.184       -2798.380          43.000  
R14  22881652.546   121972154.606       -2177.549          50.000    22881651.653    94867314.922       -1693.667          50.000  
R17  22801303.665   122014844.085        2435.916          51.000    22801302.428    94900653.317        1894.647          50.000  
R05  22687582.265   121278155.651       -2307.892          50.000    22687582.094    94327465.338       -1794.971          48.000  
R04  24133497.393   129233560.455       -4827.780          45.000    24133506.256   100514954.894       -3754.563          43.000  
G19  24416676.001   128310680.091       -3633.227          43.000                                                                  
G06  25317946.972   133046889.732         706.665          42.000    25317946.775   103672948.667         550.444          41.000  
S31  40505162.051   212856126.930        -774.103          45.000  
E03  28356293.150   149013364.009        1180.928          33.000    28356294.488   114179016.930         904.364          42.000  
R15  22203660.074   118649849.111          62.939          51.000    22203658.159    92283386.341          48.949          49.000  
R24  22855394.642   122218393.162       -1326.919          50.000    22855390.110    95058770.691       -1032.088          47.000  
E31  27657656.737   145341996.887       -2566.704          41.000    27657659.316   111365982.728       -1966.454          46.000  
E09  27356918.306   143761524.267       -3566.138          45.000    27356926.255   110154935.692       -2732.457          50.000  
G11  25940979.449   136321075.806        1824.004          46.000    25940984.862   106224365.988        1421.254          45.000  
E24  25636058.752   134718513.449       -1137.750          48.000    25636058.337   103225932.113        -871.780          52.000  
G24  22267886.979   117018639.828         -31.239          49.000    22267885.808    91183426.286         -24.453          47.000  
G12  23051058.406   121134419.244        -128.611          47.000    23051055.768    94390578.991        -100.165          46.000  
E05  24362323.781   128024941.906       -1289.502          48.000    24362326.411    98097073.913        -988.114          51.000  
G25  24602302.791   129286145.588        1038.929          46.000    24602303.905   100742508.763         809.446          43.000  
E10  29222980.874   153567983.474        1900.523          43.000    29223001.252   117669143.994        1456.233          46.000  
E25  27341573.531   143681189.429         598.537          44.000    27341578.177   110093519.646         458.564          50.000  
E12  28779255.822   151236299.434        1510.330          41.000    28779258.614   115882557.303        1157.147          44.000  
E14  20446678.705   107448135.137        -829.400          51.000    20446680.330    82330436.298        -635.536          53.000  
R16                                                                  25186813.489                3       1556.594          11.000  
> 2024 04 15 00 03 30.0060000  0 26                     
S33  41461960.210   217884147.584        -774.445          42.000  
E33  29004864.865   152421591.123        -424.817          38.000    29004864.595   116790616.516        -325.590          42.000  
G13  25442676.617   133701777.046       -4534.528          44.000                                                                  
G15  24038522.598   126323230.283       -3599.613          47.000    24038525.689    98433701.113       -2804.836          44.000  
R14  22893918.532   122037534.133       -2181.386          50.000    22893917.179    94918165.669       -1696.626          50.000  
R17  22787692.149   121942003.452        2419.846          52.000    22787689.372    94843999.676        1882.121          50.000  
R05  22700600.040   121347740.755       -2331.281          52.000    22700599.129    94381587.001       -1813.300          48.000  
R04  24160556.656   129378459.079       -4832.661          44.000    24160565.487   100627651.941       -3758.518          42.000  
G19  24437447.985   128419833.486       -3644.016          42.000                                                                  
G06  25313948.884   133025884.951         693.137          42.000    25313949.311   103656581.418         540.363          41.000  
S31  40509579.679   212879342.615        -773.912          45.000  
E03  28349583.414   148978098.900        1170.398          33.000    28349583.641   114151995.572         897.001          42.000  
R15  22203316.347   118648015.522          59.033          51.000    22203314.756    92281960.251          46.015          49.000  
R24  22862912.131   122258593.773       -1353.363          50.000    22862907.732    95090037.894       -1052.610          46.000  
E31  27672305.805   145418977.009       -2565.745          41.000    27672307.724   111424967.453       -1966.038          46.000  
E09  27377291.826   143868583.744       -3571.568          45.000    27377299.560   110236967.893       -2736.500          50.000  
G11  25930574.096   136266400.764        1820.723          46.000    25930580.202   106181763.036        1418.735          44.000  
E24  25642561.953   134752690.446       -1140.941          48.000    25642561.733   103252119.696        -874.196          52.000  
G24  22268098.518   117019751.124         -43.221          50.000    22268096.890    91184292.220         -33.662          47.000  
G12  23051812.142   121138379.289        -135.625          47.000    23051808.195    94393664.788        -105.632          45.000  
E05  24369724.386   128063829.891       -1303.173          48.000    24369726.506    98126871.168        -998.567          52.000  
G25  24596383.588   129255040.936        1034.537          47.000    24596385.107   100718271.518         806.125          44.000  
E10  29212127.952   153510957.389        1900.945          44.000    29212147.741   117625450.606        1456.578          46.000  
E25  27338166.358   143663281.253         594.885          45.000    27338170.415   110079797.906         455.947          50.000  
E12  28770646.747   151191060.005        1505.375          41.000    28770648.908   115847893.583        1153.473          43.000  
E14  20451520.730   107473575.620        -866.807          51.000    20451521.398    82349929.758        -664.215          53.000  
> 2024 04 15 00 04 00.0060000  0 28                     
S33  41466379.231   217907369.008        -773.779          42.000  
E33  29007325.872   152434528.522        -437.317          36.000    29007326.754   116800529.645        -335.471          42.000  
G13  25468571.613   133837848.942       -4536.902          44.000                                                                  
G15  24059094.686   126431337.115       -3607.485          46.000    24059098.296    98517939.737       -2811.061          44.000  
R14  22906203.931   122103025.366       -2184.925          49.000    22906202.731    94969103.261       -1699.386          49.000  
R17  22774169.475   121869642.721        2404.102          52.000    22774167.313    94787719.318        1869.788          50.000  
R06  25253163.908                1       1593.721          26.000                                                                  
R05  22713748.910   121418025.303       -2354.303          51.000    22713747.589    94436252.736       -1831.146          48.000  
R16  25171719.978                3       1555.000          11.000                                                                  
R04  24187643.628   129523500.678       -4836.864          45.000    24187651.615   100740460.101       -3762.116          42.000  
G19  24458279.433   128529304.037       -3654.190          43.000                                                                  
G06  25310028.378   133005277.023         680.488          44.000    25310026.943   103640523.376         530.231          40.000  
S31  40513995.265   212902548.800        -773.195          43.000  
E03  28342925.219   148943123.796        1161.322          33.000    28342928.817   114125196.526         889.520          42.000  
R15  22202995.057   118646296.673          55.535          52.000    22202992.299    92280623.418          43.158          48.000  
R24  22870577.322   122299581.009       -1379.216          50.000    22870571.297    95121916.924       -1072.903          45.000  
E31  27686949.225   145495935.389       -2564.897          39.000    27686951.807   111483935.580       -1965.330          45.000  
E09  27397694.236   143975800.052       -3576.423          45.000    27397702.207   110319120.289       -2740.341          49.000  
G11  25920187.290   136211822.724        1817.722          45.000    25920193.364   106139235.624        1416.082          45.000  
E24  25649083.005   134786956.653       -1143.589          49.000    25649082.367   103278375.640        -876.283          52.000  
G24  22268377.997   117021219.270         -54.767          50.000    22268376.465    91185436.227         -42.583          47.000  
G12  23052604.835   121142546.643        -142.321          48.000    23052600.974    94396912.110        -110.908          45.000  
E05  24377202.489   128103126.635       -1316.644          48.000    24377204.491    98156981.622       -1008.916          51.000  
G25  24590487.965   129224060.932        1030.749          46.000    24590489.384   100694131.404         803.162          44.000  
E10  29201271.530   153453909.729        1901.996          43.000    29201289.814   117581740.594        1457.416          45.000  
E25  27334777.200   143645475.092         591.912          44.000    27334781.764   110066154.355         453.570          50.000  
E12  28762064.417   151145963.269        1500.983          39.000    28762067.354   115813339.210        1150.080          43.000  
E14  20456574.367   107500134.422        -903.920          50.000    20456575.421    82370280.097        -692.587          53.000  
> 2024 04 15 00 04 30.0060000  0 28                     
S33  41470793.790   217930567.955        -772.856          42.000  
E33  29009862.703   152447847.044        -450.351          38.000    29009861.380   116810734.830        -345.227          42.000  
G13  25494478.669   133973989.553       -4539.246          43.000                                                                  
G15  24079710.720   126539672.178       -3615.089          46.000    24079713.919    98602356.237       -2817.048          44.000  
R14  22918507.071   122168614.937       -2188.290          48.000    22918507.638    95020117.384       -1701.934          50.000  
R17  22760735.107   121797752.757        2388.263          52.000    22760733.112    94731805.087        1857.520          50.000  
R06  25244240.521                3       1574.659          24.000                                                                  
R05  22727025.507   121488992.935       -2377.148          52.000    22727023.870    94491449.711       -1848.963          48.000  
R16  25161686.325                3       1549.441          12.000                                                                  
R04  24214753.929   129668666.975       -4841.105          45.000    24214763.332   100853365.221       -3765.172          41.000  
G19  24479168.587   128639075.748       -3664.282          44.000                                                                  
G06  25306179.363   132985054.924         667.473          42.000    25306179.558   103624765.946         520.202          40.000  
S31  40518407.082   212925731.538        -772.477          44.000  
E03  28336320.810   148908426.926        1151.603          34.000    28336326.006   114098610.638         882.519          42.000  
R15  22202692.772   118644678.742          52.093          52.000    22202689.587    92279365.060          40.379          49.000  
R24  22878386.499   122341340.976       -1405.034          51.000    22878381.924    95154396.904       -1092.836          47.000  
E31  27701587.918   145572858.343       -2563.876          40.000    27701590.713   111542876.513       -1964.344          46.000  
E09  27418124.316   144083157.919       -3581.147          45.000    27418131.766   110401381.169       -2743.935          49.000  
G11  25909818.042   136157331.395        1814.573          47.000    25909823.355   106096775.713        1414.036          45.000  
E24  25655617.807   134821297.932       -1146.134          48.000    25655616.840   103304689.088        -878.199          51.000  
G24  22268723.015   117023032.556         -66.415          50.000    22268721.065    91186849.183         -51.735          47.000  
G12  23053434.936   121146907.348        -148.759          48.000    23053431.243    94400310.110        -116.012          45.000  
E05  24384755.723   128142818.265       -1329.749          48.000    24384757.444    98187394.653       -1018.879          52.000  
G25  24584613.385   129193191.673        1026.965          46.000    24584614.601   100670077.576         800.329          43.000  
E10  29190407.183   153396829.043        1903.225          42.000    29190425.798   117538005.290        1458.176          45.000  
E25  27331405.368   143627757.033         589.039          44.000    27331410.018   110052578.322         451.224          50.000  
E12  28753508.238   151100998.009        1496.561          39.000    28753510.935   115778885.547        1146.716          44.000  
E14  20461837.785   107527796.185        -940.483          50.000    20461839.125    82391475.588        -720.723          53.000  
> 2024 04 15 00 05 00.0060000  0 28                     
S33  41475204.341   217953745.849        -772.712          42.000  
E33  29012467.238   152461549.703        -463.567          35.000    29012468.147   116821234.292        -355.303          42.000  
G13  25520398.731   134110198.443       -4541.846          43.000                                                                  
G15  24100369.622   126648235.364       -3622.925          47.000    24100373.184    98686950.452       -2822.955          44.000  
R14  22930829.392   122234305.794       -2191.704          48.000    22930830.600    95071210.243       -1704.762          49.000  
R17  22747389.669   121726340.497        2372.058          52.000    22747387.785    94676262.408        1844.904          50.000  
R06  25235459.198                3       1551.196          23.000                                                                  
R05  22740429.671   121560642.852       -2400.018          52.000    22740428.130    94547177.348       -1866.699          49.000  
R16  25155685.869                3       1553.289          13.000                                                                  
R04  24241885.941   129813956.053       -4845.349          46.000    24241896.868   100966365.731       -3768.622          42.000  
G19  24500115.175   128749148.091       -3674.409          44.000                                                                  
G06  25302405.643   132965223.573         654.326          42.000    25302406.033   103609312.989         509.912          41.000  
S31  40522814.662   212948893.527        -772.348          43.000  
E03  28329775.746   148874011.966        1142.154          35.000    28329776.684   114072240.777         875.538          42.000  
R15  22202409.659   118643164.264          48.320          51.000    22202406.294    92278187.153          37.602          49.000  
R24  22886340.102   122383875.409       -1431.016          50.000    22886335.513    95187479.288       -1112.963          45.000  
E31  27716218.556   145649747.901       -2562.660          38.000    27716221.742   111601791.865       -1963.596          45.000  
E09  27438580.839   144190657.917       -3585.911          45.000    27438589.288   110483750.922       -2747.660          49.000  
G11  25899465.900   136102932.149        1811.338          47.000    25899469.340   106054387.559        1411.334          44.000  
E24  25662167.174   134855715.897       -1148.843          48.000    25662166.234   103331061.307        -880.245          51.000  
G24  22269134.757   117025195.010         -78.238          50.000    22269132.802    91188534.206         -60.940          47.000  
G12  23054301.443   121151462.518        -155.451          48.000    23054297.937    94403859.626        -121.203          45.000  
E05  24392384.798   128182906.770       -1343.287          48.000    24392386.070    98218111.779       -1029.241          52.000  
G25  24578759.913   129162435.123        1023.116          46.000    24578761.267   100646111.603         797.048          43.000  
E10  29179537.385   153339719.815        1903.712          41.000    29179556.948   117494248.071        1458.635          45.000  
E25  27328051.406   143610128.944         585.875          45.000    27328055.213   110039071.193         448.778          50.000  
E12  28744978.810   151056168.617        1491.588          41.000    28744980.355   115744535.981        1143.030          45.000  
E14  20467311.889   107556561.318        -977.607          50.000    20467312.638    82413516.502        -749.107          53.000  
> 2024 04 15 00 05 30.0060000  0 28                     
S33  41479611.957   217976908.036        -771.791          42.000  
E33  29015150.786   152475642.062        -476.245          37.000    29015149.615   116832032.295        -364.884          42.000  
G13  25546331.650   134246477.750       -4543.756          43.000                                                                  
G15  24121072.855   126757028.768       -3630.275          48.000    24121076.666    98771724.084       -2828.666          44.000  
R14  22943175.545   122300103.445       -2195.057          49.000    22943173.806    95122386.215       -1707.252          50.000  
R17  22734135.148   121655415.131        2355.994          52.000    22734133.482    94621098.425        1832.446          50.000  
R06  25226754.641                3       1536.547          26.000                                                                  
R05  22753960.419   121632976.749       -2422.552          51.000    22753958.811    94603436.944       -1884.161          48.000  
R16  25145744.814                3       1555.703          14.000                                                                  
R04  24269043.129   129959368.083       -4849.081          46.000    24269053.319   101079461.911       -3771.434          44.000  
G19  24521118.511   128859523.283       -3684.077          40.000                                                                  
G06  25298708.193   132945790.230         641.081          43.000    25298707.384   103594170.199         499.793          39.000  
S31  40527219.511   212972040.585        -771.304          44.000  
E03  28323282.545   148839885.428        1132.340          36.000    28323282.417   114046091.905         868.043          42.000  
R15  22202145.701   118641758.293          45.049          52.000    22202143.313    92277093.668          35.107          49.000  
R24  22894439.343   122427188.738       -1456.688          50.000    22894436.724    95221167.476       -1132.993          47.000  
E31  27730846.281   145726608.721       -2561.598          39.000    27730847.688   111660685.225       -1962.664          44.000  
E09  27459065.389   144298303.060       -3590.464          45.000    27459074.162   110566231.874       -2751.129          50.000  
G11  25889132.356   136048632.973        1808.395          46.000    25889135.584   106012077.361        1408.922          44.000  
E24  25668731.506   134890214.763       -1151.207          47.000    25668731.557   103357495.518        -882.098          51.000  
G24  22269614.190   117027713.196         -90.005          49.000    22269612.230    91190496.422         -69.927          48.000  
G12  23055205.844   121156215.892        -161.587          48.000    23055202.234    94407563.627        -126.203          45.000  
E05  24400089.031   128223396.536       -1356.276          48.000    24400091.148    98249136.386       -1039.207          52.000  
G25  24572930.239   129131795.765        1019.391          46.000    24572930.529   100622236.872         794.346          42.000  
E10  29168664.296   153282589.015        1904.837          41.000    29168683.457   117450474.276        1459.468          45.000  
E25  27324713.725   143592595.175         583.072          43.000    27324718.043   110025636.327         446.681          49.000  
E12  28736474.496   151011482.209        1487.234          40.000    28736476.442   115710296.007        1139.613          44.000  
E14  20472996.368   107586432.684       -1014.064          50.000    20472997.151    82436405.063        -777.042          53.000  
> 2024 04 15 00 06 00.0060000  0 28                     
S33  41484017.107   218000058.891        -771.944          42.000  
E33  29017904.456   152490129.461        -489.937          33.000    29017906.185   116843133.098        -375.251          42.000  
G13  25572279.279   134382829.574       -4546.252          44.000                                                                  
G15  24141819.911   126866054.003       -3638.035          47.000    24141823.952    98856678.294       -2834.745          44.000  
R14  22955539.567   122366013.058       -2199.064          50.000    22955539.147    95173649.183       -1710.207          51.000  
R17  22720973.895   121584986.440        2339.270          52.000    22720972.125    94566320.701        1819.489          50.000  
R06  25218172.852                3       1515.626          25.000                                                                  
R05  22767619.695   121705996.676       -2445.484          51.000    22767618.620    94660230.150       -1902.081          49.000  
R16  25138260.745                3       1539.430          15.000    25138307.616                3       1542.515          12.000  
R04  24296222.205   130104903.579       -4853.243          46.000    24296233.235   101192653.988       -3774.745          44.000  
G19  24542180.325   128970203.418       -3694.515          40.000                                                                  
G06  25295087.303   132926762.156         627.318          42.000    25295086.577   103579343.221         488.688          39.000  
S31  40531621.714   212995175.399        -771.154          44.000  
E03  28316842.285   148806053.382        1122.495          32.000    28316844.215   114020168.745         860.339          42.000  
R15  22201903.297   118640466.193          41.076          51.000    22201901.539    92276088.704          31.926          49.000  
R24  22902687.486   122471285.334       -1483.014          51.000    22902682.477    95255464.836       -1153.370          46.000  
E31  27745467.680   145803445.287       -2560.938          38.000    27745470.347   111719559.971       -1962.208          45.000  
E09  27479578.259   144406096.319       -3595.601          46.000    27479587.014   110648826.313       -2755.052          50.000  
G11  25878818.506   135994441.790        1804.483          45.000    25878822.933   105969851.293        1405.934          44.000  
E24  25675312.424   134924798.685       -1154.243          47.000    25675312.775   103383994.892        -884.515          51.000  
G24  22270162.061   117030593.564        -102.242          50.000    22270160.349    91192740.882         -79.535          48.000  
G12  23056149.598   121161172.049        -168.554          49.000    23056145.469    94411425.585        -131.429          45.000  
E05  24407871.130   128264292.043       -1370.121          48.000    24407873.582    98280471.862       -1049.803          52.000  
G25  24567123.030   129101277.922        1015.138          46.000    24567123.007   100598456.849         790.912          42.000  
E10  29157788.832   153225443.549        1905.002          42.000    29157807.410   117406689.188        1459.603          45.000  
E25  27321395.439   143575160.038         579.491          43.000    27321400.183   110012277.037         443.947          49.000  
E12  28727998.708   150966945.804        1481.674          39.000    28728000.648   115676170.930        1135.372          43.000  
E14  20478891.130   107617412.979       -1051.257          50.000    20478892.494    82460143.321        -805.463          53.000  
> 2024 04 15 00 06 30.0060000  0 27                     
S33  41488421.511   218023202.822        -771.986          42.000  
E33  29020739.329   152505017.165        -503.462          34.000    29020739.363   116854540.556        -385.579          42.000  
G13  25598240.125   134519255.790       -4549.078          44.000                                                                  
G15  24162612.272   126975312.988       -3646.295          48.000    24162616.371    98941814.650       -2841.334          45.000  
R14  22967926.353   122432039.752       -2203.189          50.000    22967926.333    95225003.259       -1713.653          51.000  
R17  22707908.457   121515063.397        2321.918          53.000    22707905.853    94511936.301        1805.841          51.000  
R06  25209707.400                        1495.223          28.000                                                                  
R05  22781408.361   121779704.088       -2468.695          50.000    22781406.835    94717558.058       -1920.154          48.000  
R04  24323425.924   130250562.777       -4857.720          48.000    24323438.752   101305942.392       -3778.402          45.000  
G19  24563300.063   129081190.340       -3705.225          41.000                                                                  
G06  25291543.896   132908146.433         613.229          41.000    25291545.003   103564837.569         477.935          41.000  
S31  40536023.223   213018304.672        -771.420          44.000  
E03  28310462.004   148772522.207        1111.851          33.000    28310463.839   113994476.029         852.189          42.000  
R15  22201684.134   118639292.891          36.839          51.000    22201682.259    92275176.165          28.618          49.000  
R24  22911081.639   122516169.316       -1509.736          51.000    22911076.127    95290374.612       -1174.066          47.000  
E31  27760085.262   145880262.003       -2560.814          38.000    27760086.540   111778419.515       -1961.907          43.000  
E09  27500119.986   144514040.489       -3600.997          46.000    27500128.330   110731536.384       -2759.152          50.000  
G11  25868527.386   135940366.405        1800.137          45.000    25868532.343   105927715.389        1402.675          45.000  
E24  25681910.803   134959471.600       -1157.616          47.000    25681910.955   103410562.456        -886.954          51.000  
G24  22270780.335   117033842.494        -114.939          49.000    22270778.776    91195272.538         -89.603          48.000  
G12  23057132.499   121166334.706        -175.823          49.000    23057127.859    94415448.464        -136.994          45.000  
E05  24415730.431   128305597.392       -1384.028          48.000    24415733.864    98312121.402       -1060.449          52.000  
G25  24561338.991   129070885.878        1010.467          46.000    24561339.817   100574774.868         787.692          42.000  
E10  29146912.606   153168290.171        1904.679          43.000    29146929.979   117362898.001        1459.586          44.000  
E25  27318097.295   143557827.646         576.010          43.000    27318101.753   109998996.494         441.182          49.000  
E12  28719553.876   150922566.011        1476.269          39.000    28719555.300   115642165.884        1131.321          43.000  
E14  20484997.918   107649504.671       -1088.589          50.000    20484998.935    82484733.165        -834.116          53.000  
> 2024 04 15 00 07 00.0060000  0 27                     
S33  41492825.198   218046343.752        -771.483          42.000  
E33  29023649.560   152520308.638        -516.780          35.000    29023649.626   116866257.351        -395.805          42.000  
G13  25624214.804   134655756.155       -4551.190          43.000                                                                  
G15  24183448.442   127084805.585       -3653.650          48.000    24183452.727    99027133.015       -2846.938          45.000  
R14  22980335.825   122498187.068       -2207.023          49.000    22980333.772    95276451.162       -1716.379          50.000  
R17  22694936.954   121445652.988        2304.993          53.000    22694934.866    94457950.618        1792.804          51.000  
R06  25201363.565                3       1471.898          17.000                                                                  
R05  22795325.763   121854098.827       -2491.240          50.000    22795324.154    94775420.544       -1937.671          48.000  
R04  24350649.610   130396343.986       -4861.457          46.000    24350663.537   101419325.588       -3781.207          46.000  
G19  24584478.888   129192483.788       -3714.846          43.000                                                                  
G06  25288081.225   132889948.308         599.639          41.000    25288081.037   103550657.263         467.259          40.000  
S31  40540423.689   213041429.658        -770.576          44.000  
E03  28304138.451   148739295.779        1102.407          32.000    28304140.995   113969016.901         844.677          42.000  
R15  22201487.377   118638241.314          33.093          51.000    22201485.571    92274358.288          25.732          49.000  
R24  22919621.593   122561842.815       -1535.656          51.000    22919617.587    95325898.451       -1194.320          47.000  
E31  27774697.885   145957061.346       -2559.745          37.000    27774701.452   111837265.772       -1961.453          43.000  
E09  27520690.409   144622136.440       -3605.797          47.000    27520698.608   110814362.739       -2762.759          50.000  
G11  25858259.161   135886412.537        1796.389          43.000    25858264.189   105885674.195        1399.773          44.000  
E24  25688526.952   134994235.539       -1160.359          48.000    25688526.340   103437199.767        -889.037          52.000  
G24  22271470.064   117037464.317        -127.010          49.000    22271467.947    91198094.733         -99.013          48.000  
G12  23058154.413   121171706.055        -182.567          49.000    23058149.560    94419633.961        -142.404          45.000  
E05  24423668.743   128347314.903       -1397.413          47.000    24423672.784    98344086.730       -1070.795          52.000  
G25  24555580.505   129040621.913        1006.673          46.000    24555580.665   100551192.689         784.528          42.000  
E10  29136035.515   153111133.707        1905.379          44.000    29136052.366   117319104.414        1459.833          45.000  
E25  27314818.583   143540600.293         572.440          43.000    27314823.625   109985796.408         438.670          50.000  
E12  28711136.751   150878347.756        1471.347          37.000    28711140.371   115608284.619        1127.415          43.000  
E14  20491315.768   107682708.207       -1125.277          50.000    20491316.965    82510174.910        -862.197          52.000  
> 2024 04 15 00 07 30.0060000  0 27                     
S33  41497225.290   218069467.652        -770.526          42.000  
E33  29026631.102   152535991.246        -529.543          34.000    29026633.344   116878273.953        -405.749          41.000  
G13  25650201.155   134792315.022       -4552.862          43.000                                                                  
G15  24204325.272   127194515.758       -3660.645          47.000    24204330.055    99112620.936       -2852.306          45.000  
R14  22992762.683   122564441.966       -2210.285          48.000    22992763.577    95327982.723       -1719.063          51.000  
R17  22682059.271   121376746.605        2288.440          52.000    22682056.669    94404356.933        1779.962          50.000  
R06  25193120.533                        1455.431          27.000                                                                  
R05  22809367.975   121929164.414       -2513.368          52.000    22809366.362    94833804.788       -1954.894          48.000  
R04  24377894.782   130542229.121       -4864.484          47.000    24377909.806   101532789.678       -3783.549          47.000  
G19  24605712.399   129304068.226       -3724.335          42.000                                                                  
G06  25284695.147   132872157.074         586.440          41.000    25284695.808   103536794.065         456.811          41.000  
S31  40544820.993   213064537.468        -769.999          43.000  
E03  28297869.600   148706362.791        1092.963          32.000    28297873.879   113943782.518         837.355          42.000  
R15  22201311.120   118637298.335          29.546          51.000    22201308.703    92273624.897          23.053          49.000  
R24  22928307.976   122608291.872       -1561.313          51.000    22928302.538    95362025.497       -1214.339          45.000  
E31  27789306.781   146033830.030       -2558.585          38.000    27789309.535   111896088.528       -1960.421          42.000  
E09  27541286.208   144730369.318       -3610.142          46.000    27541295.057   110897294.011       -2766.130          49.000  
G11  25848013.701   135832570.375        1792.728          44.000    25848018.073   105843720.001        1396.863          45.000  
E24  25695157.312   135029076.829       -1162.727          48.000    25695156.372   103463896.349        -890.889          52.000  
G24  22272227.888   117041447.694        -138.954          49.000    22272225.769    91201198.656        -108.167          48.000  
G12  23059213.384   121177271.845        -188.867          49.000    23059208.638    94423970.959        -147.209          44.000  
E05  24431683.687   128389431.091       -1410.641          47.000    24431687.221    98376357.526       -1080.847          52.000  
G25  24549843.210   129010472.589        1003.114          47.000    24549842.849   100527699.821         781.569          43.000  
E10  29125154.675   153053963.242        1905.714          44.000    29125171.552   117275300.069        1460.343          45.000  
E25  27311558.716   143523464.356         569.621          44.000    27311562.501   109972666.393         436.448          50.000  
E12  28702751.691   150834280.257        1466.386          38.000    28702754.494   115574518.810        1123.528          43.000  
E14  20497843.401   107717008.262       -1161.666          50.000    20497844.284    82536456.845        -890.115          53.000  
> 2024 04 15 00 08 00.0060000  0 27                     
S33  41501621.662   218092571.358        -769.586          42.000  
E33  29029684.345                        -542.315          31.000    29029692.358   116890587.943        -415.227          41.000  
G13  25676197.775   134928926.171       -4554.571          43.000                                                                  
G15  24225243.287   127304436.978       -3667.374          47.000    24225248.220    99198273.289       -2857.970          45.000  
R14  23005213.231   122630801.437       -2213.838          49.000    23005212.353    95379595.648       -1721.791          51.000  
R17  22669276.848   121308344.932        2271.594          53.000    22669274.202    94351155.838        1766.803          50.000  
R06  25184994.571                3       1434.362          22.000                                                                  
R05  22823534.866   122004893.970       -2535.387          50.000    22823533.201    94892705.455       -1971.936          48.000  
R04  24405157.045   130688210.140       -4867.326          47.000    24405173.246   101646328.367       -3785.629          47.000  
G19  24627000.702   129415936.856       -3733.429          42.000                                                                  
G06  25281388.017   132854771.461         572.698          43.000    25281388.401   103523246.917         446.375          42.000  
S31  40549214.046   213087625.100        -769.338          43.000  
E03  28291660.410   148673720.818        1083.644          33.000    28291661.879   113918771.194         830.062          41.000  
R15  22201154.359   118636460.614          26.232          51.000    22201151.495    92272973.362          20.317          48.000  
R24  22937137.767   122655511.873       -1586.747          50.000    22937132.827    95398752.205       -1234.141          45.000  
E31  27803910.849   146110564.226       -2557.312          38.000    27803911.207   111954884.829       -1959.536          41.000  
E09  27561907.556   144838733.603       -3614.235          46.000    27561916.235   110980325.971       -2769.439          49.000  
G11  25837788.429   135778839.302        1788.958          43.000    25837792.621   105801852.315        1394.242          43.000  
E24  25701800.957   135063991.110       -1164.950          48.000    25701800.208   103490648.858        -892.574          51.000  
G24  22273053.882   117045790.565        -150.696          49.000    22273051.760    91204582.724        -117.481          47.000  
G12  23060308.516   121183027.927        -195.067          49.000    23060304.440    94428456.290        -152.012          45.000  
E05  24439773.513   128431941.783       -1423.534          47.000    24439776.774    98408930.609       -1090.708          52.000  
G25  24544126.607   128980433.782         999.589          46.000    24544126.950   100504293.086         779.016          43.000  
E10  29114270.629   152996777.201        1906.556          43.000    29114287.767   117231483.770        1460.702          45.000  
E25  27308314.034   143506415.729         566.821          44.000    27308318.267   109959603.245         434.358          50.000  
E12  28694394.315   150790361.869        1461.519          40.000    28694398.003   115540867.303        1119.817          45.000  
E14  20504577.126   107752398.665       -1197.694          50.000    20504578.773    82563574.288        -917.702          53.000  
> 2024 04 15 00 08 30.0060000  0 27                     
S33  41506013.625   218115653.319        -769.167          42.000  
E33  29032823.830   152568521.085        -555.315          33.000    29032824.900   116903199.412        -425.475          42.000  
G13  25702202.128   135065586.079       -4556.360          42.000                                                                  
G15  24246200.282   127414565.920       -3674.592          46.000    24246205.488    99284087.462       -2863.211          45.000  
R14  23017682.057   122697265.478       -2217.274          49.000    23017681.143    95431289.868       -1724.694          51.000  
R17  22656588.788   121240451.823        2254.352          52.000    22656586.209    94298350.231        1753.412          50.000  
R06  25176979.986                2       1415.995          26.000                                                                  
R05  22837825.730   122081283.862       -2557.464          51.000    22837824.443    94952119.754       -1989.055          49.000  
R04  24432435.825   130834282.068       -4870.642          46.000    24432453.029   101759937.821       -3788.279          46.000  
G19  24648343.018   129528086.752       -3743.023          43.000                                                                  
G06  25278156.794   132837793.351         558.879          42.000    25278156.177   103510017.339         435.725          41.000  
S31  40553603.726   213110692.312        -769.150          45.000  
E03  28285504.007   148641370.909        1073.725          34.000    28285506.167   113893983.649         822.369          41.000  
R15  22201017.106   118635727.882          22.490          51.000    22201014.354    92272403.507          17.498          49.000  
R24  22946111.695   122703501.618       -1612.639          50.000    22946106.801    95436077.570       -1254.102          45.000  
E31  27818505.029   146187263.113       -2556.280          38.000    27818507.006   112013654.156       -1958.739          41.000  
E09  27582554.516   144947226.988       -3618.778          46.000    27582562.035   111063456.822       -2772.748          48.000  
G11  25827585.704   135725221.978        1785.039          45.000    25827586.609   105760073.225        1391.028          42.000  
E24  25708458.156   135098977.240       -1167.639          48.000    25708457.799   103517456.448        -894.562          51.000  
G24  22273948.969   117050494.138        -162.928          49.000    22273947.138    91208247.829        -126.923          47.000  
G12  23061439.191   121188972.809        -201.410          49.000    23061436.296    94433088.699        -156.919          46.000  
E05  24447938.638   128474845.959       -1436.843          48.000    24447941.047    98441805.204       -1100.955          52.000  
G25  24538430.602   128950504.697         995.762          46.000    24538431.966   100480971.826         776.058          44.000  
E10  29103385.873   152939577.255        1906.668          44.000    29103401.366   117187656.733        1460.927          45.000  
E25  27305085.646   143489453.412         563.738          43.000    27305090.412   109946606.252         432.080          51.000  
E12  28686066.509   150746594.312        1455.995          40.000    28686068.675   115507331.356        1115.812          44.000  
E14  20511519.110   107788876.565       -1234.149          50.000    20511520.693    82591524.985        -945.666          54.000  
> 2024 04 15 00 09 00.0060000  0 27                     
S33  41510403.436   218138717.397        -768.858          43.000  
E33  29036030.163   152585372.853        -568.058          34.000    29036030.983   116916111.840        -435.456          41.000  
G13  25728217.021   135202296.202       -4557.929          42.000                                                                  
G15  24267198.339   127524903.749       -3681.643          47.000    24267202.212    99370064.371       -2868.950          45.000  
R14  23030170.532   122763838.450       -2221.068          50.000    23030169.776    95483068.807       -1727.442          50.000  
R17  22643997.876   121173075.723        2237.054          52.000    22643995.538    94245946.768        1739.905          50.000  
R06  25169082.057                3       1394.770          25.000                                                                  
R05  22852239.473   122158334.745       -2579.546          50.000    22852237.699    95012048.133       -2006.138          47.000  
R04  24459733.970   130980444.585       -4873.781          49.000    24459748.943   101873617.832       -3790.581          45.000  
G19  24669738.352   129640519.194       -3752.662          43.000                                                                  
G06  25275004.699   132821229.093         544.918          42.000    25275004.159   103497110.203         424.681          41.000  
S31  40557989.630   213133742.000        -768.145          44.000  
E03  28279404.168   148609318.510        1062.989          35.000    28279406.976   113869424.018         814.652          42.000  
R15  22200900.648   118635104.482          18.797          50.000    22200897.881    92271918.676          14.555          49.000  
R24  22955231.161   122752264.421       -1638.478          49.000    22955226.086    95474004.235       -1274.429          45.000  
E31  27833094.833   146263930.469       -2555.454          36.000    27833097.075   112072399.241       -1957.851          42.000  
E09  27603225.075   145055851.537       -3623.101          46.000    27603233.468   111146688.172       -2776.164          49.000  
G11  25817405.165   135671725.418        1781.073          46.000    25817406.102   105718388.277        1387.688          42.000  
E24  25715130.117   135134038.551       -1170.114          48.000    25715130.041   103544321.650        -896.616          52.000  
G24  22274913.616   117055564.002        -175.251          49.000    22274912.103    91212198.375        -136.567          47.000  
G12  23062607.220   121195109.567        -208.066          49.000    23062604.304    94437870.621        -161.917          45.000  
E05  24456178.436   128518147.076       -1450.160          49.000    24456180.847    98474983.959       -1111.056          52.000  
G25  24532756.206   128920688.716         991.923          44.000    24532758.496   100457738.736         772.936          44.000  
E10  29092498.821   152882369.447        1906.798          44.000    29092513.844   117143823.664        1461.088          45.000  
E25  27301875.008   143472580.834         560.803          43.000    27301879.826   109933678.015         429.698          51.000  
E12  28677766.758   150702983.566        1450.898          39.000    28677769.704   115473915.579        1111.653          45.000  
E14  20518667.362   107826443.334       -1270.516          49.000    20518669.220    82620310.011        -973.544          54.000  
> 2024 04 15 00 09 30.0060000  0 28                     
S33  41514789.771   218161770.538        -768.188          42.000  
E33  29039313.077   152602622.264        -581.142          35.000    29039312.732   116929328.893        -445.524          37.000  
G13  25754241.776   135339058.465       -4559.619          42.000                                                                  
G15  24288235.417   127635451.941       -3688.507          47.000    24288238.869    99456205.208       -2874.075          45.000  
R14  23042681.167   122830525.077       -2224.749          48.000    23042679.923    95534936.188       -1730.338          50.000  
R17  22631505.666   121106225.293        2219.550          52.000    22631503.088    94193952.166        1726.239          50.000  
R06  25161289.684                3       1375.788          26.000                                                                  
R05  22866776.602   122236047.751       -2601.457          50.000    22866776.109    95072491.508       -2023.330          49.000  
R16  25076904.767                3       1508.797          13.000                                                                  
R04  24487047.211   131126697.565       -4876.469          49.000    24487062.819   101987368.263       -3792.825          46.000  
G19  24691186.501   129753235.659       -3761.891          43.000                                                                  
G06  25271931.497   132805085.406         530.929          41.000    25271931.197   103484530.778         413.780          41.000  
S31  40562373.788   213156778.659        -767.585          44.000  
E03  28273363.214   148577569.189        1053.171          34.000    28273364.882   113845096.666         807.205          41.000  
R15  22200806.114   118634594.914          15.069          51.000    22200802.624    92271522.350          11.798          49.000  
R24  22964495.120   122801803.695       -1664.267          50.000    22964490.203    95512534.793       -1294.247          44.000  
E31  27847677.027   146340570.426       -2554.346          38.000    27847680.100   112131123.342       -1957.045          42.000  
E09  27623921.090   145164609.733       -3627.489          46.000    27623929.827   111230021.918       -2779.439          49.000  
G11  25807248.744   135618357.203        1776.817          46.000    25807251.228   105676803.267        1384.518          44.000  
E24  25721817.125   135169178.724       -1172.592          48.000    25721816.564   103571247.246        -898.478          51.000  
G24  22275949.224   117061006.064        -187.654          49.000    22275947.476    91216438.920        -146.229          47.000  
G12  23063812.115   121201441.918        -214.323          49.000    23063808.724    94442804.949        -166.848          45.000  
E05  24464494.197   128561848.939       -1463.315          48.000    24464497.108    98508469.770       -1121.249          51.000  
G25  24527105.711   128890989.953         987.903          45.000    24527107.067   100434596.934         769.958          44.000  
E10  29081609.917   152825160.235        1907.079          43.000    29081625.725   117099989.510        1461.209          45.000  
E25  27298681.579   143455801.825         557.792          43.000    27298686.948   109920821.507         427.404          51.000  
E12  28669499.258   150659536.151        1445.556          41.000    28669501.391   115440624.956        1107.640          45.000  
E14  20526023.366   107865100.631       -1306.649          50.000    20526025.231    82649930.641       -1001.115          53.000  
> 2024 04 15 00 10 00.0060000  0 28                     
S33  41519175.604   218184817.309        -768.105          43.000  
E33  29042671.566   152620276.831        -595.205          33.000    29042672.108   116942856.454        -456.052          38.000  
G13  25780277.569   135475876.789       -4561.469          41.000                                                                  
G15  24309313.067   127746214.671       -3695.507          46.000    24309318.098    99542513.177       -2879.776          46.000  
R14  23055213.483   122897333.216       -2228.851          49.000    23055213.274    95586898.050       -1733.557          50.000  
R17  22619113.463   121039912.274        2201.453          52.000    22619110.851    94142375.514        1712.189          50.000  
R06  25153617.627                3       1341.380          18.000                                                                  
R05  22881438.675   122314426.365       -2623.702          49.000    22881438.476    95133452.568       -2040.672          49.000  
R16  25069282.180                3       1506.667          12.000                                                                  
R04  24514377.281   131273043.753       -4879.747          48.000    24514393.017   102101191.345       -3795.092          45.000  
G19  24712690.158   129866240.422       -3771.658          44.000                                                                  
G06  25268941.176   132789371.577         516.519          42.000    25268941.454   103472286.284         402.544          42.000  
S31  40566756.005   213179810.137        -767.226          44.000  
E03  28267370.285   148546131.572        1042.295          32.000    28267382.152   113821008.176         798.901          42.000  
R15  22200733.490   118634207.038          10.942          51.000    22200730.487    92271220.691           8.489          49.000  
R24  22973905.759   122852125.604       -1690.342          50.000    22973900.872    95551674.058       -1314.884          45.000  
E31  27862259.577   146417189.769       -2553.503          39.000    27862261.134   112189831.669       -1956.639          43.000  
E09  27644642.756   145273506.770       -3632.127          45.000    27644652.452   111313462.031       -2783.049          49.000  
G11  25797119.389   135565127.448        1771.932          46.000    25797121.942   105635326.120        1380.679          44.000  
E24  25728520.738   135204404.117       -1175.452          48.000    25728519.811   103598238.144        -900.701          51.000  
G24  22277056.990   117066829.040        -200.546          48.000    22277054.658    91220976.306        -156.037          46.000  
G12  23065055.982   121207976.240        -221.052          50.000    23065051.408    94447896.671        -172.173          45.000  
E05  24472887.832   128605958.007       -1476.931          48.000    24472890.684    98542267.622       -1131.672          51.000  
G25  24521477.737   128861414.862         983.749          46.000    24521478.747   100411551.553         766.694          44.000  
E10  29070723.866   152767958.807        1906.822          43.000    29070739.169   117056161.286        1460.908          46.000  
E25  27295508.109   143439122.941         554.559          44.000    27295512.852   109908041.691         424.728          51.000  
E12  28661264.088   150616261.258        1439.649          40.000    28661266.459   115407466.481        1102.972          45.000  
E14  20533587.993   107904852.859       -1343.314          50.000    20533589.969    82680390.238       -1029.258          54.000  
> 2024 04 15 00 10 30.0060000  0 28                     
S33  41523560.313   218207858.350        -768.660          42.000  
E33  29046108.791   152638336.612        -608.907          32.000    29046108.571   116956694.518        -466.716          37.000  
G13  25806323.121   135612748.094       -4563.638          40.000                                                                  
G15  24330431.656   127857188.127       -3702.858          46.000    24330436.152    99628985.322       -2885.314          45.000  
R14  23067768.993   122964262.900       -2233.359          50.000    23067768.004    95638954.432       -1737.101          48.000  
R17  22606822.321   120974140.360        2183.051          52.000    22606819.485    94091219.727        1697.986          50.000  
R06  25146066.412                1       1333.116          29.000                                                                  
R05  22896226.574   122393467.348       -2646.027          51.000    22896225.052    95194928.810       -2058.024          49.000  
R16  25056767.932                3       1526.844          10.000                                                                  
R04  24541723.496   131419478.079       -4882.807          49.000    24541740.362   102215083.143       -3797.828          45.000  
G19  24734248.610   129979530.181       -3781.413          45.000                                                                  
G06  25266032.773   132774089.441         502.014          42.000    25266033.512   103460378.240         390.922          42.000  
S31  40571137.689   213202835.593        -767.659          44.000  
E03  28261454.663   148515006.485        1031.811          33.000    28261459.483   113797159.143         790.646          42.000  
R15  22200683.076   118633940.189           6.511          51.000    22200680.181    92271013.148           5.083          49.000  
R24  22983463.344   122903228.749       -1716.777          50.000    22983457.726    95591421.019       -1335.216          46.000  
E31  27876834.582   146493787.753       -2553.112          37.000    27876836.757   112248523.634       -1956.437          43.000  
E09  27665391.981   145382540.300       -3636.994          46.000    27665401.259   111397006.720       -2786.796          49.000  
G11  25787015.803   135512038.714        1766.722          45.000    25787019.007   105593958.884        1376.746          45.000  
E24  25735239.848   135239713.608       -1178.672          47.000    25735239.023   103625293.476        -903.198          51.000  
G24  22278237.062   117073034.012        -213.360          48.000    22278235.523    91225811.358        -166.327          46.000  
G12  23066337.356   121214710.821        -228.114          50.000    23066332.696    94453144.436        -177.635          45.000  
E05  24481358.516   128650473.330       -1490.923          48.000    24481361.663    98576376.734       -1142.411          51.000  
G25  24515873.083   128831962.576         979.417          46.000    24515873.674   100388601.821         763.098          44.000  
E10  29059839.214   152710766.827        1905.840          43.000    29059854.845   117012340.235        1460.201          46.000  
E25  27292353.833   143422543.214         550.677          44.000    27292357.724   109895337.827         421.916          51.000  
E12  28653062.980   150573160.578        1433.502          42.000    28653064.770   115374441.469        1098.374          45.000  
E14  20541360.968   107945696.746       -1379.853          51.000    20541361.997    82711686.293       -1057.305          54.000  
> 2024 04 15 00 11 00.0060000  0 29                     
S33  41527945.222   218230902.412        -768.138          42.000  
E33  29049621.303   152656812.459        -623.183          34.000    29049624.269   116970851.246        -477.314          37.000  
G13  25832380.273   135749680.056       -4565.375          41.000                                                                  
G15  24351591.043   127968379.892       -3709.943          45.000    24351595.670    99715627.571       -2890.782          45.000  
R14  23080350.039   123031324.788       -2237.520          49.000    23080349.909    95691113.669       -1740.289          50.000  
R17  22594633.131   120908924.116        2164.545          51.000    22594631.736    94040496.174        1683.490          50.000  
R06  25138632.025                1       1311.979          26.000                                                                  
R05  22911137.975   122473177.672       -2668.078          51.000    22911137.019    95256925.621       -2075.243          49.000  
R04  24569087.490   131566006.955       -4885.760          48.000    24569105.394   102329048.639       -3800.091          45.000  
G19  24755862.990   130093112.541       -3790.871          46.000                                                                  
G06  25263209.789   132759251.698         487.251          43.000    25263209.747   103448816.404         379.744          43.000  
S31  40575520.542   213225864.246        -767.700          45.000  
E03  28255591.461   148484205.716        1021.171          33.000    28255598.056   113773558.595         782.281          42.000  
R15  22200658.594   118633805.544           2.284          51.000    22200654.692    92270908.425           1.752          49.000  
R24  22993166.225   122955122.468       -1742.953          49.000    22993162.850    95631782.782       -1355.821          46.000  
E31  27891407.854   146570374.638       -2552.951          35.000    27891411.144   112307207.023       -1956.098          43.000  
E09  27686167.890   145491718.749       -3641.712          46.000    27686178.273   111480662.431       -2790.375          49.000  
G11  25776942.191   135459104.464        1761.829          44.000    25776945.753   105552712.030        1372.809          45.000  
E24  25741975.861   135275116.843       -1181.702          46.000    25741975.868   103652420.642        -905.449          51.000  
G24  22279493.211   117079632.927        -226.747          49.000    22279491.154    91230953.351        -176.550          46.000  
G12  23067658.695   121221655.411        -234.778          50.000    23067654.365    94458555.847        -182.789          45.000  
E05  24489908.722   128695404.547       -1504.740          48.000    24489912.466    98610804.504       -1152.995          52.000  
G25  24510293.105   128802642.957         975.121          45.000    24510294.093   100365755.469         759.800          44.000  
E10  29048959.916   152653596.652        1905.409          43.000    29048974.186   116968535.875        1459.888          46.000  
E25  27289217.977   143406072.348         547.230          42.000    27289223.387   109882717.377         419.262          51.000  
E12  28644896.270   150530246.400        1427.086          40.000    28644898.220   115341559.343        1093.758          45.000  
E14  20549342.716   107987639.722       -1416.472          52.000    20549343.144    82743824.500       -1085.276          53.000  
G32                                                                  26188227.872                3       1467.165          26.000  
R16                                                                  25046542.346                3       1510.767          11.000  
> 2024 04 15 00 11 30.0060000  0 28                     
S33  41532330.104   218253944.892        -768.218          42.000  
E33  29053218.178   152675698.122        -636.315          34.000    29053218.178   116985322.063        -487.784          38.000  
G13  25858446.822   135886663.239       -4566.851          40.000                                                                  
G15  24372790.202   128079780.582       -3717.005          45.000    24372795.586    99802432.559       -2896.254          46.000  
R14  23092954.714   123098512.993       -2241.886          49.000    23092954.912    95743371.145       -1743.744          50.000  
R17  22582550.023   120844261.478        2146.051          51.000    22582547.280    93990203.191        1669.171          50.000  
R06  25131325.025                3       1291.826          25.000                                                                  
R05  22926172.735   122553547.008       -2690.059          51.000    22926171.532    95319435.043       -2092.302          50.000  
R04  24596467.543   131712619.008       -4888.490          48.000    24596484.894   102443079.048       -3802.234          44.000  
G19  24777531.299   130206978.291       -3800.352          47.000                                                                  
G06  25260470.000   132744853.932         472.521          41.000    25260469.951   103437597.479         368.164          43.000  
S31  40579902.427   213248891.111        -767.810          44.000  
E03  28249789.242   148453724.053        1010.920          33.000    28249797.624   113750202.538         774.416          42.000  
R15  22200655.666   118633796.642          -1.918          51.000    22200652.418    92270901.508          -1.533          49.000  
R24  23003017.563   123007799.282       -1769.005          51.000    23003013.535    95672753.633       -1376.004          47.000  
E31  27905979.900   146646943.433       -2551.943          38.000    27905981.413   112365876.638       -1955.675          43.000  
E09  27706971.101   145601033.708       -3646.130          46.000    27706980.094   111564422.726       -2793.789          48.000  
G11  25766898.007   135406321.341        1756.732          45.000    25766901.240   105511582.873        1368.915          43.000  
E24  25748728.840   135310606.635       -1184.551          46.000    25748729.591   103679614.143        -907.675          51.000  
G24  22280823.223   117086620.767        -239.466          48.000    22280820.891    91236398.421        -186.610          46.000  
G12  23069018.958   121228802.729        -241.720          50.000    23069014.251    94464125.225        -188.224          44.000  
E05  24498536.987   128740744.528       -1518.150          48.000    24498540.118    98645545.490       -1163.277          52.000  
G25  24504737.758   128773449.037         970.894          44.000    24504738.643   100343007.081         756.722          44.000  
E10  29038083.543   152596443.854        1904.673          44.000    29038097.123   116924744.799        1459.435          46.000  
E25  27286103.241   143389703.295         543.675          43.000    27286108.447   109870174.977         416.720          51.000  
E12  28636764.638   150487514.329        1421.240          40.000    28636766.623   115308816.788        1089.111          45.000  
E14  20557531.556   108030672.345       -1452.665          52.000    20557532.342    82776797.636       -1113.092          54.000  
G32                                                                  26177520.875                        1457.458          25.000  
> 2024 04 15 00 12 00.0060000  0 27                     
S33  41536714.372   218276985.761        -768.237          42.000  
E33  29056889.002   152694996.116        -650.787          35.000    29056891.515   117000108.886        -498.514          41.000  
G13  25884523.048   136023696.941       -4568.771          40.000                                                                  
G15  24394028.998   128191388.915       -3723.879          45.000    24394033.177    99889399.353       -2901.756          43.000  
R14  23105583.902   123165830.122       -2246.251          48.000    23105583.344    95795728.904       -1747.039          50.000  
R17  22570571.472   120780158.657        2127.136          52.000    22570567.993    93940345.584        1654.523          50.000  
R06  25124128.219                3       1268.934          20.000                                                                  
R05  22941330.522   122634574.169       -2711.927          50.000    22941329.967    95382456.102       -2109.349          49.000  
R04  24623861.531   131859311.996       -4891.188          47.000    24623880.574   102557172.650       -3804.243          44.000  
G19  24799253.031   130321126.461       -3809.743          46.000                                                                  
G06  25257814.958   132730900.449         457.548          42.000    25257814.646   103426724.701         356.617          42.000  
S31  40584283.953   213271916.980        -767.788          44.000  
E03  28244059.513   148423564.850         999.677          34.000    28244058.341   113727093.573         766.031          42.000  
R15  22200678.434   118633915.663          -6.195          52.000    22200675.310    92270994.112          -4.792          49.000  
R24  23013014.569   123061259.759       -1795.193          50.000    23013009.957    95714334.032       -1396.236          46.000  
E31  27920547.348   146723496.064       -2551.456          37.000    27920549.243   112424533.846       -1955.044          43.000  
E09  27727799.771   145710485.276       -3650.889          47.000    27727808.451   111648287.681       -2797.369          48.000  
G11  25756881.645   135353694.288        1751.208          44.000    25756883.790   105470575.326        1364.673          42.000  
E24  25755498.233   135346184.330       -1187.646          45.000    25755499.825   103706874.995        -909.993          52.000  
G24  22282227.547   117094001.124        -252.623          48.000    22282224.727    91242149.357        -196.814          45.000  
G12  23070417.867   121236154.039        -248.544          50.000    23070413.314    94469853.528        -193.651          44.000  
E05  24507243.425   128786494.686       -1532.067          48.000    24507245.849    98680600.752       -1173.908          52.000  
G25  24499207.088   128744382.406         966.656          45.000    24499207.356   100320357.895         753.239          45.000  
E10  29027211.393   152539312.558        1903.847          45.000    29027224.142   116880970.174        1458.701          46.000  
E25  27283008.024   143373437.560         540.208          43.000    27283012.940   109857711.713         413.958          50.000  
E12  28628668.820   150444968.592        1414.755          41.000    28628669.792   115276216.944        1084.290          45.000  
E14  20565927.380   108074793.595       -1488.952          51.000    20565928.046    82810604.915       -1140.912          54.000  
> 2024 04 15 00 12 30.0060000  0 27                     
S33  41541098.727   218300025.854        -767.790          42.000  
E33  29060642.203   152714705.784        -663.558          37.000    29060641.809   117015211.094        -508.630          41.000  
G13  25910608.400   136160777.696       -4570.214          40.000                                                                  
G15  24415306.729   128303201.526       -3730.265          46.000    24415311.036    99976525.331       -2906.667          44.000  
R14  23118237.038   123233275.509       -2250.197          49.000    23118235.942    95848186.408       -1750.137          49.000  
R17  22558697.381   120716618.557        2108.728          52.000    22558693.891    93890925.654        1640.118          50.000  
R06  25117035.111                3       1254.498          16.000                                                                  
R05  22956609.814   122716254.404       -2733.343          48.000    22956609.346    95445985.085       -2125.888          49.000  
R04  24651270.681   132006080.226       -4893.301          48.000    24651289.531   102671324.932       -3805.806          42.000  
G19  24821026.911   130435553.114       -3818.679          46.000                                                                  
G06  25255244.706   132717392.413         443.245          40.000    25255244.613   103416199.019         345.238          43.000  
S31  40588665.416   213294941.267        -767.498          44.000  
E03  28238379.964   148393728.397         989.112          36.000    28238380.855   113704231.920         758.030          42.000  
R15  22200724.636   118634161.929         -10.219          52.000    22200721.252    92271185.684          -7.769          49.000  
R24  23023158.334   123115502.066       -1820.913          50.000    23023154.542    95756522.520       -1416.212          49.000  
E31  27935113.133   146800031.232       -2550.310          39.000    27935113.277   112483177.695       -1954.358          43.000  
E09  27748654.227   145820070.469       -3654.872          47.000    27748662.069   111732255.014       -2800.364          47.000  
G11  25746897.349   135301225.442        1746.417          44.000    25746899.354   105429690.988        1360.864          43.000  
E24  25762285.216   135381848.238       -1190.057          45.000    25762286.189   103734201.892        -911.821          51.000  
G24  22283706.902   117101774.520        -265.639          47.000    22283704.972    91248206.548        -206.953          46.000  
G12  23071855.583   121243707.286        -254.901          50.000    23071851.045    94475739.202        -198.801          45.000  
E05  24516026.662   128832653.279       -1545.233          48.000    24516029.580    98715968.986       -1184.000          52.000  
G25  24493699.085   128715441.529         962.793          45.000    24493700.469   100297806.688         750.231          45.000  
E10  29016343.449   152482203.820        1903.606          44.000    29016355.956   116837212.795        1458.512          47.000  
E25  27279932.641   143357273.550         537.441          44.000    27279936.939   109845326.384         411.752          50.000  
E12  28620606.820   150402609.998        1409.050          40.000    28620608.564   115243760.573        1079.469          44.000  
E14  20574528.644   108119999.350       -1524.712          50.000    20574530.333    82845243.181       -1168.302          54.000  
> 2024 04 15 00 13 00.0060000  0 26                     
S33  41545482.764   218323060.625        -767.784          42.000  
E33  29064471.974   152734824.602        -677.590          39.000    29064469.669   117030626.830        -519.356          41.000  
G13  25936700.369   136297899.488       -4571.642          39.000                                                                  
G15  24436621.505   128415212.086       -3737.309          46.000    24436626.799   100063805.488       -2912.140          43.000  
R14  23130914.758   123300846.492       -2254.680          50.000    23130912.136    95900741.619       -1753.766          49.000  
R17  22546927.852   120653642.697        2089.581          51.000    22546926.042    93841944.621        1625.238          50.000  
R05  22972010.719   122798581.013       -2755.090          49.000    22972009.886    95510016.780       -2142.963          48.000  
R04  24678692.245   132152916.244       -4895.839          48.000    24678709.326   102785530.198       -3807.760          41.000  
G19  24842853.261   130550252.512       -3828.067          46.000                                                                  
G06  25252757.729   132704329.015         427.689          40.000    25252758.078   103406019.822         333.509          41.000  
S31  40593045.859   213317961.264        -767.463          44.000  
E03  28232759.829   148364213.041         978.029          35.000    28232764.474   113681616.302         749.684          42.000  
R15  22200793.810   118634532.783         -14.588          51.000    22200790.982    92271474.122         -11.341          50.000  
R24  23033446.018   123170521.785       -1847.094          49.000    23033443.394    95799315.666       -1436.698          49.000  
E31  27949674.222   146876545.735       -2550.399          39.000    27949673.677   112541805.711       -1954.319          42.000  
E09  27769531.415   145929784.436       -3659.429          46.000    27769540.511   111816321.008       -2804.015          47.000  
G11  25736942.583   135248914.844        1740.686          43.000    25736945.355   105388930.006        1356.476          45.000  
E24  25769088.588   135417594.671       -1193.112          46.000    25769088.510   103761592.031        -914.226          51.000  
G24  22285260.146   117109939.419        -278.889          47.000    22285258.654    91254568.802        -217.428          46.000  
G12  23073330.428   121251458.769        -261.977          50.000    23073326.521    94481779.336        -204.219          46.000  
E05  24524887.959   128879216.661       -1559.076          48.000    24524890.191    98751647.369       -1194.561          51.000  
G25  24488215.116   128686622.951         958.391          46.000    24488216.674   100275350.768         746.716          45.000  
E10  29005479.675   152425116.768        1902.239          44.000    29005491.735   116793471.980        1457.570          47.000  
E25  27276876.600   143341207.697         533.858          45.000    27276879.575   109833016.267         408.931          50.000  
E12  28612579.832   150360437.739        1402.680          39.000    28612583.427   115211446.961        1074.504          44.000  
E14  20583336.855   108166283.461       -1560.940          50.000    20583338.006    82880707.709       -1196.000          54.000  
> 2024 04 15 00 13 30.0060000  0 28                     
S33  41549866.765   218346099.592        -768.152          43.000  
E33  29068379.955   152755361.660        -691.569          39.000    29068377.917   117046363.048        -529.831          43.000  
G13  25962801.842   136435068.246       -4573.131          38.000                                                                  
G15  24457976.671   128527426.336       -3743.944          47.000    24457980.950   100151244.366       -2917.218          42.000  
R14  23143614.180   123368552.936       -2259.231          49.000    23143613.288    95953402.151       -1757.228          49.000  
R17  22535268.515   120591244.032        2070.203          52.000    22535265.256    93793412.485        1610.156          51.000  
R05  22987534.224   122881559.495       -2776.815          49.000    22987532.606    95574555.543       -2159.774          48.000  
R04  24706126.262   132299824.706       -4897.984          48.000    24706145.227   102899791.999       -3809.577          42.000  
G19  24864732.252   130665230.747       -3837.359          47.000                                                                  
G06  25250359.606   132691721.219         412.547          40.000    25250358.226   103396195.654         321.126          40.000  
S31  40597427.043   213340984.603        -767.769          44.000  
E03  28227207.405   148335028.890         967.300          37.000    28227210.673   113659254.478         741.201          43.000  
R15  22200887.902   118635037.350         -19.155          52.000    22200885.766    92271866.585         -14.875          50.000  
R24  23043884.223   123226326.319       -1873.330          50.000    23043878.974    95842719.209       -1456.913          49.000  
E31  27964230.982   146953048.140       -2550.069          37.000    27964232.243   112600424.460       -1953.786          43.000  
E09  27790435.288   146039634.024       -3664.022          46.000    27790444.741   111900490.895       -2807.517          48.000  
G11  25727019.780   135196774.420        1734.857          44.000    25727023.670   105348301.624        1351.880          46.000  
E24  25775908.398   135453431.722       -1196.122          47.000    25775908.024   103789051.614        -916.525          51.000  
G24  22286890.262   117118506.213        -292.385          47.000    22286889.077    91261244.219        -227.760          46.000  
G12  23074844.787   121259416.121        -268.682          50.000    23074839.975    94487979.895        -209.517          44.000  
E05  24533826.946   128926192.888       -1572.724          48.000    24533829.222    98787642.122       -1205.097          51.000  
G25  24482756.108   128657935.003         953.992          45.000    24482757.123   100252996.618         743.340          45.000  
E10  28994620.651   152368062.221        1901.134          44.000    28994632.910   116749756.055        1456.691          46.000  
E25  27273839.632   143325248.237         530.026          46.000    27273842.574   109820787.680         406.296          50.000  
E12  28604592.785   150318462.654        1395.991          39.000    28604595.594   115179284.404        1069.488          44.000  
E14  20592350.328   108213651.526       -1597.141          50.000    20592351.809    82917002.797       -1223.697          54.000  
G32                                                                  26135389.861                3       1414.106          20.000  
R16                                                                  25004187.436                3       1495.352          12.000  
> 2024 04 15 00 14 00.0060000  0 28                     
S33  41554251.033   218369141.693        -768.428          42.000  
E33  29072366.487   152776316.272        -705.655          38.000    29072365.729   117062419.194        -540.615          44.000  
G13  25988910.902   136572280.345       -4574.561          37.000                                                                  
G15  24479368.504   128639840.390       -3750.462          47.000    24479374.335   100238838.901       -2922.373          43.000  
R14  23156340.589   123436393.487       -2263.678          47.000    23156340.257    96006166.999       -1760.652          49.000  
R17  22523715.172   120529425.738        2050.793          51.000    22523712.820    93745331.728        1595.117          51.000  
R05  23003176.936   122965185.162       -2798.298          49.000    23003176.795    95639597.617       -2176.521          49.000  
R04  24733571.770   132446799.603       -4900.203          47.000    24733592.223   103014105.601       -3811.095          42.000  
G19  24886664.833   130780484.021       -3846.393          47.000                                                                  
G06  25248047.687   132679570.092         397.379          42.000    25248046.292   103386727.305         309.678          40.000  
S31  40601808.744   213364011.356        -767.576          44.000  
E03  28221717.518   148306176.169         956.312          37.000    28221719.983   113637146.608         732.729          43.000  
R15  22201007.152   118635675.254         -23.563          51.000    22201004.885    92272362.759         -18.239          50.000  
R24  23054465.606   123282913.775       -1899.354          50.000    23054461.010    95886731.681       -1477.292          50.000  
E31  27978786.500   147029537.128       -2549.407          37.000    27978788.179   112659032.874       -1953.499          44.000  
E09  27811364.328   146149616.247       -3668.265          45.000    27811373.718   111984762.374       -2810.740          47.000  
G11  25717131.859   135144806.176        1729.315          46.000    25717132.522   105307807.291        1347.595          45.000  
E24  25782744.852   135489357.731       -1199.058          47.000    25782744.428   103816579.344        -918.723          51.000  
G24  22288597.178   117127475.248        -305.815          47.000    22288596.002    91268233.069        -238.303          47.000  
G12  23076397.644   121267577.595        -275.511          50.000    23076392.450    94494339.524        -214.574          44.000  
E05  24542844.665   128973580.241       -1586.558          48.000    24542846.469    98823951.852       -1215.468          50.000  
G25  24477321.412   128629376.073         949.872          44.000    24477322.044   100230743.001         740.012          45.000  
E10  28983768.209   152311041.242        1900.110          44.000    28983780.748   116706065.800        1455.937          45.000  
E25  27270821.774   143309393.515         526.818          45.000    27270825.526   109808639.371         403.618          50.000  
E12  28596644.806   150276685.697        1389.263          40.000    28596645.623   115147273.631        1064.481          44.000  
E14  20601570.143   108262099.138       -1632.854          50.000    20601571.086    82954125.067       -1251.197          54.000  
G32                                                                  26125029.023                3       1413.203          22.000  
R16                                                                  24998722.957                3       1491.643          13.000  
> 2024 04 15 00 14 30.0060000  0 29                     
S33  41558635.333   218392181.024        -767.800          43.000  
E33  29076433.044   152797684.467        -718.939          38.000    29076431.829   117078792.236        -550.918          44.000  
G13  26015027.782   136709528.680       -4575.376          38.000                                                                  
G15  24500797.923   128752447.109       -3756.669          48.000    24500803.979   100326583.522       -2927.082          43.000  
G32  26114772.668   137234021.053        1791.068          30.000    26114762.201                        1396.185          27.000  
R14  23169090.840   123504365.141       -2267.784          48.000    23169091.931    96059033.781       -1763.879          50.000  
R17  22512270.945   120468187.433        2031.665          52.000    22512268.064    93697702.098        1580.225          50.000  
R06  25089933.958                2       1161.704          27.000                                                                  
R05  23018941.245   123049450.211       -2819.386          50.000    23018941.112    95705137.007       -2192.882          49.000  
R04  24761029.570   132593832.414       -4901.996          46.000    24761048.402   103128464.411       -3812.871          38.000  
G19  24908647.767   130896005.125       -3855.002          47.000                                                                  
G06  25245822.314   132667873.498         382.238          40.000    25245821.231   103377613.115         298.012          42.000  
S31  40606190.494   213387036.151        -767.298          44.000  
E03  28216289.535   148277651.941         945.066          38.000    28216292.033   113615290.410         724.267          43.000  
R15  22201151.501   118636442.027         -27.691          52.000    22201148.479    92272959.148         -21.477          50.000  
R24  23065193.377   123340278.293       -1925.031          49.000    23065187.476    95931348.540       -1497.123          49.000  
E31  27993336.034   147106008.172       -2548.990          34.000    27993339.427   112717627.559       -1952.813          43.000  
E09  27832318.369   146259724.849       -3672.291          46.000    27832326.885   112069130.695       -2813.823          47.000  
G11  25707274.644   135093008.817        1723.840          46.000    25707275.410   105267446.176        1343.011          45.000  
E24  25789596.776   135525367.672       -1201.687          47.000    25789596.816   103844171.393        -920.880          51.000  
G24  22290380.185   117136843.766        -318.945          48.000    22290378.655    91275533.206        -248.572          47.000  
G12  23077988.801   121275938.162        -281.910          50.000    23077983.229    94500854.281        -219.693          44.000  
E05  24551938.907   129021373.646       -1599.814          47.000    24551941.103    98860572.749       -1225.774          50.000  
G25  24471909.787   128600941.428         945.752          43.000    24471910.258   100208586.257         736.978          43.000  
E10  28972922.040   152254051.620        1899.092          43.000    28972934.898   116662399.520        1455.205          45.000  
E25  27267823.432   143293638.704         523.614          45.000    27267827.304   109796567.613         401.181          51.000  
E12  28588731.055   150235104.775        1382.553          39.000    28588733.024   115115413.072        1059.467          45.000  
E14  20610992.450   108311618.603       -1668.476          50.000    20610994.193    82992068.641       -1278.439          54.000  
R16                                                                  25289490.324                3       1481.117          15.000  
