     3.00           OBSERVATION DATA    M: Mixed            RINEX VERSION / TYPE
CONVBIN 2.4.3                           20240415 152942 UTC PGM / RUN BY / DATE 
format: u-blox UBX                                          COMMENT             
log: /home/regis/git/gnsspwv/obsdata/VERT00CHL/2024-04-15/VECOMMENT             
{self.marker}                                               MARKER NAME         
                                                            MARKER NUMBER       
GEODETIC                                                    MARKER TYPE         
{self.observer}     {self.institution}                      OBSERVER / AGENCY   
UNKNOWN             UBLOX-ZED-F9P                           REC # / TYPE / VERS 
UNKNOWN             TWIVSP6037L                             ANT # / TYPE        
  1713381.0000 -5047934.0000 -3490983.0000                  APPROX POSITION XYZ 
        0.0000        0.0000        0.0000                  ANTENNA: DELTA H/E/N
G    8 C1C L1C D1C S1C C2L L2L D2L S2L                      SYS / # / OBS TYPES 
R    8 C1C L1C D1C S1C C2C L2C D2C S2C                      SYS / # / OBS TYPES 
E    8 C1C L1C D1C S1C C7Q L7Q D7Q S7Q                      SYS / # / OBS TYPES 
S    4 C1C L1C D1C S1C                                      SYS / # / OBS TYPES 
  2024    04    15    15    15   00.0040000     GPS         TIME OF FIRST OBS   
  2024    04    15    15    29   30.0050000     GPS         TIME OF LAST OBS    
                                                            END OF HEADER       
> 2024 04 15 15 15 00.0040000  0 25                     
G03  22779601.860   119707591.6831      -2143.901          47.000    22779605.214    93278638.8581      -1670.481          46.000  
G04  22283976.304   117103066.1681      -2577.043          47.000    22283975.840    91249130.2401      -2008.096          48.000  
G09  21991196.804   115564527.4371       -349.768          49.000    21991197.585    90050282.5211       -272.522          46.000  
G19  25406124.852   133510043.0831      -2635.773          45.000                                                                  
R10  24750299.091                       -2963.118          27.000                                                                  
R02  22470229.645   119905464.6251        514.771          52.000    22470231.827    93259819.9091        400.416          49.000  
R11  22653958.983   121055948.6821        410.199          49.000    22653959.447    94154662.2701        319.197          47.000  
R01  21697137.396   115983618.5901      -1593.117          49.000    21697137.784    90209481.3921      -1238.767          43.000  
R24  21919584.849   117213840.4981      -3624.695          51.000    21919585.533    91166306.7541      -2819.287          48.000  
G07  23808327.566   125113664.0181       2951.067          47.000    23808328.684    97491254.3281       2299.429          41.000  
S31  40060794.089   210520879.2811       -807.015          44.000  
S33  41011409.244   215516392.2471       -806.329          42.000  
R12  24116502.042   128826083.1141       3125.828          48.000    24116510.585   100198111.6591       2431.263          46.000  
R17  22285651.302   119255041.0721        347.859          51.000    22285650.908    92753922.5031        270.608          49.000  
R08  24896435.570   133319141.9681      -3299.658          42.000    24896434.371   103692637.1711      -2566.419          31.000  
E07  25294484.611   132923423.0521       -172.079          45.000    25294490.710   101850436.5791       -131.798          51.000  
E08  25621991.328   134644455.4931      -2212.042          48.000    25621994.222   103169131.6851      -1694.893          52.000  
E13  24993373.016   131341042.2621      -2217.573          48.000    24993378.643   100637953.0641      -1699.069          52.000  
E15  28223749.043   148316710.0231      -3902.100          40.000    28223762.035   113645275.5541      -2989.771          46.000  
E26  25949479.738   136365438.5001        676.304          46.000    25949482.715   104487823.5171        518.094          51.000  
G06  22878410.090   120226820.3301       1134.976          46.000    22878412.843    93683291.1021        884.256          47.000  
G16  26723789.135   140434473.0671        693.810          38.000                                                                  
E18  28252175.923   148466071.9131         57.811          36.000                                                                  
E02  28971097.289   152244239.8361        927.732          40.000    28971112.088   116654754.5431        710.889          43.000  
E03                                                                  29391470.243                3      -2324.910          24.000  
> 2024 04 15 15 15 30.0040000  0 25                     
G03  22791864.988   119772034.553       -2152.619          48.000    22791867.628    93328853.979       -1677.345          45.000  
G04  22298704.583   117180463.524       -2582.878          47.000    22298704.030    91309439.816       -2012.581          47.000  
G09  21993218.217   115575148.938        -358.612          48.000    21993218.160    90058559.035        -279.413          45.000  
G19  25421191.513   133589218.657       -2642.839          44.000                                                                  
R10  24767029.726   132022167.113       -2982.376          32.000                                                                  
R02  22467345.648   119890083.629         510.335          51.000    22467349.516    93247856.956         396.965          49.000  
R11  22651718.926   121043981.657         387.242          49.000    22651721.170    94145354.725         301.230          48.000  
R01  21706086.218   116031460.450       -1596.410          49.000    21706088.262    90246691.733       -1241.890          45.000  
R24  21939971.254   117322858.680       -3643.341          51.000    21939973.710    91251098.565       -2833.783          49.000  
G07  23791499.759   125025235.296        2943.993          47.000    23791500.460    97422348.958        2294.016          40.000  
S31  40065398.484   210545073.214        -806.114          44.000  
S33  41016008.219   215540558.714        -805.508          42.000  
R12  24098953.933   128732341.728        3123.451          50.000    24098962.241   100125202.059        2429.302          47.000  
R17  22283771.837   119244983.721         322.216          51.000    22283770.936    92746100.132         250.628          49.000  
R08  24914914.319   133418096.571       -3297.724          42.000    24914914.177   103769601.463       -2564.966          36.000  
E07  25295482.467   132928664.916        -177.621          46.000    25295488.368   101854453.109        -136.041          51.000  
E08  25634624.551   134710844.998       -2214.070          48.000    25634627.868   103220001.535       -1696.491          52.000  
E13  25006067.246   131407752.989       -2229.919          47.000    25006073.367   100689069.020       -1708.728          52.000  
E15  28246031.578   148433804.115       -3904.507          41.000    28246044.987   113734996.629       -2991.789          46.000  
E26  25945651.112   136345316.105         665.079          46.000    25945653.750   104472405.057         509.593          51.000  
G06  22871977.888   120193022.013        1118.263          46.000    22871980.959    93656954.760         871.422          47.000  
G16  26719846.417   140413751.412         687.235          38.000                                                                  
E18  28251825.126   148464227.665          64.868          33.000                                                                  
E02  28965816.822   152216494.306         921.867          39.000    28965832.028   116633495.220         706.308          43.000  
E03                                                                  29408763.781                3      -2319.205          21.000  
> 2024 04 15 15 16 00.0040000  0 26                     
G03  22804179.423   119836746.347       -2161.645          47.000    22804182.086    93379278.660       -1684.325          46.000  
G04  22313467.124   117258040.460       -2588.793          47.000    22313466.291    91369889.341       -2017.368          48.000  
G09  21995291.327   115586043.230        -367.560          49.000    21995290.585    90067048.132        -286.407          45.000  
G19  25436301.347   133668619.289       -2650.438          45.000                                                                  
R10  24783870.459                       -3002.558          31.000                                                                  
R02  22464489.594   119874842.867         505.764          50.000    22464493.173    93236003.099         393.301          49.000  
R11  22649609.970   121032714.486         364.258          48.000    22649611.571    94136591.447         283.143          46.000  
R01  21715058.124   116079416.374       -1600.365          48.000    21715059.552    90283990.712       -1244.788          45.000  
R24  21960465.278   117432444.339       -3662.244          52.000    21960466.196    91336331.766       -2848.383          49.000  
G07  23774715.029   124937029.530        2936.495          48.000    23774714.681    97353617.302        2288.024          40.000  
S31  40070000.118   210569255.755        -805.731          45.000  
S33  41020604.606   215564713.300        -804.767          41.000  
R12  24081420.442   128638684.208        3120.492          50.000    24081429.878   100052357.695        2427.044          48.000  
R17  22282037.420   119235702.980         296.467          51.000    22282036.854    92738881.812         230.559          49.000  
R08  24933383.298   133517005.933       -3296.320          39.000    24933386.475   103846530.477       -2563.025          32.000  
E07  25296512.629   132934076.702        -183.203          47.000    25296517.795   101858599.824        -140.252          51.000  
E08  25647271.066   134777302.036       -2216.330          47.000    25647274.180   103270923.117       -1698.201          52.000  
E13  25018834.181   131474843.632       -2242.572          47.000    25018840.457   100740476.069       -1718.281          52.000  
E15  28268330.258   148550980.729       -3907.156          42.000    28268343.379   113824780.912       -2993.806          46.000  
E26  25941887.226   136325538.358         653.644          46.000    25941890.103   104457250.702         500.854          51.000  
G06  22865642.039   120159729.392        1101.209          46.000    22865645.264    93631012.494         858.154          47.000  
G16  26715942.172   140393235.837         680.469          37.000                                                                  
E18  28251430.292                          71.124          30.000                                                                  
E02  28960571.083   152188935.835         915.620          38.000    28960588.278   116612379.216         701.474          43.000  
E03                                                                  29426032.887                3      -2314.805          18.000  
R23                                                                  25267501.612                3      -4341.198          11.000  
> 2024 04 15 15 16 30.0040000  0 25                     
G03  22816544.839   119901728.129       -2170.530          47.000    22816547.522    93429913.700       -1691.295          45.000  
G04  22328263.084   117335795.905       -2594.785          47.000    22328263.259    91430477.931       -2021.904          48.000  
G09  21997416.982   115597210.045        -376.703          49.000    21997416.270    90075749.582        -293.463          46.000  
G19  25451453.486   133748242.409       -2657.793          45.000                                                                  
R10  24800829.487                       -3022.821          31.000                                                                  
R02  22461660.375   119859742.531         501.000          51.000    22461663.334    93224258.420         389.671          48.000  
R11  22647632.500   121022150.205         340.414          49.000    22647636.226    94128374.870         264.841          48.000  
R01  21724051.574   116127486.344       -1604.201          49.000    21724051.170    90321378.450       -1247.861          44.000  
R24  21981064.623   117542593.630       -3680.975          52.000    21981065.479    91422003.313       -2863.031          50.000  
G07  23757972.912   124849049.919        2928.909          48.000    23757973.473    97285061.865        2282.257          41.000  
S31  40074600.224   210593428.494        -805.480          44.000  
S33  41025199.250   215588858.189        -804.872          42.000  
R12  24063903.834   128545115.379        3117.471          50.000    24063913.254    99979582.276        2424.717          48.000  
R17  22280449.616   119227201.129         270.379          52.000    22280448.142    92732269.264         210.410          49.000  
R08  24951846.925   133615870.972       -3295.197          42.000    24951849.892   103923425.329       -2562.513          35.000  
E07  25297574.386   132939658.232        -188.825          47.000    25297580.247   101862876.615        -144.653          52.000  
E08  25659929.979   134843826.195       -2218.459          47.000    25659933.583   103321896.125       -1699.931          52.000  
E13  25031673.984   131542313.907       -2255.302          48.000    25031679.979   100792174.017       -1728.103          52.000  
E15  28290644.294   148668238.747       -3909.883          43.000    28290657.185   113914627.598       -2995.936          46.000  
E26  25938189.586   136306107.271         641.934          47.000    25938192.544   104442361.964         491.908          51.000  
G06  22859403.489   120126945.249        1084.261          45.000    22859406.633    93605466.426         845.040          47.000  
G16  26712077.472   140372929.143         673.436          37.000                                                                  
E18  28251011.730                          77.255          30.000                                                                  
E02  28955364.576   152161566.980         909.104          40.000    28955379.688   116591408.485         696.572          43.000  
E03                                                                  29443319.643                3      -2324.178          16.000  
> 2024 04 15 15 17 00.0040000  0 24                     
G03  22828960.729   119966972.045       -2179.042          48.000    22828963.060    93480752.991       -1697.952          45.000  
G04  22343091.634   117413719.850       -2600.173          47.000    22343091.529    91491197.842       -2026.158          48.000  
G09  21999592.002   115608640.030        -385.297          50.000    21999591.601    90084656.098        -300.281          46.000  
G19  25466644.935   133828076.744       -2664.501          46.000                                                                  
R10  24817899.145                       -3042.811          32.000                                                                  
R02  22458855.249   119844773.339         496.952          51.000    22458857.609    93212615.763         386.436          48.000  
R11  22645785.935   121012282.832         317.322          49.000    22645789.633    94120700.363         246.650          47.000  
R01  21733063.364   116175661.376       -1607.464          49.000    21733063.042    90358847.873       -1250.163          45.000  
R24  22001766.918   117653293.945       -3699.017          52.000    22001766.759    91508103.443       -2877.014          50.000  
G07  23741273.061   124761291.075        2921.750          47.000    23741274.014    97216678.485        2276.532          41.000  
S31  40079196.356   210617582.285        -804.720          44.000  
S33  41029790.177   215612983.988        -803.847          42.000  
R12  24046403.033   128451630.958        3114.830          49.000    24046412.926    99906872.531        2422.642          49.000  
R17  22279005.305   119219470.927         244.858          52.000    22279003.829    92726256.916         190.389          50.000  
R08  24970300.504   133714683.244       -3292.694          42.000    24970306.790   104000278.910       -2560.822          38.000  
E07  25298667.710   132945400.396        -194.078          47.000    25298672.750   101867276.503        -148.689          52.000  
E08  25672599.971   134910408.200       -2220.375          46.000    25672603.903   103372913.445       -1701.272          52.000  
E13  25044584.024   131610154.527       -2267.356          48.000    25044589.575   100844155.727       -1737.381          52.000  
E15  28312971.944   148785568.064       -3912.083          43.000    28312984.390   114004528.886       -2997.480          46.000  
E26  25934555.896   136287015.775         630.933          46.000    25934559.487   104427733.433         483.296          51.000  
G06  22853260.513   120094663.342        1067.860          45.000    22853263.304    93580311.729         831.948          47.000  
G16  26708251.055   140352825.688         667.081          37.000                                                                  
E18  28250543.641                1         85.093          26.000                                                                  
E02  28950191.468   152134381.208         903.253          39.000    28950205.791   116570578.039         691.899          43.000  
> 2024 04 15 15 17 30.0040000  0 24                     
G03  22841426.489   120032479.089       -2188.389          47.000    22841428.696    93531797.338       -1705.168          45.000  
G04  22357951.937   117491811.239       -2606.153          47.000    22357951.932    91552048.216       -2030.741          48.000  
G09  22001817.189   115620332.806        -394.470          49.000    22001817.233    90093767.362        -307.379          46.000  
G19  25481876.753   133908120.272       -2671.910          46.000                                                                  
R10  24835079.104                       -3062.923          30.000                                                                  
R02  22456075.105   119829934.897         492.179          51.000    22456076.814    93201074.829         382.704          48.000  
R11  22644070.639   121003115.366         293.430          49.000    22644072.040    94113570.168         228.326          44.000  
R01  21742094.972   116223941.952       -1611.373          49.000    21742096.030    90396399.394       -1253.291          46.000  
R24  22022570.555   117764541.832       -3717.566          52.000    22022570.491    91594629.434       -2891.510          49.000  
G07  23724615.629   124673756.567        2913.695          47.000    23724616.662    97148469.911        2270.578          41.000  
S31  40083789.266   210641717.804        -804.620          44.000  
S33  41034378.024   215637091.660        -803.396          42.000  
R12  24028919.222   128358235.912        3111.481          49.000    24028928.350    99834232.271        2419.894          48.000  
R17  22277704.425   119212514.054         218.740          52.000    22277703.558    92720846.026         170.070          50.000  
R08  24988743.099   133813443.512       -3291.290          44.000    24988751.960   104077092.161       -2559.918          38.000  
E07  25299790.336   132951303.030        -199.597          47.000    25299795.609   101871799.341        -152.945          51.000  
E08  25685280.890   134977047.584       -2222.445          46.000    25685284.842   103423974.732       -1702.941          52.000  
E13  25057564.374   131678365.212       -2280.110          48.000    25057569.718   100896420.976       -1747.081          52.000  
E15  28335312.218   148902967.506       -3914.772          42.000    28335325.118   114094483.930       -2999.613          46.000  
E26  25930987.584   136268265.798         619.042          45.000    25930991.506   104413366.564         474.210          51.000  
G06  22847213.880   120062886.407        1050.390          46.000    22847216.748    93555550.477         818.590          47.000  
G16  26704464.066   140332928.456         659.170          38.000                                                                  
E18  28250040.189                1         92.146          27.000                                                                  
E02  28945054.263   152107380.923         896.690          39.000    28945067.239   116549889.657         686.962          43.000  
> 2024 04 15 15 18 00.0040000  0 24                     
G03  22853944.055   120098257.895       -2197.460          47.000    22853946.606    93583053.437       -1712.170          45.000  
G04  22372845.350   117570076.556       -2612.057          47.000    22372845.877    91613034.116       -2035.416          49.000  
G09  22004092.712   115632295.527        -403.357          48.000    22004094.070    90103089.013        -314.368          47.000  
G19  25497149.515   133988378.087       -2679.047          45.000                                                                  
R10  24852370.079                       -3081.767          30.000                                                                  
R02  22453320.613   119815234.948         487.371          52.000    22453322.218    93189641.593         379.069          48.000  
R11  22642487.035   120994658.525         269.767          49.000    22642489.857    94106992.732         209.659          46.000  
R01  21751148.152   116272335.734       -1615.260          48.000    21751149.336    90434038.953       -1256.251          45.000  
R24  22043477.629   117876341.228       -3736.151          52.000    22043477.729    91681584.381       -2905.774          49.000  
G07  23708002.836   124586457.682        2905.651          48.000    23708004.656    97080444.969        2264.218          41.000  
S31  40088380.237   210665842.691        -804.338          44.000  
S33  41038963.523   215661189.382        -803.397          42.000  
R12  24011454.544   128264943.055        3107.698          50.000    24011462.224    99761671.482        2417.112          47.000  
R17  22276549.979   119206340.121         192.395          51.000    22276550.169    92716044.097         149.687          50.000  
R08  25007176.823   133912160.748       -3290.082          42.000    25007185.887   104153871.913       -2558.869          37.000  
E07  25300946.475   132957373.579        -205.488          48.000    25300951.017   101876450.826        -157.433          52.000  
E08  25697974.153   135043751.568       -2224.781          46.000    25697978.326   103475085.534       -1704.743          52.000  
E13  25070616.371   131746953.203       -2292.894          48.000    25070621.663   100948975.333       -1756.922          52.000  
E15  28357667.849   149020443.545       -3917.497          42.000    28357680.539   114184497.636       -3001.729          46.000  
E26  25927487.039   136249866.826         607.174          46.000    25927490.287   104399268.668         465.249          51.000  
G06  22841265.125   120031624.757        1033.102          46.000    22841267.005    93531190.779         804.952          46.000  
G16  26700720.105   140313247.881         652.191          40.000                                                                  
E18  28249495.338                          98.169          27.000                                                                  
E02  28939952.635   152080576.168         889.899          39.000    28939966.738   116529351.095         681.846          44.000  
> 2024 04 15 15 18 30.0040000  0 24                     
G03  22866515.042   120164315.706       -2206.511          49.000    22866517.451    93634526.940       -1719.452          45.000  
G04  22387773.093   117648520.991       -2617.925          47.000    22387773.512    91674159.560       -2039.836          49.000  
G09  22006421.049   115644534.090        -412.689          48.000    22006423.059    90112625.570        -321.332          47.000  
G19  25512463.451   134068854.369       -2686.245          45.000                                                                  
R10  24869777.320                       -3102.714          31.000                                                                  
R02  22450592.158   119800679.747         482.760          52.000    22450595.414    93178320.913         375.459          50.000  
R11  22641040.001   120986921.057         245.892          49.000    22641041.145    94100974.855         191.095          45.000  
R01  21760223.339   116320849.085       -1619.167          48.000    21760225.303    90471771.510       -1259.396          46.000  
R24  22064488.968   117988694.906       -3754.266          52.000    22064488.261    91768970.445       -2919.983          48.000  
G07  23691437.091   124499404.022        2897.524          47.000    23691438.550    97012611.076        2257.961          42.000  
S31  40092970.746   210689965.086        -804.255          44.000  
S33  41043548.589   215685283.583        -802.702          42.000  
R12  23994010.220   128171763.517        3103.987          50.000    23994017.730    99689198.845        2414.241          46.000  
R17  22275543.945   119200957.276         166.125          50.000    22275544.112    92711857.456         129.177          50.000  
R08  25025604.956   134010842.067       -3288.916          40.000    25025613.401   104230623.734       -2558.191          35.000  
E07  25302133.666   132963618.041        -211.008          47.000    25302139.124   101881235.563        -161.696          51.000  
E08  25710681.560   135110526.004       -2227.035          47.000    25710684.991   103526250.299       -1706.412          52.000  
E13  25083740.821   131815924.334       -2305.361          48.000    25083746.580   101001823.261       -1766.482          52.000  
E15  28380038.136   149138001.205       -3919.988          41.000    28380051.641   114274573.867       -3003.604          47.000  
E26  25924054.313   136231826.972         595.282          46.000    25924057.449   104385445.963         456.117          51.000  
G06  22835415.875   120000887.305        1015.816          46.000    22835417.298    93507239.549         791.646          45.000  
G16  26697017.959   140293793.199         644.612          41.000                                                                  
E18  28248913.726                         105.432          27.000                                                                  
E02  28934890.429   152053975.522         883.469          39.000    28934905.184   116508968.917         676.733          45.000  
> 2024 04 15 15 19 00.0040000  0 24                     
G03  22879137.318   120230648.630       -2215.438          47.000    22879139.991    93686214.837       -1726.385          45.000  
G04  22402733.390   117727138.578       -2623.309          47.000    22402734.249    91735419.958       -2044.162          49.000  
G09  22008802.012   115657043.285        -421.423          49.000    22008802.635    90122372.994        -328.296          45.000  
G19  25527818.678   134149541.792       -2693.000          46.000                                                                  
R10  24887292.583                       -3121.863          28.000                                                                  
R02  22447889.969   119786263.945         478.343          52.000    22447894.049    93167108.652         372.074          50.000  
R11  22639726.033   120979901.448         222.195          49.000    22639726.226    94095515.249         172.826          44.000  
R01  21769319.998   116369477.586       -1622.742          49.000    21769322.236    90509593.655       -1261.998          46.000  
R24  22085600.798   118101594.367       -3772.217          52.000    22085601.196    91856781.014       -2933.917          48.000  
G07  23674918.316   124412594.168        2889.731          48.000    23674919.159    96944967.175        2251.488          41.000  
S31  40097559.202   210714079.667        -803.661          44.000  
S33  41048132.149   215709369.678        -802.594          41.000  
R12  23976587.973   128078697.512        3100.386          48.000    23976595.862    99616814.501        2411.525          47.000  
R17  22274685.457   119196362.212         140.154          51.000    22274685.627    92708283.553         108.930          50.000  
R08  25044024.901   134109482.861       -3287.524          35.000    25044032.903   104307344.096       -2556.488          32.000  
E07  25303353.624   132970031.378        -216.510          47.000    25303359.472   101886149.715        -165.846          51.000  
E08  25723400.232   135177365.638       -2228.897          46.000    25723404.233   103577465.023       -1707.893          52.000  
E13  25096937.053   131885273.384       -2317.701          48.000    25096943.451   101054960.779       -1776.014          52.000  
E15  28402422.795   149255634.461       -3922.237          42.000    28402436.970   114364708.029       -3005.346          47.000  
E26  25920688.558   136214143.300         583.620          46.000    25920692.177   104371896.201         447.130          51.000  
G06  22829665.736   119970671.865         998.702          46.000    22829667.761    93483695.107         778.135          46.000  
G16  26693358.387   140274562.455         637.680          39.000                                                                  
E18  28248300.218                         112.147          27.000                                                                  
E02  28929867.934   152027576.559         876.706          40.000    28929881.205   116488741.274         671.689          45.000  
> 2024 04 15 15 19 30.0040000  0 24                     
G03  22891811.582   120297253.490       -2224.528          47.000    22891814.702    93738114.609       -1733.561          45.000  
G04  22417725.879   117805924.017       -2628.849          47.000    22417726.391    91796811.149       -2048.365          48.000  
G09  22011233.399   115669818.387        -430.249          49.000    22011232.994    90132327.639        -335.150          45.000  
G19  25543212.446   134230433.853       -2699.717          45.000                                                                  
R10  24904908.819                3      -3141.169          25.000                                                                  
R02  22445214.461   119771983.337         473.835          51.000    22445217.026    93156001.584         368.580          49.000  
R11  22638547.092   120973598.030         198.220          51.000    22638547.352    94090612.632         154.242          46.000  
R01  21778438.065   116418216.921       -1626.417          49.000    21778440.157    90547501.936       -1264.973          45.000  
R24  22106814.649   118215031.489       -3790.075          53.000    22106814.450    91945009.745       -2947.870          48.000  
G07  23658444.336   124326027.245        2881.416          46.000    23658445.996    96877512.552        2245.178          41.000  
S31  40102145.464   210738182.144        -803.140          44.000  
S33  41052713.474   215733444.563        -802.376          42.000  
R12  23959187.039   127985745.411        3096.442          50.000    23959195.126    99544518.754        2408.364          48.000  
R17  22273973.993   119192552.192         113.953          51.000    22273973.887    92705320.251          88.520          49.000  
R08  25062437.752                       -3286.511          30.000    25062444.277                1      -2555.487          28.000  
E07  25304605.693   132976609.130        -221.863          47.000    25304611.124   101891189.831        -169.971          51.000  
E08  25736132.068   135244265.855       -2230.933          47.000    25736135.271   103628726.161       -1709.434          52.000  
E13  25110205.341   131954995.724       -2330.214          48.000    25110210.902   101108384.324       -1785.449          52.000  
E15  28424821.293   149373337.844       -3924.660          41.000    28424835.666   114454895.929       -3007.133          47.000  
E26  25917390.435   136196813.403         571.874          46.000    25917394.240   104358617.501         438.214          51.000  
G06  22824014.825   119940976.825         981.134          46.000    22824017.521    93460556.164         764.517          46.000  
G16  26689741.161   140255554.291         629.786          38.000                                                                  
E18  28247638.190                3        118.535          25.000                                                                  
E02  28924881.047   152001377.378         870.145          39.000    28924895.439   116468666.729         666.684          44.000  
> 2024 04 15 15 20 00.0040000  0 23                     
G03  22904537.862   120364131.571       -2233.808          48.000    22904541.598    93790227.299       -1740.836          45.000  
G04  22432751.001   117884876.651       -2634.790          49.000    22432750.501    91858332.628       -2053.071          48.000  
G09  22013715.040   115682859.385        -439.319          49.000    22013714.433    90142489.492        -342.487          46.000  
G19  25558644.611   134311529.160       -2706.816          44.000                                                                  
R10  24922649.961                3      -3163.353          21.000                                                                  
R02  22442563.515   119757838.278         469.095          51.000    22442565.859    93144999.948         364.965          49.000  
R11  22637502.987   120968013.911         173.878          51.000    22637503.808    94086269.497         135.317          48.000  
R01  21787577.115   116467067.449       -1630.453          49.000    21787578.332    90585496.761       -1268.099          44.000  
R24  22128127.269   118329002.782       -3808.050          52.000    22128126.979    92033653.942       -2961.841          47.000  
G07  23642018.187   124239707.163        2873.155          46.000    23642019.345    96810250.274        2238.837          41.000  
S31  40106730.433   210762274.859        -803.154          45.000  
S33  41057292.343   215757508.816        -802.036          41.000  
R12  23941808.584   127892912.841        3092.235          50.000    23941816.577    99472315.955        2405.055          48.000  
R17  22273410.064   119189529.474          87.424          53.000    22273408.548    92702969.270          67.918          49.000  
R08  25080842.539                       -3284.851          31.000    25080849.322   104460847.7541      -2553.552          31.000  
E07  25305889.022   132983351.506        -227.527          47.000    25305894.357   101896356.081        -174.346          52.000  
E08  25748874.543   135311226.619       -2233.136          47.000    25748877.486   103680033.708       -1711.097          52.000  
E13  25123543.597   132025091.322       -2342.872          48.000    25123549.730   101162093.861       -1795.162          52.000  
E15  28447233.308   149491110.597       -3926.871          40.000    28447247.455   114545136.966       -3009.019          47.000  
E26  25914160.256   136179839.509         559.746          46.000    25914164.383   104345611.556         428.917          51.000  
G06  22818464.481   119911805.135         963.500          48.000    22818466.257    93437825.012         750.749          46.000  
G16  26686166.148   140236771.980         622.179          37.000                                                                  
E02  28919933.609   151975380.795         863.245          39.000    28919948.338   116448747.426         661.415          44.000  
> 2024 04 15 15 20 30.0040000  0 23                     
G03  22917319.127   120431294.356       -2243.781          48.000    22917321.591    93842561.827       -1748.487          45.000  
G04  22447808.150   117964005.878       -2640.936          47.000    22447808.468    91919991.737       -2057.926          49.000  
G09  22016248.948   115696176.389        -448.901          49.000    22016248.557    90152866.394        -349.750          45.000  
G19  25574116.483   134392835.778       -2713.895          43.000                                                                  
R10  24940493.223                3      -3178.419          18.000                                                                  
R02  22439940.388   119743838.809         463.895          51.000    22439942.059    93134111.515         360.747          48.000  
R11  22636594.433   120963162.306         149.088          50.000    22636595.826    94082496.118         115.975          48.000  
R01  21796738.521   116516040.532       -1634.677          49.000    21796739.180    90623586.895       -1271.482          44.000  
R24  22149542.106   118443515.494       -3826.416          53.000    22149540.889    92122719.263       -2976.019          47.000  
G07  23625641.169   124153648.196        2863.883          45.000    23625643.113    96743191.488        2231.508          41.000  
S31  40111314.664   210786367.870        -803.457          44.000  
S33  41061871.767   215781573.243        -802.459          42.000  
R12  23924454.447   127800215.235        3087.226          49.000    23924463.152    99400218.110        2401.303          48.000  
R17  22272993.611   119187306.173          60.434          51.000    22272992.265    92701240.073          46.971          49.000  
R08  25099246.290                1      -3283.710          30.000    25099249.887   104537477.002       -2553.955          34.000  
E07  25307205.755   132990268.803        -233.758          47.000    25307210.757   101901656.350        -179.022          52.000  
E08  25761630.098   135378258.084       -2235.821          48.000    25761633.286   103731395.441       -1713.146          52.000  
E13  25136955.532   132095570.234       -2355.915          48.000    25136961.561   101216097.121       -1805.173          52.000  
E15  28469659.715   149608962.018       -3929.732          40.000    28469674.248   114635438.278       -3011.211          47.000  
E26  25911001.100   136163233.959         546.976          46.000    25911004.708   104332887.838         419.210          51.000  
G06  22813015.071   119883169.907         945.264          48.000    22813017.063    93415511.902         736.446          47.000  
G16  26682636.438   140218228.934         613.583          34.000                                                                  
E02  28915027.106   151949599.717         855.415          39.000    28915042.220   116428993.212         655.654          44.000  
> 2024 04 15 15 21 00.0040000  0 22                     
G03  22930155.418   120498751.282       -2253.499          47.000    22930158.026    93895125.540       -1755.741          44.000  
G04  22462900.565   118043319.073       -2646.697          47.000    22462901.426    91981794.206       -2062.396          48.000  
G09  22018837.017   115709777.368        -458.044          49.000    22018836.992    90163464.570        -356.885          46.000  
G19  25589630.111   134474359.593       -2721.211          41.000                                                                  
R02  22437345.694   119729993.535         459.063          51.000    22437347.891    93123343.032         357.031          48.000  
R11  22635825.996   120959054.727         124.534          51.000    22635827.218    94079301.378          96.724          48.000  
R01  21805924.783   116565144.742       -1639.032          48.000    21805924.929    90661778.963       -1274.651          45.000  
R24  22171058.185   118558574.382       -3844.220          51.000    22171057.947    92212209.376       -2990.051          49.000  
G07  23609316.600   124067861.960        2854.963          45.000    23609318.238    96676345.199        2224.668          41.000  
S31  40115901.269   210810469.470        -803.514          44.000  
S33  41066452.646   215805646.382        -802.356          42.000  
R12  23907128.612   127707666.134        3082.406          49.000    23907137.099    99328235.755        2397.576          48.000  
R17  22272728.722   119185892.257          33.826          51.000    22272729.100    92700140.363          26.286          49.000  
R08  25117639.451   134503796.3711      -3282.147          33.000    25117646.440   104614089.201       -2552.332          33.000  
E07  25308556.989   132997369.205        -239.762          48.000    25308561.941   101907096.929        -183.651          52.000  
E08  25774399.543   135445368.251       -2238.338          47.000    25774403.794   103782817.485       -1715.060          52.000  
E13  25150441.697   132166440.423       -2368.905          48.000    25150447.021   101270400.177       -1815.016          51.000  
E15  28492103.071   149726899.332       -3932.696          42.000    28492117.342   114725805.406       -3013.248          47.000  
E26  25907913.301   136147006.930         534.638          47.000    25907916.642   104320454.177         409.597          52.000  
G06  22807669.653   119855082.097         927.178          47.000    22807672.372    93393625.326         722.545          46.000  
G16  26679154.134   140199936.316         605.698          37.000                                                                  
E02  28910164.609   151924044.831         847.925          40.000    28910179.357   116409412.327         649.887          44.000  
> 2024 04 15 15 21 30.0040000  0 22                     
G03  22943047.994   120566501.237       -2263.104          47.000    22943050.778    93947917.619       -1763.501          44.000  
G04  22478026.927   118122813.212       -2652.631          46.000    22478028.601    92043737.609       -2067.069          48.000  
G09  22021478.400   115723659.904        -467.450          49.000    22021479.044    90174282.149        -364.270          46.000  
G19  25605184.498   134556096.644       -2727.701          40.000                                                                  
R02  22434779.092   119716300.433         453.919          51.000    22434781.334    93112692.874         353.046          48.000  
R11  22635196.527   120955691.599          99.658          51.000    22635196.386    94076685.631          77.446          48.000  
R01  21815135.011   116614378.178       -1643.239          50.000    21815135.102    90700071.632       -1278.122          44.000  
R24  22192675.877   118674173.407       -3862.223          52.000    22192676.539    92302119.579       -3003.958          49.000  
G07  23593043.805   123982350.009        2845.991          45.000    23593045.402    96609712.639        2217.599          41.000  
S31  40120489.144   210834579.281        -803.997          44.000  
S33  41071035.295   215829727.781        -802.725          42.000  
R12  23889831.488   127615268.671        3077.374          48.000    23889839.929    99256371.332        2393.454          48.000  
R17  22272616.376   119185287.411           6.721          52.000    22272615.336    92699669.941           5.227          49.000  
R08  25136030.704                       -3281.732          29.000    25136036.744   104690684.114       -2552.594          37.000  
E07  25309941.847   133004650.468        -245.592          47.000    25309947.570   101912676.097        -188.129          52.000  
E08  25787184.967   135512554.731       -2240.645          47.000    25787188.910   103834297.975       -1716.830          52.000  
E13  25164002.422   132237699.471       -2381.637          48.000    25164007.213   101325001.191       -1824.910          51.000  
E15  28514562.028   149844919.281       -3935.201          43.000    28514576.551   114816235.854       -3015.249          47.000  
E26  25904897.111   136131158.301         522.127          47.000    25904900.723   104308310.445         400.007          51.000  
G06  22802429.147   119827542.294         908.764          47.000    22802431.392    93372165.777         708.175          46.000  
G16  26675721.163   140181895.504         597.192          38.000                                                                  
E02  28905345.271   151898716.552         840.569          41.000    28905359.552   116390005.094         644.146          46.000  
> 2024 04 15 15 22 00.0040000  0 23                     
G03  22955995.180   120634538.950       -2272.977          47.000    22955998.127    94000933.897       -1771.032          45.000  
G04  22493187.112   118202480.963       -2658.508          45.000    22493188.535    92105816.339       -2071.603          48.000  
G09  22024172.096   115737817.375        -476.410          49.000    22024173.170    90185313.946        -371.277          46.000  
G19  25620777.359   134638038.254       -2735.068          41.000                                                                  
R10  24994703.377                3      -3240.419          24.000                                                                  
R02  22432240.819   119702752.875         449.210          52.000    22432242.815    93102155.920         349.316          48.000  
R11  22634705.020   120953069.275          75.129          50.000    22634706.208    94074646.120          58.365          47.000  
R01  21824367.746   116663734.742       -1647.222          48.000    21824369.189    90738460.017       -1281.157          45.000  
R24  22214392.218   118790302.986       -3879.792          51.000    22214394.284    92392442.443       -3017.618          49.000  
G07  23576823.258   123897109.677        2836.731          46.000    23576824.251    96543291.715        2210.658          41.000  
S31  40125077.270   210858690.792        -803.672          44.000  
S33  41075618.447   215853811.019        -802.862          43.000  
R12  23872562.067   127523021.257        3072.389          48.000    23872569.545    99184623.697        2389.561          47.000  
R17  22272653.348   119185486.743         -20.062          51.000    22272652.281    92699825.021         -15.575          48.000  
R08  25154420.259                3      -3281.433          26.000    25154421.869   104767256.589       -2551.911          35.000  
E07  25311360.716   133012106.199        -251.451          47.000    25311366.660   101918388.952        -192.599          52.000  
E08  25799983.742   135579810.933       -2243.017          47.000    25799987.089   103885831.921       -1718.683          52.000  
E13  25177635.624   132309340.664       -2394.514          48.000    25177640.194   101379895.006       -1834.646          51.000  
E15  28537034.990   149963014.481       -3937.652          43.000    28537049.173   114906723.977       -3017.368          46.000  
E26  25901952.003   136115683.634         509.632          47.000    25901955.821   104296453.267         390.418          51.000  
G06  22797292.365   119800546.807         890.691          48.000    22797294.396    93351130.359         694.133          46.000  
G16  26672335.311   140164102.359         588.722          37.000                                                                  
E02  28900567.347   151873611.067         833.125          40.000    28900582.259   116370768.573         638.389          46.000  
> 2024 04 15 15 22 30.0040000  0 23                     
G03  22968996.655   120702861.236       -2282.108          47.000    22968999.677    94054171.948       -1778.286          45.000  
G04  22508380.266   118282317.165       -2663.932          46.000    22508381.114    92168026.312       -2075.813          48.000  
G09  22026917.787   115752245.182        -485.321          49.000    22026918.831    90196556.410        -378.192          47.000  
G19  25636408.058   134720177.905       -2741.072          42.000                                                                  
R10  25012993.492                3      -3259.401          25.000                                                                  
R02  22429727.574   119689346.554         444.579          51.000    22429730.892    93091728.824         345.753          48.000  
R11  22634352.702   120951186.137          50.449          51.000    22634354.191    94073181.474          39.363          48.000  
R01  21833622.665   116713210.613       -1651.050          48.000    21833624.166    90776941.164       -1284.032          44.000  
R24  22236206.651   118906954.772       -3896.960          52.000    22236208.514    92483171.462       -3030.907          49.000  
G07  23560654.277   123812140.491        2827.806          46.000    23560654.796    96477082.103        2203.924          41.000  
S31  40129665.401   210882800.670        -803.676          44.000  
S33  41080200.864   215877892.291        -802.750          42.000  
R12  23855320.906   127430924.983        3067.257          49.000    23855328.819    99112993.520        2385.599          47.000  
R17  22272840.466   119186487.241         -46.610          51.000    22272839.599    92700603.189         -36.361          49.000  
R08  25172838.511                3      -3271.868          18.000    25172802.056   104843804.708       -2551.184          33.000  
E07  25312812.531   133019732.037        -256.893          48.000    25312817.522   101924232.123        -196.767          52.000  
E08  25812794.250   135647132.335       -2245.151          47.000    25812798.091   103937415.806       -1720.286          51.000  
E13  25191339.899   132381359.327       -2406.798          48.000    25191344.973   101435078.084       -1844.127          51.000  
E15  28559521.489   150081179.545       -3939.919          43.000    28559536.019   114997265.623       -3018.927          47.000  
E26  25899077.686   136100580.601         497.209          46.000    25899081.794   104284880.830         381.111          51.000  
G06  22792258.877   119774093.999         872.776          48.000    22792261.187    93330517.810         680.070          47.000  
G16  26668996.933   140146556.310         580.845          38.000                                                                  
E02  28895831.442   151848726.547         825.902          40.000    28895846.435   116351701.371         632.944          45.000  
> 2024 04 15 15 23 00.0040000  0 23                     
G03  22982054.053   120771471.733       -2291.977          48.000    22982056.043    94107634.564       -1785.902          45.000  
G04  22523605.689   118362323.524       -2669.873          47.000    22523606.291    92230368.898       -2080.393          48.000  
G09  22029715.052   115766945.622        -494.666          49.000    22029716.775    90208011.300        -385.455          47.000  
G19  25652076.918   134802515.896       -2748.193          42.000                                                                  
R10  25031392.623                3      -3287.292          21.000                                                                  
R02  22427242.196   119676084.329         439.558          50.000    22427244.864    93081413.787         341.934          48.000  
R11  22634140.381   120950047.419          25.404          51.000    22634141.143    94072295.870          19.774          48.000  
R01  21842900.809   116762808.655       -1655.366          48.000    21842902.868    90815517.346       -1287.470          44.000  
R24  22258119.635   119024127.579       -3914.602          52.000    22258119.964    92574305.719       -3044.693          48.000  
G07  23544538.076   123727448.266        2818.319          48.000    23544538.373    96411088.283        2196.123          41.000  
S31  40134254.343   210906912.541        -803.879          45.000  
S33  41084783.593   215901975.377        -802.793          42.000  
R12  23838110.258   127338987.303        3061.789          49.000    23838119.052    99041486.697        2381.324          49.000  
R17  22273177.886   119188293.218         -73.785          51.000    22273176.459    92702007.836         -57.366          48.000  
R08  25191190.143                       -3279.058          29.000    25191174.151   104920330.837       -2550.752          32.000  
E07  25314295.642   133027530.465        -262.925          47.000    25314301.736   101930207.542        -201.475          53.000  
E08  25825617.983   135714521.325       -2247.569          47.000    25825622.082   103989051.473       -1722.177          52.000  
E13  25205117.471   132453757.770       -2419.825          49.000    25205122.313   101490552.154       -1854.062          51.000  
E15  28582020.823   150199416.033       -3942.486          42.000    28582036.248   115087862.003       -3020.909          47.000  
E26  25896275.398   136085853.695         484.525          46.000    25896279.295   104273596.595         371.160          51.000  
G06  22787328.995   119748189.080         854.179          47.000    22787331.619    93310332.182         665.310          47.000  
G16  26665705.981   140129262.453         572.008          39.000                                                                  
E02  28891139.554   151824068.058         817.936          41.000    28891153.831   116332807.364         626.785          45.000  
> 2024 04 15 15 23 30.0040000  0 23                     
G03  22995164.925   120840376.660       -2301.675          47.000    22995168.298    94161326.640       -1793.686          44.000  
G04  22538863.472   118442504.284       -2675.453          47.000    22538864.531    92292847.335       -2084.789          49.000  
G09  22032565.864   115781923.557        -503.754          49.000    22032566.553    90219682.398        -392.474          47.000  
G19  25667783.887   134885055.457       -2754.635          42.000                                                                  
R10  25049904.981                3      -3303.083          22.000                                                                  
R02  22424784.489   119662970.995         434.808          50.000    22424787.102    93071214.606         338.074          47.000  
R11  22634067.920   120949661.023           0.482          51.000    22634068.883    94071995.412           0.439          47.000  
R01  21852203.034   116812534.560       -1659.530          47.000    21852205.592    90854192.988       -1290.693          43.000  
R24  22280129.163   119141823.214       -3931.703          51.000    22280130.015    92665846.672       -3058.039          48.000  
G07  23528476.607   123643041.762        2808.891          48.000    23528476.148    96345317.082        2188.884          41.000  
S31  40138843.921   210931031.512        -803.918          44.000  
S33  41089367.819   215926065.091        -803.003          42.000  
R12  23820931.251   127247218.765        3056.136          50.000    23820939.417    98970111.464        2377.064          49.000  
R17  22273665.715   119190911.322        -100.692          49.000    22273665.832    92704044.111         -78.190          48.000  
R08  25209554.349                       -3278.761          27.000    25209542.413                       -2550.056          31.000  
E07  25315813.343   133035506.524        -268.591          47.000    25315819.223   101936319.078        -205.821          52.000  
E08  25838455.930   135781982.760       -2249.779          47.000    25838459.710   104040742.664       -1723.853          52.000  
E13  25218966.878   132526540.671       -2432.311          48.000    25218972.519   101546320.810       -1863.645          51.000  
E15  28604535.099   150317727.990       -3944.833          42.000    28604550.887   115178516.179       -3022.612          48.000  
E26  25893546.862   136071509.977         471.920          46.000    25893549.232   104262605.942         361.554          50.000  
G06  22782504.993   119722839.781         835.911          48.000    22782507.105    93290579.509         651.227          46.000  
G16  26662464.205   140112228.766         563.275          37.000                                                                  
E02  28886491.425   151799643.209         810.309          41.000    28886505.662   116314092.320         620.947          45.000  
> 2024 04 15 15 24 00.0050000  0 22                     
G03  23008333.792   120909578.438       -2311.641          47.000    23008337.433    94215250.032       -1801.306          44.000  
G04  22554154.659   118522860.324       -2681.457          47.000    22554155.160    92355462.356       -2089.284          48.000  
G09  22035468.876   115797178.283        -513.012          49.000    22035469.445    90231569.210        -399.848          47.000  
G19  25683528.629   134967796.201       -2761.392          40.000                                                                  
R02  22422355.288   119650005.540         429.633          50.000    22422357.421    93061130.447         334.119          48.000  
R11  22634136.290   120950028.689         -24.987          50.000    22634137.546    94072281.418         -19.412          47.000  
R01  21861529.455   116862389.498       -1664.005          48.000    21861531.011    90892968.975       -1294.148          42.000  
R24  22302236.260   119260040.919       -3949.096          50.000    22302237.871    92757793.629       -3071.533          49.000  
G07  23512468.496   123558920.676        2798.999          47.000    23512469.122    96279768.303        2181.176          41.000  
S31  40143435.128   210955158.393        -804.333          45.000  
S33  41093953.533   215950163.524        -803.287          42.000  
R12  23803784.228   127155620.591        3050.191          51.000    23803790.811    98898868.695        2372.366          48.000  
R17  22274308.226   119194341.920        -127.917          52.000    22274307.972    92706712.373         -99.426          49.000  
R08  25227915.684                3      -3287.675          21.000    25227911.240   105073335.202       -2548.926          33.000  
E07  25317364.987   133043659.559        -274.698          47.000    25317370.397   101942566.194        -210.481          52.000  
E08  25851307.718   135849517.822       -2252.263          47.000    25851311.325   104092490.262       -1725.766          52.000  
E13  25232890.525   132599709.259       -2445.405          48.000    25232895.987   101602384.994       -1873.689          52.000  
E15  28627063.943   150436117.397       -3947.291          41.000    28627079.999   115269229.696       -3024.692          48.000  
E26  25890890.117   136057549.955         459.050          46.000    25890892.909   104251909.311         351.505          50.000  
G06  22777786.849   119698047.064         816.986          48.000    22777789.818    93271260.506         636.584          46.000  
G16  26659271.529   140095457.032         554.969          36.000                                                                  
E02  28881888.109   151775452.715         802.409          41.000    28881902.801   116295556.895         614.851          45.000  
> 2024 04 15 15 24 30.0050000  0 22                     
G03  23021557.197   120979069.851       -2320.981          47.000    23021561.077    94269399.069       -1808.599          45.000  
G04  22569477.650   118603381.757       -2686.646          46.000    22569478.111    92418206.281       -2093.428          48.000  
G09  22038423.834   115812704.793        -521.833          50.000    22038424.190    90243667.826        -406.740          47.000  
G19  25699309.661   135050726.855       -2767.595          38.000                                                                  
R02  22419952.802   119637185.097         425.214          50.000    22419954.987    93051159.051         330.566          48.000  
R11  22634345.269   120951149.125         -49.625          49.000    22634347.512    94073152.890         -38.562          47.000  
R01  21870879.605   116912366.681       -1667.682          48.000    21870879.691    90931840.078       -1297.070          43.000  
R24  22324439.009   119378765.170       -3965.613          51.000    22324439.823    92850134.567       -3084.405          48.000  
G07  23496515.568   123475090.973        2789.843          47.000    23496516.066    96214446.587        2173.732          41.000  
S31  40148026.906   210979288.063        -804.089          44.000  
S33  41098539.719   215974265.047        -803.363          41.000  
R12  23786670.270   127064200.086        3044.718          50.000    23786676.848    98827764.125        2367.979          49.000  
R17  22275100.496   119198582.753        -154.523          51.000    22275100.324    92710010.782        -120.203          48.000  
R08  25246277.632                1      -3276.325          25.000    25246275.051                1      -2548.413          31.000  
E07  25318949.008   133051985.212        -280.065          47.000    25318954.617   101948945.594        -214.582          52.000  
E08  25864171.830   135917118.087       -2254.174          47.000    25864175.370   104144287.808       -1727.225          52.000  
E13  25246885.843   132673254.538       -2457.476          48.000    25246891.761   101658737.802       -1883.071          52.000  
E15  28649605.189   150554571.638       -3949.374          40.000    28649621.306   115359992.878       -3026.202          47.000  
E26  25888305.682   136043972.840         446.360          46.000    25888308.950   104241506.066         342.096          50.000  
G06  22773175.483   119673811.433         798.698          48.000    22773177.252    93252375.598         622.290          45.000  
G16  26656130.650   140078947.847         546.168          35.000                                                                  
E02  28877328.183   151751497.053         794.750          39.000    28877343.161   116277201.363         609.004          44.000  
> 2024 04 15 15 25 00.0050000  0 24                     
G03  23034836.648   121048847.403       -2330.558          48.000    23034839.395    94323771.088       -1815.936          44.000  
G04  22584830.629   118684063.511       -2691.888          46.000    22584831.459    92481075.087       -2097.525          49.000  
G09  22041428.668   115828496.492        -530.487          50.000    22041428.571    90255973.032        -413.342          46.000  
G19  25715125.762   135133840.978       -2773.094          38.000                                                                  
R10  25106049.703                3      -3357.578          14.000                                                                  
R02  22417575.544   119624502.436         420.709          51.000    22417578.049    93041294.812         327.124          47.000  
R11  22634695.125   120953017.723         -74.479          50.000    22634697.157    94074606.269         -58.043          47.000  
R01  21880250.885   116962461.382       -1671.472          50.000    21880251.572    90970802.613       -1300.113          43.000  
R24  22346733.522   119497989.522       -3982.214          50.000    22346735.221    92942864.464       -3097.357          48.000  
G07  23480616.813   123391546.297        2780.222          46.000    23480617.749    96149346.956        2166.385          41.000  
S31  40152618.213   211003416.511        -803.990          44.000  
S33  41103125.843   215998362.979        -803.047          43.000  
R12  23769587.640   126972952.450        3038.793          50.000    23769594.305    98756794.020        2363.473          48.000  
R17  22276043.485   119203628.136        -181.415          51.000    22276043.420    92713934.973        -141.040          49.000  
R08  25264641.052                1      -3275.751          25.000    25264632.692                3      -2541.095          18.000  
E07  25320564.884   133060476.851        -285.587          47.000    25320570.569   101955452.177        -218.837          52.000  
E08  25877047.012   135984778.781       -2256.213          47.000    25877050.797   104196131.655       -1728.736          52.000  
E13  25260951.848   132747171.744       -2469.955          48.000    25260957.674   101715375.582       -1892.571          52.000  
E15  28672158.387   150673086.734       -3951.316          41.000    28672174.333   115450802.680       -3027.670          47.000  
E26  25885793.070   136030773.166         433.776          46.000    25885797.877   104231392.039         332.454          51.000  
G06  22768668.791   119650127.785         780.378          47.000    22768670.557    93233920.767         608.115          47.000  
G16  26653036.195   140062696.833         537.571          33.000                                                                  
E02  28872812.655   151727770.920         787.232          38.000    28872828.580   116259021.735         603.089          44.000  
G11                                                                  25894380.363                3       1852.132          25.000  
> 2024 04 15 15 25 30.0050000  0 24                     
G03  23048168.374   121118908.030       -2340.063          48.000    23048171.356    94378363.683       -1823.345          44.000  
G04  22600213.576   118764900.697       -2697.213          46.000    22600214.353    92544065.031       -2101.611          48.000  
G09  22044483.435   115844549.047        -539.479          50.000    22044483.598    90268481.522        -420.381          46.000  
G19  25730975.479   135217132.665       -2779.442          32.000                                                                  
R10  25124996.282                3      -3370.828          20.000                                                                  
R02  22415223.631   119611953.272         416.064          49.000    22415226.857    93031534.419         323.438          47.000  
R11  22635184.666   120955633.064         -99.788          49.000    22635186.011    94076640.482         -77.624          48.000  
R01  21889643.727   117012669.879       -1675.550          49.000    21889644.104    91009853.645       -1303.341          44.000  
R24  22369121.507   119617705.978       -3998.706          51.000    22369122.318    93035977.107       -3110.168          47.000  
G07  23464772.977   123308286.206        2770.665          47.000    23464773.822    96084469.090        2158.737          40.000  
S31  40157208.945   211027538.403        -804.029          45.000  
S33  41107710.544   216022455.532        -803.146          43.000  
R12  23752539.531   126881878.986        3032.671          52.000    23752544.974    98685959.342        2358.757          47.000  
R17  22277135.807   119209474.944        -208.362          51.000    22277134.411    92718482.441        -162.061          48.000  
R08  25282959.380                3      -3275.330          27.000    25282994.779                2      -2547.064          27.000  
E07  25322212.772   133069130.373        -291.292          49.000    25322217.573   101962082.803        -223.134          52.000  
E08  25889932.182   136052495.636       -2258.219          46.000    25889936.912   104248018.524       -1730.375          52.000  
E13  25275087.357   132821456.364       -2482.334          48.000    25275093.633   101772294.905       -1902.044          52.000  
E15  28694722.758   150791657.501       -3953.249          42.000    28694737.902   115541655.162       -3029.147          47.000  
E26  25883352.062   136017948.780         421.082          45.000    25883357.307   104221565.581         322.611          51.000  
G06  22764266.733   119626994.596         761.784          47.000    22764268.820    93215894.932         593.683          47.000  
G16  26649993.532   140046702.265         528.987          35.000                                                                  
E02  28868342.654   151704272.866         779.201          39.000    28868356.448   116241016.804         597.052          44.000  
G11                                                                  25880880.370                3       1840.629          24.000  
> 2024 04 15 15 26 00.0050000  0 24                     
G03  23061555.688   121189258.526       -2349.742          47.000    23061558.142    94433182.156       -1830.772          43.000  
G04  22615627.597   118845898.174       -2702.441          48.000    22615627.580    92607179.871       -2105.698          48.000  
G09  22047588.471   115860867.813        -548.188          50.000    22047588.345    90281197.467        -427.235          46.000  
G19  25746861.328   135300605.143       -2785.359          34.000                                                                  
R10  25144040.099                3      -3393.503          20.000                                                                  
R02  22412898.720   119599543.595         411.530          48.000    22412900.990    93021882.495         320.087          47.000  
R11  22635815.216   120959003.376        -124.850          49.000    22635816.641    94079261.879         -97.214          47.000  
R01  21899057.790   117062998.814       -1679.660          47.000    21899060.244    91048998.330       -1306.226          45.000  
R24  22391602.536   119737916.504       -4015.015          51.000    22391602.828    93129474.036       -3122.815          47.000  
G07  23448985.642   123225320.008        2760.712          48.000    23448985.461    96019820.183        2151.271          41.000  
S31  40161799.031   211051660.990        -804.046          44.000  
S33  41112295.644   216046549.898        -802.993          43.000  
R12  23735524.285   126790990.383        3026.636          52.000    23735530.169    98615268.467        2353.978          48.000  
R17  22278380.013   119216130.537        -235.223          52.000    22278379.452    92723659.035        -182.910          49.000  
R08  25301322.597                3      -3274.561          25.000    25301342.446                2      -2546.051          25.000  
E07  25323891.347   133077951.389        -296.670          48.000    25323895.840   101968841.761        -227.231          52.000  
E08  25902830.608   136120274.194       -2260.128          46.000    25902834.692   104299952.677       -1731.869          52.000  
E13  25289295.137   132896113.695       -2494.656          48.000    25289299.990   101829499.812       -1911.496          51.000  
E15  28717296.463   150910288.617       -3955.426          40.000    28717313.180   115632553.879       -3030.685          47.000  
E26  25880984.832   136005507.247         408.517          45.000    25880989.822   104212032.460         312.970          51.000  
G06  22759970.122   119604420.052         743.577          46.000    22759972.414    93198304.401         579.247          46.000  
G16  26647002.380   140030973.093         520.018          40.000                                                                  
E02  28863916.866   151681010.947         771.685          39.000    28863931.248   116223192.863         591.403          46.000  
G11                                                                  25867375.281                3       1826.297          20.000  
> 2024 04 15 15 26 30.0050000  0 24                     
G03  23074999.010   121259899.288       -2359.554          48.000    23075001.088    94488226.822       -1838.679          44.000  
G04  22631070.908   118927054.577       -2707.828          46.000    22631070.583    92670418.517       -2110.085          48.000  
G09  22050744.191   115877451.986        -557.165          50.000    22050744.458    90294120.193        -434.119          46.000  
G19  25762779.820   135384255.742       -2790.878          35.000                                                                  
R10  25163189.927                3      -3420.639          14.000                                                                  
R02  22410598.541   119587272.849         406.635          49.000    22410601.693    93012338.623         316.296          47.000  
R11  22636587.815   120963130.447        -150.246          50.000    22636589.256    94082471.842        -116.903          48.000  
R01  21908494.390   117113447.518       -1683.637          47.000    21908497.170    91088236.183       -1309.412          44.000  
R24  22414174.220   119858616.901       -4031.580          52.000    22414173.707    93223351.976       -3135.486          46.000  
G07  23433254.953   123142651.500        2750.625          47.000    23433255.154    95955403.280        2143.158          42.000  
S31  40166389.586   211075785.069        -804.277          45.000  
S33  41116880.239   216070643.462        -803.242          42.000  
R12  23718544.258   126700291.446        3019.893          51.000    23718551.368    98544725.130        2348.913          48.000  
R17  22279774.174   119223595.603        -262.402          51.000    22279774.715    92729465.160        -204.126          49.000  
R08  25319672.047                3      -3262.906          18.000    25319677.994                3      -2548.163          23.000  
E07  25325601.292   133086939.223        -302.417          48.000    25325606.574   101975728.566        -231.680          52.000  
E08  25915740.750   136188113.689       -2262.359          48.000    25915743.963   104351933.506       -1733.499          52.000  
E13  25303572.837   132971142.699       -2507.104          48.000    25303577.528   101886989.525       -1921.040          51.000  
E15  28739882.587   151028978.497       -3957.697          38.000    28739899.890   115723497.591       -3032.213          47.000  
E26  25878690.414   135993449.923         395.358          45.000    25878695.210   104202793.728         303.031          50.000  
G06  22755781.059   119582406.226         724.487          47.000    22755782.961    93181150.768         564.510          46.000  
G16  26644061.629   140015511.731         511.145          40.000                                                                  
E02  28859535.533   151657987.186         763.427          38.000    28859549.641   116205551.390         584.870          45.000  
G11                                                                  25853969.541                3       1829.919          25.000  
> 2024 04 15 15 27 00.0050000  0 24                     
G03  23088495.664   121330828.427       -2368.740          47.000    23088498.792    94543496.167       -1845.866          44.000  
G04  22646543.735   119008366.068       -2712.556          46.000    22646543.703    92733778.070       -2113.747          48.000  
G09  22053949.615   115894298.279        -565.545          50.000    22053950.315    90307247.191        -440.661          46.000  
G19  25778729.856   135468079.592       -2797.182          33.000                                                                  
R10  25182438.637                3      -3434.677          18.000                                                                  
R02  22408325.378   119575138.068         402.625          50.000    22408326.819    93002900.510         313.135          47.000  
R11  22637502.046   120968013.713        -175.011          50.000    22637502.782    94086269.996        -136.074          48.000  
R01  21917954.754   117164013.674       -1687.103          48.000    21917956.236    91127565.370       -1312.145          43.000  
R24  22436836.847   119979800.379       -4047.131          52.000    22436836.000    93317605.657       -3147.650          46.000  
G07  23417579.681   123060280.230        2741.085          48.000    23417580.600    95891218.021        2135.701          42.000  
S31  40170979.904   211099906.774        -803.687          44.000  
S33  41121465.163   216094736.867        -802.665          42.000  
R12  23701600.890   126609784.319        3014.015          50.000    23701607.385    98474330.962        2344.256          47.000  
R17  22281320.298   119231868.005        -288.824          51.000    22281320.338    92735899.259        -224.731          48.000  
E07  25327342.947   133096090.867        -307.472          48.000    25327348.236   101982740.883        -235.508          52.000  
E08  25928660.701   136256011.016       -2263.716          47.000    25928664.768   104403958.660       -1734.645          52.000  
E13  25317920.240   133046540.029       -2519.101          48.000    25317925.284   101944761.455       -1930.227          51.000  
E15  28762479.740   151147723.069       -3959.156          40.000    28762496.731   115814483.233       -3033.323          47.000  
E26  25876469.109   135981775.644         383.085          46.000    25876473.544   104193848.518         293.571          50.000  
G06  22751698.139   119560952.562         705.991          46.000    22751701.204    93164433.646         550.142          47.000  
G16  26641169.279   140000318.260         502.637          37.000                                                                  
E02  28855198.182   151635200.937         755.904          37.000    28855213.440   116188091.925         578.953          45.000  
G11                                                                  25840590.895                        1822.226          28.000  
R08                                                                  25337959.179                3      -2539.081          22.000  
> 2024 04 15 15 27 30.0050000  0 24                     
G03  23102047.897   121402044.711       -2378.757          46.000    23102050.325    94598989.295       -1853.501          44.000  
G04  22662045.807   119089829.698       -2717.955          47.000    22662045.849    92797256.122       -2117.773          47.000  
G09  22057205.134   115911404.211        -574.384          50.000    22057205.386    90320576.497        -447.479          46.000  
G19  25794713.158                       -2802.275          29.000                                                                  
R10  25201790.183                3      -3441.279          21.000                                                                  
R02  22406077.017   119563137.156         397.906          51.000    22406077.647    92993566.493         309.564          48.000  
R11  22638557.197   120973653.273        -200.626          50.000    22638557.566    94090656.354        -155.890          48.000  
R01  21927436.698   117214695.519       -1691.156          49.000    21927437.500    91166984.565       -1315.344          43.000  
R24  22459587.170   120101460.801       -4063.104          51.000    22459588.071    93412230.298       -3160.205          48.000  
G07  23401960.789   122978207.947        2730.983          46.000    23401961.899    95827265.702        2127.967          42.000  
S31  40175569.815   211124025.944        -803.852          45.000  
S33  41126048.844   216118825.481        -802.761          43.000  
R12  23684694.511   126519472.059        3007.230          51.000    23684701.344    98404088.341        2338.896          49.000  
R17  22283017.577   119240946.745        -315.985          51.000    22283016.148    92742960.458        -245.752          47.000  
R08  25356339.615                3      -3276.029          24.000    25356352.458                3      -2547.088          23.000  
E07  25329114.085   133105404.009        -312.996          46.000    25329120.295   101989876.968        -239.814          52.000  
E08  25941591.553   136323963.767       -2265.943          47.000    25941595.730   104456026.294       -1736.214          52.000  
E13  25332336.851   133122302.971       -2531.393          48.000    25332342.699   102002813.544       -1939.566          51.000  
E15  28785085.330   151266519.074       -3960.738          38.000    28785103.077   115905508.275       -3034.682          47.000  
E26  25874321.442   135970484.149         369.869          46.000    25874325.081   104185196.582         283.556          50.000  
G06  22747722.347   119540059.382         687.072          46.000    22747725.439    93148153.278         535.452          47.000  
G16  26638327.802   139985393.466         492.904          37.000                                                                  
E02  28850908.184   151612652.482         747.939          40.000    28850922.400   116170814.666         572.860          45.000  
G11                                                                  25827246.186                1       1815.769          28.000  
> 2024 04 15 15 28 00.0050000  0 24                     
G03  23115654.967   121473550.778       -2388.322          47.000    23115658.268    94654708.215       -1861.120          45.000  
G04  22677576.605   119171446.198       -2722.976          46.000    22677577.184    92860853.316       -2121.861          47.000  
G09  22060509.682   115928771.088        -583.051          50.000    22060510.454    90334109.180        -454.421          46.000  
G19  25810730.414                1      -2808.154          27.000                                                                  
R02  22403852.823   119551271.792         393.365          49.000    22403854.345    92984337.920         305.811          46.000  
R11  22639754.418   120980053.019        -225.877          49.000    22639755.004    94095633.991        -175.665          48.000  
R01  21936939.537   117265495.493       -1695.135          49.000    21936940.509    91206495.597       -1318.439          44.000  
R24  22482427.164   120223596.063       -4078.808          51.000    22482427.580    93507224.247       -3172.510          48.000  
G07  23386400.870   122896439.774        2720.568          47.000    23386402.591    95763550.385        2119.843          42.000  
S31  40180159.093   211148143.465        -803.726          45.000  
S33  41130633.018   216142913.477        -802.682          41.000  
R12  23667824.994   126429361.190        3000.398          50.000    23667831.770    98334002.359        2333.627          48.000  
R17  22284865.492   119250834.457        -342.963          52.000    22284864.533    92750650.864        -266.699          48.000  
R08  25374662.044                3      -3270.839          25.000    25374666.261                1      -2544.141          27.000  
E07  25330918.031   133114880.256        -318.440          47.000    25330923.627   101997137.997        -243.971          52.000  
E08  25954534.477   136391973.454       -2267.760          48.000    25954537.607   104508137.545       -1737.687          52.000  
E13  25346824.212   133198432.747       -2543.641          48.000    25346829.937   102061146.680       -1948.981          52.000  
E15  28807703.710   151385367.023       -3962.415          39.000    28807719.654   115996573.126       -3036.013          47.000  
E26  25872245.899   135959578.762         357.268          46.000    25872249.871   104176840.536         273.614          50.000  
G06  22743853.904   119519730.683         668.109          47.000    22743856.416    93132312.753         520.754          47.000  
G30  26188280.325   137620337.5811       3053.500          38.000                                                                  
G16  26635538.679   139970741.667         483.735          36.000                                                                  
E02  28846663.078   151590345.938         739.771          40.000    28846677.123   116153722.697         566.709          45.000  
G11                                                                  25813979.066                3       1812.438          22.000  
> 2024 04 15 15 28 30.0050000  0 25                     
G03  23129317.595   121545350.238       -2397.804          46.000    23129321.901    94710655.733       -1868.423          45.000  
G04  22693137.633   119253217.394       -2728.026          46.000    22693137.591    92924571.061       -2125.685          47.000  
G09  22063864.799   115946401.260        -591.884          50.000    22063865.335    90347846.989        -461.238          46.000  
G19  25826775.855   135720659.9291      -2813.418          29.000                                                                  
R10  25240766.283                3      -3490.686          14.000                                                                  
R02  22401655.118   119539544.960         388.806          51.000    22401656.983    92975217.078         302.496          48.000  
R11  22641095.904   120987217.579        -251.329          50.000    22641096.885    94101206.444        -195.371          49.000  
R01  21946465.043   117316416.529       -1699.238          47.000    21946466.569    91246100.805       -1321.509          43.000  
R24  22505356.035   120346205.218       -4094.563          51.000    22505356.796    93602586.795       -3184.793          47.000  
G07  23370900.211   122814982.093        2710.289          48.000    23370901.549    95700076.968        2111.913          43.000  
S31  40184748.662   211172263.902        -803.807          44.000  
S33  41135217.057   216167004.285        -802.740          42.000  
R12  23650994.929   126339459.950        2993.407          50.000    23651002.202    98264079.450        2328.160          49.000  
R17  22286865.658   119261534.834        -370.038          52.000    22286863.632    92758973.337        -287.714          48.000  
R08  25392953.218                3      -3269.430          20.000    25392979.977                3      -2535.734          21.000  
E07  25332751.861   133124522.101        -323.961          46.000    25332758.407   102004525.935        -248.136          52.000  
E08  25967486.956   136460042.509       -2269.746          48.000    25967490.747   104560294.276       -1739.093          52.000  
E13  25361381.028   133274931.429       -2555.947          48.000    25361387.104   102119762.493       -1958.409          52.000  
E15  28830330.000   151504268.517       -3964.036          38.000    28830346.586   116087678.988       -3037.347          47.000  
E26  25870244.634   135949064.004         344.304          45.000    25870248.967   104168783.781         263.700          50.000  
G06  22740093.850   119499971.514         649.376          47.000    22740096.783    93116916.035         506.057          47.000  
G30  26170853.596   137528758.776        3052.232          40.000                                                                  
G16  26632804.317   139956368.479         474.708          36.000                                                                  
E02  28842465.079   151568286.261         731.450          40.000    28842479.110   116136819.948         560.380          45.000  
G11                                                                  25800756.379                        1802.552          29.000  
> 2024 04 15 15 29 00.0050000  0 26                     
G03  23143036.637   121617442.537       -2408.372          46.000    23143040.574    94766831.474       -1876.598          44.000  
G04  22708727.011   119335140.961       -2733.604          47.000    22708727.542    92988407.517       -2130.216          47.000  
G09  22067269.096   115964292.899        -601.033          50.000    22067269.581    90361788.516        -468.447          46.000  
G19  25842857.095                       -2819.470          29.000                                                                  
R10  25260457.070                3      -3499.312          16.000                                                                  
R02  22399483.317   119527954.834         383.801          50.000    22399484.847    92966202.589         298.505          47.000  
R11  22642578.766   120995147.866        -277.356          49.000    22642581.421    94107374.530        -215.872          49.000  
R01  21956013.081   117367457.442       -1703.620          48.000    21956015.832    91285799.260       -1325.130          44.000  
R24  22528371.704   120469282.796       -4110.686          50.000    22528372.583    93698313.644       -3197.253          47.000  
G07  23355459.257   122733836.948        2699.350          48.000    23355461.200    95636847.110        2103.364          43.000  
S31  40189339.471   211196385.124        -804.350          45.000  
S33  41139801.817   216191096.583        -803.156          42.000  
R12  23634205.884   126249771.932        2985.754          51.000    23634211.786    98194322.371        2322.211          48.000  
R17  22289016.869   119273047.364        -397.595          52.000    22289015.547    92767927.471        -309.192          48.000  
R08  25411278.072                       -3269.232          25.000    25411294.892                1      -2542.029          24.000  
E07  25334618.814   133134327.931        -329.829          47.000    25334623.889   102012039.517        -252.807          52.000  
E08  25980450.842   136528169.229       -2272.096          47.000    25980454.659   104612495.189       -1740.980          51.000  
E13  25376007.935   133351797.005       -2568.584          48.000    25376014.385   102178659.422       -1968.135          52.000  
E15  28852966.924   151623220.962       -3966.311          40.000    28852983.346   116178823.861       -3039.120          47.000  
E26  25868319.022   135938940.150         330.552          46.000    25868322.521   104161026.544         253.270          50.000  
G06  22736442.497   119480782.802         629.680          47.000    22736445.032    93101963.811         490.740          47.000  
G30  26153434.606   137437216.442        3050.401          39.000                                                                  
G16  26630120.101   139942275.355         464.871          33.000                                                                  
E30  29302093.884   153983543.7991       1590.783          41.000    29302114.431   117987474.7611       1218.956          47.000  
E02  28838314.629   151546474.421         722.231          39.000    28838328.603   116120107.079         553.635          45.000  
G11                                                                  25787578.945                        1794.760          30.000  
> 2024 04 15 15 29 30.0050000  0 25                     
G03  23156812.178   121689835.549       -2417.874          46.000    23156816.652    94823241.524       -1883.977          45.000  
G04  22724346.826   119417223.018       -2738.578          47.000    22724347.611    93052367.482       -2133.919          47.000  
G09  22070725.253   115982452.564        -609.559          50.000    22070725.459    90375938.916        -474.988          45.000  
G19  25858969.377                1      -2825.015          26.000                                                                  
R02  22397337.470   119516508.767         379.425          50.000    22397340.271    92957300.111         295.142          47.000  
R11  22644208.720   121003852.940        -302.829          51.000    22644209.705    94114145.147        -235.482          48.000  
R01  21965586.172   117418626.082       -1707.606          49.000    21965588.389    91325597.053       -1328.169          44.000  
R24  22551477.075   120592831.879       -4125.912          50.000    22551477.900    93794407.186       -3209.034          49.000  
G07  23340078.748   122653014.566        2688.869          48.000    23340079.910    95573868.724        2095.101          43.000  
S31  40193931.611   211220515.806        -804.260          44.000  
S33  41144387.584   216215196.517        -803.471          42.000  
R12  23617457.732   126160309.198        2978.568          51.000    23617464.074    98124740.513        2316.612          48.000  
R17  22291320.864   119285379.891        -424.530          51.000    22291321.286    92777519.431        -330.200          49.000  
R08  25429601.691                3      -3270.697          21.000    25429601.437                       -2540.607          25.000  
E07  25336517.453   133144304.535        -335.128          48.000    25336521.938   102019683.950        -256.695          51.000  
E08  25993427.078   136596360.387       -2273.877          47.000    25993431.280   104664745.458       -1742.322          51.000  
E13  25390706.280   133429035.854       -2580.573          48.000    25390712.701   102237842.371       -1977.330          52.000  
E15  28875613.066   151742230.160       -3967.624          38.000    28875630.510   116270012.233       -3040.040          47.000  
E26  25866468.306   135929215.855         317.685          46.000    25866471.560   104153575.487         243.445          50.000  
G06  22732901.244   119462173.801         610.731          46.000    22732903.479    93087463.311         475.980          47.000  
G30  26136022.247   137345720.429        3049.280          40.000    26136034.591   107022700.863        2376.272          37.000  
G16  26627494.377   139928471.696         455.059          35.000                                                                  
E30  29293006.529   153935788.425        1592.799          42.000    29293026.880   117950883.382        1220.450          47.000  
E02  28834212.869   151524919.627         714.518          39.000    28834226.783   116103591.191         547.449          45.000  
G11                                                                  25774450.846                        1787.745          31.000  
