     3.00           OBSERVATION DATA    M: Mixed            RINEX VERSION / TYPE
CONVBIN 2.4.3                           20240415 052942 UTC PGM / RUN BY / DATE 
format: u-blox UBX                                          COMMENT             
log: /home/regis/git/gnsspwv/obsdata/VERT00CHL/2024-04-15/VECOMMENT             
{self.marker}                                               MARKER NAME         
                                                            MARKER NUMBER       
GEODETIC                                                    MARKER TYPE         
{self.observer}     {self.institution}                      OBSERVER / AGENCY   
UNKNOWN             UBLOX-ZED-F9P                           REC # / TYPE / VERS 
UNKNOWN             TWIVSP6037L                             ANT # / TYPE        
  1713381.0000 -5047934.0000 -3490983.0000                  APPROX POSITION XYZ 
        0.0000        0.0000        0.0000                  ANTENNA: DELTA H/E/N
G    8 C1C L1C D1C S1C C2L L2L D2L S2L                      SYS / # / OBS TYPES 
R    8 C1C L1C D1C S1C C2C L2C D2C S2C                      SYS / # / OBS TYPES 
E    8 C1C L1C D1C S1C C7Q L7Q D7Q S7Q                      SYS / # / OBS TYPES 
S    4 C1C L1C D1C S1C                                      SYS / # / OBS TYPES 
  2024    04    15    05    15   00.0140000     GPS         TIME OF FIRST OBS   
  2024    04    15    05    29   30.0150000     GPS         TIME OF LAST OBS    
                                                            END OF HEADER       
> 2024 04 15 05 15 00.0140000  0 25                     
S33  44081037.913   231647570.9461       -682.013          42.000  
E02  27915116.124   146694946.8391        431.147          48.000    27915115.749   112402655.0841        330.449          51.000  
G28  27003802.663   141905893.2421      -3293.623          44.000    27003799.068   110575999.6821      -2566.263          42.000  
E36  27638645.187   145242407.2961       -756.431          48.000    27638645.691   111289849.8861       -579.567          52.000  
G26  25755903.405   135348217.5481       1693.413          46.000    25755900.928   105466101.8581       1319.591          44.000  
R20  24486923.756   130942644.0591        166.421          40.000    24486921.474   101844365.0761        129.507          43.000  
R10  24792691.238   132159066.7101       1896.732          49.000                                                                  
R09  23612665.695   126090327.0861      -1772.714          49.000    23612663.177    98070517.3721      -1378.709          50.000  
R16  26691064.208   142579015.8421      -4832.416          48.000    26691065.130   110894696.3831      -3758.543          50.000  
R04  28549086.778   152879004.6561       2206.879          38.000    28549080.894   118905958.6241       1716.667          37.000  
G16  28887731.202                1       2602.727          29.000                                                                  
E11  28785480.563   151269133.4101      -2942.316          42.000    28785477.645   115907747.1631      -2254.579          48.000  
G18  24619814.197   129378356.9151       -816.195          50.000    24619808.671   100814417.9311       -635.988          51.000  
G29  26439789.107   138942436.9481      -2304.862          49.000    26439782.590   108267106.0641      -1795.938          39.000  
S31  43126764.121   226632796.7481       -681.443          43.000  
R19  25385642.623   135796434.4811      -3456.643          41.000    25385637.697   105619053.3071      -2688.480          47.000  
G05  28241258.541   148408810.3031      -2209.526          43.000    28241252.409   115643178.7401      -1721.370          39.000  
G23  27358940.158   143772312.9031       2634.055          47.000    27358937.750   112030397.6721       2052.494          45.000  
E34  29850057.156   156863296.4511       1544.829          42.000    29850060.512   120194096.9441       1183.734          47.000  
E10  32334147.754   169917248.1381      -3435.897          33.000    32334147.277   130196857.4991      -2632.763          35.000  
G25  26775383.982   140705809.9241      -3492.545          45.000    26775382.314   109640959.8751      -2721.736          41.000  
E25  28428907.244   149395221.0521      -2084.647          46.000    28428909.342   114471817.5531      -1597.354          55.000  
G31  26387989.687   138669758.0961      -1462.787          48.000    26387984.769   108054430.4101      -1139.684          42.000  
E14  34317510.816   180339877.4671      -1872.491          40.000    34317510.697   138182559.2511      -1434.650          41.000  
E30                                                                  31721198.472   127728126.3851       1487.838          33.000  
> 2024 04 15 05 15 30.0140000  0 24                     
S33  44084930.764   231668026.974        -682.178          42.000  
E02  27912679.427   146682143.572         422.458          48.000    27912679.519   112392844.800         323.658          51.000  
G28  27022632.787   142004840.136       -3302.765          44.000    27022627.813   110653101.104       -2573.863          42.000  
E36  27642996.478   145265272.328        -767.829          48.000    27642996.823   111307369.861        -588.378          52.000  
G26  25746267.839   135297580.864        1682.461          47.000    25746265.245   105426644.725        1310.972          44.000  
R20  24486032.847   130937884.986         150.566          40.000    24486032.608   101840663.623         117.244          44.000  
R10  24782070.799   132102459.078        1877.196          48.000                                                                  
R09  23622696.554   126143891.628       -1798.115          49.000    23622694.760    98112178.645       -1398.462          51.000  
R16  26718230.734   142724127.692       -4841.556          50.000    26718230.300   111007561.021       -3765.613          49.000  
R04  28536739.555   152812886.324        2201.047          38.000    28536732.363   118854533.266        1712.008          37.000  
E11  28802291.727   151357477.381       -2947.171          43.000    28802288.595   115975439.316       -2258.280          48.000  
G18  24624523.066   129403104.704        -833.515          49.000    24624517.738   100833701.937        -649.612          51.000  
G29  26452957.171   139011636.277       -2308.262          49.000    26452951.433   108321027.629       -1798.586          39.000  
S31  43130655.036   226653243.186        -681.464          44.000  
R19  25405042.945   135900211.321       -3461.653          39.000    25405037.832   105699768.609       -2692.312          47.000  
G05  28253919.132   148475342.313       -2225.337          41.000    28253913.976   115695021.850       -1734.214          41.000  
G23  27343917.355   143693368.153        2628.985          46.000    27343914.807   111968882.391        2048.626          45.000  
E34  29841260.823   156817073.253        1536.812          42.000    29841264.304   120158679.254        1177.501          47.000  
E10  32353764.865   170020331.243       -3435.761          33.000    32353763.777   130275843.271       -2632.981          35.000  
G25  26795353.094   140810746.917       -3503.058          46.000    26795350.719   109722728.908       -2729.788          42.000  
E25  28440837.134   149457911.436       -2094.481          47.000    28440838.911   114519853.043       -1604.915          55.000  
G31  26396392.217   138713912.514       -1480.775          48.000    26396386.691   108088836.430       -1153.506          43.000  
E14  34328172.323   180395904.825       -1862.864          40.000    34328172.161   138225489.312       -1427.209          40.000  
E30                                                                  31710114.318   127683498.052        1486.838          33.000  
> 2024 04 15 05 16 00.0140000  0 24                     
S33  44088822.833   231688481.608        -681.909          42.000  
E02  27910291.769   146669596.378         414.028          47.000    27910291.886   112383230.718         317.179          51.000  
G28  27041511.888   142104057.298       -3311.610          43.000    27041507.551   110730413.113       -2580.954          41.000  
E36  27647410.538   145288474.194        -779.006          47.000    27647412.264   111325147.938        -596.885          53.000  
G26  25736693.705   135247266.602        1671.638          47.000    25736690.880   105387438.814        1302.720          44.000  
R20  24485230.147   130933585.765         135.820          41.000    24485227.973   101837319.864         105.508          44.000  
R10  24771560.469   132046435.577        1857.603          47.000                                                                  
R09  23632869.564   126198210.523       -1823.203          51.000    23632866.497    98154426.662       -1418.123          51.000  
R16  26745446.496   142869507.342       -4850.461          50.000    26745446.017   111120633.979       -3772.610          49.000  
R04  28524424.637   152746951.114        2194.508          34.000    28524415.570                        1706.499          30.000  
E11  28819129.395   151445956.261       -2951.704          43.000    28819125.897   116043234.809       -2261.717          48.000  
G18  24629329.398   129428368.388        -850.753          49.000    24629325.732   100853387.922        -662.874          51.000  
G29  26466143.130   139080929.193       -2311.393          49.000    26466137.454   108375022.104       -1801.235          39.000  
S31  43134545.563   226673687.433        -681.582          44.000  
R19  25424469.057   136004132.856       -3466.648          39.000    25424463.759   105780596.481       -2696.165          45.000  
G05  28266670.875   148542355.257       -2241.896          41.000    28266666.153   115747239.691       -1746.759          41.000  
G23  27328922.502   143614568.936        2624.135          47.000    27328919.240   111907480.489        2044.797          44.000  
E34  29832509.902   156771090.036        1528.719          42.000    29832513.823   120123445.435        1171.389          47.000  
E30  31699026.266                1       1941.974          27.000    31699031.609   127638876.070        1487.183          32.000  
E10  32373379.218   170123405.757       -3435.733          32.000    32373377.685   130354822.434       -2632.483          34.000  
G25  26815381.244   140915994.619       -3513.521          46.000    26815378.526   109804740.050       -2737.826          41.000  
E25  28452822.055   149520892.470       -2104.334          47.000    28452823.902   114568111.226       -1612.336          55.000  
G31  26404895.731   138758600.667       -1498.529          48.000    26404891.211   108123658.370       -1167.861          44.000  
E14  34338777.924   180451633.467       -1852.542          40.000    34338775.729   138268190.502       -1419.575          39.000  
> 2024 04 15 05 16 30.0140000  0 26                     
S33  44092713.945   231708928.324        -681.465          42.000  
E02  27907951.652   146657302.023         405.472          47.000    27907952.058   112373810.357         310.647          51.000  
G28  27060442.262   142203537.093       -3320.428          43.000    27060437.121   110807929.748       -2587.400          41.000  
E36  27651888.698   145312007.390        -790.132          47.000    27651890.567   111343179.886        -605.432          53.000  
G26  25727179.860   135197272.612        1660.948          48.000    25727177.567   105348482.473        1294.283          45.000  
R20  24484511.088   130929740.438         120.267          41.000    24484508.675   101834329.088          93.860          43.000  
R10  24761160.537   131990995.311        1838.195          48.000                                                                  
R09  23643182.779   126253278.407       -1848.185          51.000    23643178.944    98197257.232       -1437.559          51.000  
R03  28411670.084                3        262.989          25.000                                                                  
R16  26772710.567   143015146.149       -4859.108          51.000    26772709.483   111233908.469       -3779.201          48.000  
R04  28512145.767   152681198.191        2189.265          35.000    28512133.482                3       1701.605          18.000  
E11  28835991.349   151534563.694       -2955.581          43.000    28835987.397   116111128.823       -2264.815          49.000  
G18  24634234.060   129454142.154        -867.764          49.000    24634230.323   100873471.397        -676.210          51.000  
G29  26479346.105   139150310.734       -2314.332          48.000    26479340.943   108429085.601       -1803.672          40.000  
S31  43138434.345   226694124.496        -681.271          44.000  
R18  28637969.860                3      -4093.292          15.000                                                                  
R19  25443921.694   136108191.375       -3470.797          41.000    25443915.783   105861530.916       -2699.602          44.000  
G05  28279512.508   148609843.720       -2257.689          41.000    28279508.178   115799828.172       -1759.258          40.000  
G23  27313955.055   143535913.899        2619.155          46.000    27313951.209   111846190.926        2040.976          44.000  
E34  29823804.087   156725342.825        1520.878          43.000    29823808.032   120088392.420        1165.390          46.000  
E30  31687951.836                        1940.744          28.000    31687949.137   127594257.954        1487.265          31.000  
E10  32392991.294   170226465.781       -3435.158          32.000    32392989.222   130433790.543       -2632.121          33.000  
G25  26835467.509   141021546.990       -3523.483          46.000    26835464.804   109886988.623       -2745.708          42.000  
E25  28464860.952   149584159.399       -2113.707          47.000    28464863.007   114616588.491       -1619.657          54.000  
G31  26413499.942   138803816.355       -1516.069          47.000    26413496.006   108158891.340       -1181.448          44.000  
E14  34349322.396   180507059.355       -1842.617          38.000    34349322.264   138310659.693       -1411.969          38.000  
> 2024 04 15 05 17 00.0150000  0 24                     
S33  44096603.124   231729366.989        -681.323          42.000  
E02  27905659.754   146645260.498         396.909          46.000    27905660.498   112364583.726         304.135          51.000  
G28  27079422.004   142303278.804       -3329.237          43.000    27079418.140   110885650.474       -2594.190          43.000  
E36  27656429.856   145335870.846        -801.227          47.000    27656431.524   111361464.878        -613.871          53.000  
G26  25717726.756   135147598.776        1650.054          47.000    25717725.183   105309775.605        1285.834          45.000  
R20  24483875.583   130926346.320         105.374          40.000    24483873.659   101831689.276          82.133          43.000  
R10  24750870.384   131936139.420        1818.478          48.000                                                                  
R09  23653636.087   126309095.380       -1873.148          51.000    23653631.207    98240670.450       -1456.912          50.000  
R16  26800022.450   143161044.790       -4867.529          50.000    26800022.161   111347385.028       -3785.871          49.000  
R04  28499902.676   152615629.277        2182.638          32.000    28499900.551                        1697.364          28.000  
E11  28852877.792   151623300.109       -2960.079          44.000    28852873.226   116179121.648       -2268.077          48.000  
G18  24639235.699   129480424.772        -884.645          49.000    24639231.321   100893951.378        -689.413          51.000  
G29  26492566.493   139219781.865       -2317.299          49.000    26492560.150   108483218.970       -1806.059          39.000  
S31  43142321.999   226714554.291        -681.049          44.000  
R19  25463399.826   136212386.707       -3475.226          40.000    25463395.186   105942571.740       -2703.021          45.000  
G05  28292445.623   148677807.520       -2273.334          40.000    28292440.949   115852786.973       -1771.558          39.000  
G23  27299014.278   143457402.725        2614.210          46.000    27299010.677   111785013.481        2037.229          43.000  
E34  29815143.789   156679829.785        1512.806          42.000    29815147.076   120053518.829        1159.195          46.000  
E10  32412599.478                       -3434.456          30.000    32412597.194   130512748.411       -2632.173          31.000  
G25  26855611.341   141127405.276       -3533.751          46.000    26855608.585   109969475.545       -2753.365          41.000  
E25  28476954.744   149647713.374       -2123.413          47.000    28476957.213   114665285.676       -1626.995          55.000  
G31  26422204.643   138849558.551       -1533.537          48.000    26422200.499   108194534.569       -1194.934          44.000  
E14  34359812.767   180562183.853       -1832.784          37.000    34359812.407   138352897.905       -1404.083          38.000  
E30                                                                  31676867.718                        1486.780          29.000  
> 2024 04 15 05 17 30.0150000  0 24                     
S33  44100490.614   231749796.422        -681.343          42.000  
E02  27903417.022   146633473.275         388.532          46.000    27903417.462   112355551.950         297.691          51.000  
G28  27098450.380   142403272.006       -3337.599          43.000    27098446.733   110963567.127       -2600.659          43.000  
E36  27661032.944   145360061.332        -812.032          46.000    27661034.666   111380000.453        -622.233          53.000  
G26  25708335.703   135098250.207        1639.238          47.000    25708334.722   105271322.199        1277.228          45.000  
R20  24483325.175   130923402.248          90.486          40.000    24483323.306   101829399.496          70.182          43.000  
R10  24740690.375   131881874.353        1798.606          48.000                                                                  
R09  23664227.549   126365656.063       -1897.979          51.000    23664223.434    98284662.071       -1476.243          50.000  
R16  26827382.483   143307189.014       -4875.797          51.000    26827380.661   111461052.613       -3792.297          48.000  
R04  28487693.100                1       2175.890          30.000    28487677.690                        1692.494          31.000  
E11  28869785.654   151712157.325       -2964.335          43.000    28869782.661   116247207.030       -2271.266          49.000  
G18  24644332.861   129507212.571        -901.554          49.000    24644329.017   100914825.011        -702.587          51.000  
G29  26505802.337   139289337.552       -2320.356          49.000    26505795.541   108537418.180       -1807.680          38.000  
S31  43146207.666   226734973.635        -680.486          44.000  
R19  25482901.385   136316708.302       -3479.853          42.000    25482896.442   106023710.707       -2706.417          45.000  
G05  28305468.917   148746240.836       -2289.008          42.000    28305463.588   115906111.623       -1783.594          38.000  
G23  27284103.028   143379043.234        2609.312          46.000    27284098.738   111723954.232        2033.224          43.000  
E34  29806527.564   156634553.850        1504.901          41.000    29806530.709   120018826.932        1153.252          46.000  
E10  32432205.648                       -3434.079          30.000    32432203.322   130591689.355       -2631.851          32.000  
G25  26875811.986   141233560.319       -3543.726          46.000    26875809.344   110052193.748       -2761.337          41.000  
E25  28489102.088   149711549.361       -2132.810          46.000    28489104.773   114714198.942       -1634.300          55.000  
G31  26431008.353   138895822.007       -1551.022          48.000    26431004.489   108230584.007       -1208.722          44.000  
E14  34370243.439   180617003.122       -1821.869          35.000    34370244.665   138394902.302       -1396.500          40.000  
E30                                                                  31665787.612                        1486.468          28.000  
> 2024 04 15 05 18 00.0150000  0 25                     
S33  44104377.250   231770221.315        -680.861          42.000  
E02  27901223.288   146621945.238         379.887          46.000    27901223.584   112346718.772         291.085          51.000  
G28  27117527.690   142503520.791       -3345.721          44.000    27117523.642   111041682.974       -2607.015          43.000  
E36  27665699.416   145384582.630        -822.828          47.000    27665700.790   111398789.509        -630.483          53.000  
G26  25699008.257   135049231.631        1628.384          47.000    25699006.674   105233125.899        1268.922          45.000  
R20  24482859.525   130920910.386          75.754          40.000    24482856.067   101827461.419          58.760          42.000  
R10  24730621.169   131828205.652        1779.023          47.000                                                                  
R09  23674959.459   126422965.167       -1922.741          51.000    23674955.350    98329235.773       -1495.397          50.000  
R16  26854787.881   143453584.586       -4884.027          50.000    26854785.697   111574915.724       -3798.686          47.000  
R04  28475519.673   152485149.8651       2169.336          38.000    28475510.976   118599560.2631       1687.421          36.000  
E11  28886718.139   151801140.548       -2968.396          43.000    28886714.993   116315389.004       -2274.430          49.000  
G18  24649527.960   129534509.131        -918.284          49.000    24649523.230   100936095.060        -715.526          51.000  
G29  26519054.892   139358983.556       -2322.921          49.000    26519047.471   108591687.850       -1810.356          36.000  
S31  43150092.258   226755388.023        -680.499          44.000  
R19  25502428.233   136421161.125       -3484.044          42.000    25502422.641   106104951.789       -2709.521          46.000  
G05  28318582.049   148815148.238       -2304.694          44.000    28318576.348   115959805.721       -1795.831          39.000  
G23  27269220.604   143300839.951        2604.316          45.000    27269217.188   111663016.734        2029.222          43.000  
E34  29797958.453   156589518.046        1496.960          42.000    29797960.792   119984319.051        1147.181          46.000  
E10  32451810.486                       -3433.770          30.000    32451805.487   130670617.978       -2631.382          33.000  
G25  26896069.884   141340018.179       -3553.544          45.000    26896068.415   110135147.903       -2768.990          42.000  
E25  28501304.490   149775673.280       -2142.195          46.000    28501306.814   114763332.837       -1641.432          54.000  
G31  26439911.845   138942610.469       -1568.366          48.000    26439907.745   108267042.527       -1222.125          44.000  
E14  34380620.161   180671523.652       -1812.497          36.000    34380619.576   138436677.698       -1388.772          40.000  
E30                                                                  31654707.543                1       1486.482          25.000  
R03                                                                  28407756.460                3        155.847          24.000  
> 2024 04 15 05 18 30.0150000  0 25                     
S33  44108263.693   231790644.861        -681.145          42.000  
E02  27899080.077   146610682.343         370.679          46.000    27899080.598   112338088.754         284.047          51.000  
G28  27136652.722   142604026.778       -3354.733          44.000    27136649.365   111119999.248       -2614.123          43.000  
E36  27670429.696   145409438.445        -834.235          47.000    27670430.763   111417834.888        -639.210          53.000  
G26  25689744.744   135000550.146        1616.855          47.000    25689742.425   105195192.300        1259.921          44.000  
R20  24482478.182   130918874.583          60.327          40.000    24482475.346   101825878.038          46.653          42.000  
R10  24720666.694   131775142.235        1758.371          47.000                                                                  
R09  23685832.457   126481026.472       -1948.213          51.000    23685829.144    98374394.563       -1515.224          51.000  
R16  26882240.506   143600232.494       -4892.726          50.000    26882239.375   111688975.059       -3805.543          48.000  
R04  28463387.638   152420177.711        2161.823          42.000    28463379.332   118549026.262        1681.622          37.000  
E11  28903675.769   151890252.834       -2972.686          43.000    28903672.673   116383669.839       -2277.872          48.000  
G18  24654820.059   129562317.827        -935.682          49.000    24654815.255   100957764.183        -729.107          51.000  
G29  26532326.715   139428724.629       -2326.553          49.000    26532319.971   108646031.501       -1812.703          38.000  
S31  43153977.396   226775802.735        -680.743          44.000  
R19  25521979.696   136525747.513       -3488.603          41.000    25521974.261   106186296.757       -2713.129          46.000  
G05  28331786.288   148884532.786       -2321.027          44.000    28331780.711   116013871.591       -1808.423          37.000  
G23  27254370.826   143222800.839        2598.270          46.000    27254367.351   111602207.125        2024.636          44.000  
E34  29789435.344   156544727.630        1488.624          42.000    29789437.914   119949999.189        1140.730          47.000  
E10  32471411.017                       -3433.012          27.000    32471405.160   130749536.753       -2630.242          33.000  
G25  26916385.694   141446782.121       -3564.095          45.000    26916384.770   110218340.480       -2777.038          41.000  
E25  28513562.820   149840089.695       -2152.364          46.000    28513564.856   114812690.856       -1649.149          54.000  
G31  26448916.143   138989926.954       -1586.255          48.000    26448911.386   108303912.515       -1236.098          44.000  
E14  34390940.782   180725750.455       -1802.845          37.000    34390938.076   138478228.092       -1381.248          39.000  
E30                                                                  31643633.152                        1486.141          26.000  
R03                                                                  28406689.211                         139.978          28.000  
> 2024 04 15 05 19 00.0150000  0 25                     
S33  44112151.191   231811072.257        -681.056          42.000  
E02  27896988.482   146599689.719         361.822          47.000    27896988.549   112329665.835         277.336          51.000  
G28  27155827.802   142704790.620       -3363.040          45.000    27155824.224   111198516.427       -2620.586          43.000  
E36  27675224.616   145434631.600        -845.553          48.000    27675224.652   111437138.752        -647.776          53.000  
G26  25680546.032   134952211.991        1605.413          47.000    25680543.722   105157526.242        1250.894          45.000  
R20  24482183.209   130917297.382          44.920          40.000    24482181.260   101824651.349          35.252          43.000  
R10  24710827.692   131722691.561        1738.053          47.000                                                                  
R09  23696847.438   126539842.662       -1973.068          51.000    23696843.453    98420140.480       -1534.565          51.000  
R16  26909740.770   143747133.115       -4900.873          48.000    26909739.853   111803230.922       -3811.775          48.000  
R04  28451295.002   152355420.877        2154.846          45.000    28451286.848   118498659.796        1675.879          38.000  
E11  28920657.981   151979496.376       -2976.838          43.000    28920655.329   116452051.259       -2281.022          49.000  
G18  24660209.013   129590641.140        -952.718          49.000    24660204.634   100979834.315        -742.296          51.000  
G29  26545616.822   139498564.056       -2329.635          49.000    26545608.937   108700451.870       -1815.613          37.000  
S31  43157862.255   226796219.818        -680.632          44.000  
R19  25541555.261   136630468.688       -3492.749          39.000    25541551.030   106267746.547       -2716.866          45.000  
G05  28345081.469   148954396.705       -2336.768          43.000    28345073.829   116068311.037       -1821.088          33.000  
G23  27239553.469   143144932.919        2592.725          47.000    27239549.519   111541530.903        2020.337          44.000  
E34  29780959.306   156500186.977        1480.506          41.000    29780962.151   119915870.711        1134.492          48.000  
E10  32491011.275                       -3433.190          26.000    32491002.798   130828447.843       -2630.208          31.000  
G25  26936761.192   141553854.404       -3574.209          46.000    26936759.285   110301773.411       -2784.977          41.000  
E25  28525877.051   149904802.247       -2162.043          46.000    28525879.075   114862275.792       -1656.704          54.000  
G31  26458020.328   139037773.399       -1603.491          48.000    26458016.161   108341195.419       -1249.674          43.000  
E14  34401205.132   180779687.895       -1793.175          37.000    34401201.719   138519556.827       -1373.693          39.000  
E30                                                                  31632562.762                        1485.587          26.000  
R03                                                                  28405737.675                3        121.994          22.000  
> 2024 04 15 05 19 30.0150000  0 26                     
S33  44116038.062   231831499.030        -680.986          42.000  
E02  27894948.106   146588964.782         353.035          47.000    27894947.761   112321448.022         270.560          51.000  
G28  27175050.024   142805805.271       -3371.415          45.000    27175046.706   111277229.068       -2627.244          43.000  
E36  27680081.875   145460157.181        -856.300          49.000    27680082.005   111456697.337        -656.123          53.000  
G26  25671412.531   134904215.696        1594.054          47.000    25671410.829   105120126.544        1242.279          46.000  
R20  24481972.724   130916173.759          29.741          40.000    24481971.121   101823777.476          23.336          42.000  
R10  24701102.756   131670853.060        1717.660          49.000                                                                  
R09  23708002.754   126599408.631       -1998.045          51.000    23707998.891    98466469.533       -1553.897          51.000  
R03  28404911.820                         138.409          28.000    28404932.326                3        108.125          25.000  
R16  26937286.966   143894279.261       -4908.954          49.000    26937285.423   111917677.776       -3818.134          45.000  
R04  28439242.086   152290879.888        2147.632          44.000    28439234.723   118448461.234        1670.477          42.000  
E11  28937664.384   152068865.596       -2981.024          43.000    28937661.270   116520528.948       -2284.028          48.000  
G18  24665696.138   129619473.872        -969.608          49.000    24665690.597   101002301.406        -755.452          50.000  
G29  26558924.943   139568498.143       -2332.712          49.000    26558917.948   108754945.954       -1817.703          39.000  
S31  43161747.721   226816637.313        -680.442          44.000  
R19  25561156.317   136735317.425       -3497.101          41.000    25561152.145   106349295.520       -2719.967          46.000  
G05  28358466.068   149024734.756       -2352.258          42.000    28358458.719   116123119.923       -1833.106          34.000  
G23  27224768.102   143067235.518        2587.017          46.000    27224763.845   111480987.553        2015.936          44.000  
E34  29772530.478   156455892.735        1472.311          42.000    29772533.195   119881931.044        1128.192          48.000  
E10  32510610.005                1      -3431.672          28.000    32510597.499                       -2630.013          30.000  
G25  26957193.560   141661229.732       -3584.405          44.000    26957192.324   110385442.448       -2793.025          42.000  
E25  28538247.817   149969806.900       -2171.587          46.000    28538249.184   114912084.523       -1663.957          54.000  
G31  26467225.236   139086144.826       -1621.133          47.000    26467220.218   108378887.420       -1263.267          42.000  
E14  34411409.696   180833332.725       -1783.170          34.000    34411410.950   138560661.338       -1366.368          40.000  
E30                                                                  31621496.394                        1484.603          26.000  
R18                                                                  29673700.132                3      -3051.449          16.000  
> 2024 04 15 05 20 00.0150000  0 25                     
S33  44119924.444   231851922.598        -680.766          42.000  
E02  27892958.774   146578506.572         344.068          48.000    27892957.420   112313434.582         263.693          51.000  
G28  27194319.288   142907065.309       -3379.578          45.000    27194316.805   111356132.885       -2633.123          43.000  
E36  27685001.375   145486011.932        -867.516          48.000    27685002.114   111476508.139        -664.683          53.000  
G26  25662344.558   134856561.424        1582.647          47.000    25662342.915   105082993.342        1233.283          46.000  
R20  24481846.887   130915499.509          14.941          40.000    24481845.381   101823253.098          11.580          43.000  
R10  24691493.306   131619628.335        1697.004          49.000                                                                  
R09  23719296.721   126659721.068       -2023.076          51.000    23719292.704    98513379.193       -1573.471          51.000  
R03  28404199.667                3        113.822          18.000    28404173.340                          91.058          28.000  
R16  26964877.407   144041664.545       -4916.933          48.000    26964875.852   112032310.645       -3824.234          46.000  
R04  28427229.862   152226556.203        2140.320          45.000    28427222.867   118398431.685        1664.557          44.000  
E11  28954693.656   152158356.541       -2985.177          43.000    28954691.062   116589099.955       -2287.399          48.000  
G18  24671279.183   129648812.414        -986.577          49.000    24671274.120   101025162.635        -768.685          51.000  
G29  26572249.986   139638524.332       -2335.831          48.000    26572243.955   108809511.815       -1820.190          39.000  
S31  43165632.240   226837051.832        -680.520          44.000  
R19  25580779.566   136840289.311       -3500.973          41.000    25580775.104   106430940.374       -2722.931          45.000  
G05  28371939.403   149095543.428       -2368.140          41.000    28371933.619   116178295.534       -1845.496          36.000  
G23  27210014.727   142989709.527        2581.156          45.000    27210011.355   111420577.787        2011.198          44.000  
E34  29764148.730   156411843.171        1464.156          42.000    29764151.083   119848178.835        1121.773          49.000  
G25  26977683.556   141768904.285       -3594.120          44.000    26977682.444   110469344.664       -2800.932          43.000  
E25  28550672.858   150035101.173       -2181.423          47.000    28550674.542   114962115.184       -1671.469          54.000  
G31  26476529.115   139135036.922       -1638.566          47.000    26476524.099   108416985.128       -1276.626          42.000  
E14  34421561.989   180886683.159       -1773.675          34.000    34421563.364   138601540.230       -1358.906          41.000  
E30                                                                  31610432.976                        1484.213          26.000  
E10                                                                  32530188.770                       -2629.638          29.000  
> 2024 04 15 05 20 30.0150000  0 25                     
S33  44123810.438   231872342.759        -680.831          42.000  
E02  27891019.948   146568316.580         335.145          48.000    27891018.389   112305626.676         256.804          50.000  
G28  27213635.403   143008567.811       -3387.426          46.000    27213632.238   111435225.696       -2639.613          42.000  
E36  27689983.677   145512195.049        -878.238          48.000    27689984.999   111496570.555        -672.939          53.000  
G26  25653341.396   134809251.808        1571.067          47.000    25653340.688   105046128.720        1224.361          45.000  
R20  24481804.640   130915273.161          -0.123          41.000    24481803.534   101823077.076           0.164          43.000  
R10  24681999.519   131569020.930        1676.647          49.000                                                                  
R09  23730731.183   126720778.782       -2047.655          52.000    23730727.755    98560868.498       -1592.567          51.000  
R03  28403574.181                3        105.091          23.000    28403584.639                          75.165          29.000  
R16  26992512.596   144189286.304       -4924.631          49.000    26992511.819   112147127.418       -3830.255          47.000  
R04  28415259.093   152162454.900        2132.849          41.000    28415253.142   118348575.082        1658.954          43.000  
E11  28971746.499   152247967.875       -2989.094          42.000    28971743.107   116657763.173       -2290.382          48.000  
G18  24676957.810   129678655.598       -1003.164          49.000    24676953.704   101048417.087        -781.692          51.000  
G29  26585592.977   139708642.266       -2338.856          48.000    26585587.727   108864149.163       -1822.818          39.000  
S31  43169516.656   226857463.096        -680.380          44.000  
R19  25600425.166   136945381.541       -3505.072          42.000    25600420.640   106512678.790       -2726.249          44.000  
G05  28385502.581   149166821.311       -2383.484          37.000    28385497.470   116233836.666       -1857.208          36.000  
G23  27195294.906   142912358.467        2575.425          45.000    27195292.196   111360304.340        2006.850          45.000  
E34  29755813.155   156368039.050        1456.155          43.000    29755815.275   119814614.695        1115.703          49.000  
G25  26998229.545   141876876.870       -3604.097          44.000    26998229.383   110553479.087       -2808.511          43.000  
E25  28563153.562   150100685.103       -2190.959          47.000    28563154.847   115012367.797       -1678.772          54.000  
G31  26485932.510   139184447.978       -1655.819          48.000    26485926.549   108455487.223       -1290.061          41.000  
E14  34431660.483   180939739.951       -1763.927          35.000    34431659.930   138642194.128       -1351.185          41.000  
E30                                                                  31599375.003                        1484.014          27.000  
E10                                                                  32549775.891                       -2628.918          28.000  
> 2024 04 15 05 21 00.0150000  0 25                     
S33  44127695.996   231892763.556        -680.665          42.000  
E02  27889132.463   146558397.419         326.013          48.000    27889130.692   112298026.271         249.892          50.000  
G28  27232995.567   143110310.945       -3395.390          44.000    27232993.294   111514505.991       -2645.815          42.000  
E36  27695028.151   145538706.817        -889.261          47.000    27695029.936   111516884.791        -681.374          54.000  
G26  25644404.303   134762290.586        1559.351          46.000    25644404.097   105009535.564        1215.353          46.000  
R20  24481845.888   130915495.308         -14.792          41.000    24481844.919   101823249.907         -11.580          43.000  
R10  24672622.288   131519035.691        1655.724          49.000                                                                  
R09  23742305.027   126782581.870       -2072.524          52.000    23742301.243    98608937.565       -1611.984          51.000  
R03  28403112.063                3         77.641          19.000    28403093.911                          58.569          29.000  
R16  27020191.615   144337141.789       -4932.463          49.000    27020190.947   112262125.980       -3836.369          47.000  
R04  28403329.813   152098581.325        2125.360          43.000    28403325.814   118298895.671        1652.881          43.000  
E11  28988822.680   152337699.219       -2993.023          43.000    28988818.523   116726518.353       -2293.367          48.000  
G18  24682732.682   129709003.407       -1019.996          49.000    24682729.060   101072064.755        -794.800          51.000  
G29  26598953.551   139778853.577       -2342.020          49.000    26598948.443   108918859.283       -1825.326          40.000  
S31  43173400.427   226877873.624        -680.267          44.000  
R19  25620094.069   137050593.163       -3509.171          42.000    25620089.220   106594510.050       -2729.303          45.000  
G05  28399154.735   149238568.147       -2399.359          39.000    28399150.598   116289743.310       -1869.476          36.000  
G23  27180609.435   142835186.827        2569.416          45.000    27180606.716   111300170.678        2002.088          45.000  
E34  29747524.141   156324482.160        1447.753          43.000    29747526.437   119781240.008        1109.229          49.000  
G25  27018833.168   141985147.209       -3613.904          45.000    27018832.426   110637845.549       -2816.233          43.000  
E25  28575689.335   150166559.814       -2200.717          47.000    28575690.415   115062843.222       -1686.282          54.000  
G31  26495433.857   139234377.726       -1673.038          48.000    26495428.714   108494393.517       -1303.981          42.000  
E14  34441702.617   180992504.850       -1753.591          37.000    34441700.862   138682624.401       -1343.955          41.000  
E30                                                                  31588319.568                        1483.133          27.000  
E10                                                                  32569360.193                       -2628.138          28.000  
> 2024 04 15 05 21 30.0150000  0 25                     
S33  44131581.842   231913181.971        -680.219          42.000  
E02  27887297.109   146548751.289         316.972          49.000    27887295.007   112290635.081         242.801          50.000  
G28  27252401.619   143212292.431       -3403.203          44.000    27252400.095   111593972.038       -2652.114          42.000  
E36  27700135.885   145565547.129        -900.161          47.000    27700137.234   111537450.754        -689.758          53.000  
G26  25635534.809   134715681.097        1547.766          46.000    25635534.385   104973216.490        1205.950          45.000  
R20  24481971.871   130916165.246         -29.875          41.000    24481969.738   101823771.002         -23.176          43.000  
R10  24663362.870   131469677.142        1634.739          48.000                                                                  
R09  23754017.336   126845130.158       -2097.414          51.000    23754014.085    98657586.211       -1631.222          51.000  
R03  28402760.560                3         53.633          25.000    28402730.791                3         36.242          22.000  
R16  27047913.983   144485228.582       -4940.084          49.000    27047913.549   112377304.444       -3842.322          47.000  
R04  28391445.901   152034941.152        2117.322          43.000    28391441.574   118249397.692        1647.058          42.000  
E11  29005919.293   152427549.927       -2996.791          42.000    29005916.420   116795365.007       -2296.245          47.000  
G18  24688603.993   129739855.346       -1036.824          49.000    24688600.001   101096105.235        -807.905          51.000  
G29  26612332.052   139849158.941       -2345.041          48.000    26612327.802   108973642.686       -1827.333          41.000  
S31  43177284.303   226898283.182        -680.348          44.000  
R19  25639784.927   137155922.358       -3512.894          42.000    25639779.139   106676432.792       -2732.349          45.000  
G05  28412897.046   149310783.290       -2415.375          39.000    28412891.948   116346014.764       -1881.580          33.000  
G23  27165958.844   142758198.776        2563.057          45.000    27165956.874   111240180.090        1997.233          45.000  
E34  29739282.250   156281173.983        1439.353          43.000    29739285.234   119748055.882        1102.877          49.000  
E30  31577320.891                3       1934.186          24.000    31577270.974                        1483.157          28.000  
G25  27039492.980   142093714.723       -3623.849          45.000    27039492.135   110722443.593       -2823.744          43.000  
E25  28588280.697   150232726.055       -2210.431          47.000    28588281.502   115113542.023       -1693.723          54.000  
G31  26505033.739   139284825.125       -1690.217          47.000    26505028.363   108533703.133       -1316.832          42.000  
E14  34451686.964   181044979.454       -1744.520          36.000    34451686.353   138722832.203       -1336.808          41.000  
E10                                                                  32588937.549                3      -2628.311          25.000  
> 2024 04 15 05 22 00.0150000  0 25                     
S33  44135465.738   231933592.331        -679.919          42.000  
E02  27885512.196   146539371.470         308.452          48.000    27885510.121   112283447.947         236.294          50.000  
G28  27271851.700   143314501.181       -3410.360          45.000    27271850.071   111673615.160       -2657.426          42.000  
E36  27705304.591   145592706.944        -910.392          48.000    27705305.341   111558261.520        -697.574          53.000  
G26  25626731.451   134669417.736        1536.354          46.000    25626730.278   104937167.128        1197.229          44.000  
R20  24482179.852   130917274.133         -43.941          41.000    24482177.188   101824633.505         -34.244          43.000  
R10  24654219.259   131420940.913        1614.355          48.000                                                                  
R09  23765868.746   126908413.685       -2121.475          52.000    23765865.370    98706806.725       -1650.035          51.000  
R03  28402470.542                3         29.066          18.000    28402478.530                3         24.240          22.000  
R16  27075677.609   144633534.940       -4947.065          49.000    27075676.824   112492653.671       -3847.493          47.000  
R04  28379604.317   151971530.341        2110.022          44.000    28379598.642   118200078.229        1641.052          42.000  
E11  29023037.730   152517510.311       -3000.400          42.000    29023035.476   116864295.698       -2298.780          47.000  
G18  24694569.783   129771201.977       -1052.918          50.000    24694565.068   101120531.185        -820.367          51.000  
G29  26625727.372   139919550.142       -2347.610          48.000    26625722.687   109028492.957       -1829.423          40.000  
S31  43181166.207   226918683.944        -679.840          44.000  
R19  25659494.602   137261358.035       -3516.170          42.000    25659489.844   106758438.318       -2734.696          44.000  
G05  28426726.299   149383457.636       -2430.103          38.000    28426720.785   116402644.137       -1893.353          35.000  
G23  27151343.049   142681389.563        2557.337          46.000    27151340.012   111180328.829        1993.034          45.000  
E34  29731086.493   156238106.975        1431.823          43.000    29731089.795   119715056.582        1097.148          49.000  
G25  27060207.106   142202569.922       -3633.105          45.000    27060206.494   110807265.799       -2830.996          42.000  
E25  28600924.918   150299175.578       -2219.508          46.000    28600926.373   115164457.880       -1700.672          54.000  
G31  26514729.270   139335780.370       -1706.790          46.000    26514725.432   108573408.501       -1329.923          43.000  
E14  34461615.954   181097156.258       -1734.085          34.000    34461615.351   138762811.794       -1328.718          42.000  
E30                                                                  31566225.565                        1482.540          29.000  
E10                                                                  32608509.804                3      -2623.372          21.000  
> 2024 04 15 05 22 30.0150000  0 25                     
S33  44139346.815   231953987.301        -679.616          42.000  
E02  27883776.633   146530251.580         299.496          49.000    27883774.909   112276459.976         229.538          51.000  
G28  27291342.619   143416926.428       -3417.908          43.000    27291340.847   111753426.931       -2663.152          42.000  
E36  27710532.029   145620177.549        -920.921          48.000    27710532.928   111579310.439        -705.663          53.000  
G26  25617993.054   134623495.276        1525.059          47.000    25617991.302   104901383.413        1188.123          44.000  
R20  24482467.073   130918812.569         -58.602          40.000    24482464.067   101825830.100         -45.495          42.000  
R10  24645192.005   131372822.279        1593.460          48.000                                                                  
R09  23777856.371   126972423.571       -2145.754          52.000    23777852.055    98756592.196       -1669.026          51.000  
R03  28402355.172                3         16.356          18.000    28402349.370                1         10.352          28.000  
R16  27103479.328   144782049.685       -4953.855          49.000    27103479.441   112608164.977       -3853.141          48.000  
R04  28367804.790   151908345.656        2102.228          44.000    28367798.922   118150934.577        1635.047          43.000  
E11  29040176.111   152607571.055       -3003.740          43.000    29040173.874   116933303.307       -2301.708          47.000  
G18  24700626.308   129803034.194       -1069.216          49.000    24700622.358   101145335.549        -833.156          51.000  
G29  26639136.857   139990019.262       -2350.358          48.000    26639132.730   109083403.938       -1831.806          40.000  
S31  43185045.380   226939068.652        -679.183          44.000  
R19  25679223.103   137366890.276       -3519.439          42.000    25679217.859   106840518.982       -2737.064          45.000  
G05  28440641.291   149456581.542       -2444.983          38.000    28440636.852   116459623.821       -1904.981          35.000  
G23  27136760.335   142604754.742        2551.402          47.000    27136756.069   111120613.500        1988.172          45.000  
E34  29722935.197   156195274.069        1423.901          42.000    29722938.944   119682236.627        1090.980          49.000  
G25  27080975.052   142311703.609       -3642.467          45.000    27080974.186   110892304.971       -2838.313          43.000  
E25  28613620.642   150365900.519       -2228.736          45.000    28613623.548   115215584.776       -1707.756          54.000  
G31  26524520.731   139387234.018       -1723.439          46.000    26524516.880   108613502.217       -1342.848          44.000  
E14  34471487.921   181149028.070       -1723.485          36.000    34471485.949   138802557.721       -1320.990          42.000  
E30                                                                  31555183.197   127059654.5491       1482.147          29.000  
E10                                                                  32628079.167                3      -2625.250          20.000  
> 2024 04 15 05 23 00.0150000  0 24                     
S33  44143224.133   231974363.168        -679.392          42.000  
E02  27882090.106   146521391.910         290.600          48.000    27882089.065   112269671.401         222.700          51.000  
G28  27310874.813   143519563.834       -3424.998          44.000    27310871.602   111833404.058       -2668.890          42.000  
E36  27715818.508   145647956.875        -931.282          48.000    27715819.210   111600595.911        -713.685          53.000  
G26  25609319.285   134577915.080        1513.291          47.000    25609317.343   104865866.401        1179.150          44.000  
R20  24482833.608   130920777.267         -72.800          40.000    24482831.074   101827358.281         -56.582          42.000  
R10  24636282.446   131325323.805        1572.590          48.000                                                                  
R09  23789978.878   127037157.112       -2170.148          52.000    23789974.657    98806940.478       -1687.858          51.000  
R16  27131319.743   144930768.173       -4960.984          48.000    27131320.376   112723834.729       -3858.433          48.000  
R04  28356050.465   151845389.973        2094.489          46.000    28356043.441   118101969.031        1628.839          43.000  
E11  29057333.316   152697729.623       -3007.204          43.000    29057330.280   117002385.840       -2304.315          47.000  
G18  24706775.557   129835349.632       -1085.558          49.000    24706771.731   101170516.421        -845.915          52.000  
G29  26652561.843   140060565.316       -2353.058          48.000    26652555.639   109138374.879       -1833.599          38.000  
S31  43188921.265   226959436.541        -679.028          44.000  
R19  25698968.598   137472515.050       -3522.671          42.000    25698962.210   106922671.602       -2740.045          44.000  
G05  28454642.935   149530152.481       -2459.894          40.000    28454638.382   116516951.766       -1917.072          36.000  
G23  27122210.723   142528296.553        2545.311          47.000    27122206.017   111061035.765        1983.420          44.000  
E34  29714828.287   156152674.659        1415.793          42.000    29714832.379   119649595.584        1084.869          49.000  
G25  27101796.066   142421113.139       -3651.794          46.000    27101794.476   110977559.110       -2845.579          43.000  
E25  28626371.920   150432899.677       -2238.092          47.000    28626373.146   115266921.761       -1714.993          54.000  
G31  26534406.475   139439183.440       -1740.236          46.000    26534402.417   108653982.281       -1356.042          43.000  
E14  34481300.969   181200594.528       -1714.192          36.000    34481298.494   138842069.691       -1313.435          42.000  
E30                                                                  31544140.201   127015192.726        1481.060          29.000  
R03                                                                  28402335.803   118253243.0541         -5.927          29.000  
> 2024 04 15 05 23 30.0150000  0 24                     
S33  44147099.497   231994729.178        -678.501          42.000  
E02  27880455.209   146512800.420         282.104          48.000    27880454.288   112263088.320         216.164          51.000  
G28  27330447.206   143622417.114       -3431.690          44.000    27330445.066   111913549.389       -2674.296          43.000  
E36  27721164.235   145676050.652        -941.643          48.000    27721165.132   111622122.326        -721.444          53.000  
G26  25600712.538   134532686.342        1501.765          47.000    25600710.626   104830623.237        1170.160          44.000  
R20  24483281.708   130923173.907         -87.021          40.000    24483279.468   101829222.393         -67.671          42.000  
R10  24627490.597   131278456.165        1551.862          49.000                                                                  
R09  23802237.771   127102620.160       -2194.004          52.000    23802234.013    98857856.161       -1706.375          51.000  
R03  28402446.519                3        -27.321          25.000    28402431.774                1        -22.473          28.000  
R16  27159198.831   145079693.436       -4967.323          47.000    27159199.042   112839665.334       -3863.583          47.000  
R04  28344339.365   151782674.753        2086.676          46.000    28344330.958   118053190.526        1623.157          44.000  
E11  29074510.150   152787991.065       -3010.114          43.000    29074506.500   117071547.194       -2306.433          47.000  
G18  24713017.475   129868153.512       -1101.396          49.000    24713014.299   101196077.912        -858.302          52.000  
G29  26666002.796   140131195.094       -2355.498          48.000    26665996.101   109193411.053       -1835.365          39.000  
S31  43192795.062   226979793.329        -678.038          44.000  
R19  25718731.749   137578236.784       -3525.518          42.000    25718725.220   107004899.622       -2742.206          44.000  
G05  28468729.322   149604175.205       -2474.634          40.000    28468723.936   116574631.747       -1928.448          36.000  
G23  27107696.026   142452024.953        2539.440          46.000    27107691.861   111001603.438        1978.830          43.000  
E34  29706767.430   156110316.010        1407.990          43.000    29706771.552   119617139.030        1078.988          49.000  
G25  27122669.222   142530803.775       -3660.944          45.000    27122667.824   111063032.273       -2852.632          43.000  
E25  28639174.976   150500179.503       -2247.225          47.000    28639175.632   115318473.830       -1721.814          54.000  
G31  26544386.992   139491633.420       -1756.427          47.000    26544382.801   108694852.371       -1368.689          42.000  
E14  34491056.688   181251862.876       -1703.854          36.000    34491054.864   138881353.252       -1305.468          42.000  
E30                                                                  31533100.780   126970745.696        1481.388          29.000  
> 2024 04 15 05 24 00.0150000  0 24                     
S33  44150972.221   232015080.076        -678.097          42.000  
E02  27878870.509   146504473.797         273.028          48.000    27878869.707   112256708.195         209.195          52.000  
G28  27350059.503   143725478.454       -3438.947          43.000    27350057.073   111993856.824       -2679.583          43.000  
E36  27726568.504   145704453.108        -951.973          47.000    27726569.878   111643885.271        -729.476          53.000  
G26  25592172.449   134487806.800        1490.244          48.000    25592170.722   104795652.167        1161.029          44.000  
R20  24483810.162   130925996.743        -101.054          40.000    24483807.626   101831417.986         -78.794          43.000  
R10  24618816.020   131232217.795        1530.541          49.000                                                                  
R09  23814632.697   127168806.284       -2218.329          52.000    23814628.940    98909334.241       -1725.346          51.000  
R03  28402662.412                1        -50.098          26.000    28402651.061                3        -32.268          24.000  
R16  27187115.768   145228817.161       -4974.234          49.000    27187115.304   112955650.292       -3868.652          46.000  
R04  28332673.029   151720199.759        2078.253          48.000    28332664.063   118004598.870        1616.254          43.000  
E11  29091705.038   152878349.125       -3013.472          43.000    29091701.110   117140782.612       -2309.062          47.000  
G18  24719351.348   129901439.746       -1117.599          49.000    24719348.271   101222015.257        -870.958          51.000  
G29  26679458.134   140201903.518       -2358.410          47.000    26679451.628   109248508.506       -1837.774          39.000  
S31  43196665.654   227000134.505        -677.871          44.000  
R19  25738512.153   137684048.502       -3528.587          43.000    25738506.027   107087197.570       -2744.431          45.000  
G05  28482900.207   149678644.394       -2489.941          39.000    28482894.472   116632659.615       -1939.772          34.000  
G23  27093216.717   142375938.536        2532.966          46.000    27093213.063   110942315.387        1973.795          44.000  
E34  29698752.046   156068193.997        1399.952          43.000    29698755.778   119584863.748        1072.733          48.000  
G25  27143595.020   142640769.301       -3670.372          45.000    27143592.803   111148719.629       -2859.995          42.000  
E25  28652030.033   150567735.131       -2256.646          47.000    28652031.006   115370237.223       -1729.089          54.000  
G31  26554462.258   139544577.317       -1773.155          46.000    26554457.606   108736107.326       -1381.460          43.000  
E14  34500755.777   181302829.087       -1694.263          36.000    34500753.512   138920405.302       -1297.948          42.000  
E30                                                                  31522066.088                        1480.661          30.000  
> 2024 04 15 05 24 30.0150000  0 24                     
S33  44154841.813   232035415.988        -677.936          42.000  
E02  27877337.194   146496413.552         263.915          48.000    27877335.875   112250532.172         202.282          52.000  
G28  27369710.323   143828744.935       -3446.144          41.000    27369707.999   112074324.125       -2685.013          42.000  
E36  27732031.301   145733163.439        -962.359          47.000    27732033.213   111665884.114        -737.362          53.000  
G26  25583699.224   134443279.103        1478.110          48.000    25583697.550   104760955.270        1151.732          44.000  
R20  24484417.778   130929244.295        -115.390          40.000    24484415.566   101833943.892         -89.906          44.000  
R10  24610260.215   131186612.332        1509.383          49.000                                                                  
R09  23827162.800   127235714.202       -2242.635          52.000    23827158.011    98961373.730       -1744.131          51.000  
R03  28403002.609                3        -75.780          22.000    28402993.163                3        -61.603          22.000  
R16  27215069.527   145378136.387       -4980.860          49.000    27215068.121   113071787.301       -3874.055          47.000  
R04  28321050.535   151657969.409        2069.855          48.000    28321043.128   117956197.471        1609.870          43.000  
E11  29108918.445   152968802.574       -3017.129          43.000    29108913.855   117210091.106       -2311.602          47.000  
G18  24725777.767   129935207.101       -1133.893          49.000    24725773.473   101248327.486        -883.587          51.000  
G29  26692927.926   140272690.653       -2361.220          48.000    26692922.309   109303667.341       -1840.100          39.000  
S31  43200533.737   227020460.888        -677.395          44.000  
R19  25758308.551   137789947.737       -3531.846          43.000    25758303.594   107169563.669       -2746.765          45.000  
G05  28497155.687   149753558.049       -2504.953          41.000    28497148.860   116691033.964       -1951.938          33.000  
G23  27078774.185   142300040.791        2526.458          46.000    27078770.629   110883174.360        1968.794          44.000  
E34  29690782.650   156026309.265        1391.743          43.000    29690785.470   119552770.299        1066.450          48.000  
G25  27164573.004   142751008.353       -3679.407          46.000    27164570.591   111234620.164       -2867.134          41.000  
E25  28664938.460   150635566.535       -2265.851          47.000    28664938.746   115422211.927       -1736.153          53.000  
G31  26564630.554   139598013.285       -1789.764          46.000    26564626.296   108777745.742       -1394.403          43.000  
E14  34510394.412   181353493.936       -1683.912          34.000    34510395.185   138959226.435       -1290.354          43.000  
E30                                                                  31511035.163   126881889.659        1479.980          31.000  
> 2024 04 15 05 25 00.0150000  0 24                     
S33  44158708.375   232055735.493        -677.520          43.000  
E02  27875854.370   146488620.840         254.760          49.000    27875853.029   112244561.152         195.300          52.000  
G28  27389398.731   143932213.230       -3452.976          39.000    27389396.963   112154948.720       -2690.623          42.000  
E36  27737553.789   145762180.496        -972.806          47.000    27737554.931   111688117.975        -745.405          53.000  
G26  25575293.770   134399105.601        1465.859          49.000    25575291.737   104726534.355        1142.309          45.000  
R20  24485103.924   130932915.113        -129.864          40.000    24485102.519   101836799.003        -101.123          44.000  
R10  24601823.588   131141643.114        1487.676          48.000                                                                  
R09  23839826.655   127303342.165       -2266.895          51.000    23839822.543    99013973.261       -1763.116          51.000  
R03  28403453.681                3        -96.838          16.000    28403450.614                1        -71.350          28.000  
R16  27243057.944   145527647.346       -4987.440          49.000    27243057.091   113188073.407       -3879.075          47.000  
R04  28309475.039   151595987.914        2061.298          48.000    28309468.942   117907989.625        1603.357          44.000  
E11  29126148.759   153059349.637       -3020.551          42.000    29126144.311   117279471.318       -2314.307          47.000  
G18  24732295.135   129969453.996       -1150.042          49.000    24732289.920   101275013.377        -896.142          51.000  
G29  26706412.337   140343556.280       -2364.069          46.000    26706407.656   109358887.297       -1842.069          40.000  
S31  43204398.693   227040772.316        -677.346          44.000  
E30  31500024.666                        1931.367          28.000    31500009.035   126837482.660        1479.629          33.000  
R19  25778121.061   137895932.056       -3534.706          43.000    25778116.204   107251995.957       -2749.229          46.000  
G05  28511496.006   149828914.875       -2519.688          41.000    28511488.661   116749753.600       -1963.099          34.000  
G23  27064367.279   142224334.879        2519.803          45.000    27064363.869   110824182.825        1963.345          44.000  
E34  29682858.425   155984662.205        1383.653          44.000    29682860.440   119520858.964        1060.266          48.000  
G25  27185602.718   142861519.284       -3688.692          47.000    27185601.001   111320732.528       -2874.415          42.000  
E25  28677898.615   150703673.440       -2275.308          47.000    28677899.250   115474397.724       -1743.418          53.000  
G31  26574892.115   139651939.605       -1806.187          46.000    26574888.086   108819766.245       -1407.424          42.000  
E14  34519979.100   181403857.976       -1674.279          35.000    34519978.963   138997817.043       -1282.888          43.000  
> 2024 04 15 05 25 30.0150000  0 24                     
S33  44162574.348   232076050.319        -677.468          42.000  
E02  27874423.952   146481107.138         245.444          49.000    27874423.075   112238803.927         188.150          51.000  
G28  27409127.523   144035890.528       -3459.220          36.000    27409126.162   112235736.075       -2695.935          42.000  
E36  27743136.355   145791513.376        -983.321          48.000    27743136.922   111710593.844        -753.515          53.000  
G26  25566958.210   134355298.827        1453.715          50.000    25566955.391   104692399.213        1132.824          45.000  
R20  24485870.841   130937017.382        -144.326          40.000    24485869.373   101839989.711        -112.275          44.000  
R10  24593509.596   131097323.990        1466.061          49.000                                                                  
R09  23852627.849   127371699.243       -2291.020          52.000    23852623.495    99067139.860       -1781.828          51.000  
R03  28404033.467                3       -113.587          25.000    28404017.464                3        -85.857          23.000  
R16  27271084.270   145677356.900       -4993.945          50.000    27271083.120   113304513.969       -3884.108          47.000  
R04  28297949.640   151534270.027        2052.533          47.000    28297943.768   117859986.809        1596.454          44.000  
E11  29143397.499   153149998.890       -3023.735          41.000    29143394.704   117348929.832       -2316.782          47.000  
G18  24738904.798   130004189.039       -1166.257          49.000    24738899.593   101302079.674        -908.886          51.000  
G29  26719914.663   140414510.750       -2367.060          47.000    26719909.808   109414176.465       -1844.297          39.000  
S31  43208262.843   227061078.026        -676.925          44.000  
E30  31488992.625   165475839.5941       1929.275          31.000    31488988.364   126793098.803        1479.215          34.000  
R19  25797950.787   138002009.135       -3537.582          43.000    25797946.058   107334500.343       -2751.692          45.000  
G05  28525921.667   149904723.230       -2534.865          41.000    28525915.634   116808825.064       -1975.193          36.000  
G23  27049999.847   142148834.235        2512.866          45.000    27049996.162   110765351.245        1958.016          43.000  
E34  29674980.111   155943263.443        1375.567          44.000    29674982.791   119489137.906        1053.955          48.000  
G25  27206685.731   142972310.703       -3698.114          47.000    27206683.609   111407063.459       -2881.515          43.000  
E25  28690912.100   150772065.706       -2284.711          46.000    28690914.169   115526802.186       -1750.666          54.000  
G31  26585249.094   139706364.166       -1822.717          47.000    26585244.589   108862174.963       -1420.312          43.000  
E14  34529508.603   181453931.885       -1664.647          36.000    34529507.784   139036185.343       -1275.286          43.000  
> 2024 04 15 05 26 00.0150000  0 24                     
S33  44166439.285   232096361.511        -676.842          42.000  
E02  27873047.591   146473875.241         236.451          49.000    27873046.772   112233262.620         181.212          51.000  
G28  27428898.082   144139775.097       -3466.108          39.000    27428893.847   112316684.985       -2700.769          40.000  
E36  27748778.381   145821162.553        -993.500          48.000    27748778.868   111733312.058        -761.198          53.000  
G26  25558693.078   134311862.772        1441.716          50.000    25558689.596   104658552.970        1123.432          44.000  
R20  24486718.720   130941551.942        -158.227          40.000    24486716.874   101843516.645        -122.962          43.000  
R10  24585318.759   131053659.680        1444.691          50.000                                                                  
R09  23865565.439   127440785.116       -2314.892          51.000    23865561.100    99120873.292       -1800.398          51.000  
R03  28404721.217                3       -141.205          20.000    28404704.259                3       -103.434          16.000  
R16  27299147.982   145827262.876       -4999.960          50.000    27299146.030   113421107.328       -3888.841          47.000  
R04  28286473.574   151472821.798        2043.860          46.000    28286468.572   117812193.804        1589.746          43.000  
E11  29160666.745   153240750.351       -3026.575          41.000    29160664.226   117418466.709       -2319.110          47.000  
G18  24745607.361   130039412.339       -1182.135          49.000    24745602.542   101329526.435        -921.180          51.000  
G29  26733435.530   140485555.577       -2369.596          48.000    26733428.727   109469536.083       -1846.444          39.000  
S31  43212126.422   227081380.736        -676.725          44.000  
E30  31477974.477   165417947.847        1929.183          33.000    31477973.752   126748740.296        1478.278          35.000  
R19  25817797.944   138108177.626       -3540.269          42.000    25817791.911   107417075.885       -2753.674          43.000  
G05  28540432.954   149980982.981       -2549.648          41.000    28540428.319   116868248.241       -1986.561          38.000  
G23  27035672.876   142073543.646        2506.316          46.000    27035668.863   110706683.333        1953.031          44.000  
E34  29667149.990   155902115.041        1367.328          45.000    29667152.311   119457608.675        1047.805          48.000  
G25  27227821.814   143083382.538       -3706.936          45.000    27227820.565   111493612.918       -2888.545          43.000  
E25  28703980.359   150840744.661       -2294.006          45.000    28703983.403   115579426.293       -1757.777          54.000  
G31  26595700.334   139761286.830       -1838.900          47.000    26595696.247   108904971.813       -1432.900          43.000  
E14  34538981.693   181503717.788       -1654.359          35.000    34538981.320   139074333.009       -1267.826          43.000  
> 2024 04 15 05 26 30.0150000  0 24                     
S33  44170301.387   232116656.347        -676.415          42.000  
E02  27871723.001   146466913.872         227.444          49.000    27871722.267   112227928.579         174.246          52.000  
G28  27448703.369   144243851.257       -3472.903          39.000    27448699.132   112397783.196       -2705.818          41.000  
E36  27754478.393   145851114.349       -1003.596          48.000    27754478.768   111756262.154        -768.943          53.000  
G26  25550495.952   134268787.218        1429.701          50.000    25550492.011   104624987.621        1113.926          44.000  
R20  24487644.390   130946504.375        -172.236          40.000    24487642.875   101847368.547        -133.694          43.000  
R10  24577248.668   131010640.731        1423.074          49.000                                                                  
R09  23878636.092   127510585.337       -2338.731          51.000    23878632.617    99175162.349       -1818.931          51.000  
R03  28405503.602                3       -169.471          14.000    28405523.159                3       -121.251          24.000  
R16  27327243.941   145977349.129       -5006.011          49.000    27327242.670   113537840.886       -3893.586          47.000  
R04  28275047.124   151411634.650        2034.998          47.000    28275041.655   117764603.779        1583.124          41.000  
E11  29177953.321   153331589.904       -3029.316          41.000    29177949.931   117488071.035       -2321.272          46.000  
G18  24752400.340   130075109.782       -1197.922          49.000    24752395.832   101357342.647        -933.506          51.000  
G29  26746968.876   140556678.018       -2372.128          48.000    26746962.500   109524956.198       -1848.503          39.000  
S31  43215986.607   227101666.745        -676.393          44.000  
E30  31466958.277   165360077.954        1928.297          32.000    31466962.676   126704398.442        1477.841          35.000  
R19  25837659.817   138214423.064       -3543.052          43.000    25837653.657   107499711.175       -2755.709          44.000  
G05  28555027.650   150057679.598       -2563.800          40.000    28555021.926   116928011.797       -1997.552          36.000  
G23  27021384.293   141998453.816        2499.478          46.000    27021380.026   110648171.879        1947.546          44.000  
E34  29659365.294   155861204.854        1359.472          46.000    29659366.862   119426261.970        1041.683          48.000  
G25  27249008.509   143194720.668       -3715.741          46.000    27249007.128   111580369.838       -2895.487          42.000  
E25  28717101.863   150909697.427       -2303.017          44.000    28717104.617   115632260.211       -1764.670          54.000  
G31  26606244.749   139816692.974       -1854.923          48.000    26606239.764   108948145.434       -1445.603          43.000  
E14  34548398.672   181553203.807       -1644.642          34.000    34548397.978   139112250.876       -1260.302          43.000  
> 2024 04 15 05 27 00.0150000  0 24                     
S33  44174161.045   232136938.673        -676.219          42.000  
E02  27870450.957   146460227.530         217.910          49.000    27870450.095   112222805.261         166.967          52.000  
G28  27468544.923   144348119.093       -3479.203          41.000    27468541.257   112479030.775       -2710.682          42.000  
E36  27760235.500   145881370.935       -1013.982          48.000    27760236.563   111779445.786        -776.919          53.000  
G26  25542367.970   134226077.864        1417.226          49.000    25542365.449   104591707.600        1104.342          45.000  
R20  24488648.294   130951876.410        -186.080          39.000    24488647.048   101851546.833        -144.769          43.000  
R10  24569301.224   130968273.567        1401.015          49.000                                                                  
R09  23891841.721   127581101.571       -2362.771          51.000    23891838.093    99230008.311       -1837.675          51.000  
R16  27355373.782   146127615.573       -5012.112          49.000    27355373.569   113654714.548       -3898.238          47.000  
R04  28263671.248   151350716.454        2025.946          47.000    28263665.824   117717222.924        1575.604          43.000  
E11  29195255.937   153422519.189       -3032.787          40.000    29195253.647   117557744.133       -2323.917          47.000  
G18  24759283.606   130111283.082       -1213.973          49.000    24759279.330   101385529.640        -945.999          51.000  
G29  26760518.553   140627881.154       -2375.085          48.000    26760513.422   109580439.164       -1850.686          40.000  
S31  43219844.455   227121940.171        -675.827          44.000  
E30  31455949.232   165302234.395        1927.851          33.000    31455956.083   126660076.804        1476.633          36.000  
R19  25857535.669   138320746.106       -3545.360          43.000    25857530.071   107582406.870       -2757.954          43.000  
G05  28569705.769   150134815.022       -2578.733          40.000    28569700.541   116988117.386       -2009.567          37.000  
G23  27007134.981   141923571.230        2492.344          47.000    27007130.955   110589821.900        1941.975          45.000  
E34  29651626.734   155820536.596        1351.290          46.000    29651628.144   119395100.623        1035.447          48.000  
G25  27270246.806   143306326.679       -3724.888          46.000    27270244.305   111667335.535       -2902.326          41.000  
E25  28730276.886   150978926.985       -2312.628          45.000    28730278.683   115685306.217       -1772.019          54.000  
G31  26616879.664   139872583.847       -1871.322          47.000    26616875.379   108991696.731       -1458.296          43.000  
E14  34557750.910                       -1634.774          31.000    34557758.250   139149941.862       -1252.965          43.000  
R03                                                                  28406460.134                1       -138.330          27.000  
> 2024 04 15 05 27 30.0150000  0 24                     
S33  44178018.880   232157213.014        -676.308          42.000  
E02  27869232.542   146453822.976         208.264          49.000    27869231.374   112217897.871         159.582          52.000  
G28  27488423.378   144452580.972       -3485.694          43.000    27488420.372   112560429.566       -2716.028          42.000  
E36  27766051.284   145911936.740       -1024.461          47.000    27766053.098   111802866.349        -784.956          53.000  
G26  25534311.900   134183742.615        1404.621          49.000    25534309.605   104558719.100        1094.589          45.000  
R20  24489732.290   130957672.396        -200.487          40.000    24489730.592   101856054.866        -156.005          43.000  
R10  24561477.192   130926567.928        1378.672          49.000                                                                  
R09  23905182.666   127652337.726       -2386.965          52.000    23905177.875    99285414.185       -1856.570          50.000  
R03  28407495.261                3       -188.372          16.000    28407524.346                        -155.029          27.000  
R16  27383538.094   146278063.779       -5018.410          49.000    27383538.192   113771729.628       -3903.093          47.000  
R04  28252347.541   151290076.850        2016.241          47.000    28252342.158   117670058.811        1567.902          45.000  
E11  29212576.846   153513542.138       -3036.155          39.000    29212574.586   117627489.006       -2326.430          46.000  
G18  24766258.585   130147936.181       -1230.212          49.000    24766254.490   101414090.495        -958.530          51.000  
G29  26774084.402   140699170.654       -2378.158          48.000    26774079.161   109635989.414       -1853.191          40.000  
S31  43223700.937   227142205.807        -675.890          44.000  
E30  31444946.177   165244424.077        1925.881          33.000    31444956.302   126615780.620        1475.712          36.000  
R19  25877426.470   138427149.643       -3548.542          43.000    25877421.168   107665165.202       -2759.933          43.000  
G05  28584467.666   150212393.005       -2594.398          40.000    28584463.610   117048567.756       -2021.338          38.000  
G23  26992926.071   141848904.675        2484.717          47.000    26992922.775   110531640.248        1936.183          45.000  
E34  29643935.017   155780116.219        1342.797          46.000    29643936.216   119364129.235        1028.842          48.000  
G25  27291535.998   143418204.509       -3734.342          45.000    27291535.097   111754513.036       -2909.903          43.000  
E25  28743504.505   151048438.575       -2322.222          45.000    28743506.124   115738568.336       -1779.403          54.000  
G31  26627608.844   139928962.981       -1887.808          47.000    26627603.344   109035628.483       -1471.006          43.000  
E14  34567065.492   181651293.718       -1625.587          33.000    34567064.174   139187410.628       -1245.609          43.000  
> 2024 04 15 05 28 00.0150000  0 25                     
S33  44181877.070   232177487.736        -675.966          42.000  
E02  27868068.579   146447708.445         198.801          49.000    27868067.767   112213212.701         152.256          52.000  
G28  27508338.705   144557240.695       -3492.210          42.000    27508335.181   112641982.538       -2721.145          41.000  
E36  27771927.800   145942817.613       -1034.840          48.000    27771929.359   111826528.322        -792.830          53.000  
G26  25526328.718   134141790.848        1391.797          49.000    25526326.718   104526029.428        1084.509          45.000  
R20  24490896.548   130963897.554        -214.758          40.000    24490895.066   101860896.689        -167.205          43.000  
R10  24553778.263   130885533.696        1356.424          48.000                                                                  
R09  23918659.012   127724299.009       -2410.939          52.000    23918653.550    99341384.080       -1875.218          50.000  
R03  28408689.310                3       -221.408          23.000    28408690.899                3       -159.358          14.000  
R16  27411737.474   146428697.505       -5024.375          49.000    27411737.124   113888889.018       -3907.827          48.000  
R04  28241078.872   151229727.380        2006.580          48.000    28241071.663   117623120.411        1560.614          44.000  
G16  28501353.305   149775620.7741       2596.865          29.000                                                                  
E11  29229918.278   153604664.240       -3039.340          40.000    29229914.809   117697309.822       -2328.824          47.000  
G18  24773325.700   130185074.438       -1246.186          49.000    24773321.494   101443029.415        -971.095          50.000  
G29  26787668.228   140770553.237       -2381.115          48.000    26787663.306   109691612.205       -1855.566          41.000  
S31  43227557.491   227162471.296        -675.900          44.000  
E30  31433955.390   165186655.215        1924.740          34.000    31433963.420   126571516.179        1474.909          35.000  
R19  25897333.711   138533638.881       -3551.174          43.000    25897328.079   107747990.208       -2762.081          44.000  
G05  28599315.929   150290418.863       -2608.454          42.000    28599312.151   117109367.197       -2032.872          38.000  
G23  26978760.384   141774464.346        2477.315          47.000    26978756.749   110473634.875        1930.226          44.000  
E34  29636290.903   155739951.076        1334.279          45.000    29636293.139   119333353.407        1022.407          48.000  
G25  27312878.404   143530359.473       -3743.232          45.000    27312877.343   111841906.440       -2916.979          43.000  
E25  28756786.625   151118238.849       -2331.641          45.000    28756788.572   115792051.656       -1786.541          54.000  
G31  26638430.749   139985835.266       -1904.148          46.000    26638426.323   109079944.502       -1483.620          44.000  
E14  34576310.117   181699911.218       -1615.685          33.000    34576315.809   139224662.988       -1238.146          43.000  
> 2024 04 15 05 28 30.0150000  0 25                     
S33  44185734.603   232197758.882        -675.868          42.000  
E02  27866960.177   146441882.699         189.148          49.000    27866959.176   112208748.806         145.008          52.000  
G28  27528290.861   144662092.631       -3498.205          42.000    27528287.211   112723685.271       -2726.028          40.000  
E36  27777864.062   145974009.913       -1045.042          48.000    27777864.960   111850428.924        -800.720          53.000  
G26  25518418.472   134100222.370        1379.132          49.000    25518416.264   104493638.416        1074.689          45.000  
R20  24492141.097   130970547.740        -228.920          41.000    24492138.763   101866069.083        -178.007          43.000  
R10  24546206.476   130845171.426        1334.039          49.000                                                                  
R09  23932269.517   127796981.062       -2434.792          52.000    23932265.192    99397914.539       -1893.758          51.000  
R03  28409975.917                3       -250.053          17.000                                                                  
R16  27439970.864   146579510.839       -5030.076          49.000    27439969.760   114006188.086       -3912.290          47.000  
R04  28229863.260   151169669.885        1996.851          47.000    28229856.342   117576409.072        1553.101          44.000  
G16  28486532.067                        2595.115          30.000                                                                  
E11  29247276.899   153695881.343       -3042.100          39.000    29247272.460   117767203.420       -2330.978          46.000  
G18  24780484.426   130222693.753       -1262.157          48.000    24780480.203   101472343.175        -983.443          50.000  
G29  26801268.827   140842026.456       -2383.994          49.000    26801263.895   109747305.593       -1857.385          41.000  
S31  43231413.019   227182733.767        -675.474          44.000  
E30  31422972.134   165128926.681        1923.559          34.000    31422977.875   126527282.659        1473.501          35.000  
R19  25917255.357   138640208.737       -3553.554          42.000    25917251.684   107830877.853       -2764.090          46.000  
G05  28614248.934   150368888.506       -2623.314          43.000    28614244.478   117170512.360       -2044.039          37.000  
G23  26964637.666   141700251.029        2469.751          46.000    26964634.116   110415806.334        1924.578          45.000  
E34  29628696.388   155700039.063        1326.025          46.000    29628697.992   119302771.533        1016.110          48.000  
G25  27334273.463   143642787.373       -3752.377          46.000    27334272.142   111929512.535       -2923.863          43.000  
E25  28770123.755   151188325.000       -2341.178          45.000    28770125.720   115845754.021       -1793.748          54.000  
G31  26649345.857   140043195.946       -1920.321          46.000    26649342.181   109124641.113       -1496.456          44.000  
E14  34585515.098   181748244.426       -1606.602          35.000    34585513.346   139261697.508       -1231.156          43.000  
> 2024 04 15 05 29 00.0150000  0 25                     
S33  44189591.467   232218027.329        -675.968          42.000  
E02  27865906.076   146436347.981         179.461          49.000    27865905.891   112204507.920         137.465          52.000  
G28  27548279.255   144767134.644       -3504.810          43.000    27548276.224   112805536.107       -2731.126          40.000  
E36  27783858.220   146005513.575       -1055.558          47.000    27783859.733   111874568.111        -808.853          53.000  
G26  25510581.520   134059040.647        1366.046          49.000    25510579.123   104461548.779        1064.437          45.000  
R20  24493464.419   130977622.928        -243.142          42.000    24493461.794   101871572.058        -189.247          43.000  
R10  24538763.301   130805485.532        1311.358          49.000                                                                  
R09  23946014.766   127870383.457       -2458.957          52.000    23946010.994    99455005.250       -1912.444          51.000  
R16  27468236.455   146730501.170       -5036.233          48.000    27468234.818   114123624.776       -3916.903          46.000  
R04  28218703.804   151109909.755        1986.774          48.000    28218697.070   117529928.925        1545.441          44.000  
G16  28471721.885   149619858.569        2594.727          34.000                                                                  
E11  29264651.704   153787192.975       -3045.243          38.000    29264648.806   117837169.485       -2333.541          46.000  
G18  24787735.389   130260793.616       -1278.180          49.000    24787730.692   101502031.392        -995.933          51.000  
G29  26814886.235   140913591.155       -2387.256          46.000    26814881.344   109803070.316       -1860.140          40.000  
S31  43235268.364   227202993.681        -675.669          44.000  
E30  31411994.467   165071240.832        1921.845          36.000    31412000.614   126483081.861        1472.448          34.000  
R19  25937192.471   138746857.872       -3556.468          42.000    25937187.741   107913827.150       -2766.137          46.000  
G05  28629264.709   150447800.884       -2638.022          44.000    28629259.938   117232002.514       -2055.373          35.000  
G23  26950559.110   141626268.941        2462.015          46.000    26950556.206   110358158.037        1918.286          45.000  
E34  29621149.457   155660381.684        1317.374          46.000    29621151.926   119272384.763        1009.449          49.000  
G25  27355719.898   143755487.662       -3761.470          45.000    27355718.140   112017330.882       -2930.975          43.000  
E25  28783514.562   151258697.747       -2350.791          45.000    28783517.215   115899675.984       -1801.233          54.000  
G31  26660353.736   140101044.048       -1936.618          46.000    26660351.551   109169717.485       -1508.958          45.000  
E14  34594660.539   181796294.951       -1597.166          37.000    34594656.982   139298515.439       -1223.809          44.000  
R03                                                                  28411390.281                3       -206.421          18.000  
> 2024 04 15 05 29 30.0150000  0 25                     
S33  44193449.177   232238300.094        -676.115          42.000  
E02  27864909.819   146431112.187         169.251          48.000    27864909.719   112200496.072         129.678          52.000  
G28  27568304.173   144872370.262       -3511.397          43.000    27568302.580   112887537.787       -2735.913          42.000  
E36  27789913.657   146037334.081       -1066.007          47.000    27789914.781   111898950.083        -816.907          52.000  
G26  25502819.514   134018254.649        1352.693          48.000    25502817.757   104429767.484        1054.004          45.000  
R20  24494867.628   130985127.814        -257.380          41.000    24494865.149   101877409.212        -200.069          43.000  
R10  24531445.408   130766485.752        1288.350          48.000                                                                  
R09  23959896.298   127944510.508       -2483.198          51.000    23959892.590    99512659.609       -1931.421          51.000  
R03  28412959.280                3       -286.176          19.000    28412945.620                3       -224.264          20.000  
R16  27496535.290   146881671.703       -5042.244          47.000    27496533.641   114241201.649       -3921.685          45.000  
R04  28207601.540   151050458.225        1976.245          46.000    28207594.572   117483688.841        1537.146          42.000  
G16  28456915.293                        2592.181          33.000                                                                  
E11  29282048.639   153878604.259       -3049.034          39.000    29282042.851   117907211.926       -2336.251          45.000  
G18  24795077.138   130299378.960       -1294.450          49.000    24795072.748   101532097.918       -1008.751          50.000  
G29  26828523.366   140985253.708       -2390.557          47.000    26828518.999   109858911.282       -1862.901          41.000  
S31  43239124.830   227223258.873        -675.884          44.000  
E30  31401027.188   165013605.707        1919.782          35.000    31401033.140   126438919.866        1471.682          32.000  
R19  25957145.360   138853590.232       -3559.358          42.000    25957139.542   107996841.243       -2768.302          45.000  
G05  28644367.609   150527161.164       -2653.094          45.000    28644359.681   117293841.715       -2067.768          35.000  
G23  26936527.370   141552527.993        2453.841          46.000    26936523.576   110300697.628        1912.136          45.000  
E34  29613652.422   155620985.953        1308.476          46.000    29613655.373   119242198.476        1002.649          50.000  
G25  27377218.378   143868465.327       -3770.771          44.000    27377216.800   112105365.379       -2938.156          42.000  
E25  28796961.885   151329363.384       -2360.545          45.000    28796964.529   115953822.368       -1808.819          54.000  
G31  26671455.602   140159384.429       -1953.045          46.000    26671453.406   109215177.492       -1521.869          45.000  
E14  34603750.800   181844070.029       -1587.908          35.000    34603748.920   139335122.321       -1216.886          44.000  
