     3.00           OBSERVATION DATA    M: Mixed            RINEX VERSION / TYPE
CONVBIN 2.4.3                           20240415 032942 UTC PGM / RUN BY / DATE 
format: u-blox UBX                                          COMMENT             
log: /home/regis/git/gnsspwv/obsdata/VERT00CHL/2024-04-15/VECOMMENT             
{self.marker}                                               MARKER NAME         
                                                            MARKER NUMBER       
GEODETIC                                                    MARKER TYPE         
{self.observer}     {self.institution}                      OBSERVER / AGENCY   
UNKNOWN             UBLOX-ZED-F9P                           REC # / TYPE / VERS 
UNKNOWN             TWIVSP6037L                             ANT # / TYPE        
  1713381.0000 -5047934.0000 -3490983.0000                  APPROX POSITION XYZ 
        0.0000        0.0000        0.0000                  ANTENNA: DELTA H/E/N
G    8 C1C L1C D1C S1C C2L L2L D2L S2L                      SYS / # / OBS TYPES 
R    8 C1C L1C D1C S1C C2C L2C D2C S2C                      SYS / # / OBS TYPES 
E    8 C1C L1C D1C S1C C7Q L7Q D7Q S7Q                      SYS / # / OBS TYPES 
S    4 C1C L1C D1C S1C                                      SYS / # / OBS TYPES 
  2024    04    15    03    15   00.0110000     GPS         TIME OF FIRST OBS   
  2024    04    15    03    29   30.0120000     GPS         TIME OF LAST OBS    
                                                            END OF HEADER       
> 2024 04 15 03 15 00.0110000  0 26                     
S33  43114162.168   226566579.8561       -730.641          42.000  
E02  29297877.515   153961393.7771       1217.675          39.000    29297877.816   117970448.5881        932.934          47.000  
G28  24985497.192   131299658.2041        712.992          47.000    24985492.493   102311407.8991        555.630          48.000  
E36  28538752.188   149972478.8431       1922.228          46.000    28538756.574   114914182.5471       1472.762          51.000  
R17  26899358.815                3      -4903.683          25.000    26899379.328                3      -3813.384          26.000  
R09  24722732.770   132018013.2391       2552.833          48.000    24722728.886   102680940.0711       1985.494          49.000  
R16  22750216.625   121527744.9421       -598.981          51.000    22750214.473    94521494.3331       -465.710          49.000  
G20  27320198.050   143568554.0551       -188.452          36.000                                                                  
E11  26181962.610   137587554.4571       -438.527          42.000    26181961.112   105424458.3321       -335.965          51.000  
G18  26268698.454   138043249.5751       2806.114          46.000    26268696.970   107566268.0181       2186.697          45.000  
G29  24040966.246   126336533.9941       -884.558          47.000    24040960.842    98444323.4081       -689.508          44.000  
S31  42160538.165   221555232.0941       -729.907          43.000  
E03  30827115.912   161997524.5661      -2912.046          43.000    30827123.512   124127891.6941      -2231.438          44.000  
R15  25336026.942   135388259.2981      -3736.288          51.000    25336025.450   105302148.0321      -2905.973          48.000  
R18  23164111.065   123651701.1901      -2944.602          52.000    23164108.842    96173839.5051      -2290.219          51.000  
R19  22819503.358   122069311.1851        493.507          42.000    22819498.656    94942399.2241        383.937          47.000  
G05  27835172.790   146274869.9301       1218.713          45.000    27835169.687   113980423.7081        949.530          41.000  
G11  27476123.333   144388478.7711      -3721.722          45.000    27476117.956   112510696.5231      -2899.818          42.000  
E24  29078100.169   152806571.0951      -2144.480          43.000    29078099.919   117085613.9191      -1643.257          50.000  
G12  25587671.017   134464421.3951      -2235.478          49.000    25587665.424   104777598.1641      -1742.043          45.000  
G25  23930947.642   125758215.3721       -720.809          49.000    23930945.149    97993487.3361       -561.610          46.000  
E10  28257196.445   148493066.9331      -1976.416          49.000    28257194.496   113780657.1821      -1514.445          49.000  
E25  26972193.140   141740140.3651       -272.971          48.000    26972193.994   108606237.3851       -209.191          52.000  
E12  30111340.796   158236533.3921      -2969.510          36.000    30111337.750   121246395.4921      -2275.570          46.000  
G31  27302640.437   143476332.2001       2386.784          35.000    27302655.086                1       1859.213          31.000  
E14  29960460.361   157443428.9571      -4487.206          43.000    29960458.971   120638528.4941      -3438.253          50.000  
> 2024 04 15 03 15 30.0110000  0 26                     
S33  43118333.543   226588500.699        -730.589          42.000  
E02  29290927.377   153924869.891        1217.534          41.000    29290927.493   117942462.788         932.959          47.000  
G28  24981478.947   131278540.803         695.111          47.000    24981474.294   102294952.754         541.670          48.000  
E36  28527803.920   149914940.514        1914.104          46.000    28527807.225   114870094.820        1466.566          51.000  
R17  26926904.419                       -4904.304          28.000    26926873.456   112070877.8331      -3814.729          31.000  
R09  24708408.813   131941524.855        2546.874          48.000    24708404.931   102621449.119        1980.712          48.000  
R16  22753634.020   121546002.462        -618.022          52.000    22753632.279    94535694.612        -480.570          49.000  
G20  27321317.704   143574447.244        -203.530          36.000                                                                  
E11  26184509.653   137600934.155        -453.045          43.000    26184507.448   105434710.333        -347.177          52.000  
G18  26252702.134   137959187.687        2798.219          47.000    26252699.932   107500765.493        2180.321          45.000  
G29  24046048.217   126363240.560        -895.477          47.000    24046043.454    98465133.732        -697.974          44.000  
S31  42164706.004   221577134.407        -730.117          44.000  
E03  30843749.271   162084935.155       -2915.155          42.000    30843757.233   124194868.177       -2233.644          44.000  
R15  25357041.017   135500544.725       -3749.222          52.000    25357037.560   105389481.068       -2916.017          48.000  
R18  23180712.475   123740323.820       -2963.318          51.000    23180711.259    96242768.217       -2304.908          50.000  
R19  22816804.293   122054871.819         469.316          42.000    22816799.492    94931168.640         365.047          47.000  
G05  27828236.539   146238424.041        1211.669          44.000    27828233.185   113952024.393         943.834          40.000  
G11  27497401.104   144500295.355       -3732.300          42.000    27497395.694   112597826.324       -2908.264          43.000  
E24  29090359.058   152870991.929       -2149.777          44.000    29090358.839   117134975.299       -1647.192          50.000  
G12  25600456.224   134531607.135       -2243.394          50.000    25600449.673   104829950.674       -1748.078          44.000  
G25  23935090.276   125779983.782        -730.348          49.000    23935087.423    98010449.729        -569.069          46.000  
E10  28268517.050   148552559.611       -1989.428          49.000    28268515.270   113826242.496       -1524.392          49.000  
E25  26973766.365   141748406.041        -277.752          48.000    26973766.782   108612570.817        -212.822          52.000  
E12  30128320.773   158325766.908       -2978.713          36.000    30128318.420   121314769.201       -2282.418          46.000  
G31  27289041.725   143404869.424        2377.851          35.000    27289050.485   111744097.1691       1852.359          33.000  
E14  29986052.347   157577912.583       -4478.114          43.000    29986050.677   120741574.364       -3431.091          51.000  
> 2024 04 15 03 16 00.0110000  0 26                     
S33  43122503.191   226610413.704        -730.101          42.000  
E02  29283974.201   153888328.145        1218.424          41.000    29283973.815   117914463.302         933.667          47.000  
G28  24977560.298   131257949.400         677.625          48.000    24977556.025   102278907.504         527.995          48.000  
E36  28516898.432   149857629.832        1906.615          46.000    28516900.945   114826181.535        1460.922          51.000  
R17  26954381.289                3      -4918.147          19.000                                                                  
R09  24694117.402   131865206.712        2541.100          48.000    24694112.702   102562090.564        1976.410          48.000  
R16  22757156.728   121564818.193        -636.432          52.000    22757154.540    94550329.058        -495.011          49.000  
G20  27322528.016   143580808.904        -219.931          36.000                                                                  
E11  26187136.812   137614740.802        -467.417          44.000    26187134.611   105445289.479        -358.166          52.000  
G18  26236747.480   137875348.979        2790.803          46.000    26236746.065   107435436.890        2174.782          46.000  
G29  24051189.612   126390259.289        -905.737          47.000    24051184.782    98486187.300        -705.792          44.000  
S31  42168872.569   221599029.130        -729.634          44.000  
E03  30860397.075   162172417.762       -2917.227          42.000    30860405.126   124261899.844       -2235.158          43.000  
R15  25378124.027   135613201.962       -3761.322          52.000    25378119.313   105477103.317       -2925.699          47.000  
R18  23197417.433   123829494.690       -2981.423          51.000    23197416.174    96312123.351       -2318.879          50.000  
R19  22814238.408   122041150.580         445.251          41.000    22814234.276    94920496.576         346.412          47.000  
G05  27821339.966   146202179.947        1204.702          45.000    27821335.558   113923782.300         938.690          40.000  
G11  27518735.479   144612411.642       -3741.833          42.000    27518730.151   112685189.672       -2915.987          43.000  
E24  29102644.929   152935553.938       -2154.417          44.000    29102644.469   117184444.874       -1650.775          50.000  
G12  25613283.076   134599015.163       -2250.567          49.000    25613277.921   104882476.395       -1753.728          45.000  
G25  23939284.782   125802025.938        -739.353          49.000    23939282.183    98027625.454        -575.984          46.000  
E10  28279909.436   148612427.127       -2001.748          49.000    28279907.823   113872115.019       -1533.740          49.000  
E25  26975363.303   141756798.063        -281.805          48.000    26975363.744   108619001.075        -215.941          52.000  
E12  30145348.447   158415251.504       -2986.742          36.000    30145346.560   121383335.317       -2288.657          46.000  
G31  27275489.587   143333661.466        2369.446          31.000    27275494.282   111688610.450        1845.721          32.000  
E14  30011586.585   157712098.850       -4467.854          43.000    30011585.159   120844392.437       -3423.454          51.000  
> 2024 04 15 03 16 30.0110000  0 27                     
S33  43126670.731   226632314.153        -729.773          42.000  
E02  29277016.515   153851764.511        1219.086          41.000    29277016.097   117886447.027         934.199          47.000  
G28  24973741.270   131237881.063         660.241          46.000    24973736.773   102263269.830         514.535          48.000  
E36  28506035.160   149800543.840        1899.141          47.000    28506037.449   114782440.407        1455.261          51.000  
R17  26981874.986                       -4905.158          26.000                                                                  
R09  24679857.068   131789057.402        2535.586          49.000    24679852.484   102502863.357        1972.014          48.000  
R16  22760783.631   121584189.126        -654.952          52.000    22760780.380    94565395.350        -509.336          50.000  
G20  27323827.109   143587635.528        -234.715          37.000                                                                  
E11  26189844.474   137628969.733        -481.322          43.000    26189842.217   105456192.184        -368.775          52.000  
G18  26220835.338   137791731.641        2783.535          46.000    26220834.101   107370280.771        2169.104          45.000  
G29  24056389.128   126417584.758        -915.961          48.000    24056383.654    98507479.899        -713.824          43.000  
S31  42173036.530   221620911.834        -729.351          43.000  
E03  30877056.922   162259965.763       -2919.316          41.000    30877065.540   124328981.602       -2236.772          43.000  
R15  25399273.461   135726225.176       -3773.486          51.000    25399270.372   105565010.165       -2935.087          47.000  
R18  23214223.608   123919205.394       -2999.322          51.000    23214221.666    96381898.360       -2332.799          50.000  
R19  22811806.866   122028143.005         421.881          40.000    22811802.508    94910379.613         328.038          48.000  
G05  27814480.427   146166135.522        1198.119          42.000    27814477.020   113895695.817         933.638          40.000  
G11  27540126.951   144724820.415       -3751.845          40.000    27540120.659   112772780.930       -2923.283          43.000  
E24  29114956.530   153000252.929       -2158.797          44.000    29114956.193   117234019.419       -1654.172          50.000  
G12  25626151.379   134666640.809       -2257.740          49.000    25626146.616   104935171.694       -1759.281          45.000  
G25  23943530.416   125824338.506        -748.213          49.000    23943527.800    98045011.878        -583.113          46.000  
E10  28291371.901   148672663.632       -2014.006          49.000    28291370.495   113918270.281       -1543.114          49.000  
E25  26976983.378   141765312.764        -285.798          48.000    26976983.902   108625525.326        -218.952          52.000  
E12  30162423.026   158504980.831       -2995.522          35.000    30162421.474   121452088.886       -2294.744          46.000  
G31  27261982.114   143262706.910        2362.274          29.000    27261989.261   111633321.240        1839.752          33.000  
E14  30037062.526   157845982.369       -4457.687          42.000    30037062.772   120946978.521       -3415.637          51.000  
R20                                                                  27104377.778                3       2643.289          11.000  
> 2024 04 15 03 17 00.0110000  0 27                     
S33  43130835.396   226654198.630        -728.914          42.000  
E02  29270052.822   153815175.034        1220.371          41.000    29270053.489   117858410.968         935.046          48.000  
G28  24970021.166   131218332.982         643.240          46.000    24970016.791   102248037.564         501.089          48.000  
E36  28495214.406   149743679.745        1892.135          47.000    28495216.421   114738869.325        1449.704          51.000  
R17  27009395.799                3      -4904.239          25.000                                                                  
R09  24665628.376   131713075.316        2530.167          49.000    24665623.459   102443766.209        1967.825          49.000  
R16  22764513.558   121604112.953        -673.023          52.000    22764510.431    94580891.664        -523.589          50.000  
G20  27325214.763   143594924.209        -250.481          36.000                                                                  
E11  26192631.172   137643616.444        -494.780          43.000    26192629.318   105467415.009        -379.041          51.000  
G18  26204965.053   137708334.061        2776.585          47.000    26204963.857   107305295.896        2163.523          45.000  
G29  24061646.155   126445210.895        -925.464          48.000    24061640.458    98529006.742        -721.039          44.000  
S31  42177197.465   221642778.193        -728.281          44.000  
E03  30893729.380   162347572.721       -2920.772          41.000    30893737.378   124396108.540       -2238.110          43.000  
R15  25420490.475   135839608.356       -3785.084          51.000    25420488.531   105653197.010       -2943.987          48.000  
R18  23231128.564   124009447.841       -3016.619          50.000    23231126.341    96452086.921       -2346.308          49.000  
R19  22809507.535   122015845.255         398.422          40.000    22809503.784    94900814.706         309.880          48.000  
G05  27807658.720   146130288.408        1191.849          44.000    27807655.237   113867763.035         928.883          41.000  
G11  27561572.293   144837514.537       -3760.548          38.000    27561565.696   112860594.529       -2930.542          43.000  
E24  29127294.508   153065084.887       -2163.040          45.000    29127293.440   117283695.846       -1657.382          50.000  
G12  25639061.869   134734480.856       -2264.633          51.000    25639056.625   104988034.052       -1764.677          45.000  
G25  23947826.941   125846918.241        -756.800          48.000    23947824.590    98062606.480        -589.643          46.000  
E10  28302903.330   148733263.407       -2025.740          49.000    28302902.303   113964703.886       -1552.206          48.000  
E25  26978626.372   141773946.567        -289.385          48.000    26978626.772   108632140.849        -221.843          52.000  
E12  30179545.067   158594948.585       -3002.323          37.000    30179541.731   121521025.265       -2300.656          46.000  
G31  27248526.467                        2353.033          28.000    27248534.865   111578227.779        1832.574          32.000  
E14  30062481.691   157979557.833       -4446.877          43.000    30062481.196   121049328.537       -3407.445          51.000  
R20                                                                  27085326.468                3       2635.397          25.000  
> 2024 04 15 03 17 30.0110000  0 27                     
S33  43134996.304   226676064.941        -728.206          42.000  
E02  29263084.104   153778558.349        1221.435          41.000    29263085.741   117830354.068         935.851          48.000  
G28  24966400.775   131199304.844         625.855          46.000    24966395.987   102233210.411         487.791          48.000  
E36  28484435.425   149687037.266        1884.747          47.000    28484437.705   114695468.026        1444.231          51.000  
R17  27036880.717                3      -4895.370          20.000    27036857.316                3      -3815.479          26.000  
R09  24651430.785   131637261.588        2524.575          49.000    24651425.529   102384800.003        1963.528          48.000  
R16  22768347.108   121624589.247        -691.409          53.000    22768343.521    94596817.666        -537.674          50.000  
G20  27326684.509   143602713.2321       -265.724          33.000                                                                  
E11  26195498.929   137658678.932        -508.563          44.000    26195495.568   105478956.431        -389.701          51.000  
G18  26189137.122   137625157.108        2769.341          46.000    26189135.199   107240482.901        2157.772          45.000  
G29  24066960.363   126473134.605        -935.437          48.000    24066954.124    98550765.494        -728.882          43.000  
S31  42181355.034   221664625.829        -727.582          44.000  
E03  30910410.613   162435234.636       -2922.745          39.000    30910419.893   124463277.580       -2239.372          44.000  
R15  25441775.462   135953348.331       -3796.858          50.000    25441773.778   105741661.402       -2953.150          48.000  
R18  23248132.962   124100216.362       -3034.078          50.000    23248130.273    96522684.653       -2359.769          49.000  
R19  22807340.630   122004255.276         375.081          40.000    22807337.341    94891800.323         291.597          48.000  
G05  27800875.572   146094641.120        1185.115          43.000    27800870.772   113839985.998         923.507          39.000  
G11  27583070.894   144950489.404       -3769.689          36.000    27583064.083   112948626.913       -2937.750          44.000  
E24  29139657.264   153130048.332       -2167.292          45.000    29139655.762   117333472.991       -1660.574          50.000  
G12  25652011.220   134802533.214       -2271.478          50.000    25652006.932   105041061.849       -1769.985          45.000  
G25  23952174.727   125869764.438        -765.756          49.000    23952172.476    98080408.705        -596.528          46.000  
E10  28314504.034   148794223.227       -2037.496          49.000    28314502.515   114011413.369       -1561.228          48.000  
E25  26980291.592   141782698.487        -293.335          48.000    26980292.114   108638846.866        -224.725          51.000  
E12  30196709.941   158685151.251       -3010.062          37.000    30196706.728   121590141.570       -2306.500          45.000  
E14  30087839.783   158112822.432       -4436.581          42.000    30087840.606   121151440.367       -3399.425          51.000  
G31                                                                  27235124.977   111523330.707        1826.691          33.000  
R20                                                                  27066277.918                        2631.433          26.000  
> 2024 04 15 03 18 00.0110000  0 26                     
S33  43139153.171   226697909.902        -727.823          42.000  
E02  29256111.532   153741913.133        1221.717          42.000    29256112.475   117802275.275         936.341          48.000  
G28  24962878.293   131180796.238         608.347          47.000    24962874.283   102218788.130         474.040          47.000  
E36  28473698.642   149630616.049        1877.017          47.000    28473701.102   114652236.288        1438.240          51.000  
R17  27064377.227                3      -4912.636          23.000    27064382.130                       -3815.747          25.000  
R09  24637265.028   131561617.934        2518.584          49.000    24637259.712   102325966.098        1958.846          48.000  
R16  22772284.432   121645618.053        -710.189          53.000    22772280.334    94613173.411        -552.324          50.000  
E11  26198443.271   137674155.137        -522.656          44.000    26198440.349   105490814.842        -400.588          51.000  
G18  26173350.755   137542201.626        2761.609          46.000    26173349.451   107175842.486        2151.872          46.000  
G29  24072330.253   126501352.870        -945.441          48.000    24072324.251    98572753.782        -736.829          44.000  
S31  42185508.656   221686453.675        -727.145          44.000  
E03  30927102.537   162522947.388       -2924.500          37.000    30927112.073   124530485.557       -2240.921          44.000  
R15  25463126.612   136067441.827       -3808.924          50.000    25463125.710   105830400.721       -2962.472          49.000  
R18  23265234.258   124191505.262       -3051.598          51.000    23265231.474    96593687.129       -2373.447          49.000  
R19  22805306.525   121993371.585         351.067          41.000    22805302.589    94883335.271         272.997          48.000  
G05  27794129.945   146059193.553        1178.325          43.000    27794124.130   113812364.566         918.069          39.000  
E24  29152043.210   153195141.704       -2172.020          44.000    29152042.563   117383349.693       -1664.149          50.000  
G12  25665001.754   134870796.422       -2278.846          50.000    25664996.382   105094253.923       -1775.755          45.000  
G25  23956573.612   125892876.382        -774.665          49.000    23956570.123    98098418.006        -603.650          46.000  
E10  28326171.923   148855539.885       -2049.771          48.000    28326170.613   114058396.279       -1570.690          48.000  
E25  26981979.034   141791567.487        -297.569          47.000    26981979.826   108645642.596        -227.995          52.000  
E12  30213918.668   158775585.031       -3018.117          37.000    30213915.641   121659434.978       -2312.716          45.000  
G31  27221769.148                1       2335.999          30.000    27221767.732   111468630.544        1820.264          34.000  
E14  30113141.678   158245773.371       -4426.368          44.000    30113140.110   121253311.858       -3391.589          51.000  
R20                                                                  27047242.390                3       2671.552          17.000  
G11                                                                  27604615.008   113036874.531       -2945.140          44.000  
> 2024 04 15 03 18 30.0110000  0 26                     
S33  43143307.035   226719739.560        -727.209          42.000  
E02  29249133.444   153705244.259        1222.859          42.000    29249134.612   117774178.373         936.959          49.000  
G28  24959456.429   131162813.200         590.895          47.000    24959451.740   102204775.359         460.405          47.000  
E36  28463005.131   149574422.180        1869.401          47.000    28463007.742   114609178.733        1432.391          51.000  
R17  27091875.487                3      -4905.580          21.000    27091904.370                       -3815.857          25.000  
R09  24623132.604   131486151.688        2512.600          48.000    24623127.417   102267270.131        1954.391          49.000  
R16  22776324.767   121667205.360        -728.674          53.000    22776321.326    94629963.523        -566.780          50.000  
E11  26201467.407   137690049.378        -536.415          44.000    26201464.935   105502993.566        -411.080          51.000  
G18  26157607.878   137459474.858        2753.918          46.000    26157606.804   107111380.271        2145.834          46.000  
G29  24077756.688   126529868.690        -955.304          48.000    24077750.981    98594973.925        -744.324          45.000  
S31  42189659.082   221708265.256        -726.779          44.000  
E03  30943802.656   162610713.401       -2926.011          35.000    30943813.972   124597734.364       -2242.221          43.000  
R15  25484544.897   136181892.043       -3820.692          51.000    25484543.150   105919417.460       -2971.731          48.000  
R18  23282433.362   124283315.356       -3068.793          52.000    23282430.135    96665094.985       -2386.862          49.000  
R19  22803405.267   121983199.238         327.566          41.000    22803400.734    94875423.456         254.770          48.000  
G05  27787424.631   146023953.382        1171.378          44.000    27787418.283   113784904.701         913.015          39.000  
G11  27626249.111                3      -3791.565          31.000    27626219.205   113125338.659       -2952.312          44.000  
E24  29164455.742   153260369.808       -2176.466          44.000    29164455.042   117433329.680       -1667.739          50.000  
G12  25678032.951   134939275.980       -2286.034          50.000    25678027.289   105147614.627       -1781.143          44.000  
G25  23961023.425   125916259.690        -783.733          49.000    23961019.982    98116638.753        -610.706          46.000  
E10  28337908.490   148917216.492       -2061.762          48.000    28337907.452   114105654.979       -1579.672          48.000  
E25  26983690.254   141800558.876        -301.490          47.000    26983690.650   108652532.116        -231.083          52.000  
E12  30231172.311   158866252.590       -3025.857          38.000    30231169.198   121728907.537       -2318.670          44.000  
G31  27208465.416   142981373.4751       2326.660          33.000    27208459.063   111414132.880        1813.177          34.000  
E14  30138381.761   158378414.269       -4415.995          44.000    30138381.004   121354945.791       -3383.626          51.000  
R20                                                                  27028302.927                3       2611.333          18.000  
> 2024 04 15 03 19 00.0110000  0 25                     
S33  43147458.189   226741552.772        -727.227          42.000  
E02  29242150.985   153668551.870        1223.131          42.000    29242152.065   117746063.434         937.202          49.000  
G28  24956134.578   131145356.792         572.797          47.000    24956129.778   102191172.940         446.282          47.000  
E36  28452354.860   149518456.749        1861.376          47.000    28452357.960   114566296.225        1426.199          51.000  
R09  24609033.208   131410865.670        2506.082          48.000    24609028.976   102208714.378        1949.296          49.000  
R16  22780470.609   121689352.515        -747.953          52.000    22780467.316    94647189.080        -581.695          50.000  
E11  26204570.610   137706361.069        -551.046          43.000    26204569.051   105515492.143        -422.270          51.000  
G18  26141909.042   137376979.125        2745.732          46.000    26141908.686   107047098.095        2139.424          47.000  
G29  24083239.475   126558680.308        -965.680          49.000    24083233.979    98617424.575        -752.509          45.000  
S31  42193806.804   221730060.629        -726.783          44.000  
E03  30960513.596   162698530.286       -2928.484          33.000    30960525.477   124665022.083       -2243.849          42.000  
R15  25506029.119   136296697.019       -3833.085          51.000    25506026.546   106008710.162       -2981.346          47.000  
R18  23299729.608   124375642.487       -3086.562          51.000    23299726.269    96736904.986       -2400.686          49.000  
R19  22801636.476   121973736.990         303.479          41.000    22801632.132    94868063.978         235.761          47.000  
G05  27780757.365   145988923.029        1163.800          42.000    27780753.826   113757608.364         906.948          40.000  
G11  27647889.422                       -3798.169          31.000    27647875.891   113214016.914       -2959.773          45.000  
E24  29176893.638   153325732.625       -2181.283          45.000    29176893.384   117483412.885       -1671.512          50.000  
G12  25691105.402   135007971.347       -2293.749          50.000    25691099.933   105201143.459       -1787.375          45.000  
G25  23965524.497   125939915.067        -793.330          49.000    23965521.421    98135071.510        -618.282          46.000  
E10  28349713.520   148979251.260       -2074.165          48.000    28349712.502   114153188.118       -1589.227          48.000  
E25  26985424.594   141809673.092        -306.248          48.000    26985425.225   108659515.745        -234.648          52.000  
E12  30248469.727   158957151.742       -3034.301          38.000    30248466.674   121798557.513       -2324.853          44.000  
G31  27195208.135   142911696.793        2317.316          34.000    27195197.948   111359839.337        1806.128          34.000  
E14  30163563.403   158510743.799       -4406.081          44.000    30163562.414   121456341.137       -3376.114          51.000  
R20                                                                  27009438.682                        2617.065          25.000  
> 2024 04 15 03 19 30.0110000  0 27                     
S33  43151606.288   226763352.452        -726.196          42.000  
E02  29235164.903   153631839.111        1224.215          43.000    29235165.716   117717932.884         938.115          49.000  
G28  24952913.393   131128431.094         555.552          47.000    24952909.026   102177984.085         432.991          47.000  
E36  28441748.155   149462723.967        1853.977          47.000    28441752.192   114523591.970        1420.597          51.000  
R20  26990597.677                3       3358.087          26.000    26990594.579                3       2611.558          27.000  
R17  27146907.603                3      -4909.804          22.000                                                                  
R09  24594969.404   131335765.830        2500.283          47.000    24594965.374   102150303.418        1944.838          49.000  
R16  22784722.991   121712064.015        -766.247          53.000    22784718.978    94664853.564        -596.042          49.000  
G20  27333469.490                1       -327.917          31.000                                                                  
E11  26207754.993   137723092.596        -564.638          44.000    26207753.024   105528312.404        -432.690          51.000  
G18  26126256.177   137294719.795        2738.233          46.000    26126254.656   106983000.124        2133.605          46.000  
G29  24088778.654   126587788.844        -975.018          49.000    24088772.877    98640106.542        -759.662          45.000  
S31  42197951.830   221751842.677        -725.587          44.000  
E03  30977230.444                       -2929.894          28.000    30977246.621   124732348.941       -2244.768          42.000  
R15  25527580.360   136411857.866       -3844.300          51.000    25527577.267   106098279.647       -2990.197          47.000  
R18  23317122.260   124468485.342       -3103.152          51.000    23317119.172    96809116.115       -2413.509          49.000  
R19  22800001.162   121964987.296         279.902          42.000    22799996.051    94861258.672         217.721          47.000  
G05  27774132.491   145954107.393        1157.167          45.000    27774128.562   113730479.351         901.619          41.000  
E24  29189357.728   153391233.160       -2185.432          45.000    29189357.588   117533601.593       -1674.618          50.000  
G12  25704219.218   135076885.313       -2300.610          49.000    25704214.043   105254842.650       -1792.687          44.000  
G25  23970077.803   125963846.302        -802.094          49.000    23970075.354    98153719.222        -624.994          45.000  
E10  28361586.461   149041645.420       -2085.531          48.000    28361585.779   114200996.630       -1598.063          48.000  
E25  26987182.713   141818913.623        -309.888          47.000    26987183.546   108666596.152        -237.465          52.000  
E12  30265811.598   159048283.257       -3041.316          39.000    30265808.427   121868385.573       -2330.437          43.000  
G31  27182000.195   142842287.461        2309.882          34.000    27181989.352   111305754.210        1799.054          34.000  
E14  30188685.363   158642763.708       -4395.268          44.000    30188684.905   121557499.241       -3367.665          51.000  
G11                                                                  27669584.581   113302909.165       -2966.449          44.000  
> 2024 04 15 03 20 00.0110000  0 27                     
S33  43155752.267   226785138.952        -726.045          43.000  
E02  29228174.031   153595108.288        1224.513          42.000    29228176.297   117689788.505         938.299          49.000  
G28  24949794.136   131112039.374         537.607          47.000    24949790.016   102165211.314         418.613          47.000  
E36  28431187.361   149407227.191        1845.922          46.000    28431191.515   114481068.556        1414.401          51.000  
R20  26971756.882                        3351.249          31.000    26971771.582                        2606.438          30.000  
R17  27174402.195                3      -4895.429          19.000                                                                  
R09  24580940.310   131260856.895        2493.851          47.000    24580937.491   102092040.952        1939.620          49.000  
R16  22789080.836   121735343.295        -785.433          53.000    22789076.545    94682959.663        -610.838          50.000  
G20  27335392.353   143648441.6381       -344.605          33.000                                                                  
E11  26211019.641   137740245.561        -578.619          44.000    26211017.054   105541455.600        -443.332          51.000  
G18  26110648.800   137212701.389        2729.964          47.000    26110646.277   106919089.861        2127.255          45.000  
G29  24094373.955   126617194.438        -985.156          49.000    24094369.161    98663019.991        -767.560          46.000  
S31  42202094.271   221773611.591        -725.239          44.000  
E03  30993965.893                       -2931.246          28.000    30993977.586   124799714.791       -2246.266          40.000  
R15  25549197.594   136527375.165       -3856.464          52.000    25549194.655   106188126.339       -2999.384          47.000  
R18  23334611.766   124561842.346       -3120.377          51.000    23334607.661    96881727.105       -2427.019          48.000  
R19  22798499.341   121956952.953         255.714          41.000    22798494.371    94855009.763         199.004          47.000  
G05  27767548.959   145919511.577        1149.462          46.000    27767544.748   113703521.657         895.590          40.000  
E24  29201847.753   153456873.563       -2190.268          44.000    29201848.601   117583897.460       -1678.342          50.000  
G12  25717375.054   135146020.408       -2308.218          49.000    25717370.165   105308714.147       -1798.776          45.000  
G25  23974685.118   125988056.398        -811.653          49.000    23974682.368    98172584.231        -632.601          45.000  
E10  28373528.003   149104399.410       -2097.722          49.000    28373527.351   114249080.863       -1607.382          48.000  
E25  26988966.135   141828283.130        -314.437          47.000    26988966.553   108673775.395        -240.867          52.000  
E12  30283196.899   159139647.113       -3049.333          38.000    30283194.755   121938391.622       -2336.483          44.000  
G31  27168838.735   142773149.967        2299.426          33.000    27168832.638   111251880.724        1792.816          34.000  
E14  30213748.963   158774474.974       -4385.130          44.000    30213749.005   121658420.860       -3360.124          51.000  
G11                                                                  27691344.995   113392014.735       -2973.597          43.000  
> 2024 04 15 03 20 30.0110000  0 27                     
S33  43159896.896   226806920.470        -725.962          42.000  
E02  29221182.461   153558366.118        1224.811          42.000    29221184.666   117661635.441         938.672          49.000  
G28  24946778.044   131096189.253         519.265          47.000    24946774.128   102152860.548         404.650          48.000  
E36  28420673.214   149351974.101        1837.681          46.000    28420676.677   114438731.857        1408.141          50.000  
R20  26952978.727                        3344.354          29.000    26952991.846                        2600.847          29.000  
R17  27201914.822                3      -4897.635          18.000                                                                  
R09  24566949.835   131186148.507        2487.065          47.000    24566946.970   102033934.465        1934.264          49.000  
R16  22793546.020   121759198.066        -804.679          52.000    22793541.995    94701513.379        -625.884          49.000  
G20  27337403.318   143659016.128        -360.274          33.000                                                                  
E11  26214364.396   137757825.952        -593.084          44.000    26214362.303   105554926.312        -454.517          51.000  
G18  26095088.465   137130932.855        2721.562          47.000    26095086.155   106855374.314        2120.691          45.000  
G29  24100027.230   126646902.556        -995.178          49.000    24100022.382    98686169.198        -775.507          46.000  
S31  42206235.624   221795375.096        -725.356          44.000  
E03  31010705.593                       -2933.344          27.000    31010719.167   124867122.940       -2247.628          40.000  
R15  25570883.562   136643253.376       -3868.514          52.000    25570879.711   106278253.804       -3008.955          47.000  
R18  23352197.349   124655715.820       -3137.627          51.000    23352193.887    96954739.794       -2440.404          49.000  
R19  22797131.570   121949639.978         231.831          40.000    22797127.314    94849321.932         180.290          48.000  
G05  27761009.128   145885143.811        1141.858          47.000    27761004.865   113676741.642         889.529          40.000  
G11  27713162.297   145633551.1631      -3825.112          33.000    27713158.375   113481336.307       -2980.745          43.000  
E24  29214367.698   153522660.349       -2195.523          45.000    29214367.148   117634305.485       -1682.160          50.000  
G12  25730574.331   135215383.654       -2315.810          49.000    25730569.297   105362763.430       -1804.678          44.000  
G25  23979346.468   126012552.630        -821.142          49.000    23979343.667    98191672.206        -639.837          45.000  
E10  28385539.526   149167518.007       -2109.962          49.000    28385538.363   114297444.471       -1616.726          48.000  
E25  26990774.707   141837788.667        -319.053          47.000    26990775.371   108681058.869        -244.406          52.000  
E12  30300628.500   159231247.622       -3057.072          39.000    30300625.454   122008578.995       -2342.355          42.000  
G31  27155733.906   142704292.662        2290.125          33.000    27155729.217   111198225.685        1784.912          36.000  
E14  30238755.465   158905882.938       -4375.074          44.000    30238755.173   121759110.066       -3352.309          51.000  
> 2024 04 15 03 21 00.0110000  0 27                     
S33  43164041.060   226828698.489        -725.735          42.000  
E02  29214189.590   153521615.598        1225.195          43.000    29214191.379   117633475.962         938.827          49.000  
G28  24943865.909   131080884.553         501.018          47.000    24943861.738   102140934.781         390.375          47.000  
E36  28410207.087   149296968.700        1829.386          47.000    28410209.389   114396584.937        1401.831          50.000  
R20  26934237.624                        3336.705          29.000    26934249.268                3       2595.859          25.000  
R17  27229387.274                3      -4901.806          12.000                                                                  
R09  24552998.651   131111646.555        2479.989          47.000    24552995.120   101975988.537        1928.830          49.000  
R16  22798120.229   121783632.897        -824.141          52.000    22798116.259    94720518.241        -641.054          49.000  
G20  27339508.722   143670076.744        -376.908          33.000                                                                  
E11  26217791.927   137775835.877        -607.533          44.000    26217789.276   105568726.152        -465.654          50.000  
G18  26079576.694   137049419.334        2712.937          47.000    26079574.381   106791857.485        2113.759          45.000  
G29  24105738.314   126676914.114       -1005.420          49.000    24105733.092    98709554.852        -783.551          46.000  
S31  42210376.337   221817135.634        -725.159          44.000  
R15  25592636.189   136759493.767       -3880.710          51.000    25592633.276   106368662.898       -3018.294          47.000  
R18  23369879.496   124750104.352       -3154.841          51.000    23369876.281    97028153.093       -2453.803          49.000  
R19  22795900.299   121943050.521         207.502          42.000    22795895.517    94844196.868         161.441          48.000  
G05  27754514.228   145851010.537        1133.903          47.000    27754510.345   113650144.320         883.396          42.000  
G11  27735028.455   145748457.441       -3834.603          36.000    27735023.851   113570873.647       -2988.073          43.000  
E24  29226916.696   153588596.268       -2200.204          46.000    29226914.363   117684827.792       -1685.925          50.000  
G12  25743817.331   135284977.293       -2323.606          48.000    25743812.437   105416992.217       -1810.644          45.000  
G25  23984063.270   126037338.597        -830.945          49.000    23984060.302    98210985.932        -647.369          45.000  
E10  28397620.180   149231002.248       -2122.185          49.000    28397618.914   114346088.251       -1626.104          48.000  
E25  26992610.422   141847433.522        -323.857          47.000    26992610.941   108688449.093        -248.140          52.000  
E12  30318104.510   159323085.434       -3065.100          38.000    30318102.231   122078948.243       -2348.566          43.000  
G31  27142683.798   142635720.847        2281.097          34.000    27142681.299   111144793.178        1777.832          37.000  
E14  30263704.561   159036989.167       -4365.155          44.000    30263704.293   121859568.078       -3344.694          52.000  
E03                                                                  31027470.840   124934573.710       -2248.990          38.000  
> 2024 04 15 03 21 30.0110000  0 26                     
S33  43168184.968   226850472.794        -725.753          42.000  
E02  29207195.625   153484857.998        1225.248          44.000    29207196.418   117605311.051         938.933          49.000  
G28  24941057.823   131066127.385         482.739          47.000    24941053.218   102129435.667         376.192          47.000  
E36  28399785.933   149242213.210        1820.970          45.000    28399789.618   114354629.518        1395.320          50.000  
R20  26915536.838                        3329.232          31.000    26915525.667                        2589.120          28.000  
R09  24539086.851   131037354.660        2472.829          47.000    24539082.427   101918205.974        1923.414          49.000  
R16  22802803.281   121808649.500        -843.552          52.000    22802799.544    94739975.575        -656.090          50.000  
G20  27341708.027   143681625.396        -392.276          35.000                                                                  
E11  26221301.299   137794275.933        -621.678          44.000    26221298.250   105582855.555        -476.374          50.000  
G18  26064114.106   136968164.269        2704.227          46.000    26064111.729   106728542.034        2107.256          45.000  
G29  24111507.088   126707228.433       -1015.533          49.000    24111501.881    98733176.409        -791.254          46.000  
S31  42214516.533   221838891.988        -725.081          44.000  
R15  25614456.136   136876095.663       -3892.674          51.000    25614453.754   106459353.155       -3027.545          47.000  
R18  23387658.044   124845004.856       -3171.815          52.000    23387653.854    97101964.624       -2466.994          48.000  
R19  22794804.041   121937185.442         183.409          41.000    22794798.635    94839635.141         142.740          48.000  
G05  27748063.813   145817114.162        1126.088          46.000    27748060.343   113623731.611         877.463          43.000  
G11  27756947.538   145863638.647       -3844.000          39.000    27756941.388   113660625.169       -2995.200          40.000  
E24  29239491.777   153654682.389       -2205.348          45.000    29239490.629   117735465.191       -1689.844          50.000  
G12  25757104.404   135354802.908       -2331.329          48.000    25757099.894   105471401.761       -1816.515          45.000  
G25  23988835.395   126062416.129        -840.894          49.000    23988832.037    98230526.881        -655.212          45.000  
E10  28409770.356   149294851.440       -2134.306          50.000    28409768.962   114395011.674       -1635.367          48.000  
E25  26994472.321   141857219.283        -328.468          47.000    26994473.106   108695947.279        -251.725          52.000  
E12  30335625.296   159415159.447       -3073.164          38.000    30335623.304   122149498.431       -2354.694          42.000  
G31  27129690.584   142567438.004        2271.289          34.000    27129688.346   111091585.833        1769.696          38.000  
E14  30288595.190   159167793.564       -4355.175          44.000    30288595.228   121959794.812       -3337.020          51.000  
E03                                                                  31044233.242   125002065.880       -2250.489          37.000  
> 2024 04 15 03 22 00.0110000  0 26                     
S33  43172328.332   226872247.369        -726.017          42.000  
E02  29200200.056   153448096.051        1225.188          44.000    29200200.476   117577142.847         938.859          48.000  
G28  24938355.048   131051921.412         464.146          48.000    24938349.568   102118366.072         361.757          47.000  
E36  28389414.651   149187711.423        1812.302          45.000    28389418.517   114312868.500        1388.655          51.000  
R20  26896875.033                        3321.941          31.000    26896882.119                        2583.225          31.000  
R09  24525214.338   130963278.593        2465.209          48.000    24525210.277   101860591.300        1917.598          49.000  
R16  22807596.086   121834251.990        -863.388          52.000    22807592.864    94759888.643        -671.541          50.000  
G20  27343999.265   143693665.566        -409.945          37.000                                                                  
E11  26224892.578   137813148.030        -636.270          45.000    26224889.357   105597316.027        -487.632          50.000  
G18  26048701.632   136887172.651        2695.097          46.000    26048699.829   106665431.874        2100.160          45.000  
G29  24117333.603   126737846.272       -1025.818          50.000    24117328.372    98757034.491        -799.353          46.000  
S31  42218656.679   221860649.026        -725.548          44.000  
R15  25636345.061   136993059.531       -3904.994          51.000    25636341.440   106550325.002       -3037.273          46.000  
R18  23405531.409   124940415.900       -3189.104          51.000    23405527.026    97176173.224       -2480.337          48.000  
R19  22793843.775   121932046.616         158.949          42.000    22793837.956    94835638.312         123.657          48.000  
G05  27741659.942   145783460.339        1117.538          46.000    27741655.953   113597507.912         870.961          42.000  
G11  27778918.004   145979094.179       -3853.040          40.000    27778911.974   113750590.501       -3002.381          40.000  
E24  29252095.401   153720921.358       -2210.800          44.000    29252095.412   117786219.684       -1693.873          50.000  
G12  25770436.172   135424862.875       -2339.459          48.000    25770432.546   105525993.932       -1822.956          45.000  
G25  23993663.918   126087788.663        -850.970          49.000    23993659.922    98250297.687        -663.013          44.000  
E10  28421990.175   149359066.440       -2146.769          50.000    28421989.076   114444215.375       -1644.936          49.000  
E25  26996361.721   141867149.091        -333.622          47.000    26996362.900   108703555.840        -255.609          52.000  
E12  30353190.623   159507470.099       -3080.911          38.000    30353189.198   122220229.962       -2360.827          42.000  
G31  27116754.305   142499448.986        2261.334          36.000    27116750.485   111038607.390        1762.067          40.000  
E14  30313429.750   159298297.580       -4345.187          44.000    30313429.399   122059791.382       -3329.433          51.000  
E03                                                                  31061005.965   125069599.377       -2251.686          37.000  
> 2024 04 15 03 22 30.0110000  0 26                     
S33  43176473.704   226894031.891        -726.284          42.000  
E02  29193205.761   153411341.640        1224.973          44.000    29193206.234   117548980.397         938.570          48.000  
G28  24935758.827   131038279.210         445.358          47.000    24935753.839   102107735.773         346.906          47.000  
E36  28379093.869   149133476.089        1803.357          45.000    28379097.959   114271311.648        1381.752          51.000  
R20  26878260.185                        3315.256          30.000    26878268.415                        2578.225          31.000  
R09  24511384.630   130889432.849        2457.550          47.000    24511381.405   101803155.761        1911.387          49.000  
R16  22812500.941   121860453.538        -883.351          52.000    22812498.160    94780267.621        -687.120          50.000  
G20  27346387.104   143706209.532        -426.761          39.000                                                                  
E11  26228568.164   137832463.202        -651.408          45.000    26228564.702   105612115.977        -499.071          49.000  
G18  26033341.993   136806458.451        2685.889          46.000    26033339.998   106602537.864        2092.743          44.000  
G29  24123219.715   126768777.581       -1036.322          50.000    24123214.470    98781136.817        -807.489          46.000  
S31  42222798.913   221882416.304        -725.721          44.000  
R15  25658301.630   137110395.406       -3917.301          50.000    25658299.477   106641586.198       -3046.982          46.000  
R18  23423501.800   125036345.154       -3206.333          51.000    23423498.282    97250784.895       -2493.752          49.000  
R19  22793020.532   121927645.803         134.552          41.000    22793016.028    94832215.508         104.382          48.000  
G05  27735304.484   145750063.086        1108.905          46.000    27735300.743   113571484.138         864.025          42.000  
G11  27800941.801   146094832.642       -3862.600          40.000    27800934.915   113840776.324       -3010.018          38.000  
E24  29264732.159   153787324.673       -2216.194          45.000    29264731.544   117837100.111       -1698.132          50.000  
G12  25783814.915   135495168.847       -2347.705          47.000    25783810.379   105580777.764       -1829.363          44.000  
G25  23998550.593   126113468.562        -861.127          49.000    23998546.850    98270308.006        -671.014          44.000  
E10  28434281.033   149423657.045       -2159.356          49.000    28434280.426   114493706.881       -1654.530          49.000  
E25  26998281.040   141877235.068        -338.797          47.000    26998282.344   108711284.058        -259.641          52.000  
E12  30370804.432   159600026.800       -3089.337          39.000    30370801.819   122291150.007       -2367.210          41.000  
G31  27103874.854   142431767.661        2251.117          36.000    27103871.187   110985868.711        1753.754          39.000  
E14  30338207.953   159428511.676       -4335.813          44.000    30338208.048   122159565.809       -3322.193          51.000  
E03                                                                  31077790.902   125137181.284       -2253.593          36.000  
> 2024 04 15 03 23 00.0110000  0 26                     
S33  43180621.171   226915827.508        -726.460          42.000  
E02  29186211.882   153374595.567        1225.057          43.000    29186213.459   117520824.348         938.603          48.000  
G28  24933269.492   131025202.355         426.728          46.000    24933265.594   102097545.997         332.634          47.000  
E36  28368824.627   149079509.003        1794.803          45.000    28368828.696   114229960.330        1375.235          52.000  
R20  26859689.184                        3306.004          31.000    26859701.117   111712853.2771       2571.948          35.000  
R09  24497599.625   130815820.984        2450.048          49.000    24497596.368   101745902.087        1905.723          50.000  
R16  22817518.626   121887255.814        -903.158          52.000    22817515.876    94801113.808        -702.362          50.000  
G20  27348867.834   143719259.040        -443.201          37.000                                                                  
E11  26232327.525   137852221.373        -665.564          45.000    26232324.366   105627255.383        -510.055          49.000  
G18  26018036.626   136726024.658        2676.740          47.000    26018033.600   106539862.359        2085.785          45.000  
G29  24129165.145   126800021.251       -1046.362          50.000    24129159.372    98805482.567        -815.295          46.000  
S31  42226942.773   221904193.588        -725.840          44.000  
R15  25680329.323   137228102.403       -3929.427          51.000    25680327.545   106733135.997       -3056.251          48.000  
R18  23441567.945   125132788.927       -3223.116          51.000    23441566.134    97325796.694       -2506.844          50.000  
R19  22792335.294   121923982.880         110.243          42.000    22792331.408    94829366.577          85.727          49.000  
G05  27728997.875   145716925.302        1100.571          45.000    27728994.492   113545662.548         857.683          42.000  
G11  27823018.714   146210851.554       -3871.398          40.000    27823012.507   113931180.625       -3016.583          39.000  
E24  29277399.760   153853893.010       -2221.343          45.000    29277399.231   117888106.994       -1702.048          50.000  
G12  25797241.968   135565721.174       -2355.632          48.000    25797234.934   105635753.556       -1835.365          42.000  
G25  24003496.191   126139457.214        -871.021          49.000    24003492.642    98290558.904        -678.583          44.000  
E10  28446643.618   149488622.090       -2171.352          50.000    28446642.802   114543485.300       -1663.762          49.000  
E25  27000230.174   141887478.360        -343.865          47.000    27000231.758   108719132.823        -263.426          53.000  
E12  30388463.473   159692827.959       -3097.005          39.000    30388461.389   122362257.411       -2373.238          41.000  
G31  27091054.030   142364396.549        2240.240          36.000    27091050.719   110933371.749        1745.807          40.000  
E14  30362932.516   159558435.296       -4325.590          45.000    30362931.647   122259117.674       -3314.519          51.000  
E03                                                                  31094587.184   125204810.278       -2255.023          33.000  
> 2024 04 15 03 23 30.0110000  0 26                     
S33  43184767.788   226937618.292        -726.540          42.000  
E02  29179217.545   153337843.117        1224.979          43.000    29179219.363   117492663.405         938.585          47.000  
G28  24930885.621   131012676.849         408.089          45.000    24930882.028   102087785.853         318.075          47.000  
E36  28358603.987   149025796.338        1785.916          46.000    28358607.688   114188803.969        1368.404          52.000  
R20  26841159.946                        3297.274          31.000    26841173.230   111635797.444        2565.230          34.000  
R09  24483856.282   130742430.647        2442.283          50.000    24483853.245   101688820.732        1899.582          50.000  
R16  22822645.536   121914644.600        -923.068          52.000    22822642.320    94822416.206        -717.971          50.000  
G20  27351445.846   143732799.769        -459.743          38.000                                                                  
E11  26236168.152   137872406.924        -679.981          44.000    26236165.493   105642722.260        -521.134          49.000  
G18  26002781.247   136645858.642        2667.291          47.000    26002778.454   106477395.492        2078.567          44.000  
G29  24135167.261   126831560.943       -1056.500          50.000    24135161.745    98830058.979        -823.346          47.000  
S31  42231086.537   221925968.009        -726.123          44.000  
R15  25702422.913   137346162.917       -3941.539          51.000    25702420.440   106824960.767       -3065.606          47.000  
R18  23459728.021   125229727.972       -3239.818          51.000    23459725.977    97401193.741       -2519.765          50.000  
R19  22791785.555   121921042.065          85.575          41.000    22791781.304    94827079.288          66.704          49.000  
G05  27722739.074   145684034.132        1091.827          45.000    27722734.756   113520033.126         850.726          41.000  
G11  27845145.798   146327132.953       -3880.798          41.000    27845139.877   114021789.497       -3024.095          40.000  
E24  29290095.818   153920611.336       -2226.809          45.000    29290095.471   117939228.816       -1706.246          50.000  
G12  25810711.869   135636505.165       -2363.700          48.000    25810705.105   105690909.922       -1841.917          43.000  
G25  24008497.359   126165740.455        -881.329          49.000    24008494.054    98311039.352        -686.823          44.000  
E10  28459073.935   149553944.823       -2183.629          49.000    28459073.126   114593537.799       -1673.232          49.000  
E25  27002207.112   141897864.525        -348.862          48.000    27002208.372   108727091.060        -267.323          53.000  
E12  30406166.519   159785856.448       -3104.996          39.000    30406164.414   122433538.939       -2379.024          41.000  
G31  27078290.700   142297323.051        2230.231          36.000    27078286.272   110881106.703        1738.098          39.000  
E14  30387597.508   159688052.363       -4315.803          45.000    30387596.850   122358434.648       -3306.804          51.000  
E03                                                                  31111391.662   125272473.014       -2256.021          32.000  
> 2024 04 15 03 24 00.0110000  0 26                     
S33  43188915.287   226959412.537        -726.429          42.000  
E02  29172224.518   153301092.499        1224.969          43.000    29172225.825   117464503.865         938.646          47.000  
G28  24928608.363   131000711.678         389.484          44.000    24928605.083   102078462.323         303.576          47.000  
E36  28348432.640   148972347.263        1777.280          46.000    28348436.415   114147849.552        1361.845          52.000  
R20  26822676.020   143433058.4771       3290.187          33.000    26822688.503   111558925.743        2559.035          36.000  
R09  24470156.541   130669273.236        2434.816          50.000    24470153.260   101631920.548        1893.726          51.000  
R16  22827884.896   121942629.162        -942.736          53.000    22827880.933    94844181.980        -733.164          49.000  
G20  27354117.101   143746840.531        -476.115          40.000                                                                  
E11  26240093.373   137893027.212        -694.647          45.000    26240089.584   105658522.227        -532.228          49.000  
G18  25987578.934   136565970.744        2658.306          47.000    25987576.822   106415145.341        2071.540          45.000  
G29  24141226.170   126863402.584       -1066.290          49.000    24141221.393    98854870.658        -830.957          47.000  
S31  42235230.150   221947743.804        -725.716          44.000  
R15  25724584.416   137464583.177       -3953.236          51.000    25724581.333   106917065.327       -3074.814          47.000  
R18  23477981.516   125327166.164       -3256.180          51.000    23477978.951    97476978.996       -2532.527          50.000  
R19  22791372.374   121918830.776          61.619          41.000    22791367.683    94825359.444          47.974          49.000  
G05  27716529.092   145651400.118        1083.367          44.000    27716524.543   113494604.048         844.365          40.000  
G11  27867324.014   146443681.645       -3889.165          43.000    27867318.858   114112606.639       -3030.646          40.000  
E24  29302822.580   153987487.656       -2231.725          45.000    29302821.451   117990471.689       -1710.017          50.000  
G12  25824226.604   135707528.745       -2371.340          48.000    25824221.861   105746252.945       -1847.961          45.000  
G25  24013556.596   126192327.058        -891.071          49.000    24013553.391    98331756.170        -694.171          44.000  
E10  28471573.270   149619631.461       -2195.590          49.000    28471572.703   114643869.124       -1682.294          49.000  
E25  27004212.316   141908402.107        -353.648          48.000    27004213.680   108735165.325        -271.103          53.000  
E12  30423913.780   159879118.040       -3112.374          40.000    30423911.301   122504999.096       -2384.891          40.000  
G31  27065584.915   142230557.459        2220.581          37.000    27065580.200   110829081.572        1730.548          38.000  
E14  30412205.492   159817369.727       -4305.558          45.000    30412205.499   122457521.985       -3299.002          51.000  
E03                                                                  31128206.025   125340173.806       -2257.910          32.000  
> 2024 04 15 03 24 30.0110000  0 26                     
S33  43193061.867   226981204.619        -726.621          42.000  
E02  29165230.798   153264339.631        1224.998          43.000    29165231.927   117436342.610         938.739          47.000  
G28  24926437.299   130989303.398         370.979          45.000    24926434.059   102069572.749         289.185          47.000  
E36  28338311.620   148919158.578        1768.675          47.000    28338314.489   114107094.678        1355.167          52.000  
R20  26804235.839   143334455.264        3282.264          32.000    26804247.003   111482235.835        2553.074          34.000  
R09  24456499.610   130596347.001        2426.884          50.000    24456496.554   101575200.136        1887.623          50.000  
R16  22833235.163   121971206.270        -962.525          53.000    22833230.782    94866408.643        -748.670          50.000  
G20  27356886.053   143761378.192        -493.010          41.000                                                                  
E11  26244098.271   137914077.166        -708.949          45.000    26244095.304   105674651.439        -543.195          49.000  
G18  25972428.654   136486359.016        2649.124          47.000    25972426.914   106353110.410        2064.238          46.000  
G29  24147340.751   126895540.110       -1076.086          49.000    24147336.569    98879912.911        -838.556          47.000  
S31  42239373.560   221969518.008        -725.926          44.000  
R15  25746810.471   137583357.068       -3965.077          50.000    25746808.201   107009444.919       -3083.854          47.000  
R18  23496327.420   125425094.888       -3272.452          52.000    23496324.931    97553145.767       -2545.147          50.000  
R19  22791094.543   121917343.884          37.425          41.000    22791090.213    94824202.994          29.168          49.000  
G05  27710367.258   145619021.707        1074.816          44.000    27710364.743   113469374.201         837.539          40.000  
G11  27889552.270   146560490.307       -3898.136          44.000    27889546.820   114203626.363       -3037.525          39.000  
E24  29315576.343   154054517.643       -2236.902          44.000    29315576.744   118041832.316       -1714.012          50.000  
G12  25837786.029   135778787.879       -2379.221          47.000    25837781.197   105801779.550       -1853.961          43.000  
G25  24018672.690   126219213.486        -901.080          48.000    24018669.478    98352706.644        -702.069          44.000  
E10  28484141.505   149685675.869       -2207.455          49.000    28484140.472   114694474.582       -1691.398          49.000  
E25  27006245.804   141919087.319        -358.628          48.000    27006246.824   108743352.707        -274.762          53.000  
E12  30441703.298   159972606.297       -3119.985          40.000    30441701.469   122576632.979       -2390.621          40.000  
G31  27052936.907   142164097.710        2210.236          38.000    27052932.853   110777294.820        1722.247          38.000  
E14  30436755.885   159946382.024       -4295.299          45.000    30436755.746   122556375.560       -3291.196          51.000  
E03                                                                  31145028.530   125407907.200       -2258.586          32.000  
> 2024 04 15 03 25 00.0120000  0 26                     
S33  43197208.416   227002993.646        -726.132          43.000  
E02  29158236.652   153227581.251        1225.238          44.000    29158237.300   117408177.118         938.913          47.000  
G28  24924372.474   130978450.304         352.483          46.000    24924368.971   102061115.808         274.598          47.000  
E36  28328239.193   148866227.395        1760.108          47.000    28328241.947   114066537.093        1348.522          52.000  
R20  26785839.520                        3274.265          29.000    26785851.316   111405726.433        2547.499          37.000  
R09  24442886.149   130523650.176        2419.312          51.000    24442882.712   101518658.190        1881.641          50.000  
R16  22838695.708   122000375.757        -982.171          53.000    22838691.589    94889096.006        -763.904          50.000  
G20  27359745.653   143776411.129        -509.521          40.000                                                                  
E11  26248185.718   137935554.609        -722.788          45.000    26248182.218   105691108.203        -553.861          49.000  
G18  25957330.903   136407020.919        2639.937          46.000    25957328.900   106291288.684        2057.251          45.000  
G29  24153512.573   126927970.787       -1085.792          49.000    24153507.555    98905183.581        -846.261          47.000  
S31  42243516.963   221991289.964        -725.590          44.000  
R15  25769104.128   137702484.231       -3976.549          51.000    25769101.005   107102099.302       -3092.861          47.000  
R18  23514764.311   125523510.821       -3288.498          50.000    23514761.485    97629691.494       -2557.667          50.000  
R19  22790951.359   121916577.956          13.389          42.000    22790946.267    94823607.297          10.609          48.000  
G05  27704253.959   145586897.641        1066.722          43.000    27704251.211   113444342.525         831.407          40.000  
G11  27911829.675   146677557.455       -3906.304          44.000    27911824.178   114294847.530       -3044.307          38.000  
E24  29328361.464   154121701.236       -2242.070          44.000    29328361.254   118093310.626       -1717.818          49.000  
G12  25851390.912   135850282.518       -2386.830          47.000    25851385.798   105857489.647       -1859.796          43.000  
G25  24023845.794   126246399.153        -911.103          49.000    24023842.616    98373890.294        -710.122          44.000  
E10  28496776.449   149752076.195       -2219.119          47.000    28496776.088   114745352.755       -1700.343          49.000  
E25  27008306.997   141929918.783        -363.478          48.000    27008307.891   108751652.152        -278.503          52.000  
E12  30459536.681   160066319.851       -3127.431          41.000    30459534.664   122648439.448       -2396.417          41.000  
G31  27040348.661   142097941.620        2200.011          39.000    27040344.035   110725744.650        1714.448          38.000  
E14  30461248.954   160075090.147       -4284.927          45.000    30461248.254   122654996.057       -3283.284          51.000  
E03                                                                  31161858.412                       -2259.023          31.000  
> 2024 04 15 03 25 30.0120000  0 26                     
S33  43201353.995   227024781.074        -726.271          43.000  
E02  29151242.921   153190824.225        1225.167          45.000    29151242.858   117380012.684         938.762          48.000  
G28  24922414.731   130968158.144         333.633          47.000    24922410.727   102053095.929         259.987          47.000  
E36  28318216.421   148813562.556        1751.074          46.000    28318220.274   114026183.593        1341.660          52.000  
R20  26767486.588                        3267.000          28.000    26767497.859   111329406.932        2540.500          36.000  
R09  24429318.103   130451194.852        2411.169          52.000    24429313.984   101462304.039        1875.360          50.000  
R16  22844267.338   122030140.698       -1002.150          52.000    22844263.370    94912246.520        -779.366          50.000  
G20  27362701.234   143791943.555        -526.013          38.000                                                                  
E11  26252353.479   137957461.554        -737.604          44.000    26252350.905   105707894.035        -565.004          49.000  
G18  25942287.616   136327968.239        2630.322          46.000    25942285.994   106229689.376        2049.590          46.000  
G29  24159739.880   126960694.725       -1095.759          49.000    24159734.850    98930682.726        -853.729          47.000  
S31  42247659.219   222013059.197        -725.624          44.000  
R15  25791463.224   137821958.631       -3988.346          52.000    25791459.368   107195023.740       -3102.053          48.000  
R18  23533290.142   125622407.572       -3304.566          51.000    23533288.555    97706611.213       -2570.189          50.000  
R19  22790943.424   121916536.950         -10.851          40.000    22790938.111    94823575.422          -8.353          48.000  
G05  27698191.182   145555036.447        1057.655          44.000    27698187.703   113419515.691         823.703          38.000  
G11  27934155.188   146794876.366       -3915.035          44.000    27934149.050   114386264.878       -3050.885          39.000  
E24  29341174.777   154189038.028       -2247.184          44.000    29341175.208   118144906.358       -1721.887          50.000  
G12  25865041.168   135922012.050       -2394.849          47.000    25865035.290   105913382.751       -1865.998          43.000  
G25  24029076.766   126273887.188        -921.504          49.000    24029073.816    98395309.522        -717.920          44.000  
E10  28509479.293   149818830.324       -2231.038          47.000    28509478.747   114796502.030       -1709.415          49.000  
E25  27010395.614   141940900.498        -368.641          48.000    27010397.398   108760066.727        -282.421          52.000  
E12  30477412.090   160160254.446       -3134.871          42.000    30477409.114   122720415.317       -2402.148          40.000  
G31  27027819.977   142032100.064        2189.502          39.000    27027814.766   110674439.530        1706.283          38.000  
E14  30485681.213   160203488.576       -4274.888          44.000    30485681.741   122753379.273       -3275.489          51.000  
E03                                                                  31178695.120                       -2260.522          28.000  
> 2024 04 15 03 26 00.0120000  0 26                     
S33  43205500.345   227046569.702        -725.949          43.000  
E02  29144249.624   153154069.352        1225.603          45.000    29144248.676   117351849.882         939.069          48.000  
G28  24920562.928   130958429.139         315.275          46.000    24920559.552   102045514.905         245.603          48.000  
E36  28308245.704   148761165.148        1742.401          46.000    28308249.357   113986035.011        1335.136          52.000  
R20  26749180.729   143040074.404        3258.818          29.000    26749192.103   111253277.828        2534.324          36.000  
R09  24415795.332   130378983.167        2403.302          52.000    24415790.616   101406139.407        1869.159          49.000  
R16  22849950.953   122060505.162       -1021.720          52.000    22849946.735    94935863.310        -794.747          49.000  
G20  27365752.498   143807978.483        -542.725          40.000                                                                  
E11  26256604.363   137979799.648        -751.564          44.000    26256601.731   105725010.245        -575.836          49.000  
G18  25927299.318   136249202.408        2621.082          46.000    25927296.880   106168313.573        2042.416          46.000  
G29  24166023.084   126993712.908       -1105.146          49.000    24166017.763    98956411.193        -861.159          47.000  
S31  42251802.172   222034830.349        -725.515          44.000  
R15  25813886.900   137941784.427       -3999.722          51.000    25813882.308   107288221.485       -3110.876          47.000  
R18  23551907.362   125721785.931       -3320.150          51.000    23551905.528    97783905.475       -2582.414          49.000  
R19  22791070.810   121917222.292         -34.114          40.000    22791067.105    94824108.527         -26.956          49.000  
G05  27692179.455   145523441.614        1049.107          44.000    27692175.172   113394896.411         817.975          40.000  
G11  27956528.951   146912449.618       -3922.912          43.000    27956522.994   114477880.404       -3056.924          40.000  
E24  29354018.145   154256532.051       -2251.904          44.000    29354018.465   118196622.531       -1725.603          49.000  
G12  25878736.801   135993980.673       -2402.586          47.000    25878730.040   105969462.185       -1872.069          43.000  
G25  24034365.650   126301680.968        -931.203          49.000    24034362.751    98416967.024        -725.606          44.000  
E10  28522250.498   149885940.386       -2242.522          48.000    28522249.452   114847924.040       -1718.255          49.000  
E25  27012514.328   141952035.114        -373.276          47.000    27012516.117   108768598.454        -286.085          52.000  
E12  30495329.592   160254412.777       -3141.893          42.000    30495327.511   122792562.626       -2407.567          41.000  
G31  27015351.065   141966574.860        2179.211          39.000    27015345.612   110623380.947        1697.712          39.000  
E14  30510058.053   160331582.289       -4264.324          45.000    30510057.307   122851529.005       -3267.551          51.000  
E03                                                                  31195540.151   125611288.936       -2261.059          29.000  
> 2024 04 15 03 26 30.0120000  0 26                     
S33  43209643.365   227068340.805        -725.452          43.000  
E02  29137251.975   153117299.335        1225.512          45.000    29137251.609   117323675.478         939.167          48.000  
G28  24918815.773   130949246.633         296.758          46.000    24918812.653   102038359.685         231.266          48.000  
E36  28298323.030   148709018.719        1733.762          47.000    28298326.019   113946078.743        1328.503          52.000  
R20  26730916.106                        3250.859          31.000    26730931.062   111177327.556        2528.535          34.000  
R09  24402315.309   130307000.621        2395.355          52.000    24402310.069   101350152.979        1863.006          49.000  
R16  22855744.402   122091452.059       -1041.457          53.000    22855739.949    94959933.103        -810.206          49.000  
G20  27368895.184   143824498.617        -559.186          37.000                                                                  
E11  26260934.356   138002550.707        -765.433          44.000    26260931.213   105742442.884        -586.451          49.000  
G18  25912361.767   136170708.209        2611.628          47.000    25912360.001   106107149.434        2035.126          46.000  
G29  24172358.661   127027006.356       -1114.520          50.000    24172353.681    98982354.167        -868.451          47.000  
S31  42255941.713   222056584.030        -724.725          44.000  
R15  25836371.106   138061941.904       -4011.021          50.000    25836368.772   107381677.191       -3119.720          47.000  
R18  23570610.779   125821623.843       -3335.662          52.000    23570608.615    97861557.208       -2594.466          50.000  
R19  22791331.962   121918614.685         -58.408          42.000    22791327.412    94825191.522         -45.361          49.000  
G05  27686214.490   145492097.364        1040.406          45.000    27686210.522   113370472.394         810.528          40.000  
G11  27978946.871   147030256.605       -3931.062          42.000    27978941.281   114569678.069       -3063.083          40.000  
E24  29366889.203   154324165.659       -2256.910          44.000    29366888.430   118248445.667       -1729.305          49.000  
G12  25892473.740   136066170.742       -2410.178          47.000    25892467.610   106025714.192       -1878.340          42.000  
G25  24039710.510   126329763.734        -941.182          49.000    24039706.282    98438849.671        -733.609          44.000  
E10  28535085.847   149953387.000       -2254.066          49.000    28535084.416   114899603.921       -1727.159          49.000  
E25  27014659.430   141963305.594        -378.203          48.000    27014660.566   108777234.274        -289.791          51.000  
E12  30513286.256   160348775.105       -3149.117          42.000    30513283.560   122864866.211       -2412.786          41.000  
G31  27002939.070   141901350.630        2168.804          39.000    27002934.160   110572556.834        1690.038          39.000  
E14  30534369.991   160459352.641       -4253.998          44.000    30534370.940   122949430.967       -3259.430          51.000  
E03                                                                  31212388.575                       -2262.178          27.000  
> 2024 04 15 03 27 00.0120000  0 27                     
S33  43213784.530   227090104.919        -725.375          42.000  
E02  29130253.577   153080524.684        1225.792          45.000    29130253.705   117295497.538         939.151          48.000  
G28  24917175.095   130940621.692         277.837          47.000    24917170.742   102031638.932         216.611          48.000  
E36  28288449.944   148657134.714        1724.837          47.000    28288452.662   113906323.530        1321.656          52.000  
R20  26712698.212   142845012.875        3242.366          33.000    26712713.421                        2521.983          29.000  
R17  27559308.152                3      -4907.255          12.000                                                                  
R09  24388880.493   130235260.500        2387.079          52.000    24388875.320   101294355.124        1856.635          49.000  
R16  22861649.395   122122993.038       -1061.503          52.000    22861644.647    94984464.977        -825.513          49.000  
G20  27372133.355   143841515.467        -575.702          41.000                                                                  
E11  26265343.564   138025724.230        -779.595          44.000    26265341.189   105760199.237        -597.407          49.000  
G18  25897479.073   136092498.285        2602.032          48.000    25897476.640   106046206.785        2027.520          46.000  
G29  24178747.712   127060583.751       -1124.146          49.000    24178743.031    99008518.381        -875.885          46.000  
S31  42260080.287   222078330.417        -724.928          44.000  
R15  25858919.993   138182439.004       -4022.382          49.000    25858918.797   107475397.072       -3128.580          48.000  
R18  23589400.743   125921927.473       -3351.319          50.000    23589398.016    97939571.143       -2606.618          49.000  
R19  22791726.348   121920723.820         -82.578          42.000    22791721.663    94826831.981         -64.134          49.000  
G05  27680299.645   145461017.114        1031.385          44.000    27680296.668   113346254.040         803.693          42.000  
G11  28001410.394   147148304.532       -3939.050          42.000    28001404.943   114661663.539       -3069.512          40.000  
E24  29379787.617   154391949.181       -2262.236          44.000    29379787.209   118300383.671       -1733.276          49.000  
G12  25906254.665   136138592.287       -2418.002          46.000    25906249.988   106082146.519       -1884.281          43.000  
G25  24045110.915   126358146.526        -951.337          49.000    24045107.188    98460966.141        -741.156          43.000  
E10  28547986.425   150021178.618       -2265.566          48.000    28547984.638   114951548.153       -1735.948          49.000  
E25  27016831.990   141974722.798        -383.150          48.000    27016833.187   108785982.537        -293.650          51.000  
E12  30531283.973   160443349.541       -3156.202          43.000    30531280.744   122937332.372       -2418.273          41.000  
G31  26990586.971   141836439.760        2158.325          39.000    26990582.407   110521976.935        1681.750          39.000  
E14  30558624.791   160586808.905       -4243.411          44.000    30558625.116   123047092.266       -3251.527          51.000  
E03                                                                  31229240.212                3      -2265.395          23.000  
> 2024 04 15 03 27 30.0120000  0 26                     
S33  43217925.574   227111864.546        -725.333          43.000  
E02  29123254.503   153043748.643        1225.855          45.000    29123255.090   117267318.516         939.259          48.000  
G28  24915640.255   130932557.946         259.279          46.000    24915636.208   102025355.509         202.026          47.000  
E36  28278626.823   148605517.050        1716.186          47.000    28278630.058   113866772.405        1314.877          52.000  
R20  26694522.763                1       3233.907          28.000    26694548.897                3       2515.290          25.000  
R09  24375492.129   130163768.646        2378.803          52.000    24375487.305   101238750.350        1850.214          49.000  
R16  22867665.877   122155131.847       -1081.331          52.000    22867660.742    95009461.827        -840.986          48.000  
G20  27375467.131   143859032.435        -592.352          40.000                                                                  
E11  26269833.976   138049322.333        -793.769          45.000    26269831.672   105778280.915        -608.295          49.000  
G18  25882651.098   136014577.782        2592.454          48.000    25882649.501   105985489.666        2020.012          46.000  
G29  24185191.758   127094446.180       -1133.547          49.000    24185186.628    99034904.691        -883.223          47.000  
S31  42264217.577   222100072.217        -724.893          44.000  
R15  25881532.791   138303277.043       -4033.652          49.000    25881532.196   107569382.126       -3137.219          48.000  
R18  23608278.449   126022695.638       -3366.630          51.000    23608274.486    98017946.367       -2618.668          49.000  
R19  22792255.095   121923551.498        -106.181          42.000    22792250.170    94829031.322         -82.653          49.000  
G05  27674436.552   145430205.959        1022.493          46.000    27674433.291   113322245.410         796.720          43.000  
G11  28023919.856   147266593.219       -3947.032          42.000    28023915.269   114753836.530       -3075.498          41.000  
E24  29392715.905   154459885.396       -2267.154          44.000    29392715.351   118352438.663       -1737.165          50.000  
G12  25920080.907   136211248.340       -2425.886          47.000    25920075.288   106138761.609       -1890.231          42.000  
G25  24050570.027   126386832.979        -961.336          49.000    24050565.845    98483319.210        -749.129          43.000  
E10  28560951.942   150089316.249       -2277.064          48.000    28560950.747   115003757.528       -1744.742          49.000  
E25  27019033.946   141986290.163        -388.111          48.000    27019034.441   108794845.836        -297.381          51.000  
E12  30549321.323   160538136.725       -3162.996          43.000    30549317.966   123009961.512       -2423.726          41.000  
G31  26978295.847   141771847.350        2147.681          39.000    26978291.289   110471645.209        1673.513          39.000  
E14  30582819.990   160713952.885       -4233.056          44.000    30582819.800   123144514.269       -3243.461          51.000  
E03                                                                  31246100.930                3      -2257.577          20.000  
> 2024 04 15 03 28 00.0120000  0 26                     
S33  43222064.708   227133615.229        -724.945          43.000  
E02  29116255.818   153006968.783        1226.216          45.000    29116255.867   117239136.573         939.439          48.000  
G28  24914212.328   130925053.565         240.748          46.000    24914208.398   102019507.933         187.651          47.000  
E36  28268854.848   148554164.210        1707.394          46.000    28268857.867   113827424.188        1308.234          52.000  
R20  26676408.074                        3225.940          26.000    26676401.268                        2508.992          26.000  
R09  24362150.411   130092525.340        2370.661          51.000    24362145.700   101183338.893        1843.756          50.000  
R16  22873793.683   122187866.529       -1101.117          52.000    22873788.708    95034922.153        -856.496          48.000  
G20  27378894.881   143877046.794        -608.746          39.000                                                                  
E11  26274405.220   138073341.559        -807.580          45.000    26274402.338   105796685.274        -618.993          49.000  
G18  25867879.013   135936946.389        2582.913          48.000    25867876.654   105924997.841        2012.606          46.000  
G29  24191689.439   127128589.323       -1142.695          49.000    24191684.686    99061509.780        -890.479          47.000  
S31  42268352.962   222121806.241        -724.219          43.000  
R15  25904210.206   138424450.783       -4044.687          50.000    25904208.486   107663628.301       -3145.859          47.000  
R18  23627240.985   126123921.419       -3381.717          52.000    23627238.406    98096677.555       -2630.295          50.000  
R19  22792916.168   121927094.737        -129.914          41.000    22792912.224    94831787.190        -101.077          49.000  
G05  27668625.276   145399663.037        1013.577          46.000    27668620.283   113298445.789         789.803          41.000  
G11  28046474.228   147385116.967       -3954.769          42.000    28046469.400   114846192.743       -3081.856          41.000  
E24  29405673.012   154527971.548       -2272.030          46.000    29405671.925   118404608.574       -1740.949          50.000  
G12  25933951.486   136284136.592       -2433.435          48.000    25933945.677   106195557.651       -1896.352          43.000  
G25  24056086.565   126415821.181        -971.438          49.000    24056081.515    98505907.410        -756.603          42.000  
E10  28573982.258   150157795.411       -2288.289          46.000    28573982.034   115056228.580       -1753.399          49.000  
E25  27021262.545   141998005.570        -392.987          47.000    27021263.924   108803822.584        -301.169          51.000  
E12  30567398.376   160633131.781       -3169.968          42.000    30567394.660   123082749.943       -2428.969          41.000  
G31  26966063.661   141707572.991        2136.973          38.000    26966060.470   110421561.334        1665.028          39.000  
E14  30606953.152   160840780.890       -4222.217          42.000    30606954.386   123241694.176       -3235.315          51.000  
E03                                                                  31262965.566                3      -2263.061          26.000  
> 2024 04 15 03 28 30.0120000  0 26                     
S33  43226202.339   227155360.323        -724.677          43.000  
E02  29109257.072   152970186.756        1225.978          46.000    29109256.199   117210952.973         939.417          48.000  
G28  24912891.612   130918110.597         221.847          47.000    24912887.307   102014097.814         172.883          47.000  
E36  28259133.533   148503078.601        1698.180          46.000    28259136.425   113788280.741        1301.275          51.000  
R20  26658320.390                3       3213.765          25.000    26658336.460                3       2502.442          25.000  
R09  24348855.955   130021535.001        2361.938          51.000    24348851.522   101128124.218        1837.024          50.000  
R16  22880033.928   122221199.550       -1121.341          52.000    22880029.418    95060847.832        -872.136          49.000  
G20  27382418.318   143895561.624        -625.574          40.000                                                                  
E11  26279057.013   138097782.471        -821.680          46.000    26279053.283   105815412.728        -629.542          49.000  
G18  25853161.560   135859607.720        2572.931          48.000    25853159.370   105864734.081        2004.961          46.000  
G29  24198239.525   127163012.559       -1152.242          49.000    24198235.064    99088333.112        -897.884          47.000  
S31  42272487.775   222143533.967        -724.385          44.000  
R15  25926950.135   138545959.950       -4056.015          49.000    25926947.743   107758135.367       -3154.619          47.000  
R18  23646289.370   126225601.803       -3397.020          51.000    23646287.000    98175762.323       -2642.081          51.000  
R19  22793712.933   121931353.431        -154.150          41.000    22793708.623    94835099.527        -119.750          49.000  
G05  27662864.173   145369391.531        1004.239          45.000    27662859.936   113274857.618         782.546          42.000  
G11  28069072.876   147503873.939       -3962.872          42.000    28069068.594   114938730.651       -3087.643          42.000  
E24  29418659.005   154596208.999       -2277.258          47.000    29418657.209   118456894.387       -1744.824          50.000  
G12  25947866.584   136357258.075       -2441.438          48.000    25947861.247   106252535.411       -1902.400          43.000  
G25  24061660.535   126445113.214        -981.569          49.000    24061656.452    98528732.368        -764.795          43.000  
E10  28587077.911   150226615.521       -2299.747          46.000    28587078.368   115108960.889       -1762.248          50.000  
E25  27023520.790   142009870.927        -398.165          47.000    27023521.772   108812914.213        -305.007          51.000  
E12  30585514.626   160728333.979       -3177.060          42.000    30585511.319   123155697.078       -2434.204          42.000  
G31  26953892.430   141643620.430        2126.705          38.000    26953890.464   110371728.150        1656.741          39.000  
E14  30631028.638   160967293.255       -4211.902          43.000    30631028.590   123338632.203       -3227.258          50.000  
E03                                                                  31279830.489                3      -2269.246          21.000  
> 2024 04 15 03 29 00.0120000  0 26                     
S33  43230339.582   227177100.396        -724.725          43.000  
E02  29102258.127   152933405.629        1225.644          46.000    29102256.958   117182770.075         939.197          47.000  
G28  24911677.551   130911732.550         202.911          48.000    24911673.247   102009127.918         158.079          47.000  
E36  28249463.338   148452264.040        1689.158          46.000    28249466.351   113749345.007        1294.133          51.000  
R20  26640290.945                        3209.703          27.000    26640290.994                1       2495.738          28.000  
R09  24335609.870   129950803.356        2353.119          51.000    24335605.652   101073110.731        1830.371          50.000  
R16  22886386.369   122255134.653       -1141.463          52.000    22886382.559    95087241.808        -887.844          49.000  
G20  27386037.481   143914579.874        -642.639          38.000                                                                  
E11  26283787.724   138122647.037        -836.151          45.000    26283784.758   105834464.821        -640.671          49.000  
G18  25838501.101   135782566.901        2562.833          48.000    25838498.148   105804702.448        1996.913          45.000  
G29  24204843.365   127197716.570       -1161.683          49.000    24204838.595    99115375.213        -905.195          47.000  
S31  42276621.408   222165256.835        -723.959          43.000  
R15  25949751.013   138667805.251       -4067.311          49.000    25949749.417   107852903.772       -3163.335          47.000  
R18  23665422.909   126327735.450       -3412.205          51.000    23665420.355    98255199.630       -2653.972          51.000  
R19  22794642.763   121936329.649        -178.037          41.000    22794638.711    94838969.952        -138.503          48.000  
G05  27657156.763   145339398.349         994.842          45.000    27657152.692   113251486.356         775.191          43.000  
G11  28091716.267   147622863.912       -3970.264          41.000    28091711.752   115031450.112       -3093.883          42.000  
E24  29431673.245   154664600.444       -2282.417          47.000    29431671.975   118509298.218       -1748.928          51.000  
G12  25961826.516   136430615.777       -2449.368          49.000    25961820.681   106309697.236       -1908.377          43.000  
G25  24067292.667   126474712.591        -991.888          49.000    24067289.464    98551796.828        -773.061          44.000  
E10  28600239.553   150295777.538       -2311.251          46.000    28600239.560   115161955.164       -1771.006          50.000  
E25  27025808.562   142021889.536        -403.495          48.000    27025808.644   108822123.286        -309.100          51.000  
E12  30603670.717   160823743.810       -3183.863          42.000    30603667.023   123228803.333       -2439.822          42.000  
G31  26941785.017   141579994.745        2115.254          38.000    26941782.418   110322149.636        1648.124          38.000  
E14  30655043.287   161093491.691       -4201.493          43.000    30655043.592   123435329.715       -3219.382          50.000  
E03                                                                  31296702.069                3      -2271.636          21.000  
> 2024 04 15 03 29 30.0120000  0 26                     
S33  43234476.842   227198842.242        -725.159          42.000  
E02  29095259.929   152896632.307        1225.546          46.000    29095259.268   117154593.172         938.956          48.000  
G28  24910572.678   130905926.759         183.807          47.000    24910568.074   102004603.921         143.190          47.000  
E36  28239847.603   148401728.300        1679.728          47.000    28239849.568   113710622.878        1286.908          51.000  
R20  26622316.127                        3200.246          25.000    26622322.608   110725548.0631       2488.562          31.000  
R09  24322414.518   129880340.656        2343.915          52.000    24322410.401   101018306.462        1823.071          50.000  
R16  22892852.997   122289679.407       -1161.932          52.000    22892849.564    95114109.930        -903.654          50.000  
G20  27389752.983   143934108.510        -659.576          40.000                                                                  
E11  26288601.286   138147941.017        -850.514          45.000    26288597.995   105853845.951        -651.752          48.000  
G18  25823898.418   135705832.840        2552.518          48.000    25823896.043   105744909.800        1988.807          46.000  
G29  24211502.135   127232706.992       -1171.396          49.000    24211497.361    99142640.480        -912.790          47.000  
S31  42280755.392   222186981.553        -724.217          44.000  
R15  25972616.958   138789991.222       -4078.727          51.000    25972615.633   107947937.181       -3172.399          48.000  
R18  23684640.621   126430324.810       -3427.471          51.000    23684638.179    98334991.342       -2665.925          51.000  
R19  22795708.575   121942028.537        -202.077          42.000    22795703.780    94843402.436        -157.312          48.000  
G05  27651503.856   145309691.858         985.130          46.000    27651499.553   113228338.502         767.541          42.000  
G11  28114404.090   147742090.439       -3978.373          41.000    28114400.017   115124353.890       -3100.116          42.000  
E24  29444717.693   154733152.476       -2287.901          46.000    29444717.178   118561825.074       -1753.122          51.000  
G12  25975831.094   136504215.547       -2457.767          48.000    25975825.615   106367047.737       -1915.083          43.000  
G25  24072985.201   126504626.700       -1002.640          48.000    24072982.447    98575106.514        -781.160          44.000  
E10  28613466.800   150365286.154       -2322.938          46.000    28613466.730   115215215.022       -1779.911          50.000  
E25  27028125.573   142034068.580        -408.824          47.000    27028126.472   108831455.294        -313.339          51.000  
E12  30621867.052   160919365.772       -3191.221          42.000    30621863.530   123302072.109       -2445.209          43.000  
G31  26929742.946   141516704.715        2103.871          41.000    26929738.484   110272832.726        1639.110          39.000  
E14  30678999.917   161219381.877       -4191.489          43.000    30678999.454   123531791.005       -3211.589          50.000  
E03                                                                  31313577.923                3      -2266.430          24.000  
