     3.00           OBSERVATION DATA    M: Mixed            RINEX VERSION / TYPE
CONVBIN 2.4.3                           20240415 181442 UTC PGM / RUN BY / DATE 
format: u-blox UBX                                          COMMENT             
log: /home/regis/git/gnsspwv/obsdata/VERT00CHL/2024-04-15/VECOMMENT             
{self.marker}                                               MARKER NAME         
                                                            MARKER NUMBER       
GEODETIC                                                    MARKER TYPE         
{self.observer}     {self.institution}                      OBSERVER / AGENCY   
UNKNOWN             UBLOX-ZED-F9P                           REC # / TYPE / VERS 
UNKNOWN             TWIVSP6037L                             ANT # / TYPE        
  1713381.0000 -5047934.0000 -3490983.0000                  APPROX POSITION XYZ 
        0.0000        0.0000        0.0000                  ANTENNA: DELTA H/E/N
G    8 C1C L1C D1C S1C C2L L2L D2L S2L                      SYS / # / OBS TYPES 
R    8 C1C L1C D1C S1C C2C L2C D2C S2C                      SYS / # / OBS TYPES 
E    8 C1C L1C D1C S1C C7Q L7Q D7Q S7Q                      SYS / # / OBS TYPES 
S    4 C1C L1C D1C S1C                                      SYS / # / OBS TYPES 
  2024    04    15    18    00   00.4880000     GPS         TIME OF FIRST OBS   
  2024    04    15    18    14   30.4890000     GPS         TIME OF LAST OBS    
                                                            END OF HEADER       
> 2024 04 15 18 00 00.4880000  0 24                     
G05  20514862.289   107806435.0991       2454.179          37.000    20514865.088    84004969.7991       1912.135          33.000  
G04  21740850.057   114248938.0401      -3275.558          36.000    21740866.149    89025114.0801      -2552.377          37.000  
G09  18478031.739    97102650.6091      -2355.236          48.000    18478035.381    75664386.6941      -1835.313          43.000  
E27  21849710.745   114821144.7131       1697.422          46.000    21849722.137    87979965.7011       1300.464          49.000  
G11  19526780.368   102613882.9951      -2583.631          46.000    19526783.945    79958861.8661      -2013.196          43.000  
R13  15839277.786    84581007.5231         22.937          41.000    15839279.785    65785325.3611         17.688          41.000  
R02  16808453.845    89693096.6421      -1644.696          53.000    16808457.118    69761296.0191      -1279.267          49.000  
R03  16982253.862    90907450.5041       1291.724          52.000    16982251.809    70705837.7531       1004.596          50.000  
R01  19969326.791   106747267.2191      -3650.873          46.000    19969343.845    83025599.8321      -2839.360          42.000  
E33  22624333.723   118891604.5441      -1511.602          46.000    22624339.968    91098823.2231      -1158.096          45.000  
G07  16788483.043    88224066.5981      -2534.208          47.000    16788482.838    68746026.9671      -1974.776          47.000  
S31  35312620.352   185569039.3631       -823.427          44.000  
S33  36261397.009   190554895.2471       -822.775          42.000  
G14  19150301.316   100635629.6851       2486.151          46.000    19150308.393    78417471.5571       1937.225          45.000  
G20  17758658.457    93322452.5211        853.286          48.000                                                                  
R12  17238786.902    92086501.8471      -3553.131          53.000    17238790.384    71622847.1551      -2763.477          51.000  
R14  19000945.641   101285839.2651       3404.882          48.000    19000958.397    78778014.9261       2648.166          47.000  
E07  20550233.512   107992185.9911      -1260.499          46.000    20550241.352    82747267.6381       -965.907          55.000  
E08  23807200.413   125107530.5661      -2499.187          40.000    23807216.305    95861595.0631      -1914.832          46.000  
E26  22553287.318                1      -3329.378          28.000    22553285.635    90812608.1991      -2551.108          43.000  
G06  20172686.878   106008181.5511      -3986.676          36.000    20172697.984    82603632.4891      -3106.427          36.000  
G30  16830021.055    88442420.9971       -283.058          50.000    16830023.718    68916214.6541       -220.459          45.000  
E30  21455921.728   112751707.6961       -648.586          47.000    21455929.535    86394236.5411       -496.971          51.000  
E02  24375441.484                       -2883.638          28.000    24375451.186    98149846.8151      -2209.219          33.000  
> 2024 04 15 18 00 30.4880000  0 24                     
G05  20500869.032   107732895.454        2448.967          38.000    20500870.753    83947666.355        1908.139          33.000  
G04  21759554.077   114347223.673       -3277.031          36.000    21759569.515    89101699.925       -2553.081          34.000  
G09  18491491.974    97173385.730       -2360.595          48.000    18491495.736    75719504.853       -1839.637          43.000  
E27  21840040.294   114770324.209        1690.414          46.000    21840051.934    87941025.427        1295.406          51.000  
G11  19541567.136   102691585.820       -2596.839          45.000    19541571.292    80019409.337       -2023.423          44.000  
R13  15839221.901    84580710.898          -3.413          42.000    15839224.076    65785094.684          -2.862          41.000  
R02  16817734.629    89742622.907       -1657.191          52.000    16817738.797    69799816.385       -1288.966          50.000  
R03  16975031.066    90868790.631        1285.540          52.000    16975029.456    70675769.005         999.908          49.000  
R01  19989839.030   106856912.678       -3659.022          45.000    19989856.086    83110879.101       -2845.838          40.000  
E33  22633000.079   118937145.119       -1524.823          46.000    22633005.763    91133717.836       -1168.245          45.000  
G07  16802989.501    88300295.594       -2547.958          48.000    16802988.597    68805426.123       -1985.279          47.000  
S31  35317321.191   185593741.909        -823.410          44.000  
S33  36266094.692   190579581.590        -822.704          42.000  
G14  19136126.124   100561135.457        2479.949          47.000    19136132.828    78359424.315        1932.416          45.000  
G20  17753832.862    93297092.367         837.272          48.000                                                                  
R12  17258795.658    92193379.284       -3572.187          54.000    17258798.397    71705973.983       -2778.400          51.000  
R14  18981804.740   101183807.198        3397.161          49.000    18981816.259    78698656.963        2642.249          46.000  
E07  20557436.737   108030037.428       -1263.065          47.000    20557444.454    82776270.647        -967.801          55.000  
E08  23821471.552   125182522.946       -2500.605          40.000    23821487.480    95919056.510       -1915.949          46.000  
E26  22572309.274                       -3334.189          30.000    22572306.839    90889195.364       -2554.806          44.000  
G06  20195451.029   106127811.163       -3988.782          37.000    20195463.607    82696849.852       -3108.002          36.000  
G30  16831679.994    88451135.321        -298.030          50.000    16831681.877    68923005.035        -232.314          45.000  
E30  21459663.950   112771373.066        -662.692          48.000    21459671.560    86409304.859        -507.692          51.000  
E02                                                                  24391939.526    98216236.412       -2216.575          32.000  
> 2024 04 15 18 01 00.4880000  0 25                     
G05  20486903.450   107659504.453        2444.227          38.000    20486905.911    83890478.694        1904.825          33.000  
G04  21778263.306   114445544.366       -3277.480          34.000    21778279.770    89178313.173       -2554.536          36.000  
G09  18504981.714    97244275.914       -2365.519          47.000    18504985.576    75774743.842       -1843.121          43.000  
E27  21830407.988   114719703.375        1684.065          47.000    21830418.964    87902238.151        1290.372          51.000  
G11  19556426.981   102769672.752       -2609.292          46.000    19556431.612    80080256.118       -2033.036          45.000  
R13  15839312.753    84581195.230         -29.111          42.000    15839314.790    65785471.439         -22.633          41.000  
R02  16827084.886    89792518.687       -1669.300          53.000    16827088.711    69838624.131       -1298.365          49.000  
R03  16967843.117    90830310.502        1279.644          52.000    16967841.355    70645840.030         995.337          50.000  
R01  20010396.573   106966797.596       -3666.736          48.000    20010412.966    83196344.557       -2851.832          41.000  
E33  22641740.670   118983082.952       -1537.797          45.000    22641748.016    91168916.857       -1178.484          46.000  
G07  16817572.227    88376925.415       -2560.907          49.000    16817571.256    68865137.620       -1995.501          47.000  
S31  35322021.197   185618437.950        -823.002          44.000  
S33  36270791.065   190604260.465        -822.289          42.000  
G14  19121983.535   100486821.375        2474.266          46.000    19121990.304    78301517.440        1927.948          44.000  
G20  17749098.127    93272210.834         821.337          48.000                                                                  
R12  17278908.720    92300822.727       -3590.711          53.000    17278912.789    71789541.015       -2792.773          51.000  
R14  18962706.410   101082007.076        3389.482          49.000    18962718.267    78619479.465        2636.407          47.000  
E07  20564654.059   108067964.732       -1265.396          46.000    20564661.817    82805331.791        -969.755          54.000  
E08  23835751.693   125257558.495       -2501.895          41.000    23835766.243    95976551.039       -1917.048          45.000  
E26  22591354.555                       -3338.898          26.000    22591354.289    90965888.884       -2558.140          44.000  
G06  20218226.351   106247496.384       -3990.228          39.000    20218239.905    82790110.594       -3109.735          36.000  
G30  16833424.584    88460298.432        -312.855          50.000    16833425.458    68930145.109        -243.867          45.000  
E30  21463484.864   112791453.574        -676.299          48.000    21463492.853    86424691.265        -518.079          50.000  
E02                                                                  24408478.904                       -2223.269          29.000  
R04                                                                  20484611.228                3       1496.000          12.000  
> 2024 04 15 18 01 30.4880000  0 25                     
G05  20472964.801   107586262.722        2439.124          38.000    20472968.546    83833407.362        1899.980          32.000  
G04  21796979.905   114543898.036       -3278.484          34.000    21796995.612    89254952.061       -2555.000          37.000  
G09  18518501.399    97315319.255       -2370.499          47.000    18518504.667    75830102.185       -1847.014          42.000  
E27  21820813.822   114669281.896        1677.501          48.000    21820823.989    87863603.632        1285.272          51.000  
G11  19571358.557   102848138.953       -2621.805          44.000    19571362.723    80141398.411       -2043.009          44.000  
R13  15839549.689    84582458.564         -55.021          42.000    15839550.754    65786454.058         -43.151          41.000  
R02  16836505.535    89842782.975       -1681.606          53.000    16836509.078    69877718.511       -1307.788          50.000  
R04  20472203.767                3       2785.000          10.000    19877227.037                3       1496.396          14.000  
R03  16960688.888    90792010.302        1273.760          52.000    16960687.040    70616051.019         990.648          50.000  
R01  20030997.150   107076919.246       -3674.599          46.000    20031013.401    83281994.194       -2858.238          41.000  
E33  22650557.156   119029414.898       -1550.864          45.000    22650565.616    91204417.827       -1188.410          47.000  
G07  16832229.185    88453951.498       -2574.074          48.000    16832228.857    68925157.900       -2005.801          47.000  
S31  35326718.605   185643124.941        -822.673          44.000  
S33  36275485.591   190628929.803        -821.994          42.000  
G14  19107876.287   100412688.315        2468.026          46.000    19107883.005    78243751.628        1923.069          45.000  
G20  17744454.030    93247807.754         805.476          48.000                                                                  
R12  17299126.999    92408826.220       -3609.393          53.000    17299131.149    71873543.644       -2807.361          50.000  
R14  18943653.403   100980440.221        3381.513          50.000    18943664.477    78540483.369        2630.206          47.000  
E07  20571885.913   108105966.119       -1267.851          47.000    20571893.234    82834449.671        -971.466          54.000  
E08  23850039.642   125332635.365       -2503.052          42.000    23850052.714    96034077.230       -1917.955          45.000  
E26  22610424.818   118818582.5151      -3343.351          31.000    22610427.635    91042685.417       -2561.522          44.000  
G06  20241013.128   106367231.877       -3991.907          40.000    20241025.823    82883410.543       -3110.663          36.000  
G30  16835252.900    88469907.410        -327.552          50.000    16835254.352    68937632.622        -255.188          45.000  
E30  21467384.540   112811947.251        -689.923          47.000    21467392.840    86440394.249        -528.723          51.000  
E02                                                                  24425069.987                1      -2230.497          31.000  
> 2024 04 15 18 02 00.4880000  0 24                     
G05  20459054.582   107513172.835        2433.781          35.000    20459061.746                        1895.611          31.000  
G04  21815703.048   114642284.907       -3280.696          34.000    21815718.804    89331616.773       -2555.898          37.000  
G09  18532049.819    97386516.075       -2375.933          47.000    18532053.597    75885580.115       -1851.250          43.000  
E27  21811257.336   114619061.643        1670.562          48.000    21811266.989    87825123.281        1279.976          50.000  
G11  19586362.164   102926981.612       -2634.619          44.000    19586365.911    80202834.080       -2052.822          44.000  
R13  15839932.059    84584501.576         -81.134          42.000    15839933.404    65788043.109         -63.260          41.000  
R02  16845994.007    89893417.257       -1694.076          53.000    16845998.746    69917100.637       -1317.592          50.000  
R03  16953567.883    90753892.076        1267.394          52.000    16953566.645    70586403.550         985.698          50.000  
R01  20051642.242   107187277.422       -3682.736          47.000    20051659.081    83367827.714       -2864.333          43.000  
E33  22659448.570   119076139.849       -1564.186          45.000    22659457.447    91240219.942       -1198.546          48.000  
G07  16846961.665    88531371.226       -2587.368          48.000    16846961.498    68985484.930       -2016.232          47.000  
S31  35331414.682   185667802.327        -822.571          44.000  
S33  36280178.635   190653591.323        -822.131          42.000  
G14  19093804.154   100338739.282        2461.648          46.000    19093811.078    78186129.201        1918.351          45.000  
G20  17739902.429    93223885.060         789.249          49.000                                                                  
R12  17319449.122    92517385.670       -3627.967          52.000    17319453.027    71957978.675       -2821.704          50.000  
R14  18924644.469   100879110.273        3373.656          50.000    18924655.457    78461671.554        2623.846          47.000  
E07  20579131.034   108144041.923       -1270.530          46.000    20579138.716    82863624.600        -973.630          54.000  
E08  23864331.625   125407753.971       -2504.878          39.000    23864347.368    96091635.424       -1919.243          45.000  
E26  22629513.731   118918941.140       -3347.977          32.000    22629524.914    91119583.298       -2565.034          42.000  
G06  20263808.201   106487014.334       -3993.597          42.000    20263820.178    82976747.044       -3112.030          37.000  
G30  16837165.193    88479961.512        -342.746          50.000    16837167.428    68945466.991        -266.981          45.000  
E30  21471363.187   112832854.267        -703.995          47.000    21471371.202    86456413.933        -539.416          50.000  
E02                                                                  24441711.780                       -2236.792          30.000  
> 2024 04 15 18 02 30.4880000  0 24                     
G05  20445176.017   107440238.504        2428.344          35.000    20445183.486                        1892.117          30.000  
G04  21834431.192   114740706.988       -3281.390          34.000    21834447.997    89408308.939       -2556.619          35.000  
G09  18545627.736    97457868.456       -2381.170          47.000    18545630.672    75941179.240       -1855.148          42.000  
E27  21801740.151   114569046.278        1663.582          48.000    21801749.254    87786799.910        1274.747          50.000  
G11  19601437.038   103006199.887       -2646.954          43.000    19601440.974    80264562.407       -2062.414          43.000  
R13  15840460.089    84587326.454        -107.321          41.000    15840462.283    65790240.233         -83.165          42.000  
R02  16855552.200    89944424.216       -1706.557          53.000    16855557.143    69956772.651       -1327.272          50.000  
R03  16946481.962    90715960.093        1261.180          52.000    16946480.598    70556900.915         980.870          50.000  
R01  20072331.700   107297872.988       -3690.591          46.000    20072349.829    83453845.918       -2870.542          43.000  
E33  22668415.415   119123258.650       -1577.297          44.000    22668424.025    91276323.817       -1208.551          48.000  
G07  16861769.782    88609184.439       -2600.399          48.000    16861768.918    69046118.524       -2026.290          47.000  
S31  35336109.257   185692472.103        -822.300          44.000  
S33  36284869.919   190678244.505        -821.975          42.000  
G14  19079768.463   100264979.202        2455.439          47.000    19079774.896    78128654.004        1913.290          45.000  
G20  17735442.425    93200446.330         773.065          49.000                                                                  
R12  17339875.611    92626499.210       -3646.454          51.000    17339879.405    72042844.656       -2836.023          49.000  
R14  18905679.985   100778022.370        3365.316          50.000    18905691.220    78383047.945        2617.437          47.000  
E07  20586390.720   108182194.372       -1272.986          46.000    20586398.832    82892858.256        -975.463          54.000  
E08  23878635.792   125482916.524       -2506.318          41.000    23878650.803    96149227.268       -1920.448          46.000  
E26  22648635.886   119019431.635       -3352.108          34.000    22648647.301    91196582.223       -2568.447          42.000  
G06  20286610.520   106606842.410       -3994.897          40.000    20286623.816    83070119.045       -3112.750          37.000  
G30  16839163.004    88490461.822        -357.497          49.000    16839165.389    68953649.058        -278.627          45.000  
E30  21475420.595   112854176.564        -717.823          47.000    21475428.509    86472751.821        -549.967          50.000  
E02                                                                  24458403.162                       -2243.718          27.000  
> 2024 04 15 18 03 00.4880000  0 24                     
G05  20431327.053   107367465.111        2423.410          35.000    20431333.952                        1888.676          30.000  
G04  21853166.917   114839167.249       -3282.124          34.000    21853185.093    89485030.898       -2557.825          33.000  
G09  18559235.894    97529379.530       -2386.187          47.000    18559239.021    75996902.066       -1859.535          43.000  
E27  21792261.979   114519240.464        1656.797          48.000    21792271.172    87748637.126        1269.527          49.000  
G11  19616583.243   103085793.927       -2659.235          43.000    19616587.565    80326583.527       -2072.180          44.000  
R13  15841136.403    84590936.346        -133.215          41.000    15841138.229    65793047.975        -103.395          41.000  
R02  16865181.700    89995807.875       -1719.020          53.000    16865186.437    69996737.647       -1336.969          50.000  
R03  16939430.562    90678219.475        1254.937          51.000    16939430.270    70527547.106         976.197          50.000  
R01  20093064.967   107408708.667       -3698.285          45.000    20093083.994    83540050.882       -2876.142          41.000  
E33  22677457.132   119170773.026       -1590.393          44.000    22677465.420    91312730.818       -1218.580          48.000  
G07  16876651.622    88687391.714       -2613.398          47.000    16876651.435    69107059.190       -2036.273          48.000  
S31  35340803.103   185717137.269        -822.061          44.000  
S33  36289560.255   190702892.967        -821.371          42.000  
G14  19065768.870   100191413.892        2449.085          47.000    19065775.921    78071330.617        1908.351          46.000  
G20  17731074.794    93177496.100         757.026          49.000                                                                  
R12  17360405.635    92736165.839       -3664.618          52.000    17360409.314    72128140.835       -2850.342          49.000  
R14  18886762.906   100677183.541        3357.357          50.000    18886774.349    78304618.097        2611.179          47.000  
E07  20593666.255   108220426.733       -1275.821          46.000    20593674.493    82922153.114        -977.440          54.000  
E08  23892948.355   125558126.157       -2507.473          41.000    23892962.943    96206855.195       -1921.444          46.000  
E26  22667788.093   119120054.567       -3356.164          38.000    22667795.801    91273682.648       -2571.639          41.000  
G06  20309422.846   106726715.663       -3996.692          40.000    20309435.567    83163526.288       -3114.319          38.000  
G30  16841246.538    88501410.443        -372.272          49.000    16841248.496    68962180.438        -290.082          45.000  
E30  21479557.823   112875917.164        -731.497          47.000    21479565.200    86489410.221        -560.552          49.000  
E02                                                                  24475146.429                3      -2249.531          23.000  
> 2024 04 15 18 03 30.4890000  0 25                     
G05  20417507.973   107294852.609        2417.401          33.000    20417516.039                        1884.369          26.000  
G04  21871910.889   114937668.620       -3284.336          34.000    21871928.334                       -2558.836          30.000  
G09  18572875.079    97601051.604       -2391.989          48.000    18572878.651    76052750.304       -1863.882          43.000  
E27  21782823.486   114469643.988        1649.456          48.000    21782832.775    87710634.738        1263.873          49.000  
G11  19631801.958   103165763.125       -2671.727          44.000    19631805.528    80388896.990       -2082.241          44.000  
R13  15841959.382    84595331.215        -159.769          42.000    15841961.708    65796466.258        -124.327          42.000  
R02  16874882.080    90047570.819       -1732.005          52.000    16874885.884    70036997.636       -1347.072          50.000  
R03  16932416.041    90640671.401        1248.126          51.000    16932415.623    70498343.053         970.701          50.000  
R01  20113843.971   107519787.054       -3706.647          44.000    20113863.219    83626444.667       -2882.947          41.000  
E33  22686572.492   119218683.135       -1603.735          42.000    22686582.689    91349441.034       -1228.775          48.000  
G07  16891607.925    88765992.183       -2626.556          47.000    16891608.903    69168306.263       -2046.701          48.000  
S31  35345496.250   185741798.600        -822.166          44.000  
S33  36294250.550   190727537.544        -821.609          42.000  
G14  19051807.223   100118043.550        2442.131          47.000    19051814.037    78014159.118        1902.850          46.000  
G20  17726801.200    93155035.444         740.136          49.000                                                                  
R12  17381038.826    92846384.871       -3683.162          52.000    17381042.375    72213866.622       -2864.705          48.000  
R14  18867891.927   100576593.133        3348.325          49.000    18867903.325    78226381.410        2604.332          47.000  
E07  20600957.501   108258740.212       -1278.577          46.000    20600965.391    82951510.142        -979.739          54.000  
E08  23907269.704   125633385.341       -2509.434          41.000    23907284.734    96264521.073       -1922.879          47.000  
E26  22686962.066   119220810.755       -3360.747          39.000    22686968.957    91350885.119       -2575.100          41.000  
G06  20332242.420   106846634.377       -3997.961          40.000    20332255.874    83256968.960       -3115.704          38.000  
G22  21331710.461   112098907.4901       2801.182          30.000                                                                  
G30  16843414.868    88512806.474        -387.417          49.000    16843417.295    68971060.479        -302.055          45.000  
E30  21483775.676   112898076.481        -745.742          48.000    21483781.993    86506389.448        -571.393          49.000  
E02                                                                  24491940.357                3      -2255.989          22.000  
> 2024 04 15 18 04 00.4890000  0 25                     
G05  20403723.478   107222414.234        2411.707          33.000    20403727.620                3       1879.892          25.000  
G04  21890663.124   115036210.132       -3284.968          33.000    21890677.338                1      -2560.393          28.000  
G09  18586545.010    97672885.606       -2396.880          47.000    18586548.859    76108724.742       -1867.735          44.000  
E27  21773427.124   114420267.469        1642.423          48.000    21773437.063    87672800.906        1258.455          50.000  
G11  19647091.053   103246104.875       -2683.921          45.000    19647094.822    80451500.701       -2091.352          45.000  
R13  15842931.236    84600516.870        -185.768          42.000    15842932.816    65800499.581        -144.312          42.000  
R02  16884654.702    90099715.983       -1744.438          53.000    16884658.333    70077554.895       -1356.760          50.000  
R03  16925439.342    90603325.864        1241.757          51.000    16925438.944    70469296.528         965.893          50.000  
R01  20134668.948   107631106.084       -3714.554          44.000    20134689.046    83713025.538       -2889.039          42.000  
E33  22695766.213   119266990.106       -1616.556          43.000    22695774.956    91386455.341       -1238.713          47.000  
G07  16906639.961    88844983.883       -2639.383          47.000    16906639.966    69229858.177       -2056.537          47.000  
S31  35350188.978   185766458.671        -821.909          44.000  
S33  36298939.942   190752181.384        -821.423          42.000  
G14  19037885.077   100044881.528        2435.458          47.000    19037891.408    77957149.966        1897.605          46.000  
G20  17722621.036    93133072.817         724.063          49.000                                                                  
R12  17401774.446    92957150.778       -3701.099          52.000    17401778.371    72300017.781       -2878.564          47.000  
R14  18849070.948   100476266.810        3340.004          50.000    18849082.106    78148350.115        2597.735          47.000  
E07  20608264.745   108297138.119       -1281.217          47.000    20608272.289    82980931.876        -981.661          54.000  
E08  23921600.103   125708694.957       -2510.838          41.000    23921616.238    96322225.588       -1924.092          47.000  
E26  22706158.934   119321696.691       -3365.081          38.000    22706167.053    91428186.976       -2578.268          41.000  
G06  20355069.515   106966592.863       -3998.932          40.000    20355082.969    83350442.585       -3115.892          38.000  
G22  21315712.141   112014839.213        2803.897          35.000                                                                  
G30  16845669.473    88524653.887        -402.152          49.000    16845671.897    68980292.235        -313.457          45.000  
E30  21488071.161   112920658.607        -759.460          46.000    21488079.565    86523692.669        -582.045          49.000  
E02                                                                  24508785.620                3      -2267.457          24.000  
> 2024 04 15 18 04 30.4890000  0 25                     
G05  20389970.531   107150137.810        2406.042          34.000    20389968.286                3       1874.429          24.000  
G04  21909422.762   115134783.712       -3286.120          33.000    21909438.778                       -2561.337          29.000  
G09  18600243.803    97744872.514       -2402.114          47.000    18600247.867    76164818.324       -1871.922          43.000  
E27  21764071.555   114371099.355        1635.380          49.000    21764080.721    87635126.738        1253.118          50.000  
G11  19662447.971   103326807.280       -2696.124          44.000    19662452.433    80514385.519       -2100.863          44.000  
R13  15844047.704    84606481.408        -211.983          42.000    15844049.582    65805138.690        -164.431          42.000  
R02  16894495.861    90152234.667       -1756.982          52.000    16894500.533    70118402.679       -1366.551          50.000  
R03  16918499.250    90566172.177        1235.168          52.000    16918498.154    70440399.225         960.682          51.000  
R01  20155538.902   107742656.631       -3722.428          45.000    20155557.625    83799786.531       -2895.150          40.000  
E33  22705032.213   119315682.695       -1629.540          43.000    22705040.430    91423765.142       -1248.651          47.000  
G07  16921743.865    88924355.429       -2652.138          48.000    16921744.241    69291706.075       -2066.608          47.000  
S31  35354879.247   185791107.757        -821.214          42.000  
S33  36303627.752   190776813.868        -820.813          42.000  
G14  19024000.326    99971916.739        2428.809          47.000    19024006.053    77900294.484        1892.412          46.000  
G20  17718534.242    93111597.901         707.668          48.000                                                                  
R12  17422610.892    93068451.067       -3718.951          52.000    17422613.415    72386584.580       -2892.664          47.000  
R14  18830297.035   100376193.142        3331.444          50.000    18830307.705    78070515.299        2591.231          46.000  
E07  20615585.104   108335610.405       -1283.613          47.000    20615593.297    83010410.595        -983.639          54.000  
E08  23935938.574   125784046.079       -2512.290          41.000    23935955.142    96379961.904       -1925.001          47.000  
E26  22725379.266   119422701.667       -3368.458          37.000    22725386.848    91505580.062       -2581.205          38.000  
G06  20377903.639   107086580.110       -4000.138          40.000    20377915.674    83443938.633       -3116.687          38.000  
G22  21299696.316   111930682.894        2806.598          34.000                                                                  
G30  16848007.339    88536940.493        -416.881          49.000    16848010.162    68989866.203        -324.919          45.000  
E30  21492446.603   112943652.645        -773.414          46.000    21492455.352    86541311.495        -592.538          49.000  
E02                                                                  24525683.444                       -2270.460          26.000  
> 2024 04 15 18 05 00.4890000  0 26                     
G05  20376248.115   107077859.5901       2401.609          35.000    20376260.110                        1871.395          26.000  
G09  18613971.118    97817016.277       -2407.077          46.000    18613975.910    76221034.127       -1875.455          43.000  
E27  21754755.896   114322145.136        1628.538          48.000    21754764.841    87597616.479        1247.866          50.000  
G11  19677874.039   103407871.251       -2707.960          46.000    19677877.933    80577552.073       -2109.995          44.000  
R13  15845310.927    84613229.041        -237.652          41.000    15845313.260    65810386.884        -184.840          43.000  
R02  16904409.761    90205131.387       -1769.266          53.000    16904413.938    70159544.483       -1376.051          50.000  
R03  16911596.451    90529216.160        1228.906          52.000    16911594.782    70411655.658         955.834          50.000  
R01  20176450.897   107854442.152       -3729.799          45.000    20176469.207    83886730.245       -2900.690          40.000  
E33  22714372.775   119364763.501       -1642.126          43.000    22714380.457    91461372.397       -1258.299          47.000  
G07  16936920.412    89004107.759       -2664.418          46.000    16936920.752    69353850.673       -2076.111          47.000  
S31  35359568.000   185815748.482        -821.142          42.000  
S33  36308313.456   190801438.012        -820.373          42.000  
G14  19010153.753    99899155.809        2422.359          47.000    19010159.764    77843597.874        1887.420          45.000  
G20  17714541.526    93090616.148         691.482          48.000                                                                  
R12  17443547.373    93180285.812       -3736.328          53.000    17443549.432    72473567.094       -2905.988          49.000  
R14  18811571.437   100276379.161        3323.108          50.000    18811582.874    77992882.501        2584.630          47.000  
E07  20622921.179   108374161.131       -1285.948          47.000    20622929.251    83039949.407        -985.398          54.000  
E08  23950286.055   125859442.766       -2513.398          41.000    23950303.088    96437733.166       -1926.187          47.000  
E26  22744621.754   119523827.198       -3372.362          37.000    22744630.473    91583065.604       -2584.254          39.000  
G06  20400742.270   107206596.686       -4000.824          39.000    20400754.348    83537457.467       -3117.322          40.000  
G22  21283666.388   111846444.544        2809.515          36.000                                                                  
G30  16850429.543    88549669.136        -431.351          49.000    16850432.429    68999784.619        -336.218          45.000  
E30  21496901.083   112967062.369        -786.939          46.000    21496909.897    86559248.806        -602.938          49.000  
E02                                                                  24542627.202                       -2277.235          25.000  
G04                                                                  21928205.316                       -2561.749          29.000  
R04                                                                  19779423.257                3       1457.185          13.000  
> 2024 04 15 18 05 30.4890000  0 25                     
G05  20362561.005   107005917.570        2395.008          35.000    20362576.127                3       1855.198          22.000  
G09  18627728.982    97889312.975       -2412.395          46.000    18627733.911    76277369.069       -1879.596          44.000  
E27  21745479.501   114273402.364        1621.328          47.000    21745489.573    87560268.240        1242.356          50.000  
G11  19693367.910   103489289.759       -2719.640          45.000    19693372.565    80640994.851       -2119.258          45.000  
R13  15846720.498    84620755.347        -263.908          41.000    15846723.134    65816240.723        -205.218          43.000  
R02  16914392.092    90258403.414       -1781.917          52.000    16914396.312    70200978.206       -1385.976          49.000  
R03  16904728.655    90492456.307        1222.068          51.000    16904727.930    70383064.674         950.561          50.000  
R01  20197407.306   107966457.480       -3737.765          46.000    20197424.791    83973852.719       -2907.142          39.000  
E33  22723785.587   119414227.114       -1655.116          44.000    22723793.181    91499272.978       -1268.189          47.000  
G07  16952167.968    89084234.320       -2676.979          47.000    16952168.123    69416286.890       -2086.080          47.000  
S31  35364255.385   185840377.186        -820.907          44.000  
S33  36312997.173   190826051.314        -820.199          42.000  
G14  18996345.633    99826597.570        2415.324          46.000    18996352.160    77787059.185        1882.146          45.000  
G20  17710642.252    93070124.843         674.938          48.000                                                                  
R12  17464580.743    93292646.532       -3754.022          51.000    17464584.174    72560958.672       -2919.806          48.000  
R14  18792895.004   100176824.166        3314.342          50.000    18792906.316    77915451.131        2577.757          48.000  
E07  20630271.841   108412786.436       -1288.644          48.000    20630279.313    83069545.377        -987.480          53.000  
E08  23964641.603   125934881.166       -2514.922          40.000    23964658.632    96495536.345       -1927.224          47.000  
E26  22763883.117   119625066.805       -3376.247          36.000    22763896.780    91660638.535       -2587.143          40.000  
G06  20423584.808   107326635.003       -4001.831          38.000    20423597.384    83630993.283       -3118.079          39.000  
G22  21267622.127   111762122.627        2812.073          38.000                                                                  
G30  16852935.350    88562834.690        -446.045          50.000    16852937.637    69010043.470        -347.553          45.000  
E30  21501434.464   112990883.555        -800.783          46.000    21501442.891    86577501.398        -613.609          48.000  
E02                                                                  24559619.949                3      -2285.901          23.000  
G04                                                                  21946977.197                       -2561.972          31.000  
> 2024 04 15 18 06 00.4890000  0 26                     
G05  20348905.199   106934150.168        2389.778          32.000    20348883.809                3       1868.219          23.000  
G09  18641517.306    97961768.948       -2417.750          46.000    18641521.099    76333828.154       -1883.712          42.000  
E27  21736244.429   114224878.963        1614.114          46.000    21736255.744    87523088.127        1236.669          50.000  
G11  19708928.909   103571066.069       -2731.603          45.000    19708933.370    80704716.463       -2128.417          44.000  
R13  15848276.816    84629066.621        -289.889          41.000    15848279.484    65822705.075        -225.385          44.000  
R02  16924446.881    90312057.715       -1794.650          52.000    16924451.208    70242709.237       -1395.845          50.000  
R04  20351049.514                3       2723.046          11.000                                                                  
R03  16897899.787    90455900.969        1215.237          52.000    16897898.380    70354632.743         945.300          50.000  
R01  20218405.979   108078708.533       -3745.208          44.000    20218424.526    84061158.498       -2912.760          41.000  
E33  22733272.836   119464078.488       -1667.881          45.000    22733279.386    91537470.688       -1278.100          46.000  
G07  16967487.793    89164738.657       -2689.471          47.000    16967487.787    69479017.464       -2095.747          47.000  
S31  35368940.595   185865000.088        -820.416          44.000  
S33  36317680.227   190850658.247        -819.961          42.000  
G14  18982578.459    99754251.176        2408.227          45.000    18982585.329    77730685.561        1876.458          46.000  
G20  17706837.495    93050132.227         658.140          48.000                                                                  
R12  17485713.559    93405535.329       -3771.545          51.000    17485716.981    72648760.980       -2933.429          48.000  
R14  18774269.336   100077537.681        3305.112          51.000    18774280.560    77838228.577        2570.690          48.000  
E07  20637637.376   108451492.855       -1291.321          47.000    20637644.868    83099203.493        -989.530          53.000  
E08  23979006.949   126010367.746       -2516.726          41.000    23979023.980    96553376.428       -1928.439          48.000  
E26  22783173.110   119726424.458       -3380.194          39.000    22783184.348    91738301.897       -2589.883          40.000  
G06  20446432.959   107446697.953       -4002.203          40.000    20446444.500    83724548.300       -3118.427          39.000  
G22  21251559.747   111677725.260        2814.625          37.000                                                                  
G30  16855525.606    88576442.454        -460.795          50.000    16855526.867    69020646.904        -359.091          45.000  
E30  21506047.659   113015122.396        -814.656          47.000    21506055.177    86596074.020        -624.363          48.000  
E02                                                                  24576658.422                3      -2291.787          19.000  
G04                                                                  21965754.922                       -2563.183          28.000  
> 2024 04 15 18 06 30.4890000  0 24                     
G05  20335281.565                        2383.514          27.000    20335299.101                        1857.509          29.000  
G09  18655336.077    98034382.628       -2422.911          46.000    18655339.914    76390410.111       -1888.039          43.000  
E27  21727052.663   114176574.845        1606.523          46.000    21727063.691    87486076.003        1231.032          50.000  
G11  19724558.366   103653195.428       -2743.381          45.000    19724561.998    80768713.181       -2137.863          43.000  
R13  15849979.726    84638161.191        -315.918          41.000    15849982.608    65829778.640        -245.760          44.000  
R02  16934573.431    90366093.368       -1807.610          52.000    16934577.121    70284736.859       -1405.893          49.000  
R03  16891108.486    90419550.561        1208.278          50.000    16891106.826    70326360.227         939.755          48.000  
R01  20239448.810   108191192.506       -3753.372          46.000    20239467.739    84148645.460       -2919.135          40.000  
E33  22742832.278   119514314.530       -1680.838          44.000    22742839.287    91575963.127       -1287.975          47.000  
G07  16982878.791    89245616.597       -2702.054          48.000    16982878.521    69542039.172       -2105.596          47.000  
S31  35373625.140   185889614.713        -820.276          44.000  
S33  36322360.830   190875257.084        -819.833          42.000  
G14  18968851.645    99682117.712        2400.947          45.000    18968859.207    77674477.849        1870.820          46.000  
G20  17703128.063    93030637.801         641.630          49.000                                                                  
R12  17506945.096    93518946.677       -3788.965          52.000    17506947.626    72736969.700       -2946.918          49.000  
R14  18755695.109    99978521.630        3296.034          51.000    18755705.183    77761216.391        2563.597          48.000  
E07  20645019.066   108490278.870       -1294.072          48.000    20645025.537    83128922.577        -991.680          53.000  
E08  23993381.004   126085900.939       -2518.558          41.000    23993397.442    96611252.182       -1929.766          47.000  
E26  22802484.807   119827895.913       -3384.144          41.000    22802494.178    91816052.444       -2592.998          42.000  
G06  20469284.532   107566780.561       -4002.844          39.000    20469296.210    83818118.588       -3119.330          40.000  
G22  21235485.309   111593253.436        2817.079          36.000                                                                  
G30  16858198.183    88590489.587        -475.535          49.000    16858199.231    69031592.704        -370.573          44.000  
E30  21510738.544   113039776.944        -828.708          46.000    21510746.078    86614965.181        -634.888          47.000  
G04                                                                  21984539.538                       -2563.736          30.000  
> 2024 04 15 18 07 00.4890000  0 24                     
G05  20321686.251   106791143.666        2377.631          32.000    20321690.369                        1852.276          31.000  
G09  18669183.975    98107153.537       -2428.020          47.000    18669188.151    76447114.550       -1891.804          43.000  
E27  21717903.357   114128491.093        1599.389          47.000    21717912.650    87449232.724        1225.502          49.000  
G11  19740253.841   103735674.305       -2754.695          44.000    19740258.272    80832982.227       -2146.800          44.000  
R13  15851829.903    84648038.096        -342.123          41.000    15851832.317    65837460.694        -265.969          43.000  
R02  16944771.734    90420510.991       -1820.081          52.000    16944775.534    70327061.624       -1415.595          50.000  
R03  16884356.948    90383406.826        1201.494          51.000    16884354.536    70298248.444         934.495          48.000  
R01  20260533.719   108303907.610       -3760.490          43.000    20260552.498    84236312.124       -2925.229          40.000  
E33  22752464.295   119564933.357       -1693.328          44.000    22752472.271    91614748.866       -1297.577          47.000  
G07  16998339.684    89326864.863       -2714.253          48.000    16998339.821    69605349.439       -2114.905          47.000  
S31  35378307.538   185914220.517        -819.869          44.000  
S33  36327040.290   190899846.830        -819.440          42.000  
G14  18955165.629    99610199.436        2393.802          46.000    18955172.844    77618437.866        1865.298          46.000  
G20  17699514.468    93011642.529         624.992          50.000                                                                  
R12  17528273.562    93632875.583       -3806.012          51.000    17528275.566    72825580.996       -2960.285          49.000  
R14  18737170.497    99879778.739        3287.009          52.000    18737181.019    77684416.629        2556.664          47.000  
E07  20652415.170   108529144.138       -1296.396          48.000    20652421.511    83158702.412        -993.473          54.000  
E08  24007762.674   126161480.348       -2519.741          41.000    24007779.991    96669163.434       -1930.739          47.000  
E26  22821815.661   119929478.170       -3387.576          42.000    22821825.827    91893887.895       -2595.721          43.000  
G06  20492138.743   107686878.848       -4003.455          40.000    20492150.951    83911701.053       -3119.647          40.000  
G22  21219394.887   111508708.831        2819.336          36.000                                                                  
G30  16860954.382    88604974.519        -489.825          50.000    16860955.833    69042879.659        -381.789          44.000  
E30  21515509.869   113064846.525        -842.325          47.000    21515516.978    86634174.379        -645.379          47.000  
G04                                                                  22003331.914                3      -2565.452          24.000  
> 2024 04 15 18 07 30.4890000  0 24                     
G05  20308132.933   106719911.177        2372.325          36.000    20308132.987    83158363.4671       1847.485          32.000  
G09  18683061.379    98180084.040       -2433.146          45.000    18683066.559    76503943.421       -1895.962          43.000  
E27  21708795.674   114080631.551        1591.984          47.000    21708805.937    87412561.264        1219.847          50.000  
G11  19756015.176   103818501.874       -2766.353          43.000    19756019.582    80897522.936       -2155.417          44.000  
R13  15853826.589    84658699.302        -367.936          41.000    15853828.450    65845752.780        -286.395          43.000  
R02  16955040.993    90475313.466       -1832.610          50.000    16955045.800    70369685.654       -1425.309          50.000  
R03  16877643.703    90347474.273        1194.766          51.000    16877642.666    70270300.909         929.261          49.000  
R01  20281662.806   108416856.176       -3768.421          44.000    20281682.523    84324160.471       -2930.895          40.000  
E33  22762171.287   119615935.873       -1706.113          45.000    22762177.910    91653828.574       -1307.093          48.000  
G07  17013870.971    89408483.073       -2726.226          48.000    17013871.373    69668947.995       -2124.415          47.000  
S31  35382988.153   185938819.395        -819.304          44.000  
S33  36331718.671   190924430.532        -818.837          42.000  
G14  18941522.080    99538501.549        2386.641          46.000    18941529.709    77562569.569        1859.800          47.000  
G20  17695995.401    92993150.319         608.502          50.000                                                                  
R12  17549696.203    93747320.467       -3822.784          51.000    17549700.196    72914593.566       -2973.358          49.000  
R14  18718698.400    99781314.261        3277.921          51.000    18718709.172    77607833.385        2549.564          48.000  
E07  20659825.893   108568091.209       -1299.033          47.000    20659832.952    83188544.893        -995.384          53.000  
E08  24022154.446   126237108.476       -2521.402          40.000    24022171.501    96727111.961       -1931.891          47.000  
E26  22841166.333   120031171.145       -3390.968          42.000    22841177.490    91971808.218       -2598.326          44.000  
G06  20514995.947   107806991.594       -4003.522          42.000    20515007.489    84005294.859       -3120.105          39.000  
G22  21203293.549   111424095.861        2822.130          36.000                                                                  
G30  16863794.012    88619898.402        -504.178          49.000    16863795.645    69054508.625        -392.851          44.000  
E30  21520359.333   113090333.166        -855.962          47.000    21520366.429    86653703.124        -655.922          46.000  
G04                                                                  22022132.230                3      -2574.111          19.000  
> 2024 04 15 18 08 00.4890000  0 24                     
G05  20294610.172   106648845.478        2366.311          34.000    20294613.138    83102987.698        1842.913          34.000  
G04  22040919.477                3      -3292.740          23.000                                                                  
G09  18696966.729    98253157.035       -2438.155          45.000    18696971.835    76560883.293       -1900.362          42.000  
E27  21699728.412   114032980.595        1584.685          48.000    21699737.862    87376049.613        1214.299          50.000  
G11  19771838.345   103901657.828       -2777.620          41.000    19771842.982    80962319.574       -2164.055          42.000  
R13  15855966.253    84670127.273        -394.032          40.000    15855968.233    65854641.218        -306.533          43.000  
R02  16965380.040    90530484.093       -1845.330          50.000    16965385.286    70412596.086       -1435.189          51.000  
R03  16870968.570    90311737.695        1187.790          52.000    16870967.627    70242505.825         923.824          50.000  
R01  20302833.867   108530019.624       -3775.813          45.000    20302853.638    84412175.904       -2936.764          41.000  
E33  22771944.893   119667303.363       -1718.287          44.000    22771953.198    91693187.983       -1316.696          48.000  
G07  17029469.127    89490451.494       -2738.243          47.000    17029469.654    69732819.422       -2133.763          47.000  
S31  35387664.180   185963393.994        -819.049          43.000  
S33  36336391.713   190948989.178        -818.604          42.000  
G14  18927917.874    99467009.536        2379.421          46.000    18927924.228    77506861.699        1854.079          46.000  
G20  17692569.273    92975145.553         591.910          50.000                                                                  
R12  17571213.110    93862259.292       -3839.661          51.000    17571217.466    73003990.320       -2986.475          50.000  
R14  18700275.096    99683114.301        3268.728          51.000    18700286.688    77531455.927        2542.299          48.000  
E07  20667249.409   108607103.028       -1301.568          47.000    20667256.433    83218437.016        -997.340          53.000  
E08  24036553.962   126312768.228       -2522.599          41.000    24036569.455    96785084.747       -1932.860          46.000  
E26  22860536.081   120132955.170       -3394.480          44.000    22860546.173    92049798.255       -2600.990          44.000  
G06  20537850.790   107927098.335       -4003.528          42.000    20537862.221    84098883.923       -3119.818          38.000  
G22  21187175.354   111339399.797        2824.106          36.000                                                                  
G30  16866714.163    88635242.945        -518.637          49.000    16866716.472    69066465.389        -403.967          45.000  
E30  21525285.014   113116219.512        -869.592          46.000    21525292.661    86673538.154        -666.250          46.000  
> 2024 04 15 18 08 30.4890000  0 23                     
G05  20281120.945   106577958.606        2360.280          36.000    20281123.434    83047751.262        1839.075          35.000  
G09  18710902.237    98326382.549       -2443.154          45.000    18710906.841    76617941.946       -1903.619          43.000  
E27  21690702.764   113985549.711        1577.743          48.000    21690712.418    87339706.588        1208.879          51.000  
G11  19787726.244   103985149.067       -2788.219          41.000    19787731.152    81027377.511       -2172.712          42.000  
R13  15858251.694    84682331.471        -419.571          40.000    15858254.134    65864133.370        -326.158          44.000  
R02  16975790.662    90586033.881       -1857.580          51.000    16975794.766    70455801.391       -1444.787          49.000  
R03  16864331.310    90276208.970        1181.245          52.000    16864330.710    70214872.408         918.713          50.000  
R01  20324045.674   108643406.999       -3782.843          44.000    20324065.114    84500365.488       -2942.095          39.000  
E33  22781790.420   119719044.445       -1730.575          44.000    22781799.502    91732833.618       -1326.048          48.000  
G07  17045135.406    89572777.150       -2749.732          48.000    17045135.879    69796969.219       -2142.733          48.000  
S31  35392338.163   185987953.967        -818.146          44.000  
S33  36341062.931   190973534.082        -817.453          42.000  
G14  18914354.207    99395736.149        2372.600          46.000    18914361.424    77451324.213        1848.546          46.000  
G20  17689238.239    92957639.514         575.563          50.000                                                                  
R12  17592823.568    93977697.877       -3855.811          52.000    17592828.162    73093775.754       -2998.938          51.000  
R14  18681904.388    99585192.131        3259.840          50.000    18681916.895    77455294.494        2535.341          49.000  
E07  20674687.405   108646189.715       -1303.751          47.000    20674694.104    83248386.513        -999.019          53.000  
E08  24050959.762   126388469.719       -2523.640          40.000    24050975.170    96843089.461       -1933.721          46.000  
E26  22879924.597   120234837.735       -3397.298          43.000    22879934.380    92127863.795       -2603.043          45.000  
G06  20560706.966   108047205.483       -4003.167          42.000    20560719.703    84192473.316       -3119.330          39.000  
G22  21171045.222   111254632.590        2826.963          35.000                                                                  
G30  16869716.653    88651016.880        -532.457          50.000    16869717.879    69078756.732        -414.779          44.000  
E30  21530289.305   113142515.214        -882.972          46.000    21530296.512    86693686.824        -676.527          46.000  
> 2024 04 15 18 09 00.4890000  0 24                     
G05  20267664.491   106507246.947        2353.767          38.000    20267666.211    82992651.343        1834.624          36.000  
G09  18724863.730    98399754.060       -2448.076          45.000    18724868.926    76675114.447       -1907.873          42.000  
E27  21681717.914   113938334.005        1570.158          48.000    21681727.652    87303528.443        1203.017          51.000  
G11  19803677.808   104068966.018       -2799.443          43.000    19803681.755    81092689.198       -2181.470          42.000  
R13  15860680.947    84695305.263        -445.361          40.000    15860683.392    65874224.108        -346.422          43.000  
R02  16986270.224    90641956.892       -1870.459          50.000    16986275.106    70499296.981       -1454.765          50.000  
R03  16857732.703    90240884.144        1173.970          52.000    16857732.292    70187397.561         913.027          50.000  
R01  20345297.858   108757010.744       -3790.462          45.000    20345317.588    84588723.399       -2948.220          39.000  
E33  22791706.390   119771151.104       -1743.157          44.000    22791714.963    91772759.378       -1335.544          48.000  
G07  17060867.611    89655450.891       -2761.724          49.000    17060868.037    69861390.257       -2151.864          48.000  
S31  35397007.758   186012492.534        -817.771          44.000  
S33  36345729.800   190998057.231        -817.379          42.000  
G14  18900832.785    99324677.800        2364.745          47.000    18900839.220    77395954.244        1842.825          46.000  
G20  17686000.887    92940627.353         558.679          50.000                                                                  
R12  17614525.702    94093625.683       -3872.498          53.000    17614530.031    73183941.770       -3012.042          50.000  
R14  18663585.932    99487544.413        3250.066          51.000    18663597.892    77379346.535        2527.914          48.000  
E07  20682137.754   108685345.008       -1306.426          46.000    20682145.415    83278388.576       -1001.022          53.000  
E08  24065371.427   126464206.510       -2525.170          40.000    24065387.366    96901121.295       -1935.047          45.000  
E26  22899328.797   120336809.931       -3400.765          43.000    22899339.608    92205998.029       -2605.778          45.000  
G06  20583561.796   108167303.260       -4003.119          42.000    20583574.134    84286055.382       -3119.360          38.000  
G22  21154902.295   111169790.368        2828.917          36.000                                                                  
G30  16872798.096    88667212.561        -546.990          49.000    16872800.202    69091376.748        -426.275          45.000  
E30  21535370.505   113169213.520        -896.706          46.000    21535377.286    86714143.974        -687.039          47.000  
G04                                                                  22078555.718                3      -2566.828          24.000  
> 2024 04 15 18 09 30.4890000  0 24                     
G05  20254243.078   106436720.247        2347.878          39.000    20254244.816    82937695.603        1829.424          37.000  
G09  18738855.758    98473279.300       -2453.218          46.000    18738860.824    76732406.734       -1912.173          42.000  
E27  21672774.216   113891342.557        1562.725          48.000    21672784.980    87267522.149        1197.318          51.000  
G11  19819690.728   104153113.080       -2810.376          44.000    19819693.214    81158258.154       -2190.107          41.000  
R13  15863255.563    84709055.483        -471.337          40.000    15863257.953    65884918.716        -366.578          43.000  
R02  16996822.244    90698261.713       -1883.111          51.000    16996826.868    70543089.534       -1464.616          50.000  
R03  16851174.070    90205773.598        1166.823          52.000    16851173.596    70160089.337         907.427          50.000  
R01  20366592.550   108870837.979       -3797.826          46.000    20366612.447    84677255.054       -2953.906          39.000  
E33  22801693.373   119823629.498       -1755.351          44.000    22801701.291    91812970.000       -1345.023          48.000  
G07  17076666.911    89738477.686       -2773.381          48.000    17076667.166    69926086.397       -2160.947          47.000  
S31  35401674.920   186037017.309        -817.374          44.000  
S33  36350393.888   191022567.116        -816.775          42.000  
G14  18887353.807    99253844.768        2357.233          47.000    18887360.075    77340759.850        1836.754          46.000  
G20  17682859.184    92924118.221         541.876          50.000                                                                  
R12  17636320.844    94210045.930       -3888.800          53.000    17636323.526    73274490.754       -3024.549          50.000  
R14  18645320.953    99390182.250        3240.674          49.000    18645332.355    77303620.689        2520.558          48.000  
E07  20689602.577   108724576.712       -1309.012          46.000    20689610.856    83308449.188       -1003.024          53.000  
E08  24079792.233   126539986.437       -2526.774          41.000    24079808.407    96959186.141       -1935.875          46.000  
E26  22918752.526   120438876.813       -3403.788          43.000    22918762.643    92284204.784       -2608.115          45.000  
G06  20606415.284   108287395.856       -4002.985          42.000    20606427.490    84379633.343       -3119.196          39.000  
G22  21138744.067   111084882.655        2831.867          35.000                                                                  
G30  16875961.524    88683836.416        -561.162          50.000    16875963.341    69104330.394        -437.374          44.000  
E30  21540528.130   113196321.715        -910.371          45.000    21540535.585    86734915.209        -697.580          46.000  
G04                                                                  22097370.605                3      -2568.333          24.000  
> 2024 04 15 18 10 00.4890000  0 24                     
G05  20240858.834   106366386.201        2341.395          38.000    20240860.731    82882889.976        1824.346          38.000  
G09  18752877.234    98546964.187       -2459.074          46.000    18752881.541    76789823.329       -1916.076          42.000  
E27  21663876.316   113844582.844        1554.578          48.000    21663886.237    87231693.403        1191.185          50.000  
G11  19835767.399   104237593.139       -2821.662          44.000    19835770.438    81224086.515       -2198.622          42.000  
R13  15865977.917    84723587.887        -497.684          40.000    15865979.491    65896221.698        -387.010          43.000  
R02  17007446.322    90754955.160       -1896.471          51.000    17007451.250    70587184.358       -1474.991          49.000  
R03  16844656.231    90170884.491        1159.028          52.000    16844656.014    70132953.385         901.492          51.000  
R01  20387930.117   108984893.583       -3805.847          47.000    20387949.485    84765964.334       -2959.851          42.000  
E33  22811750.852   119876484.019       -1768.122          43.000    22811759.185    91853468.795       -1354.881          48.000  
G07  17092533.954    89821860.700       -2785.592          47.000    17092533.966    69991060.126       -2170.534          47.000  
S31  35406340.197   186061533.262        -817.086          44.000  
S33  36355056.178   191047067.925        -816.857          42.000  
G14  18873919.331    99183245.766        2349.092          48.000    18873925.462    77285747.823        1830.538          46.000  
G20  17679814.737    92908118.882         524.622          50.000                                                                  
R12  17658207.175    94326960.296       -3905.567          53.000    17658210.148    73365424.074       -3037.726          49.000  
R14  18627112.463    99293115.018        3230.389          50.000    18627122.244    77228124.249        2512.521          48.000  
E07  20697085.086   108763890.876       -1312.094          45.000    20697092.304    83338572.949       -1005.371          53.000  
E08  24094222.477   126615815.464       -2528.610          41.000    24094238.559    97017288.612       -1937.514          45.000  
E26  22938192.789   120541041.803       -3407.221          42.000    22938204.632    92362486.742       -2610.698          46.000  
G06  20629267.998   108407485.744       -4003.229          41.000    20629280.365    84473209.235       -3118.994          38.000  
G22  21122575.056   110999918.023        2832.729          33.000                                                                  
G30  16879207.599    88700893.167        -575.838          50.000    16879208.897    69117621.345        -448.869          44.000  
E30  21545765.118   113223845.361        -924.483          45.000    21545772.807    86756004.838        -708.394          45.000  
G04                                                                  22116195.632                3      -2574.711          22.000  
> 2024 04 15 18 10 30.4890000  0 24                     
G05  20227512.844   106296255.700        2334.141          40.000    20227515.220    82828242.971        1818.958          38.000  
G04  22135029.820                3      -3300.077          24.000    22135040.396                3      -2571.237          23.000  
G09  18766931.574    98620816.855       -2464.482          47.000    18766934.510    76847370.784       -1920.445          41.000  
E27  21655023.861   113798064.473        1546.525          47.000    21655034.613    87196049.549        1185.041          51.000  
G11  19851906.674   104322410.982       -2832.721          44.000    19851910.864    81290178.101       -2207.288          42.000  
R13  15868847.467    84738909.986        -523.889          41.000    15868849.236    65908138.871        -407.430          43.000  
R02  17018145.831    90812046.256       -1909.573          50.000    17018150.928    70631588.453       -1485.324          49.000  
R03  16838182.829    90136228.097        1151.327          53.000    16838182.348    70105998.444         895.537          51.000  
R01  20409310.079   109099184.743       -3813.544          45.000    20409331.810    84854856.812       -2966.058          42.000  
E33  22821881.269   119929721.286       -1780.802          43.000    22821890.004    91894260.830       -1364.598          48.000  
G07  17108470.603    89905605.397       -2797.549          47.000    17108470.611    70056315.674       -2179.860          48.000  
S31  35411005.281   186086048.504        -817.194          44.000  
S33  36359718.859   191071568.008        -816.779          42.000  
G14  18860531.137    99112891.639        2341.048          47.000    18860536.277    77230926.607        1824.344          45.000  
G20  17676869.218    92892639.353         507.288          50.000                                                                  
R12  17680187.543    94444372.926       -3922.095          53.000    17680189.821    73456744.952       -3050.543          49.000  
R14  18608959.722    99196353.761        3220.178          51.000    18608970.131    77152865.740        2504.510          48.000  
E07  20704583.619   108803295.757       -1314.976          47.000    20704591.025    83368766.236       -1007.647          53.000  
E08  24108662.555   126691701.805       -2530.539          41.000    24108679.046    97075435.009       -1938.927          45.000  
E26  22957654.433   120643310.614       -3410.677          42.000    22957665.586    92440848.222       -2613.394          45.000  
G06  20652121.714   108527577.608       -4003.344          41.000    20652134.318    84566786.691       -3119.202          39.000  
G22  21106395.347   110914906.449        2834.978          32.000                                                                  
G30  16882536.191    88718389.651        -590.587          49.000    16882538.362    69131254.941        -460.178          44.000  
E30  21551083.333   113251792.328        -938.630          44.000    21551090.445    86777418.743        -719.210          46.000  
> 2024 04 15 18 11 00.4890000  0 24                     
G05  20214205.408   106226330.272        2327.466          40.000    20214208.536    82773755.690        1813.697          39.000  
G04  22153856.730                3      -3301.337          25.000    22153883.458                3      -2573.635          26.000  
G09  18781016.957    98694836.657       -2470.175          46.000    18781021.461    76905048.367       -1924.702          42.000  
E27  21646218.849   113751788.165        1538.537          48.000    21646228.552    87160591.208        1178.875          51.000  
G11  19868111.210   104407562.752       -2843.751          44.000    19868114.450    81356529.921       -2216.078          41.000  
R13  15871865.145    84755020.440        -550.004          41.000    15871866.840    65920669.233        -427.808          44.000  
R02  17028918.374    90869534.720       -1922.971          50.000    17028923.276    70676301.601       -1495.645          49.000  
R03  16831751.490    90101805.362        1143.441          52.000    16831751.126    70079225.192         889.384          50.000  
R01  20430734.639   109213709.917       -3821.253          45.000    20430755.937    84943931.367       -2972.174          40.000  
E33  22832084.491   119983338.943       -1793.395          43.000    22832093.323    91935344.385       -1374.280          47.000  
G07  17124475.501    89989708.141       -2809.438          49.000    17124475.162    70121850.206       -2189.032          48.000  
S31  35415670.143   186110561.913        -817.216          44.000  
S33  36364380.669   191096067.114        -816.472          43.000  
G14  18847189.219    99042784.400        2332.906          46.000    18847195.060    77176297.787        1817.903          45.000  
G20  17674021.905    92877679.801         489.929          50.000                                                                  
R12  17702258.896    94562278.563       -3938.429          52.000    17702262.439    73548449.217       -3063.173          50.000  
R14  18590864.320    99099901.134        3209.830          50.000    18590875.137    77077847.278        2496.542          47.000  
E07  20712099.046   108842790.850       -1317.989          47.000    20712106.685    83399028.649       -1009.849          53.000  
E08  24123114.252   126767644.775       -2532.149          41.000    24123131.280    97133624.808       -1940.343          45.000  
E26  22977134.484   120745679.917       -3413.903          41.000    22977146.640    92519286.715       -2615.914          46.000  
G06  20674974.261   108647667.290       -4002.960          42.000    20674987.541    84660362.449       -3119.061          40.000  
G22  21090209.263   110829849.767        2836.267          33.000                                                                  
G30  16885948.857    88736323.893        -605.145          49.000    16885951.705    69145229.653        -471.524          45.000  
E30  21556481.608   113280161.421        -952.539          43.000    21556488.939    86799156.140        -730.013          46.000  
> 2024 04 15 18 11 30.4890000  0 24                     
G05  20200938.861   106156617.636        2320.261          39.000    20200941.920    82719434.230        1808.189          38.000  
G04  22172714.837                1      -3302.983          25.000    22172734.112                3      -2569.417          17.000  
G09  18795135.528    98769029.292       -2475.795          47.000    18795139.999    76962860.692       -1929.104          42.000  
E27  21637458.589   113705761.170        1530.360          47.000    21637469.153    87125323.904        1172.549          50.000  
G11  19884379.854   104493051.053       -2854.953          43.000    19884382.068    81423143.967       -2224.532          41.000  
R13  15875030.405    84771924.350        -576.304          41.000    15875032.482    65933816.742        -448.400          44.000  
R02  17039767.689    90927427.059       -1936.325          49.000    17039772.159    70721328.911       -1505.952          49.000  
R03  16825366.034    90067624.459        1135.532          52.000    16825365.416    70052640.042         883.252          50.000  
R01  20452204.303   109328473.634       -3829.273          46.000    20452225.410    85033191.467       -2978.052          41.000  
E33  22842361.133   120037341.213       -1806.185          43.000    22842369.766    91976722.616       -1384.023          48.000  
G07  17140548.572    90074172.039       -2821.167          49.000    17140548.101    70187666.198       -2198.354          47.000  
S31  35420335.861   186135079.709        -816.993          44.000  
S33  36369043.426   191120569.688        -816.822          43.000  
G14  18833897.122    98972932.569        2324.308          46.000    18833901.675    77121867.978        1811.177          44.000  
G20  17671274.963    92863247.395         472.430          49.000                                                                  
R12  17724424.123    94680678.537       -3954.636          53.000    17724427.642    73640537.998       -3075.773          49.000  
R14  18572829.664    99003765.839        3199.421          52.000    18572841.283    77003075.612        2488.460          49.000  
E07  20719632.257   108882382.025       -1320.971          46.000    20719640.494    83429364.710       -1012.291          52.000  
E08  24137578.379   126843650.156       -2534.227          42.000    24137594.527    97191862.452       -1941.785          45.000  
E26  22996634.577   120848153.000       -3417.382          41.000    22996646.814    92597804.724       -2618.439          46.000  
G06  20697826.711   108767757.165       -4002.626          41.000    20697841.026    84753938.327       -3119.150          40.000  
G22  21074017.339   110744756.009        2837.296          35.000                                                                  
G30  16889446.181    88754700.395        -619.700          49.000    16889448.995    69159548.955        -482.894          46.000  
E30  21561962.515   113308958.047        -966.937          44.000    21561969.277    86821221.095        -740.802          46.000  
> 2024 04 15 18 12 00.4890000  0 24                     
G05  20187713.312   106087115.543        2312.875          41.000    20187715.942    82665276.820        1802.540          39.000  
G09  18809286.002    98843390.143       -2481.737          47.000    18809291.355    77020804.072       -1933.836          43.000  
E27  21628747.614   113659980.314        1521.866          47.000    21628757.148    87090245.196        1166.054          50.000  
G11  19900710.422   104578867.957       -2866.005          42.000    19900713.254    81490014.052       -2233.458          41.000  
R13  15878342.961    84789616.594        -602.942          40.000    15878344.790    65947577.375        -468.906          43.000  
R02  17050691.426    90985719.516       -1949.814          50.000    17050696.628    70766667.425       -1516.438          49.000  
R03  16819026.378    90033683.449        1127.267          52.000    16819025.149    70026241.469         876.773          50.000  
R01  20473718.172   109443470.551       -3837.079          47.000    20473738.092    85122632.929       -2984.607          40.000  
E33  22852708.870   120091721.871       -1818.957          43.000    22852718.049    92018390.804       -1393.814          48.000  
G07  17156688.576    90158989.609       -2833.198          48.000    17156687.900    70253757.740       -2207.729          47.000  
S31  35425001.378   186159595.672        -817.037          44.000  
S33  36373706.224   191145071.805        -816.700          42.000  
G14  18820653.195    98903334.219        2315.625          45.000    18820658.549    77067635.663        1804.189          45.000  
G20  17668628.066    92849338.983         454.706          48.000                                                                  
R12  17746679.243    94799564.274       -3971.084          51.000    17746683.707    73733004.618       -3088.663          49.000  
R14  18554855.163    98907946.630        3188.551          51.000    18554867.085    76928549.809        2480.010          50.000  
E07  20727183.716   108922064.888       -1324.413          46.000    20727191.953    83459770.985       -1014.742          52.000  
E08  24152051.966   126919713.526       -2536.540          41.000    24152068.406    97250144.478       -1943.490          44.000  
E26  23016152.825   120950722.702       -3420.653          41.000    23016165.252    92676396.760       -2620.927          46.000  
G06  20720677.841   108887839.127       -4002.698          39.000    20720692.341    84847508.082       -3119.273          39.000  
G22  21057818.515   110659622.538        2838.376          37.000                                                                  
G30  16893026.849    88773513.201        -634.390          49.000    16893028.341    69174208.272        -494.300          45.000  
E30  21567523.235   113338177.096        -981.282          44.000    21567529.510    86843609.736        -751.676          47.000  
G04                                                                  22191589.504                3      -2583.772          18.000  
> 2024 04 15 18 12 30.4890000  0 24                     
G05  20174528.351   106017830.938        2305.631          40.000    20174531.879    82611288.908        1796.778          39.000  
G09  18823469.574    98917923.970       -2487.318          47.000    18823473.822    77078882.268       -1938.040          42.000  
E27  21620083.172   113614451.850        1513.308          47.000    21620093.420    87055359.866        1159.598          51.000  
G11  19917103.999   104665015.041       -2877.216          41.000    19917106.345    81557141.402       -2241.829          41.000  
R13  15881804.155    84808101.044        -629.412          40.000    15881806.577    65961954.176        -489.529          43.000  
R02  17061691.001    91044417.459       -1963.442          49.000    17061696.943    70812321.298       -1527.040          49.000  
R03  16812731.019    89999988.703        1118.993          52.000    16812729.733    70000034.463         870.336          49.000  
R01  20495275.637   109558704.410       -3845.099          46.000    20495295.012    85212258.643       -2990.583          39.000  
E33  22863130.093   120146484.074       -1831.852          43.000    22863139.073    92060351.326       -1403.567          48.000  
G07  17172896.337    90244163.403       -2845.088          48.000    17172896.766    70320126.882       -2216.920          48.000  
S31  35429667.075   186184115.113        -817.451          44.000  
S33  36378369.196   191169576.633        -816.914          42.000  
G14  18807457.986    98833996.765        2306.891          46.000    18807465.057    77013606.689        1797.458          46.000  
G20  17666082.518    92835960.543         437.036          49.000                                                                  
R12  17769026.644    94918935.857       -3987.159          53.000    17769029.207    73825849.091       -3101.158          48.000  
R14  18536940.415    98812451.520        3177.730          51.000    18536951.564    76854276.107        2471.505          49.000  
E07  20734753.823   108961844.280       -1327.667          46.000    20734762.011    83490251.239       -1017.344          53.000  
E08  24166539.101   126995839.622       -2538.568          41.000    24166555.050    97308474.559       -1945.136          45.000  
E26  23035691.767   121053391.289       -3423.866          43.000    23035702.736    92755064.551       -2623.564          45.000  
G06  20743526.474   109007914.584       -4002.287          37.000    20743542.358    84941072.731       -3118.729          39.000  
G22  21041611.981   110574456.707        2839.417          36.000                                                                  
G30  16896690.097    88792765.746        -649.161          49.000    16896691.964    69189210.245        -505.749          45.000  
E30  21573163.475   113367822.897        -995.227          44.000    21573171.256    86866325.389        -762.661          48.000  
G04                                                                  22210460.667                3      -2571.827          17.000  
> 2024 04 15 18 13 00.4890000  0 25                     
G05  20161386.881   105948769.552        2298.510          41.000    20161390.516    82557474.912        1791.415          40.000  
G09  18837686.759    98992634.222       -2492.869          48.000    18837691.337    77137097.906       -1942.510          42.000  
E27  21611468.855   113569180.620        1505.090          47.000    21611478.381    87020671.645        1153.299          51.000  
G11  19933559.776   104751492.458       -2887.763          41.000    19933562.642    81624526.189       -2250.227          41.000  
R13  15885414.790    84827380.324        -655.455          41.000    15885417.198    65976949.141        -509.630          43.000  
R02  17072768.409    91103524.886       -1976.777          50.000    17072773.468    70858293.680       -1537.407          48.000  
R03  16806483.165    89966546.173        1110.958          51.000    16806482.367    69974023.620         864.038          49.000  
R01  20516877.127   109674177.452       -3852.655          46.000    20516897.042    85302070.397       -2996.601          40.000  
E33  22873622.975   120201629.635       -1844.173          42.000    22873633.427    92102605.629       -1413.087          48.000  
G07  17189172.130    90329693.232       -2856.598          48.000    17189173.020    70386773.425       -2225.867          48.000  
S31  35434334.631   186208640.696        -817.274          44.000  
S33  36383033.392   191194088.190        -816.770          42.000  
G14  18794314.899    98764926.434        2298.249          46.000    18794321.834    76959785.834        1790.732          47.000  
G20  17663638.290    92823116.547         419.507          49.000                                                                  
R12  17791463.651    95038792.547       -4002.853          52.000    17791466.706    73919070.929       -3113.376          47.000  
R14  18519087.006    98717287.213        3166.851          51.000    18519098.741    76780259.645        2463.205          49.000  
E07  20742342.934   109001723.811       -1330.757          46.000    20742351.130    83520808.217       -1019.612          53.000  
E08  24181037.451   127072031.940       -2540.470          40.000    24181054.655    97366855.407       -1946.663          45.000  
G13  20675030.933                1       1449.292          31.000                                                                  
E26  23055247.249   121156159.595       -3426.937          42.000    23055259.442    92833808.777       -2625.870          45.000  
G06  20766375.717   109127983.607       -4002.187          40.000    20766391.576    85034632.378       -3118.397          39.000  
G22  21025397.836   110489263.917        2840.633          34.000                                                                  
G30  16900437.234    88812460.105        -663.402          49.000    16900439.589    69204556.509        -516.936          44.000  
E30  21578885.999   113397898.476       -1009.432          43.000    21578894.672    86889370.346        -773.431          48.000  
G04                                                                  22229339.128                3      -2578.310          18.000  
> 2024 04 15 18 13 30.4890000  0 24                     
G05  20148286.734   105879922.758        2291.179          43.000    20148289.868    82503828.138        1785.530          40.000  
G09  18851934.542    99067509.947       -2498.648          48.000    18851939.723    77195442.513       -1947.245          42.000  
E27  21602901.338   113524157.189        1496.652          48.000    21602910.863    86986173.275        1146.700          51.000  
G11  19950076.274   104838286.108       -2898.371          42.000    19950080.076    81692157.383       -2258.702          41.000  
R13  15889171.834    84847442.641        -681.784          40.000    15889174.273    65992553.158        -530.218          44.000  
R02  17083920.751    91163031.298       -1990.280          50.000    17083924.001    70904576.347       -1548.101          47.000  
R03  16800282.180    89933347.255        1102.438          52.000    16800280.672    69948202.258         857.500          49.000  
R01  20538522.686   109789877.635       -3860.382          46.000    20538542.278    85392058.756       -3002.460          40.000  
E33  22884189.127   120257146.039       -1856.772          44.000    22884197.546    92145144.024       -1422.624          48.000  
G07  17205512.733    90415565.833       -2868.153          48.000    17205513.652    70453687.064       -2234.981          48.000  
S31  35439000.398   186233161.893        -817.471          44.000  
S33  36387696.928   191218594.723        -817.013          42.000  
G14  18781219.680    98696114.997        2289.211          46.000    18781227.072    76906166.720        1783.881          46.000  
G20  17661293.961    92810797.414         401.837          49.000                                                                  
R12  17813989.665    95159118.857       -4018.672          52.000    17813992.089    74012657.958       -3125.695          48.000  
R14  18501294.933    98622445.465        3155.870          51.000    18501305.868    76706494.091        2454.614          49.000  
E07  20749948.500   109041692.684       -1333.782          46.000    20749957.109    83551433.659       -1022.066          53.000  
E08  24195547.184   127148279.541       -2542.206          40.000    24195565.130    97425278.673       -1948.243          47.000  
G13  20666757.170   108604534.2201       1449.506          34.000                                                                  
E26  23074820.033   121259014.285       -3430.065          42.000    23074832.229    92912619.168       -2628.198          45.000  
G06  20789220.963   109248031.903       -4001.175          38.000    20789236.979    85128175.844       -3118.065          39.000  
G22  21009179.358   110404035.677        2841.405          37.000                                                                  
G30  16904267.276    88832584.093        -678.144          49.000    16904268.908    69220237.504        -528.242          44.000  
E30  21584689.481   113428392.425       -1023.443          44.000    21584697.425    86912735.871        -784.223          48.000  
> 2024 04 15 18 14 00.4890000  0 24                     
G05  20135228.464   105811302.471        2283.987          42.000    20135231.173    82450357.905        1779.265          40.000  
G09  18866216.771    99142560.757       -2504.546          48.000    18866221.462    77253923.531       -1951.593          42.000  
E27  21594382.676   113479392.518        1487.825          48.000    21594392.088    86951873.198        1140.012          51.000  
G11  19966653.322   104925402.305       -2909.262          38.000    19966657.607    81760039.824       -2266.941          42.000  
R13  15893076.325    84868296.793        -708.319          40.000    15893079.133    66008773.081        -550.859          43.000  
R02  17095148.832    91222947.244       -2004.012          51.000    17095153.967    70951177.500       -1558.742          49.000  
R03  16794128.045    89900403.461        1093.912          52.000    16794126.318    69922579.338         850.816          49.000  
R01  20560210.075   109905813.555       -3868.390          43.000    20560231.170    85482230.487       -3008.686          40.000  
E33  22894826.138   120313041.202       -1869.491          44.000    22894834.358    92187972.630       -1432.333          48.000  
G07  17221919.918    90501787.940       -2879.841          47.000    17221920.716    70520873.072       -2244.075          47.000  
S31  35443667.081   186257686.460        -817.477          44.000  
S33  36392361.608   191243104.822        -817.081          42.000  
G14  18768176.439    98627574.752        2280.149          47.000    18768183.852    76852758.931        1776.801          45.000  
G20  17659051.682    92799014.183         383.972          48.000                                                                  
R12  17836603.675    95279920.114       -4034.495          52.000    17836606.712    74106614.384       -3137.833          47.000  
R14  18483566.837    98527939.206        3144.537          53.000    18483575.897    76632989.465        2445.724          48.000  
E07  20757573.904   109081760.710       -1337.096          47.000    20757581.504    83582135.076       -1024.654          53.000  
E08  24210069.327   127224592.199       -2544.782          41.000    24210087.487    97483751.744       -1949.960          48.000  
G13  20658478.652   108561042.141        1449.762          36.000                                                                  
E26  23094411.032   121361962.345       -3433.319          43.000    23094422.056    92991501.100       -2630.480          44.000  
G06  20812063.647   109368065.608       -4000.970          38.000    20812080.339    85221707.949       -3117.506          41.000  
G22  20992956.306   110318783.773        2842.086          36.000                                                                  
G30  16908180.302    88853145.892        -692.679          50.000    16908181.539    69236259.677        -539.707          44.000  
E30  21590573.804   113459313.902       -1037.808          45.000    21590581.729    86936428.979        -795.335          48.000  
> 2024 04 15 18 14 30.4890000  0 24                     
G05  20122213.658   105742908.681        2275.932          43.000    20122215.853    82397064.092        1773.583          40.000  
G09  18880531.409    99217784.457       -2510.343          48.000    18880536.718    77312539.219       -1956.013          42.000  
E27  21585912.894   113434885.868        1479.273          47.000    21585922.880    86917770.811        1133.499          51.000  
G11  19983292.238   105012835.455       -2919.775          41.000    19983295.854    81828169.368       -2275.114          42.000  
R13  15897129.641    84889939.325        -734.433          40.000    15897132.323    66025606.184        -571.211          43.000  
R02  17106453.362    91283270.698       -2017.556          51.000    17106457.989    70998095.666       -1569.283          48.000  
R03  16788021.797    89867714.911        1085.327          52.000    16788019.403    69897154.897         844.178          48.000  
R01  20581942.516   110021981.756       -3876.129          42.000    20581964.268    85572582.849       -3014.600          40.000  
E33  22905534.285   120369311.272       -1881.907          45.000    22905542.233    92231088.521       -1441.989          47.000  
G07  17238393.590    90588354.716       -2891.410          48.000    17238393.639    70588327.614       -2252.980          47.000  
S31  35448334.830   186282213.496        -817.591          44.000  
S33  36397026.195   191267617.487        -817.137          42.000  
G14  18755186.074    98559306.190        2271.201          47.000    18755191.174    76799562.770        1769.831          45.000  
G20  17656911.378    92787765.240         366.016          48.000                                                                  
R12  17859305.244    95401189.676       -4050.052          50.000    17859308.070    74200935.063       -3149.902          48.000  
R14  18465899.401    98433769.741        3133.231          52.000    18465909.627    76559746.760        2436.989          48.000  
E07  20765216.450   109121925.807       -1340.410          46.000    20765224.887    83612910.866       -1027.097          53.000  
E08  24224602.390   127300967.749       -2547.134          39.000    24224620.892    97542272.940       -1951.495          47.000  
G13  20650202.013   108517545.715        1449.719          40.000                                                                  
E26  23114017.670   121464999.041       -3435.949          42.000    23114030.501    93070450.945       -2632.713          45.000  
G06  20834902.482   109488079.145       -3999.992          37.000    20834919.129    85315224.235       -3117.011          41.000  
G22  20976729.096   110233508.383        2842.957          35.000                                                                  
G30  16912175.700    88874141.962        -707.141          50.000    16912176.761    69252620.251        -551.019          44.000  
E30  21596539.235   113490660.160       -1051.809          44.000    21596546.301    86960447.546        -805.983          48.000  
