     3.00           OBSERVATION DATA    M: Mixed            RINEX VERSION / TYPE
CONVBIN 2.4.3                           20240415 081442 UTC PGM / RUN BY / DATE 
format: u-blox UBX                                          COMMENT             
log: /home/regis/git/gnsspwv/obsdata/VERT00CHL/2024-04-15/VECOMMENT             
{self.marker}                                               MARKER NAME         
                                                            MARKER NUMBER       
GEODETIC                                                    MARKER TYPE         
{self.observer}     {self.institution}                      OBSERVER / AGENCY   
UNKNOWN             UBLOX-ZED-F9P                           REC # / TYPE / VERS 
UNKNOWN             TWIVSP6037L                             ANT # / TYPE        
  1713381.0000 -5047934.0000 -3490983.0000                  APPROX POSITION XYZ 
        0.0000        0.0000        0.0000                  ANTENNA: DELTA H/E/N
G    8 C1C L1C D1C S1C C2L L2L D2L S2L                      SYS / # / OBS TYPES 
R    8 C1C L1C D1C S1C C2C L2C D2C S2C                      SYS / # / OBS TYPES 
E    8 C1C L1C D1C S1C C7Q L7Q D7Q S7Q                      SYS / # / OBS TYPES 
S    4 C1C L1C D1C S1C                                      SYS / # / OBS TYPES 
  2024    04    15    08    00   00.0190000     GPS         TIME OF FIRST OBS   
  2024    04    15    08    14   30.0190000     GPS         TIME OF LAST OBS    
                                                            END OF HEADER       
> 2024 04 15 08 00 00.0190000  0 25                     
S33  45336318.239   238244146.0311       -656.221          42.000  
E02  30603815.495   160824148.5691      -3232.076          47.000    30603816.517   123228923.2961      -2476.596          51.000  
E05  31042486.049   163129377.2381       1653.887          43.000    31042485.637   124995249.3221       1267.378          44.000  
E36  31194516.188   163928634.6941      -2331.410          44.000    31194516.019   125607869.2541      -1786.416          48.000  
G26  27610628.513   145094851.7151      -3632.808          44.000    27610626.824   113060878.3281      -2830.723          41.000  
R20  27061895.763   144712183.9391      -2159.255          38.000    27061891.401   112554010.4691      -1679.136          37.000  
R10  28437431.606   151587541.9081      -4734.191          44.000                                                                  
R06  26912610.515   143610887.8301       2782.685          44.000                                                                  
R05  26794068.594   143229694.9271      -1378.999          49.000    26794066.016   111400831.4801      -1072.677          49.000  
G16  26408690.759   138778615.7491      -1263.538          47.000                                                                  
G08  29014950.489   152474738.2251       2407.719          37.000    29014950.478   118811420.0391       1875.788          38.000  
G18  29444448.045   154731614.4941      -3240.820          34.000    29444445.491   120570495.4721      -2525.031          36.000  
S31  44381929.217   233228754.0151       -656.505          44.000  
E30  29815466.850   156681452.2791       -767.676          48.000    29815466.862   120054514.4181       -588.166          51.000  
R11  26689956.918   142623057.6071      -2327.665          51.000    26689952.425   110929144.9401      -1810.421          49.000  
R21  26306401.089   140771172.3971        207.447          52.000    26306394.932   109488526.7861        161.433          49.000  
R12  28614431.751   152853126.4361       1547.650          40.000    28614435.642   118885690.8201       1204.002          37.000  
E15  31775626.490   166982093.6771        804.618          43.000    31775628.381   127947363.3811        616.529          47.000  
G23  26810683.480   140891239.3881      -2717.852          47.000    26810679.145   109785413.3791      -2117.792          49.000  
E34  29420560.649   154606307.9491       -790.135          48.000    29420560.884   118464725.4521       -605.446          52.000  
G27  26730061.219   140467386.2121       1274.185          50.000    26730058.609   109455199.8841        992.882          46.000  
E09  32892628.511   172851931.4471         14.251          36.000    32892627.163   132444990.1801         11.089          42.000  
G10  25665640.170   134873983.3041        -77.564          50.000    25665637.930   105096577.8501        -60.400          48.000  
G32  30123018.552   158297529.6101       2385.624          44.000    30123016.980   123348725.6051       1858.878          40.000  
E27                                                                  32861742.955   132320620.9261       1194.035          32.000  
> 2024 04 15 08 00 30.0190000  0 25                     
S33  45340064.597   238263833.760        -656.386          42.000  
E02  30622288.048   160921220.071       -3239.378          47.000    30622288.376   123303302.739       -2482.239          50.000  
E05  31033053.029   163079801.668        1650.727          45.000    31033052.935   124957262.849        1264.897          45.000  
E36  31207823.163   163998571.223       -2331.236          43.000    31207824.379   125661456.990       -1786.253          48.000  
G26  27631394.442   145203979.075       -3642.372          43.000    27631393.477   113145912.588       -2838.340          41.000  
R20  27074017.191   144777001.637       -2161.924          37.000    27074012.573   112604424.265       -1681.744          38.000  
R10  28464082.899   151729605.102       -4736.858          44.000                                                                  
R06  26897004.872   143527610.496        2768.972          45.000                                                                  
R05  26801882.021   143271462.662       -1405.493          49.000    26801879.034   111433317.502       -1093.261          48.000  
G16  26415961.126   138816819.435       -1283.386          47.000                                                                  
G08  29001207.677   152402521.998        2407.024          37.000    29001207.415   118755147.705        1875.559          37.000  
G18  29462950.163   154828838.955       -3240.832          35.000    29462946.569   120646254.840       -2525.348          32.000  
S31  44385677.201   233248449.042        -656.360          44.000  
E30  29819888.096   156704691.923        -781.768          47.000    29819889.280   120072321.429        -599.108          51.000  
R11  26703089.560   142693230.553       -2350.508          51.000    26703084.022   110983723.874       -1828.139          48.000  
R21  26305247.346   140765001.057         203.870          51.000    26305242.625   109483726.866         158.625          49.000  
R12  28605800.304   152807016.361        1526.501          42.000    28605801.267   118849827.455        1186.941          35.000  
E15  31771041.540   166958005.270         801.079          42.000    31771044.633   127928906.075         613.794          47.000  
G23  26826242.594   140973002.695       -2733.198          47.000    26826238.311   109849125.043       -2129.694          49.000  
E34  29425079.604   154630059.826        -793.510          48.000    29425080.558   118482924.938        -608.040          52.000  
G27  26722807.170   140429266.910        1266.997          50.000    26722804.932   109425496.563         987.160          46.000  
E09  32892581.239   172851677.609           2.310          37.000    32892579.507   132444795.652           1.679          43.000  
G10  25666143.069   134876625.738         -98.786          50.000    25666140.891   105098636.900         -77.128          48.000  
E27  32852871.153                1       1549.000          26.000    32852873.474   132284907.667        1187.305          33.000  
G32  30109394.852   158225938.600        2386.843          43.000    30109394.664   123292940.446        1859.858          41.000  
> 2024 04 15 08 01 00.0190000  0 25                     
S33  45343808.713   238283509.303        -655.880          42.000  
E02  30640799.241   161018497.833       -3246.328          46.000    30640800.014   123377840.213       -2487.441          51.000  
E05  31023634.856   163030310.728        1648.049          44.000    31023635.346   124919341.257        1262.773          46.000  
E36  31221128.725   164068486.897       -2330.469          44.000    31221129.100   125715028.732       -1785.650          49.000  
G26  27652213.954   145313383.275       -3651.754          44.000    27652212.402   113231162.601       -2845.613          42.000  
R20  27086150.270   144841888.444       -2164.000          36.000    27086147.942   112654891.723       -1683.318          39.000  
R10  28490746.132   151871736.913       -4738.998          44.000                                                                  
R06  26881474.839   143444739.130        2755.180          43.000                                                                  
R05  26809843.081   143314014.154       -1431.742          50.000    26809838.477   111466413.095       -1113.492          48.000  
G16  26423342.765   138855609.982       -1303.229          48.000                                                                  
G08  28987467.573   152330315.027        2406.436          38.000    28987466.270   118698882.575        1875.362          38.000  
G18  29481445.929   154926037.859       -3239.911          33.000    29481443.401   120721994.307       -2524.670          35.000  
S31  44389422.473   233268131.096        -656.174          44.000  
E30  29824389.420   156728344.076        -795.602          48.000    29824390.460   120090444.493        -609.559          51.000  
R11  26716346.021   142764069.194       -2372.608          50.000    26716340.490   111038820.579       -1845.418          48.000  
R21  26304110.548   140758922.627         200.693          51.000    26304106.271   109478999.232         156.182          49.000  
R12  28597286.983   152761534.433        1505.486          42.000    28597286.507   118814452.649        1170.586          40.000  
E15  31766475.326   166934012.020         798.165          42.000    31766478.727   127910521.688         611.441          47.000  
G23  26841886.107   141055210.710       -2747.847          47.000    26841881.668   109913183.231       -2141.243          49.000  
E34  29429616.727   154653900.742        -796.392          47.000    29429617.234   118501192.662        -610.238          52.000  
G27  26715592.869   140391355.041        1259.834          49.000    26715590.163   109395954.830         981.846          46.000  
E09  32892597.760   172851775.194          -9.402          37.000    32892598.800   132444870.447          -7.193          44.000  
G10  25666764.579   134879889.186        -119.331          51.000    25666761.616   105101179.848         -92.955          48.000  
E27  32844050.287                        1541.145          27.000    32844050.935   132249383.358        1181.116          33.000  
G32  30095764.035   158154306.732        2388.030          44.000    30095763.384   123237123.466        1860.913          41.000  
> 2024 04 15 08 01 30.0190000  0 25                     
S33  45347550.490   238303173.183        -655.208          42.000  
E02  30659350.642   161115981.588       -3252.893          46.000    30659350.615   123452535.523       -2492.558          51.000  
E05  31014233.538   162980908.030        1645.224          43.000    31014235.205   124881487.253        1260.615          48.000  
E36  31234427.848   164138382.809       -2329.556          42.000    31234429.625   125768585.328       -1785.049          49.000  
G26  27673085.380   145423062.833       -3660.715          45.000    27673084.639   113316627.149       -2852.330          43.000  
R20  27098298.814   144906845.781       -2166.484          37.000    27098296.283   112705414.042       -1685.204          40.000  
R10  28517422.696   152013934.432       -4741.260          44.000                                                                  
R06  26866021.247   143362279.837        2741.416          43.000                                                                  
R05  26817950.155   143357350.253       -1457.649          51.000    26817944.880   111500118.945       -1133.800          47.000  
G16  26430836.072   138894987.768       -1322.461          48.000                                                                  
G08  28973729.919   152258120.364        2406.212          38.000    28973728.101   118642627.089        1874.763          38.000  
G18  29499936.356   155023212.307       -3239.148          35.000    29499933.848   120797714.581       -2523.993          32.000  
S31  44393165.817   233287802.145        -655.842          44.000  
E30  29828969.693   156752410.178        -809.194          48.000    29828970.313   120108884.730        -620.044          51.000  
R11  26729726.407   142835571.857       -2394.546          50.000    26729721.907   111094433.755       -1862.435          48.000  
R21  26302992.234   140752938.555         197.746          51.000    26302987.857   109474344.974         153.850          49.000  
R12  28588890.381   152716684.516        1484.310          44.000    28588889.647   118779569.381        1154.153          38.000  
E15  31761928.248   166910114.908         794.717          43.000    31761930.811   127892210.920         609.210          46.000  
G23  26857614.826   141137862.474       -2762.505          48.000    26857609.447   109977587.191       -2152.657          49.000  
E34  29434170.865   154677831.424        -799.356          47.000    29434171.032   118519529.160        -612.452          52.000  
G27  26708418.167   140353654.048        1252.993          49.000    26708415.353   109366577.444         976.413          45.000  
E09  32892683.505   172852226.750         -21.150          39.000    32892684.751   132445216.465         -16.006          45.000  
G10  25667504.220   134883775.204        -139.970          50.000    25667501.414   105104207.916        -109.135          48.000  
E27  32835281.396                        1532.404          27.000    32835275.674   132214050.446        1174.198          34.000  
G32  30082126.103   158082638.457        2389.402          44.000    30082124.854   123181278.120        1861.698          41.000  
> 2024 04 15 08 02 00.0190000  0 25                     
S33  45351291.832   238322832.084        -655.595          42.000  
E02  30677940.887   161213676.192       -3260.306          46.000    30677941.522   123527392.387       -2498.150          51.000  
E05  31004849.218   162931602.134        1641.554          41.000    31004853.120   124843707.484        1257.808          49.000  
E36  31247727.443   164208265.246       -2329.460          42.000    31247727.822   125822131.587       -1784.856          49.000  
G26  27694010.273   145533021.318       -3670.228          45.000    27694009.309   113402309.066       -2860.083          43.000  
R20  27110461.887   144971881.543       -2169.443          38.000    27110457.316   112755997.445       -1687.515          39.000  
R10  28544111.513   152156199.660       -4743.592          44.000                                                                  
R06  26850647.841   143280244.101        2727.230          43.000                                                                  
R05  26826205.818   143401476.804       -1484.431          51.000    26826199.888   111534439.621       -1154.554          48.000  
G16  26438442.340   138934958.109       -1342.578          48.000                                                                  
G08  28959995.604   152185946.228        2405.161          37.000    28959993.899   118586387.540        1873.935          38.000  
G18  29518428.050   155120368.126       -3238.635          37.000    29518424.737   120873420.536       -2523.602          37.000  
S31  44396908.332   233307469.232        -655.761          44.000  
E30  29833629.771   156776896.783        -823.533          49.000    29833630.066   120127647.169        -630.963          52.000  
R11  26743232.655   142907741.872       -2417.102          51.000    26743228.147   111150565.946       -1879.856          49.000  
R21  26301893.062   140747055.417         194.041          50.000    26301888.051   109469769.199         150.883          49.000  
R12  28580616.340   152672475.960        1462.635          45.000    28580614.529   118745184.936        1137.656          41.000  
E15  31757400.277   166886320.001         791.168          44.000    31757402.038   127873978.474         606.273          45.000  
G23  26873428.048   141220961.994       -2777.738          48.000    26873422.692   110042340.070       -2164.408          49.000  
E34  29438743.201   154701857.701        -802.662          48.000    29438743.004   118537938.925        -615.068          52.000  
G27  26701285.916   140316172.613        1245.385          49.000    26701282.076   109337371.140         970.563          45.000  
E09  32892839.372   172853039.860         -33.458          40.000    32892839.636   132445839.515         -25.526          46.000  
G10  25668362.787   134888290.456        -161.400          50.000    25668360.837   105107726.309        -125.760          48.000  
E27  32826536.359                        1524.870          26.000    32826549.695   132178915.107        1167.539          34.000  
G32  30068482.461   158010943.296        2389.866          43.000    30068481.536   123125411.871        1862.330          40.000  
> 2024 04 15 08 02 30.0190000  0 25                     
S33  45355032.290   238342489.394        -655.448          42.000  
E02  30696572.406   161311581.294       -3267.273          47.000    30696572.060   123602410.543       -2503.437          51.000  
E05  30995486.651   162882396.588        1638.358          41.000    30995489.109   124806004.610        1255.292          49.000  
E36  31261022.147   164278135.222       -2329.009          41.000    31261023.545   125875668.325       -1784.607          48.000  
G26  27714987.858   145643257.216       -3679.504          45.000    27714985.987   113488207.119       -2867.294          43.000  
R20  27122637.949   145036997.000       -2172.046          38.000    27122634.218   112806642.770       -1689.392          40.000  
R10  28570812.531   152298530.254       -4745.664          42.000                                                                  
R06  26835355.512   143198637.583        2712.660          44.000                                                                  
R05  26834607.597   143446394.907       -1510.725          50.000    26834603.788   111569375.902       -1174.959          49.000  
G16  26446161.607   138975522.538       -1362.305          47.000                                                                  
G08  28946265.380   152113795.630        2404.279          37.000    28946264.227   118530166.344        1873.772          39.000  
G18  29536909.705   155217506.513       -3237.811          36.000    29536909.775   120949112.658       -2523.053          37.000  
S31  44400650.176   233327132.632        -655.676          44.000  
E30  29838369.295   156801805.221        -837.526          48.000    29838369.727   120146732.833        -641.691          51.000  
R11  26756863.156   142980577.844       -2439.199          50.000    26756857.720   111207216.132       -1897.143          49.000  
R21  26300812.534   140741274.765         190.703          51.000    26300807.817   109465273.151         148.289          49.000  
R12  28572460.412   152628912.649        1441.075          42.000    28572459.065   118711302.393        1120.804          41.000  
E15  31752892.467   166862628.184         787.621          44.000    31752894.380   127855824.982         603.595          46.000  
G23  26889326.656   141304508.182       -2792.517          49.000    26889320.955   110107440.977       -2176.025          49.000  
E34  29443333.013   154725980.281        -806.024          48.000    29443333.287   118556422.469        -617.518          52.000  
G27  26694195.843   140278914.212        1237.936          48.000    26694191.906   109308338.642         964.489          44.000  
E09  32893062.880   172854216.941         -45.600          39.000    32893063.762   132446741.455         -34.962          46.000  
G10  25669341.880   134893436.255        -182.164          50.000    25669339.504   105111736.034        -141.959          48.000  
E27  32817862.356                        1515.264          27.000    32817874.012   132143979.719        1161.260          35.000  
G32  30054834.832   157939225.711        2390.671          44.000    30054834.342   123069528.120        1862.952          41.000  
> 2024 04 15 08 03 00.0190000  0 25                     
S33  45358771.937   238362141.603        -654.987          42.000  
E02  30715242.561   161409694.671       -3273.970          47.000    30715242.535   123677588.310       -2508.581          51.000  
E05  30986143.142   162833293.097        1635.086          43.000    30986144.832   124768379.870        1252.796          48.000  
E36  31274316.050   164347992.077       -2328.274          41.000    31274316.520   125929194.963       -1784.061          48.000  
G26  27736017.099   145753767.060       -3688.123          43.000    27736015.244   113574318.655       -2873.873          43.000  
R20  27134829.511   145102191.554       -2174.691          38.000    27134825.596   112857349.626       -1691.743          38.000  
R10  28597523.494   152440920.914       -4747.170          41.000                                                                  
R06  26820143.078   143117464.187        2698.340          44.000                                                                  
R05  26843158.413   143492102.776       -1536.688          50.000    26843154.521   111604926.449       -1195.187          49.000  
G16  26453993.124   139016679.237       -1381.653          46.000                                                                  
G08  28932540.213   152041669.841        2403.847          38.000    28932539.087   118473964.461        1872.828          39.000  
G18  29555392.944   155314626.197       -3236.981          38.000    29555388.967   121024790.370       -2522.772          33.000  
S31  44404391.466   233346792.844        -655.278          44.000  
E30  29843189.100   156827135.038        -851.307          48.000    29843189.476   120166141.387        -652.367          51.000  
R11  26770616.536   143054075.958       -2460.907          49.000    26770612.351   111264381.312       -1914.192          49.000  
R21  26299751.470   140735596.323         187.523          52.000    26299746.389   109460856.612         145.885          48.000  
R12  28564426.789   152585996.776        1419.762          43.000    28564423.587   118677923.339        1104.449          39.000  
E15  31748404.143   166839038.467         784.627          45.000    31748405.149   127837749.745         601.256          46.000  
G23  26905309.230   141388498.035       -2807.037          49.000    26905304.177   110172887.596       -2187.194          49.000  
E34  29447941.704   154750197.939        -808.847          48.000    29447941.932   118574978.868        -619.837          52.000  
G27  26687148.800   140241880.436        1230.668          49.000    26687144.811   109279481.170         958.904          45.000  
E09  32893355.137   172855758.483         -57.363          38.000    32893356.737   132447922.646         -44.054          45.000  
G10  25670441.929   134899212.230        -203.023          51.000    25670438.338   105116236.813        -158.149          48.000  
E27  32809257.212                        1506.592          29.000    32809248.118   132109245.236        1154.684          37.000  
G32  30041183.754   157867488.244        2391.671          44.000    30041183.355   123013628.858        1863.684          41.000  
> 2024 04 15 08 03 30.0190000  0 25                     
S33  45362509.952   238381782.869        -654.700          42.000  
E02  30733950.759   161508007.980       -3280.323          47.000    30733951.160   123752919.262       -2513.482          51.000  
E05  30976818.949   162784287.104        1631.804          45.000    30976819.165   124730829.824        1250.508          48.000  
E36  31287605.003   164417828.811       -2327.476          41.000    31287605.876   125982706.226       -1783.331          47.000  
G26  27757096.383   145864541.261       -3696.640          43.000    27757095.121   113660636.169       -2880.326          43.000  
R20  27147033.975   145167459.988       -2176.707          39.000    27147031.181   112908113.950       -1692.701          37.000  
R10  28624245.304   152583360.842       -4748.529          43.000                                                                  
R06  26805011.744   143036722.094        2684.376          43.000                                                                  
R05  26851853.858   143538593.216       -1562.566          49.000    26851851.245   111641085.670       -1215.352          50.000  
G16  26461935.533   139058420.984       -1401.056          46.000                                                                  
G08  28918819.063   151969563.844        2403.247          39.000    28918817.411   118417778.010        1872.895          40.000  
G18  29573868.770   155411720.293       -3236.059          37.000    29573865.185   121100448.070       -2521.796          36.000  
S31  44408130.415   233366442.438        -654.569          44.000  
E30  29848088.270   156852879.580        -865.069          47.000    29848088.623   120185867.713        -662.811          51.000  
R11  26784493.064   143128226.309       -2482.334          51.000    26784489.001   111322053.774       -1930.648          50.000  
R21  26298709.138   140730013.441         184.502          52.000    26298702.227   109456514.407         143.653          48.000  
R12  28556513.651   152543723.994        1398.429          41.000    28556509.172   118645044.514        1087.636          38.000  
E15  31743932.377   166815543.725         781.708          44.000    31743934.542   127819747.300         598.964          47.000  
G23  26921374.699   141472922.368       -2821.174          50.000    26921369.900   110238672.785       -2198.345          49.000  
E34  29452566.476   154774503.334        -811.504          48.000    29452567.210   118593602.495        -621.909          52.000  
G27  26680143.710   140205066.764        1223.602          49.000    26680139.692   109250795.188         953.278          45.000  
E09  32893718.893   172857658.899         -69.273          39.000    32893718.074   132449378.780         -53.091          45.000  
G10  25671659.613   134905611.663        -223.572          50.000    25671655.887   105121223.392        -174.447          47.000  
E27  32800679.048                        1498.815          31.000    32800670.990   132074707.775        1148.153          37.000  
G32  30027527.417   157795727.336        2392.700          43.000    30027527.428   122957711.304        1864.611          40.000  
> 2024 04 15 08 04 00.0190000  0 25                     
S33  45366246.150   238401416.281        -654.765          42.000  
E02  30752696.709   161606519.580       -3287.045          47.000    30752697.258   123828402.161       -2518.650          51.000  
E05  30967511.153   162735380.793        1628.569          44.000    30967511.706   124693356.132        1247.918          47.000  
E36  31300890.401   164487645.248       -2326.972          41.000    31300891.806   126036201.930       -1782.995          48.000  
G26  27778224.996   145975576.913       -3705.484          42.000    27778224.975   113747157.438       -2887.480          44.000  
R20  27159253.696   145232801.937       -2179.414          39.000    27159251.144   112958935.472       -1695.006          37.000  
R10  28650975.229   152725845.832       -4750.041          43.000                                                                  
R06  26789963.369   142956415.636        2669.696          44.000                                                                  
R05  26860697.705   143585865.120       -1588.772          48.000    26860694.307   111677852.715       -1235.757          49.000  
G16  26469989.571   139100747.292       -1420.532          46.000                                                                  
G08  28905102.344   151897479.452        2402.274          40.000    28905099.992   118361608.406        1871.825          40.000  
G18  29592338.354   155508788.398       -3235.327          35.000    29592335.792   121176085.492       -2520.892          34.000  
S31  44411867.995   233386082.707        -654.707          44.000  
E30  29853066.548   156879038.867        -878.889          48.000    29853066.680   120205911.830        -673.356          51.000  
R11  26798490.797   143203025.358       -2504.083          51.000    26798487.180   111380230.759       -1947.575          51.000  
R21  26297683.074   140724525.932         181.346          51.000    26297676.952   109452246.361         141.163          47.000  
R12  28548721.556   152502096.844        1376.933          42.000    28548716.507   118612667.802        1070.428          39.000  
E15  31739479.090   166792143.590         778.461          44.000    31739482.120   127801817.358         596.538          48.000  
G23  26937521.946   141557778.792       -2835.759          49.000    26937517.485   110304794.670       -2209.512          49.000  
E34  29457208.250   154798895.893        -814.560          47.000    29457208.900   118612292.902        -624.102          52.000  
G27  26673180.941   140168475.376        1216.010          50.000    26673177.081   109222282.425         947.345          45.000  
E09  32894146.759   172859919.150         -81.293          38.000    32894148.095   132451110.690         -62.347          45.000  
G10  25672995.046   134912634.613        -244.361          50.000    25672992.543   105126695.820        -190.336          48.000  
E27  32792149.339                        1489.610          30.000    32792142.185   132040368.670        1141.269          36.000  
G32  30013868.512   157723946.097        2393.148          44.000    30013867.723   122901777.918        1864.728          40.000  
> 2024 04 15 08 04 30.0190000  0 25                     
S33  45369981.055   238421044.148        -654.134          42.000  
E02  30771481.125   161705232.631       -3293.857          46.000    30771481.860   123904039.407       -2523.993          51.000  
E05  30958223.433   162686581.143        1624.815          41.000    30958226.278   124655964.207        1244.715          49.000  
E36  31314173.740   164557446.021       -2326.599          42.000    31314174.972   126089685.630       -1782.691          48.000  
G26  27799404.476   146086875.976       -3714.473          43.000    27799404.220   113833883.926       -2894.321          44.000  
R20  27171487.693   145298223.491       -2182.424          38.000    27171485.323   113009818.936       -1697.539          36.000  
R10  28677714.047   152868376.534       -4751.764          43.000                                                                  
R06  26774997.116   142876554.472        2654.529          45.000                                                                  
R05  26869687.351   143633922.684       -1615.177          47.000    26869683.060   111715230.807       -1256.163          48.000  
G16  26478156.798   139143662.250       -1440.338          47.000                                                                  
G08  28891391.017   151825423.259        2401.219          41.000    28891387.277   118305460.752        1870.684          38.000  
G18  29610806.677   155605835.006       -3234.601          35.000    29610802.751   121251706.133       -2520.612          34.000  
S31  44415604.216   233405717.973        -654.570          44.000  
E30  29858124.137   156905617.687        -893.169          48.000    29858124.507   120226277.411        -684.414          51.000  
R11  26812610.520   143278475.047       -2526.048          51.000    26812606.003   111438913.842       -1964.598          49.000  
R21  26296676.924   140719139.302         177.734          52.000    26296670.269   109448056.765         138.188          47.000  
R12  28541047.113   152461122.666        1355.179          35.000    28541048.267   118580798.939        1053.843          39.000  
E15  31735046.109   166768842.433         775.085          45.000    31735048.349   127783963.265         593.781          48.000  
G23  26953751.823   141643069.620       -2850.366          48.000    26953747.684   110371255.067       -2221.088          48.000  
E34  29461867.979   154823379.753        -817.768          48.000    29461867.843   118631053.277        -626.685          52.000  
G27  26666261.687   140132113.285        1208.069          50.000    26666257.386   109193948.311         941.364          46.000  
E09  32894646.246   172862545.182         -93.857          38.000    32894647.993   132453122.861         -71.910          45.000  
G10  25674451.476   134920285.937        -265.582          50.000    25674448.700   105132657.876        -207.004          48.000  
E27  32783668.074                        1480.885          27.000    32783663.901   132006232.938        1134.042          36.000  
G32  30000207.263   157652152.443        2392.869          45.000    30000205.298   122845834.839        1864.617          40.000  
> 2024 04 15 08 05 00.0190000  0 25                     
S33  45373717.344   238440678.817        -655.105          42.000  
E02  30790305.761   161804158.560       -3301.350          46.000    30790307.019   123979839.760       -2529.507          51.000  
E05  30948959.403   162637903.443        1620.384          39.000    30948963.547   124618665.745        1241.532          50.000  
E36  31327454.505   164627244.064       -2326.827          41.000    31327456.643   126143167.244       -1782.902          47.000  
G26  27820635.763   146198448.619       -3724.018          43.000    27820635.713   113920823.623       -2902.040          43.000  
R20  27183739.731   145363738.234       -2185.615          39.000    27183738.112   113060774.819       -1699.640          35.000  
R10  28704463.591   153010962.331       -4754.101          43.000                                                                  
R06  26760117.991   142797156.120        2638.630          44.000                                                                  
R05  26878825.682   143682778.390       -1642.129          47.000    26878822.792   111753229.677       -1277.230          49.000  
G16  26486437.083   139187178.369       -1460.760          46.000                                                                  
G08  28877687.433   151753410.187        2399.217          40.000    28877683.549   118249346.683        1869.744          39.000  
G18  29629272.982   155702872.875       -3234.582          33.000    29629268.843   121327319.995       -2520.544          35.000  
S31  44419341.921   233425359.929        -654.991          44.000  
E30  29863263.951   156932629.194        -907.853          47.000    29863264.488   120246974.522        -695.730          51.000  
R11  26826853.449   143354585.668       -2548.372          51.000    26826848.982   111498110.977       -1981.913          50.000  
R21  26295691.688   140713866.982         173.490          52.000    26295685.609   109443956.084         134.960          48.000  
R12  28533501.715   152420817.404        1331.950          40.000    28533504.872   118549450.375        1036.128          40.000  
E15  31730633.472   166745653.015         770.888          46.000    31730635.056   127766194.766         590.717          47.000  
G23  26970067.165   141728805.509       -2865.479          49.000    26970062.727   110438062.244       -2232.947          48.000  
E34  29466546.957   154847967.453        -821.674          48.000    29466546.633   118649893.203        -629.552          52.000  
G27  26659388.594   140095995.771        1199.554          50.000    26659384.287   109165804.794         934.833          45.000  
E09  32895218.764   172865551.100        -106.952          40.000    32895220.257   132455426.110         -81.866          45.000  
G10  25676029.518   134928578.655        -287.390          50.000    25676027.352   105139119.739        -223.969          48.000  
G32  29986546.211   157580362.616        2392.598          45.000    29986543.238   122789894.766        1864.513          39.000  
E27                                                                  32775238.583   131972311.920        1126.709          35.000  
> 2024 04 15 08 05 30.0190000  0 25                     
S33  45377455.780   238460323.736        -654.643          42.000  
E02  30809170.487   161903298.201       -3308.211          45.000    30809172.270   124055803.892       -2534.717          50.000  
E05  30939722.635   162589352.399        1616.237          42.000    30939724.703   124581464.367        1238.408          50.000  
E36  31340737.178   164697041.696       -2326.396          40.000    31340739.153   126196648.532       -1782.549          48.000  
G26  27841919.984   146310294.463       -3732.750          45.000    27841918.738   114007976.197       -2908.629          43.000  
R20  27196009.221   145429349.175       -2188.519          40.000    27196006.733   113111805.547       -1702.192          38.000  
R10  28731222.114   153153600.913       -4755.456          43.000                                                                  
R06  26745326.666   142718227.942        2623.085          44.000                                                                  
R05  26888115.899   143732433.753       -1668.372          49.000    26888112.257   111791850.522       -1297.711          50.000  
G16  26494831.429   139231296.960       -1480.475          45.000                                                                  
G08  28863992.379   151681444.517        2398.149          40.000    28863989.053   118193269.573        1868.794          39.000  
G18  29647739.207   155799904.065       -3233.807          35.000    29647734.937   121402928.606       -2520.105          35.000  
S31  44423082.036   233445013.641        -655.294          44.000  
E30  29868487.497   156960075.838        -922.145          48.000    29868487.416   120268005.049        -706.567          51.000  
R11  26841219.296   143431356.205       -2569.845          50.000    26841215.471   111557821.364       -1998.710          49.000  
R21  26294727.975   140708711.396         169.920          52.000    26294722.153   109439946.192         132.177          48.000  
R12  28526085.480   152381185.752        1310.300          36.000    28526086.796   118518625.864        1018.380          38.000  
E15  31726242.207   166722577.363         767.342          46.000    31726243.700   127748513.440         588.020          46.000  
G23  26986467.014   141814986.445       -2880.094          49.000    26986462.395   110505216.207       -2244.075          48.000  
E34  29471245.493   154872660.892        -824.799          48.000    29471245.666   118668814.145        -631.948          52.000  
G27  26652562.906   140060127.538        1191.418          49.000    26652558.658   109137855.533         928.436          45.000  
E09  32895865.795   172868940.428        -119.223          42.000    32895865.467   132458023.135         -91.441          46.000  
G10  25677729.980   134937515.169        -308.538          51.000    25677727.467   105146083.270        -240.542          48.000  
E27  32766865.551   172191012.9951       1461.474          29.000    32766868.915   131938608.840        1119.763          35.000  
G32  29972886.811   157508582.252        2392.450          45.000    29972882.845   122733962.136        1864.156          37.000  
> 2024 04 15 08 06 00.0190000  0 26                     
S33  45381196.151   238479981.361        -655.500          42.000  
E02  30828077.009   162002649.772       -3315.093          46.000    30828078.653   124131930.406       -2540.157          50.000  
E05  30930508.506   162540930.095        1611.910          42.000    30930510.338   124544361.593        1235.228          49.000  
E36  31354017.269   164766838.578       -2326.429          39.000    31354020.285   126250129.244       -1782.645          46.000  
G26  27863255.343   146422410.490       -3741.775          46.000    27863253.936   114095339.301       -2915.483          42.000  
R20  27208297.096   145495056.874       -2191.876          38.000    27208293.145   113162911.492       -1705.000          37.000  
R10  28757989.225   153296288.974       -4757.050          41.000                                                                  
R06  26730624.485   142639774.226        2607.189          44.000                                                                  
R05  26897555.177   143782887.621       -1694.961          48.000    26897550.627   111831092.416       -1318.345          50.000  
G16  26503341.823   139276017.617       -1500.787          45.000                                                                  
G08  28850305.856   151609527.911        2396.440          38.000    28850304.065   118137230.695        1866.923          40.000  
G18  29666198.675   155896928.134       -3233.972          31.000    29666194.757   121478531.818       -2520.959          31.000  
S31  44426824.020   233464677.796        -655.586          44.000  
E30  29873793.489   156987957.483        -936.607          48.000    29873793.242   120289368.890        -717.621          51.000  
R11  26855708.236   143508783.266       -2591.721          49.000    26855705.036   111618042.392       -2015.936          49.000  
R21  26293786.611   140703673.025         165.970          52.000    26293780.553   109436027.477         129.081          48.000  
R12  28518791.732   152342230.449        1287.480          35.000    28518791.424   118488327.348        1001.410          36.000  
R07  29972194.994                3       3657.096          11.000                                                                  
E15  31721872.196   166699614.992         763.578          46.000    31721873.683   127730918.904         585.274          45.000  
G23  27002950.988   141901609.949       -2894.757          50.000    27002946.100   110572715.046       -2255.642          47.000  
E34  29475964.634   154897459.315        -828.279          48.000    29475964.831   118687815.545        -634.722          52.000  
G27  26645784.661   140024510.651        1183.032          48.000    26645780.997   109110102.138         921.906          45.000  
E09  32896582.724   172872714.029        -132.104          41.000    32896583.186   132460914.598        -101.227          45.000  
G10  25679553.740   134947095.360        -330.001          51.000    25679550.426   105153548.358        -257.143          49.000  
E27  32758554.443   172147313.706        1452.670          30.000    32758553.843   131905124.940        1112.298          35.000  
G32  29959229.436   157436814.400        2391.995          44.000    29959226.039   122678039.210        1863.881          37.000  
> 2024 04 15 08 06 30.0190000  0 25                     
S33  45384938.841   238499649.298        -655.530          42.000  
E02  30847022.941   162102212.191       -3322.130          45.000    30847024.761   124208218.453       -2545.470          51.000  
E05  30921320.180   162492639.339        1607.543          44.000    30921319.835   124507359.600        1231.745          47.000  
E36  31367303.313   164836635.190       -2326.426          42.000    31367302.503   126303609.753       -1782.563          46.000  
G26  27884640.823   146534794.335       -3750.247          45.000    27884639.888   114182911.098       -2922.473          43.000  
R20  27220602.236   145560862.323       -2195.020          38.000    27220598.035   113214093.515       -1707.655          34.000  
R10  28784765.309   153439022.237       -4758.267          40.000                                                                  
R06  26716011.937   142561800.063        2591.211          44.000                                                                  
R05  26907143.802   143834139.684       -1721.407          50.000    26907139.363   111870955.127       -1338.940          51.000  
G16  26511967.247   139321339.578       -1520.490          47.000                                                                  
G08  28836631.459   151537662.873        2394.788          39.000    28836629.002   118081231.962        1866.374          41.000  
G18  29684663.696   155993945.266       -3233.170          32.000    29684666.013   121554129.623       -2519.260          32.000  
S31  44430568.225   233484352.664        -655.851          44.000  
E30  29879181.737   157016274.633        -950.878          48.000    29879181.975   120311066.436        -728.659          52.000  
R11  26870321.894   143586864.279       -2613.366          51.000    26870316.426   111678772.029       -2032.602          49.000  
R21  26292867.287   140698752.559         162.255          51.000    26292860.579   109432200.479         126.171          47.000  
R12  28511629.282                        1264.425          30.000    28511625.975   118458556.904         983.745          35.000  
E15  31717523.615   166676766.000         759.830          45.000    31717526.092   127713411.264         582.205          46.000  
G23  27019518.985   141988674.006       -2909.116          50.000    27019513.019   110640557.188       -2266.956          46.000  
E34  29480703.019   154922362.700        -831.558          47.000    29480703.849   118706897.371        -637.271          52.000  
G27  26639055.178   139989147.867        1174.725          48.000    26639051.881   109082546.733         915.369          45.000  
E09  32897373.742   172876873.521        -144.963          40.000    32897374.485   132464101.736        -111.001          45.000  
G10  25681499.163   134957319.631        -351.270          51.000    25681496.126   105161515.336        -273.757          49.000  
E27  32750297.053   172103902.706        1443.119          33.000    32750293.161   131871861.941        1105.132          35.000  
G32  29945574.620   157365062.830        2391.547          43.000    29945572.609   122622128.914        1863.579          39.000  
> 2024 04 15 08 07 00.0190000  0 25                     
S33  45388682.127   238519319.513        -655.847          42.000  
E02  30866008.426   162201974.924       -3329.000          47.000    30866008.941   124284660.003       -2550.718          50.000  
E05  30912153.583   162444473.419        1603.139          43.000    30912153.141   124470453.231        1228.407          45.000  
E36  31380581.328   164906422.505       -2326.314          41.000    31380582.628   126357083.135       -1782.463          46.000  
G26  27906075.695   146647434.331       -3759.283          46.000    27906074.473   114270682.471       -2929.392          42.000  
R20  27232925.151   145626757.451       -2197.976          39.000    27232922.079   113265345.212       -1709.838          37.000  
R10  28811549.382   153581787.927       -4759.735          39.000                                                                  
R06  26701488.083   142484301.173        2574.880          43.000                                                                  
R05  26916878.132   143886179.735       -1748.198          50.000    26916873.899   111911430.689       -1359.667          50.000  
G16  26520704.814   139367253.635       -1540.662          47.000                                                                  
G08  28822965.042   151465842.312        2392.754          40.000    28822961.609   118025267.920        1864.630          40.000  
G18  29703120.016   156090946.426       -3233.190          32.000    29703123.514   121629714.996       -2519.706          35.000  
S31  44434312.815   233504030.913        -656.371          43.000  
E30  29884651.623   157045018.484        -965.552          47.000    29884652.043   120333090.918        -739.801          52.000  
R11  26885052.909   143665586.833       -2635.232          50.000    26885047.764   111740000.682       -2049.554          49.000  
R21  26291967.442   140693941.373         158.125          51.000    26291961.182   109428458.454         123.142          47.000  
R12  28504614.974                3       1242.235          25.000    28504586.278                         966.611          31.000  
E15  31713195.706   166654021.123         756.158          46.000    31713197.607   127695983.367         579.342          46.000  
G23  27036168.042   142076167.328       -2923.889          50.000    27036162.774   110708733.816       -2278.414          47.000  
E34  29485459.608   154947361.652        -835.236          47.000    29485460.937   118726052.418        -639.911          52.000  
G27  26632372.636   139954032.615        1166.040          46.000    26632369.452   109055184.201         908.508          45.000  
E09  32898238.172   172881411.072        -158.026          40.000    32898237.756   132467578.553        -121.004          46.000  
G10  25683565.760   134968179.062        -372.820          52.000    25683562.616   105169977.244        -290.461          49.000  
E27  32742082.269                        1433.040          31.000    32742086.760   131838814.432        1097.811          35.000  
G32  29931922.531   157293321.881        2390.714          42.000    29931921.008   122566226.898        1862.960          40.000  
> 2024 04 15 08 07 30.0190000  0 25                     
S33  45392424.963   238538987.943        -655.168          42.000  
E02  30885029.474   162301931.432       -3334.822          46.000    30885030.008   124361250.037       -2555.200          50.000  
E05  30903011.510   162396429.711        1599.872          44.000    30903011.094   124433640.547        1225.899          46.000  
E36  31393858.359   164976195.485       -2325.132          41.000    31393860.262   126410545.569       -1781.725          46.000  
G26  27927557.457   146760322.697       -3766.725          46.000    27927555.765   114358647.391       -2935.163          41.000  
R20  27245263.170   145692736.818       -2200.461          38.000    27245261.547   113316662.530       -1711.603          35.000  
R10  28838338.083   153724576.608       -4759.612          38.000                                                                  
R06  26687054.151   142407277.082        2559.951          43.000                                                                  
R05  26926759.659   143939001.742       -1773.355          49.000    26926754.616   111952514.467       -1379.227          49.000  
G16  26529553.292   139413753.654       -1559.314          47.000                                                                  
G08  28809306.257   151394063.247        2392.390          41.000    28809302.328   117969336.230        1864.351          41.000  
G18  29721569.436                       -3231.693          27.000    29721573.670   121705283.785       -2518.660          35.000  
S31  44438056.798   233523706.907        -655.682          43.000  
E30  29890201.175   157074184.023        -978.882          47.000    29890202.299   120355438.534        -750.063          53.000  
R11  26899903.048   143744942.173       -2655.337          51.000    26899898.524   111801721.482       -2065.171          49.000  
R21  26291087.835   140689234.581         155.629          52.000    26291081.745   109424797.666         121.076          48.000  
R12  28497674.177   152229532.1361       1220.465          35.000    28497666.771                3        949.349          26.000  
E15  31708886.547   166631375.128         753.683          46.000    31708888.883   127678631.221         577.427          47.000  
G23  27052897.842   142164082.549       -2937.129          50.000    27052893.014   110777239.167       -2288.682          47.000  
E34  29490234.146   154972450.689        -837.504          47.000    29490235.122   118745276.499        -641.719          52.000  
G27  26625736.862   139919162.180        1158.606          46.000    26625733.971   109028012.446         902.954          46.000  
E09  32899171.077   172886322.698        -169.548          40.000    32899172.223   132471342.038        -130.019          45.000  
G10  25685752.013   134979668.587        -393.161          51.000    25685748.812   105178930.149        -306.370          48.000  
E27  32733928.675   172017921.127        1424.203          32.000    32733932.340   131805979.980        1090.702          35.000  
G32  29918272.430   157221589.811        2391.351          43.000    29918270.717   122510331.882        1863.247          40.000  
> 2024 04 15 08 08 00.0190000  0 25                     
S33  45396167.604   238558654.531        -655.621          42.000  
E02  30904088.568   162402080.991       -3341.596          47.000    30904087.862   124437987.972       -2560.357          50.000  
E05  30893888.926   162348511.312        1595.192          39.000    30893892.733   124396923.901        1222.138          47.000  
E36  31407133.831   165045955.024       -2325.211          41.000    31407135.629   126463997.638       -1781.478          46.000  
G26  27949086.146   146873457.452       -3775.303          46.000    27949084.787   114446804.273       -2941.768          41.000  
R20  27257618.194   145758803.311       -2203.733          39.000    27257615.008   113368047.497       -1713.741          35.000  
R10  28865129.480   153867385.324       -4760.543          37.000                                                                  
R06  26672709.641   142330733.279        2543.335          43.000                                                                  
R05  26936786.474   143992605.858       -1799.927          49.000    26936783.296   111994206.544       -1399.961          50.000  
G16  26538513.504   139460839.732       -1579.248          47.000                                                                  
G08  28795654.810   151322328.484        2390.315          41.000    28795651.832   117913439.048        1862.657          41.000  
G18  29740026.104   156284885.887       -3231.717          34.000    29740023.960   121780836.549       -2518.293          35.000  
S31  44441801.050   233543381.867        -656.041          44.000  
E30  29895831.769   157103772.135        -993.374          47.000    29895832.730   120378109.923        -761.138          52.000  
R11  26914871.250   143824928.463       -2676.702          51.000    26914867.620   111863932.959       -2081.753          50.000  
R21  26290228.151   140684633.425         151.665          52.000    26290222.198   109421218.993         117.919          48.000  
R12  28490883.364                        1197.446          32.000    28490886.498   118372457.1681        931.267          33.000  
E15  31704595.615   166608828.567         749.760          45.000    31704598.577   127661355.283         574.531          48.000  
G23  27069707.602   142252418.082       -2951.509          50.000    27069703.052   110846072.038       -2299.789          47.000  
E34  29495025.779   154997630.189        -840.918          47.000    29495026.523   118764569.872        -644.282          52.000  
G27  26619148.841   139884539.776        1149.915          46.000    26619145.817   109001033.974         895.911          46.000  
E09  32900176.370   172891610.397        -182.442          39.000    32900178.607   132475393.640        -139.836          45.000  
G10  25688058.072   134991788.990        -414.576          52.000    25688055.246   105188374.622        -323.052          48.000  
E27  32725827.211   171975350.011        1414.824          33.000    32725831.718   131773360.566        1083.646          34.000  
G32  29904625.050   157149870.841        2390.509          43.000    29904622.517   122454447.015        1862.677          39.000  
> 2024 04 15 08 08 30.0190000  0 25                     
S33  45399909.716   238578321.408        -655.534          42.000  
E02  30923181.751   162502421.801       -3347.907          46.000    30923181.761   124514872.464       -2565.134          49.000  
E05  30884796.505   162300720.292        1591.076          41.000    30884799.327   124360304.903        1219.009          48.000  
E36  31420406.816   165115700.758       -2324.690          42.000    31420407.630   126517439.192       -1781.276          46.000  
G26  27970661.816   146986835.561       -3783.318          46.000    27970660.035   114535150.822       -2947.943          42.000  
R20  27269989.413   145824956.991       -2206.827          40.000    27269985.373   113419500.353       -1716.328          37.000  
R10  28891922.410   154010209.739       -4761.019          34.000                                                                  
R06  26658455.436   142254673.998        2527.344          42.000                                                                  
R05  26946960.522   144046990.679       -1825.718          50.000    26946957.545   112036505.846       -1420.113          50.000  
G16  26547585.483   139508511.187       -1598.712          48.000                                                                  
G08  28782011.990   151250639.813        2389.140          41.000    28782009.885   117857577.801        1861.322          40.000  
G18  29758472.509   156381824.427       -3230.156          31.000    29758469.529   121856373.025       -2517.512          34.000  
S31  44445544.843   233563055.884        -655.555          43.000  
E30  29901542.518   157133782.620       -1007.349          47.000    29901543.466   120401104.961        -771.899          52.000  
R11  26929957.322   143905542.114       -2697.439          50.000    26929953.955   111926632.445       -2097.948          49.000  
R21  26289388.452   140680138.231         148.126          52.000    26289382.406   109417722.739         115.278          48.000  
R12  28484219.880   152157685.526        1174.932          37.000    28484222.920   118344779.514         913.824          32.000  
E15  31700324.277   166586380.876         746.642          45.000    31700327.051   127644155.112         572.073          48.000  
G23  27086596.738   142341171.310       -2965.289          50.000    27086592.222   110915230.417       -2310.696          47.000  
E34  29499834.671   155022899.465        -843.750          48.000    29499835.363   118783932.054        -646.522          52.000  
G27  26612608.088   139850167.504        1141.644          47.000    26612605.253   108974250.407         889.618          46.000  
E09  32901255.207   172897275.021        -195.057          39.000    32901257.129   132479734.069        -149.561          46.000  
G10  25690484.226   135004539.911        -435.513          51.000    25690481.938   105198310.406        -339.414          49.000  
E27  32717779.083   171933061.124        1405.062          34.000    32717784.291   131740957.450        1076.362          34.000  
G32  29890980.482   157078168.064        2389.624          45.000    29890977.636   122398574.756        1862.581          38.000  
> 2024 04 15 08 09 00.0190000  0 25                     
S33  45403651.836   238597985.092        -655.506          42.000  
E02  30942311.530   162602951.548       -3353.985          45.000    30942312.075   124591901.717       -2569.965          49.000  
E05  30875727.582   162253058.338        1586.844          43.000    30875729.677   124323784.750        1215.760          49.000  
E36  31433678.188   165185432.037       -2324.192          43.000    31433676.876   126570869.631       -1780.655          46.000  
G26  27992282.654   147100453.496       -3791.270          46.000    27992281.672   114623684.241       -2954.260          43.000  
R20  27282375.801   145891197.354       -2209.351          39.000    27282375.052   113471020.688       -1718.375          37.000  
R10  28918716.242   154153045.539       -4761.405          34.000                                                                  
R06  26644293.649   142179103.146        2511.011          43.000                                                                  
R05  26957280.856   144102154.188       -1851.730          51.000    26957276.358   112079410.806       -1440.216          49.000  
G16  26556767.920   139556766.212       -1618.164          47.000                                                                  
G08  28768378.301   151178998.509        2386.951          40.000    28768377.065   117801753.438        1860.087          40.000  
G18  29776917.030   156478741.161       -3230.235          35.000    29776910.798                       -2516.742          32.000  
S31  44449288.286   233582728.156        -655.661          43.000  
E30  29907332.650   157164214.732       -1021.335          47.000    29907334.481   120424423.071        -782.573          52.000  
R11  26945159.459   143986779.114       -2718.266          51.000    26945155.904   111989816.760       -2114.101          48.000  
R21  26288567.941   140675748.489         144.602          52.000    26288562.418   109414308.494         112.492          49.000  
R12  28477692.208   152122776.887        1152.175          38.000    28477725.256                3        901.714          19.000  
E15  31696070.588   166564031.063         743.455          44.000    31696073.847   127627029.948         569.646          48.000  
G23  27103564.658   142430339.102       -2979.089          50.000    27103560.352   110984711.806       -2321.382          47.000  
E34  29504660.385   155048257.310        -846.559          48.000    29504661.031   118803362.095        -648.653          53.000  
G27  26606115.198   139816047.004        1133.081          47.000    26606112.539   108947663.004         882.941          47.000  
E09  32902404.459   172903316.830        -207.726          38.000    32902406.624   132484363.495        -159.003          46.000  
G10  25693030.820   135017920.546        -456.465          51.000    25693028.507   105208736.884        -355.783          49.000  
E27  32709790.144   171891055.516        1395.733          35.000    32709792.052   131708771.372        1069.369          34.000  
G32  29877339.649   157006484.038        2389.170          44.000    29877336.192   122342717.122        1861.422          38.000  
> 2024 04 15 08 09 30.0190000  0 25                     
S33  45407392.818   238617646.040        -655.286          42.000  
E02  30961476.525   162703665.965       -3360.307          45.000    30961477.195   124669072.463       -2574.805          49.000  
E05  30866683.063   162205524.981        1582.215          43.000    30866684.959   124287363.109        1212.172          50.000  
E36  31446941.290   165255146.117       -2323.603          40.000    31446942.983   126624286.953       -1780.452          46.000  
G26  28013947.602   147214305.744       -3799.046          44.000    28013947.447   114712400.237       -2960.155          43.000  
R20  27294779.249   145957523.326       -2212.497          39.000    27294778.807   113522607.535       -1720.713          38.000  
R10  28945511.215   154295885.774       -4761.434          34.000                                                                  
R06  26630223.508   142104022.800        2494.440          42.000                                                                  
R05  26967744.247   144158092.713       -1877.600          50.000    26967740.347   112122918.548       -1460.456          48.000  
G16  26566061.097   139605601.112       -1637.628          48.000                                                                  
G08  28754754.093   151107403.842        2385.774          39.000    28754753.204   117745965.421        1858.715          40.000  
G18  29795353.185                       -3229.113          29.000    29795348.922   122007392.850       -2516.632          35.000  
S31  44453031.054   233602396.555        -655.742          44.000  
E30  29913204.260   157195065.803       -1035.458          47.000    29913205.326   120448062.194        -793.445          52.000  
R11  26960478.082   144068632.733       -2738.902          51.000    26960473.790   112053480.690       -2130.245          49.000  
R21  26287766.995   140671462.170         141.069          52.000    26287761.302   109410974.684         109.697          48.000  
R12  28471285.236   152088544.634        1129.740          40.000    28471297.065                1        879.529          30.000  
E15  31691835.506   166541776.089         740.141          44.000    31691838.316   127609977.463         567.102          47.000  
G23  27120610.832   142519916.322       -2992.926          50.000    27120605.700   111054512.242       -2332.178          47.000  
E34  29509502.072   155073700.572        -849.684          48.000    29509502.874   118822857.596        -651.100          53.000  
G27  26599669.953   139782177.843        1124.683          47.000    26599667.708   108921271.465         876.306          47.000  
E09  32903625.015   172909734.193        -220.182          37.000    32903627.348   132489280.704        -168.953          45.000  
G10  25695696.790   135031927.937        -477.458          51.000    25695694.060   105219651.746        -372.112          49.000  
E27  32701851.118   171849332.345        1385.923          36.000    32701853.138   131676801.697        1061.822          33.000  
G32  29863702.472   156934819.340        2388.343          43.000    29863699.126   122286874.567        1860.953          39.000  
> 2024 04 15 08 10 00.0190000  0 27                     
S33  45411134.231   238637307.063        -655.456          42.000  
E02  30980677.472   162804568.469       -3366.809          45.000    30980678.202   124746387.338       -2579.730          49.000  
E05  30857662.942   162158127.524        1577.551          43.000    30857665.142   124251045.596        1208.783          49.000  
E36  31460206.126   165324848.086       -2323.241          40.000    31460207.644   126677694.888       -1780.115          46.000  
G26  28035657.466   147328394.572       -3806.850          44.000    28035658.307   114801300.586       -2966.393          44.000  
R20  27307200.578   146023940.188       -2215.359          40.000    27307200.342   113574265.104       -1723.180          38.000  
R10  28972307.427   154438731.267       -4761.890          34.000                                                                  
R06  26616246.682   142029442.471        2477.411          43.000                                                                  
R05  26978355.651   144214809.980       -1903.630          50.000    26978350.940   112167031.970       -1480.763          48.000  
G16  26575465.252   139655020.479       -1657.257          47.000                                                                  
G08  28741140.480   151035862.898        2383.855          39.000    28741139.461   117690219.249        1857.497          40.000  
G18  29813787.590   156672505.222       -3228.850          30.000    29813784.308   122082877.597       -2515.741          35.000  
S31  44456774.270   233622066.025        -655.887          44.000  
E30  29919155.845   157226340.768       -1049.700          47.000    29919156.653   120472026.115        -804.317          52.000  
R11  26975911.443   144151105.086       -2759.471          50.000    26975907.142   112117625.853       -2146.323          49.000  
R21  26286985.800   140667284.539         137.267          51.000    26286980.877   109407725.446         106.744          49.000  
R12  28465006.528   152054996.301        1105.708          33.000    28465009.909   118265038.8951        861.266          33.000  
E15  31687618.914   166519620.679         736.803          45.000    31687622.061   127593001.234         564.424          47.000  
G23  27137735.261   142609905.585       -3006.606          50.000    27137729.600   111124633.755       -2342.783          46.000  
E34  29514360.016   155099233.811        -852.765          47.000    29514361.534   118842422.044        -653.335          53.000  
G27  26593274.310   139748567.419        1115.955          48.000    26593271.867   108895081.526         869.470          47.000  
E09  32904919.602   172916533.107        -232.812          37.000    32904920.793   132494490.301        -178.620          44.000  
G10  25698483.022   135046566.996        -498.618          52.000    25698479.726   105231058.800        -388.491          49.000  
E27  32693965.395   171807898.426        1375.767          35.000    32693968.502   131645053.591        1054.271          31.000  
G32  29850070.059   156863182.366        2387.030          43.000    29850066.683   122231053.638        1860.007          39.000  
R22                                                                  28838747.432                3       1261.220          17.000  
R07                                                                  29802956.195                3       2604.457          12.000  
> 2024 04 15 08 10 30.0190000  0 26                     
S33  45414876.940   238656974.611        -655.755          42.000  
E02  30999915.481   162905661.691       -3372.848          45.000    30999915.867   124823848.347       -2584.428          49.000  
E05  30848670.312   162110872.496        1572.876          42.000    30848672.066   124214837.179        1205.134          48.000  
E36  31473467.744   165394542.046       -2323.006          40.000    31473469.444   126731096.746       -1779.768          46.000  
G26  28057413.568   147442721.358       -3814.709          45.000    28057413.935   114890386.347       -2972.571          45.000  
R20  27319638.210   146090453.087       -2218.308          39.000    27319638.172   113625997.282       -1725.274          39.000  
R10  28999106.951   154581582.809       -4761.583          35.000                                                                  
R06  26602366.853   141955370.894        2460.809          43.000                                                                  
R05  26989111.691   144272309.163       -1929.409          50.000    26989106.059   112211753.569       -1500.737          48.000  
R22  28829712.821                3       1621.773          11.000                                                                  
G16  26584981.303   139705027.467       -1676.483          48.000                                                                  
G08  28727537.936   150964381.855        2381.798          40.000    28727537.027   117634519.795        1855.900          40.000  
G18  29832218.366   156769361.595       -3228.164          31.000    29832214.839   122158350.122       -2515.105          35.000  
S31  44460518.193   233641741.673        -655.766          44.000  
E30  29925189.116   157258043.850       -1063.775          48.000    29925189.578   120496318.071        -815.074          52.000  
R11  26991460.164   144234197.105       -2779.834          49.000    26991456.059   112182252.940       -2161.970          49.000  
R21  26286226.541   140663220.485         133.783          52.000    26286221.631   109404564.504         104.158          49.000  
R12  28458840.876                3       1089.378          22.000    28458853.056   118239482.577         842.913          39.000  
E15  31683423.981   166497568.748         733.596          45.000    31683425.539   127576104.279         562.155          47.000  
G23  27154938.384   142700308.683       -3020.101          50.000    27154933.095   111195077.718       -2353.333          46.000  
E34  29519237.243   155124860.802        -855.582          48.000    29519238.155   118862058.327        -655.642          53.000  
G27  26586929.358   139715222.302        1107.227          49.000    26586926.602   108869098.333         862.787          47.000  
E09  32906289.024   172923718.924        -245.896          38.000    32906288.100   132499996.302        -188.354          44.000  
G10  25701388.931   135061841.671        -519.581          51.000    25701386.327   105242961.162        -404.764          49.000  
E27  32686135.821   171766759.671        1366.602          34.000    32686142.041                        1047.587          30.000  
G32  29836444.467   156791580.670        2386.191          43.000    29836441.258   122175260.160        1859.303          39.000  
> 2024 04 15 08 11 00.0190000  0 26                     
S33  45418619.043   238676639.109        -655.283          42.000  
E02  31019187.580   163006936.164       -3378.562          45.000    31019187.701   124901448.235       -2588.685          49.000  
E05  30839704.524   162063754.304        1568.726          43.000    30839706.153   124178733.630        1201.986          49.000  
E36  31486724.564   165464220.164       -2321.817          38.000    31486728.982   126784486.501       -1779.194          46.000  
G26  28079212.522   147557275.384       -3821.870          45.000    28079213.243   114979649.184       -2978.223          44.000  
R20  27332092.483   146157054.622       -2221.303          39.000    27332090.583   113677798.476       -1727.677          36.000  
R10  29025904.014   154724428.816       -4761.305          36.000                                                                  
R06  26588581.152   141881804.738        2444.238          43.000                                                                  
R05  27000012.363   144330580.973       -1954.933          50.000    27000007.347   112257076.069       -1520.620          48.000  
G16  26594607.154   139755613.171       -1695.508          47.000                                                                  
G08  28713946.077   150892954.941        2379.922          40.000    28713944.705   117578862.446        1854.747          39.000  
S31  44464261.667   233661414.662        -655.331          44.000  
E30  29931302.135   157290167.077       -1077.387          47.000    29931302.496   120520931.961        -825.557          52.000  
R11  27007124.114   144317897.578       -2799.685          50.000    27007119.504   112247353.294       -2177.588          49.000  
R21  26285486.676   140659262.411         130.504          52.000    26285481.780   109401486.006         101.544          48.000  
R12  28452841.014   151989873.7821       1061.230          33.000    28452827.174   118214458.775         825.245          40.000  
E15  31679245.346   166475612.044         730.730          45.000    31679247.186   127559280.328         559.964          47.000  
G23  27172218.094   142791115.300       -3033.275          50.000    27172213.414   111265836.122       -2363.625          46.000  
E34  29524130.090   155150573.217        -858.215          48.000    29524131.001   118881760.063        -657.583          53.000  
G27  26580633.708   139682136.952        1098.730          49.000    26580630.244   108843317.551         856.195          47.000  
E09  32907728.029   172931284.686        -258.342          38.000    32907727.761   132505793.443        -197.924          44.000  
G10  25704415.565   135077743.833        -540.241          52.000    25704412.030   105255352.475        -420.840          49.000  
E27  32678362.655   171725910.013        1357.424          34.000    32678366.242                        1040.718          27.000  
G32  29822824.265   156720009.756        2385.495          40.000    29822823.047   122119490.660        1858.779          41.000  
G18                                                                  29850642.079   122233804.114       -2514.617          38.000  
R07                                                                  29764434.464                3       2604.540          11.000  
> 2024 04 15 08 11 30.0190000  0 25                     
S33  45422359.317   238696295.143        -655.124          41.000  
E02  31038491.760   163108383.289       -3384.568          45.000    31038492.438   124979180.426       -2593.333          49.000  
E05  30830763.270   162016768.252        1563.952          44.000    30830765.313   124142731.351        1198.252          50.000  
E36  31499980.696   165533875.457       -2321.520          38.000    31499983.746   126837858.736       -1778.718          45.000  
G26  28101053.374   147672046.876       -3829.427          45.000    28101053.316   115069081.467       -2983.750          44.000  
R20  27344563.072   146223738.109       -2224.489          39.000    27344561.127   113729663.379       -1729.748          39.000  
R10  29052698.476   154867257.458       -4760.645          40.000                                                                  
R06  26574888.870   141808741.393        2426.843          43.000                                                                  
R05  27011055.718   144389616.793       -1980.711          49.000    27011052.882   112302992.855       -1540.498          49.000  
G16  26604341.835   139806769.627       -1714.838          47.000                                                                  
G08  28700363.236   150821577.142        2378.285          41.000    28700361.158   117523243.411        1853.247          39.000  
G18  29869065.120                1      -3225.630          25.000    29869062.734   122309233.937       -2513.871          36.000  
S31  44468003.527   233681078.693        -655.403          43.000  
E30  29937493.428   157322703.406       -1091.588          47.000    29937493.913   120545862.375        -836.412          52.000  
R11  27022898.513   144402195.357       -2819.987          50.000    27022894.909   112312918.200       -2193.250          49.000  
R21  26284766.480   140655403.557         126.831          52.000    26284759.910   109398484.703          98.651          48.000  
R12  28446940.846   151958379.920        1038.385          35.000    28446929.680   118189963.576         807.806          39.000  
E15  31675083.028   166453743.333         727.370          45.000    31675085.819   127542523.790         557.382          47.000  
G23  27189573.366   142882316.021       -3046.755          50.000    27189568.388   111336901.611       -2374.154          46.000  
E34  29529037.532   155176363.621        -861.075          48.000    29529038.655   118901521.550        -659.762          53.000  
G27  26574386.071   139649306.723        1089.948          49.000    26574382.412   108817735.564         849.097          46.000  
E09  32909239.668   172939224.324        -271.188          39.000    32909239.025   132511877.049        -207.760          44.000  
G10  25707559.607   135094266.252        -561.152          51.000    25707556.072   105268227.100        -437.244          49.000  
E27  32670643.089   171685344.250        1347.640          34.000    32670648.765                        1032.096          30.000  
G32  29809210.010   156648465.900        2384.152          43.000    29809208.966   122063742.255        1857.777          41.000  
> 2024 04 15 08 12 00.0190000  0 25                     
S33  45426099.009   238715947.553        -654.589          41.000  
E02  31057829.804   163210005.446       -3389.962          45.000    31057830.533   125057046.742       -2597.572          49.000  
E05  30821849.465   161969920.626        1559.481          44.000    30821850.421   124106835.140        1194.895          50.000  
E36  31513228.789   165603511.938       -2320.350          35.000    31513234.966   126891216.564       -1778.191          45.000  
G26  28122934.960   147787036.988       -3836.450          45.000    28122934.658   115158684.127       -2989.441          44.000  
R20  27357050.309   146290508.865       -2226.924          38.000    27357048.166   113781596.202       -1731.974          40.000  
R10  29079489.801   155010069.149       -4759.765          41.000                                                                  
R06  26561292.080   141736189.283        2410.004          42.000                                                                  
R05  27022244.166   144449419.363       -2005.869          51.000    27022240.271   112349505.970       -1560.094          49.000  
G16  26614186.104   139858499.842       -1733.600          47.000                                                                  
G08  28686791.473   150750254.511        2376.581          42.000    28686789.219   117467667.370        1851.908          39.000  
S31  44471744.933   233700738.902        -655.070          43.000  
E30  29943764.313   157355656.710       -1105.163          47.000    29943764.879   120571112.289        -846.849          52.000  
R11  27038786.867   144487091.287       -2839.552          51.000    27038782.247   112378948.342       -2208.379          50.000  
R21  26284064.462   140651648.548         123.668          52.000    26284058.450   109395564.136          96.227          48.000  
R12  28441163.768   151927571.939        1015.611          38.000    28441159.503   118166001.829         790.378          37.000  
E15  31670939.805   166431966.265         724.561          45.000    31670941.838   127525837.483         555.206          48.000  
G23  27207003.734   142973912.350       -3059.551          49.000    27206998.395   111408275.357       -2384.067          46.000  
E34  29533960.508   155202235.526        -863.519          48.000    29533961.919   118921345.484        -661.621          53.000  
G27  26568188.051   139616737.929        1081.470          48.000    26568184.915   108792357.293         842.804          46.000  
E09  32910820.957   172947542.834        -283.489          38.000    32910822.355   132518250.969        -217.108          44.000  
G10  25710822.032   135111412.536        -581.700          51.000    25710818.842   105281587.857        -453.294          49.000  
E27  32662979.891   171645068.128        1338.289          34.000    32662987.338   131520287.773        1024.906          32.000  
G32  29795602.545   156576956.471        2383.028          44.000    29795601.792   122008020.677        1857.083          41.000  
G18                                                                  29887479.402   122384642.714       -2512.883          38.000  
> 2024 04 15 08 12 30.0190000  0 25                     
S33  45429835.630   238735582.410        -654.500          41.000  
E02  31077198.615   163311788.107       -3395.492          45.000    31077199.600   125135036.026       -2601.768          50.000  
E05  30812958.402   161923200.743        1555.210          43.000    30812959.812   124071036.838        1191.549          49.000  
E36  31526476.647   165673116.687       -2320.007          38.000    31526479.342   126944550.082       -1777.372          44.000  
G26  28144856.371   147902229.989       -3843.272          45.000    28144854.777   115248444.865       -2994.734          43.000  
R20  27369550.313   146357354.459       -2229.761          39.000    27369549.431   113833587.226       -1734.293          40.000  
R10  29106274.897   155152847.347       -4758.624          43.000                                                                  
R06  26547789.857   141664140.100        2393.286          42.000                                                                  
R05  27033571.698   144509974.348       -2031.078          51.000    27033567.210   112396604.303       -1579.899          48.000  
G16  26624137.264   139910789.638       -1752.496          48.000                                                                  
G08  28673227.991   150678976.207        2375.044          42.000    28673225.234   117412125.910        1850.359          39.000  
S31  44475482.725   233720381.813        -654.437          43.000  
E30  29950111.561   157389013.950       -1118.678          46.000    29950112.554   120596671.726        -857.224          52.000  
R11  27054782.453   144572568.751       -2859.078          50.000    27054778.207   112445430.803       -2223.693          50.000  
R21  26283380.511   140647984.851         120.408          52.000    26283373.554   109392714.590          93.589          48.000  
R12  28435524.273   151897438.848         993.135          38.000    28435517.410   118142564.907         772.480          37.000  
E15  31666810.902   166410267.574         721.805          45.000    31666812.827   127509211.233         553.135          48.000  
G23  27224505.948   143065888.870       -3072.321          49.000    27224501.038   111479945.363       -2393.953          46.000  
E34  29538896.954   155228175.608        -866.019          48.000    29538898.089   118941221.658        -663.487          53.000  
G27  26562038.133   139584420.004        1072.925          49.000    26562034.864   108767174.515         835.999          46.000  
E09  32912474.053   172956228.291        -295.767          39.000    32912475.186   132524906.070        -226.680          44.000  
G10  25714201.306   135129169.447        -602.247          52.000    25714197.906   105295424.425        -469.339          49.000  
E27  32655369.298   171605070.421        1328.491          34.000    32655377.996   131489640.136        1018.002          33.000  
G32  29782000.371   156505471.919        2382.120          44.000    29781998.937   121952318.462        1856.386          41.000  
G18                                                                  29905887.201   122460020.213       -2511.996          37.000  
> 2024 04 15 08 13 00.0190000  0 25                     
S33  45433570.607   238755212.092        -654.182          42.000  
E02  31096600.164   163413742.349       -3401.223          46.000    31096601.024   125213156.774       -2606.157          51.000  
E05  30804094.216   161876623.605        1550.150          44.000    30804096.286   124035347.908        1187.857          49.000  
E36  31539718.498   165742702.528       -2319.632          38.000    31539721.189   126997869.054       -1777.110          43.000  
G26  28166817.032   148017635.711       -3850.272          45.000    28166815.980   115338371.353       -3000.198          44.000  
R20  27382067.360   146424288.922       -2232.635          38.000    27382066.095   113885647.285       -1736.226          38.000  
R10  29133055.871   155295600.617       -4757.860          44.000                                                                  
R06  26534385.558   141592610.922        2375.598          43.000                                                                  
R05  27045043.399   144571293.330       -2056.560          52.000    27045037.844   112444296.829       -1599.507          47.000  
G16  26634196.465   139963650.126       -1771.497          47.000                                                                  
G08  28659675.662   150607756.978        2372.993          42.000    28659672.439   117356630.404        1848.988          40.000  
G18  29924299.961                3      -3221.679          26.000    29924289.677   122535376.277       -2511.276          36.000  
S31  44479219.685   233740019.715        -654.258          43.000  
E30  29956537.583   157422787.711       -1132.750          46.000    29956539.385   120622550.319        -867.954          52.000  
R11  27070888.164   144658636.883       -2878.661          51.000    27070885.284   112512372.626       -2238.999          50.000  
R21  26282714.760   140644425.608         116.998          51.000    26282708.754   109389946.289          90.978          48.000  
R12  28430013.462   151867995.607         969.701          38.000    28430007.796   118119664.404         754.320          39.000  
E15  31662698.763   166388659.675         718.638          44.000    31662700.967   127492654.550         550.687          48.000  
G23  27242082.841   143158255.890       -3085.394          49.000    27242077.477   111551919.659       -2404.269          45.000  
E34  29543849.105   155254196.100        -868.622          48.000    29543849.787   118961159.452        -665.587          53.000  
G27  26555938.855   139552367.998        1064.087          49.000    26555935.544   108742198.941         829.144          46.000  
E09  32914198.833   172965294.312        -308.422          38.000    32914200.418   132531852.726        -236.520          44.000  
G10  25717698.544   135147549.416        -623.020          51.000    25717695.427   105309746.479        -485.610          48.000  
E27  32647815.400   171565365.656        1318.100          34.000    32647822.784   131459217.021        1010.492          32.000  
G32  29768405.088   156434028.270        2381.094          45.000    29768403.599   121896648.154        1855.011          41.000  
> 2024 04 15 08 13 30.0190000  0 25                     
S33  45437304.997   238774834.504        -653.993          42.000  
E02  31116032.582   163515863.508       -3406.775          45.000    31116034.186   125291405.435       -2610.511          50.000  
E05  30795258.389   161830188.499        1545.413          44.000    30795259.801   123999767.796        1184.165          48.000  
E36  31552958.067   165812266.282       -2318.540          40.000    31552958.275   127051171.162       -1776.384          43.000  
G26  28188817.210   148133248.357       -3857.334          45.000    28188816.030   115428459.069       -3005.554          43.000  
R20  27394600.725   146491309.957       -2235.399          39.000    27394598.504   113937774.778       -1738.294          36.000  
R10  29159829.641   155438321.992       -4756.886          44.000                                                                  
R06  26521078.406   141521603.186        2357.971          42.000                                                                  
R05  27056656.567   144633371.572       -2081.938          52.000    27056651.231   112492579.915       -1619.346          48.000  
G16  26644363.125   140017078.433       -1790.479          47.000                                                                  
G08  28646134.469   150536595.844        2370.868          43.000    28646130.949   117301180.187        1847.746          40.000  
G18  29942695.259   157349980.1001      -3222.256          29.000    29942685.527   122610708.394       -2510.884          37.000  
S31  44482955.434   233759650.913        -654.495          44.000  
E30  29963043.238   157456974.821       -1146.472          46.000    29963044.607   120648745.638        -878.571          51.000  
R11  27087104.437   144745289.274       -2898.176          51.000    27087100.256   112579768.926       -2254.231          49.000  
R21  26282067.324   140640968.275         113.426          51.000    26282062.612   109387257.237          88.287          48.000  
R12  28424628.313   151839240.988         947.286          34.000    28424625.694   118097299.839         736.367          39.000  
E15  31658602.849   166367139.175         715.862          43.000    31658606.000   127476164.869         548.350          48.000  
G23  27259732.716   143251007.844       -3098.251          49.000    27259727.624   111624193.910       -2414.241          45.000  
E34  29548815.340   155280293.553        -871.280          49.000    29548816.039   118981156.205        -667.572          53.000  
G27  26549890.094   139520581.215        1055.109          49.000    26549886.601   108717430.036         822.034          47.000  
E09  32915995.272   172974738.764        -320.980          37.000    32915997.551   132539089.375        -246.050          43.000  
G10  25721313.798   135166548.899        -643.851          51.000    25721310.941   105324551.289        -501.692          49.000  
E27  32640315.852   171525952.438        1308.730          32.000    32640317.020                        1003.096          30.000  
G32  29754818.110   156362625.857        2379.186          44.000    29754815.912   121841010.002        1853.657          40.000  
> 2024 04 15 08 14 00.0190000  0 26                     
S33  45441039.048   238794455.649        -654.001          41.000  
E02  31135498.099   163618155.376       -3412.542          45.000    31135499.390   125369784.888       -2614.814          50.000  
E05  30786450.392   161783903.125        1540.403          44.000    30786452.060   123964302.397        1180.240          48.000  
E36  31566193.539   165881813.510       -2317.945          41.000    31566193.194   127104460.543       -1775.975          43.000  
G26  28210857.731   148249070.452       -3864.340          45.000    28210856.099   115518710.017       -3010.980          43.000  
R20  27407151.923   146558423.170       -2238.517          39.000    27407149.146   113989973.903       -1741.328          35.000  
R10  29186599.091   155581013.105       -4755.989          43.000                                                                  
R06  26507871.360   141451126.886        2340.375          43.000                                                                  
R05  27068411.888   144696212.948       -2107.390          50.000    27068408.948   112541456.555       -1639.096          49.000  
G16  26654639.101   140071078.932       -1809.412          47.000                                                                  
G08  28632605.362   150465500.283        2368.707          44.000    28632601.669   117245781.061        1845.917          39.000  
G18  29961085.154   157446630.959       -3221.577          29.000    29961077.583   122686020.691       -2510.431          37.000  
S31  44486690.948   233779280.467        -654.139          43.000  
E30  29969628.666   157491580.561       -1160.493          46.000    29969629.638   120675261.700        -889.223          51.000  
R11  27103430.047   144832527.518       -2917.634          51.000    27103425.816   112647620.858       -2269.239          49.000  
R21  26281441.127   140637618.999         109.845          51.000    26281437.352   109384652.272          85.492          50.000  
R12  28419364.356                3        923.902          28.000    28419373.907   118075476.775         718.138          37.000  
E15  31654526.053   166345711.152         712.639          44.000    31654528.212   127459746.020         546.031          48.000  
G23  27277456.727   143344147.676       -3111.099          48.000    27277451.725   111696770.405       -2424.264          45.000  
E34  29553797.401   155306472.913        -874.058          49.000    29553797.694   119001215.721        -669.682          53.000  
G27  26543893.602   139489067.431        1045.984          49.000    26543889.772   108692873.841         815.125          46.000  
E09  32917866.127   172984567.977        -333.834          37.000    32917868.517   132546620.836        -256.005          43.000  
G10  25725048.616   135186172.900        -664.547          51.000    25725045.377   105339842.734        -517.766          49.000  
E27  32632877.662                        1298.857          31.000    32632870.241   131399046.578         994.993          32.000  
G32  29741240.278   156291273.462        2377.670          44.000    29741236.684   121785410.787        1852.559          40.000  
R07                                                                  29637704.974                3       2590.963          10.000  
> 2024 04 15 08 14 30.0190000  0 25                     
S33  45444772.336   238814075.501        -653.970          41.000  
E02  31154995.043   163720616.539       -3418.110          45.000    31154997.001   125448294.069       -2619.018          50.000  
E05  30777671.138   161737769.890        1535.175          43.000    30777673.477   123928953.601        1176.286          48.000  
E36  31579424.581   165951344.370       -2317.407          41.000    31579424.112   127157737.422       -1775.552          43.000  
G26  28232937.370   148365099.368       -3871.069          45.000    28232936.333   115609122.121       -3016.456          44.000  
R20  27419719.650   146625629.304       -2241.992          39.000    27419717.325   114042245.269       -1742.905          34.000  
R10  29213361.653   155723670.125       -4754.584          42.000                                                                  
R06  26494764.662   141381186.624        2322.510          41.000                                                                  
R05  27080309.449   144759815.994       -2132.710          49.000    27080306.365   112590925.598       -1658.887          48.000  
G16  26665022.743   140125650.217       -1828.534          47.000                                                                  
G08  28619089.331   150394472.595        2366.590          44.000    28619085.682   117190434.841        1844.019          39.000  
G18  29979468.933   157543256.391       -3220.549          30.000    29979465.010   122761313.308       -2508.812          37.000  
S31  44490426.051   233798908.752        -654.250          43.000  
E30  29976294.222   157526604.910       -1174.356          47.000    29976294.513   120702098.509        -899.873          51.000  
R11  27119865.565   144920348.430       -2937.096          51.000    27119859.875   112715926.016       -2284.348          48.000  
R21  26280836.727   140634378.533         106.168          51.000    26280831.822   109382131.933          82.647          48.000  
R12  28414247.164   151783798.1011        900.062          37.000    28414253.018   118054196.957         699.898          37.000  
E15  31650465.719   166324375.470         709.707          44.000    31650468.520   127443397.929         543.776          48.000  
G23  27295254.144   143437673.107       -3123.872          48.000    27295248.843   111769647.359       -2434.200          45.000  
E34  29558794.560   155332733.961        -876.714          49.000    29558794.895   119021337.846        -671.854          53.000  
G27  26537949.237   139457829.167        1036.646          50.000    26537945.180   108668532.359         807.690          47.000  
E09  32919810.604   172994783.057        -346.749          37.000    32919812.210   132554447.939        -265.820          43.000  
G10  25728901.840   135206421.181        -685.415          51.000    25728898.218   105355620.616        -534.178          48.000  
E27  32625487.689                        1289.228          29.000    32625485.521   131369306.101         987.440          34.000  
G32  29727671.594   156219974.646        2375.778          44.000    29727669.445   121729853.344        1851.431          40.000  
