     3.00           OBSERVATION DATA    M: Mixed            RINEX VERSION / TYPE
CONVBIN 2.4.3                           20240415 182942 UTC PGM / RUN BY / DATE 
format: u-blox UBX                                          COMMENT             
log: /home/regis/git/gnsspwv/obsdata/VERT00CHL/2024-04-15/VECOMMENT             
{self.marker}                                               MARKER NAME         
                                                            MARKER NUMBER       
GEODETIC                                                    MARKER TYPE         
{self.observer}     {self.institution}                      OBSERVER / AGENCY   
UNKNOWN             UBLOX-ZED-F9P                           REC # / TYPE / VERS 
UNKNOWN             TWIVSP6037L                             ANT # / TYPE        
  1713381.0000 -5047934.0000 -3490983.0000                  APPROX POSITION XYZ 
        0.0000        0.0000        0.0000                  ANTENNA: DELTA H/E/N
G    8 C1C L1C D1C S1C C2L L2L D2L S2L                      SYS / # / OBS TYPES 
R    8 C1C L1C D1C S1C C2C L2C D2C S2C                      SYS / # / OBS TYPES 
E    8 C1C L1C D1C S1C C7Q L7Q D7Q S7Q                      SYS / # / OBS TYPES 
S    4 C1C L1C D1C S1C                                      SYS / # / OBS TYPES 
  2024    04    15    18    15   00.4890000     GPS         TIME OF FIRST OBS   
  2024    04    15    18    29   30.4890000     GPS         TIME OF LAST OBS    
                                                            END OF HEADER       
> 2024 04 15 18 15 00.4890000  0 25                     
G05  20109240.276   105674736.3771       2268.675          43.000    20109242.438    82343942.8981       1767.630          40.000  
G09  18894877.672    99293173.8941      -2515.804          48.000    18894882.198    77371284.0891      -1960.169          42.000  
E27  21577492.157   113390631.5581       1470.929          48.000    21577501.569    86883861.7771       1127.091          51.000  
G11  19999988.747   105100575.3021      -2929.982          41.000    19999993.484    81896537.8431      -2282.939          43.000  
R13  15901329.167    84912362.2781       -760.636          41.000    15901331.529    66043046.2591       -591.455          44.000  
R02  17117832.743    91343995.4061      -2030.911          50.000    17117837.899    71045325.8931      -1579.641          48.000  
R04  19802632.857                3       2578.427          14.000                                                                  
R03  16781961.645    89835277.2181       1077.069          52.000    16781960.377    69871925.5761        837.658          49.000  
R01  20603715.700   110138374.3121      -3883.411          43.000    20603738.354    85663109.6841      -3020.209          38.000  
E33  22916311.960   120425947.4971      -1893.982          45.000    22916319.771    92274484.9691      -1451.234          47.000  
G07  17254930.353    90675256.2741      -2902.371          47.000    17254930.856    70656043.0691      -2261.599          47.000  
S31  35453001.172   186306734.1371       -817.504          44.000  
S33  36401689.638   191292124.9891       -816.926          42.000  
G14  18742245.613    98491304.9091       2262.229          48.000    18742250.635    76746574.9381       1762.592          44.000  
G20  17654872.203    92777045.4191        348.541          48.000                                                                  
R12  17882092.701    95522915.8921      -4065.199          50.000    17882095.331    74295610.9141      -3161.819          48.000  
R14  18448295.444    98339932.2441       3122.315          52.000    18448304.683    76486762.3091       2428.401          48.000  
E07  20772877.325   109162181.0981      -1343.321          47.000    20772885.115    83643755.7661      -1029.300          52.000  
E08  24239147.538   127377399.0751      -2548.556          40.000    24239165.337    97600836.9441      -1952.825          47.000  
G13  20641923.888   108474037.2791       1450.317          43.000                                                                  
E26  23133640.106   121568114.8231      -3438.551          42.000    23133652.910    93149461.4031      -2634.916          45.000  
G06  20857734.641   109608062.0351      -3999.372          38.000    20857751.871    85408716.6251      -3116.198          41.000  
G22  20960496.396   110148204.5671       2844.059          36.000                                                                  
G30  16916251.837    88895563.8231       -721.271          50.000    16916253.490    69269312.6131       -561.985          44.000  
E30  21602584.088   113522423.6161      -1065.781          45.000    21602590.709    86984785.7911       -816.577          48.000  
> 2024 04 15 18 15 30.4890000  0 24                     
G05  20096310.183   105606789.640        2260.838          43.000    20096312.387    82290997.459        1761.508          40.000  
G09  18909255.964    99368730.792       -2521.727          48.000    18909260.045    77430159.445       -1965.125          41.000  
E27  21569118.860   113346632.695        1461.952          47.000    21569128.821    86850148.484        1120.171          51.000  
G11  20016743.058   105188620.247       -2940.297          39.000    20016748.187    81965144.008       -2291.119          44.000  
R13  15905674.905    84935566.350        -786.964          41.000    15905677.193    66061093.887        -612.109          43.000  
R02  17129287.955    91405123.159       -2044.890          49.000    17129293.153    71092869.600       -1590.316          48.000  
R03  16775949.775    89803093.545        1068.138          52.000    16775948.382    69846893.828         830.800          49.000  
R01  20625532.160   110254991.527       -3891.474          45.000    20625553.630    85753811.319       -3026.489          37.000  
E33  22927159.137   120482949.853       -1906.479          44.000    22927166.950    92318161.957       -1460.841          46.000  
G07  17271530.614    90762491.708       -2913.785          48.000    17271531.459    70724018.658       -2270.492          47.000  
S31  35457666.719   186331250.919        -817.573          44.000  
S33  36406352.352   191316627.964        -817.316          42.000  
G14  18729357.375    98423575.258        2252.703          47.000    18729362.080    76693798.753        1755.260          44.000  
G20  17652933.174    92766857.077         330.481          47.000                                                                  
R12  17904964.969    95645096.075       -4080.562          50.000    17904968.227    74390639.795       -3173.824          48.000  
R14  18430755.473    98246432.240        3110.594          52.000    18430764.248    76414040.308        2419.355          48.000  
E07  20780555.129   109202528.415       -1346.777          47.000    20780562.913    83674671.187       -1031.968          52.000  
E08  24253705.062   127453887.956       -2551.072          41.000    24253721.443    97659445.017       -1954.592          48.000  
G13  20633641.211   108430518.295        1450.330          43.000                                                                  
E26  23153278.438   121671308.821       -3441.381          43.000    23153290.303    93228531.764       -2636.767          44.000  
G06  20880560.657   109728012.583       -3998.048          39.000    20880578.460    85502183.851       -3115.466          42.000  
G22  20944258.563   110062876.395        2844.302          39.000                                                                  
G30  16920409.632    88917411.774        -735.717          50.000    16920411.358    69286336.965        -573.290          45.000  
E30  21608708.010   113554605.423       -1079.828          45.000    21608714.548    87009444.592        -827.452          48.000  
> 2024 04 15 18 16 00.4890000  0 24                     
G05  20083424.959   105539076.290        2252.980          43.000    20083426.279    82238233.862        1755.567          40.000  
G09  18923666.911    99444460.900       -2527.526          48.000    18923671.080    77489169.775       -1969.280          41.000  
E27  21560796.285   113302896.473        1453.405          48.000    21560805.846    86816636.431        1113.567          51.000  
G11  20033555.749   105276972.791       -2950.360          38.000    20033560.957    82033989.852       -2298.888          44.000  
R13  15910168.338    84959556.250        -812.773          42.000    15910169.247    66079752.711        -632.146          43.000  
R02  17140820.521    91466661.259       -2058.236          50.000    17140825.415    71140732.476       -1600.949          48.000  
R03  16769986.700    89771172.246        1059.469          52.000    16769986.069    69822066.142         824.034          50.000  
R01  20647392.256   110371838.230       -3898.810          47.000    20647413.864    85844691.396       -3032.245          40.000  
E33  22938076.472   120540322.446       -1918.788          43.000    22938084.482    92362122.621       -1470.193          46.000  
G07  17288195.857    90850063.689       -2924.856          48.000    17288195.428    70792256.497       -2279.141          46.000  
S31  35462332.123   186355768.394        -817.421          44.000  
S33  36411015.471   191341132.259        -817.027          42.000  
G14  18716522.368    98356125.754        2243.456          48.000    18716526.748    76641240.876        1748.076          46.000  
G20  17651096.297    92757207.080         312.469          47.000                                                                  
R12  17927922.750    95767731.789       -4095.498          49.000    17927925.868    74486022.985       -3185.598          48.000  
R14  18413279.618    98153278.306        3099.200          52.000    18413289.750    76341587.512        2410.398          49.000  
E07  20788250.775   109242973.692       -1349.897          46.000    20788259.453    83705661.664       -1034.333          52.000  
E08  24268271.475   127530440.245       -2552.924          41.000    24268289.283    97718101.683       -1956.172          48.000  
G13  20625358.945   108386994.026        1450.519          43.000                                                                  
E26  23172931.559   121774584.341       -3443.900          43.000    23172943.873    93307664.608       -2638.789          44.000  
G06  20903382.233   109847933.296       -3996.957          40.000    20903399.922    85595627.776       -3114.637          41.000  
G22  20928017.444   109977531.889        2844.970          40.000                                                                  
G30  16924649.300    88939690.211        -749.883          50.000    16924651.389    69303696.795        -584.393          45.000  
E30  21614911.890   113587210.843       -1093.950          44.000    21614919.228    87034427.973        -838.334          48.000  
> 2024 04 15 18 16 30.4890000  0 24                     
G05  20070585.509   105471599.273        2244.950          44.000    20070585.878    82185654.464        1749.261          40.000  
G09  18938110.971    99520364.195       -2533.173          47.000    18938114.339    77548315.054       -1973.921          40.000  
E27  21552524.164   113259424.247        1444.551          48.000    21552533.330    86783326.656        1106.758          51.000  
G11  20050426.000   105365629.563       -2960.324          38.000    20050431.360    82103072.782       -2306.890          44.000  
R13  15914807.046    84984330.723        -839.043          41.000    15914808.610    66099021.737        -652.460          43.000  
R02  17152426.603    91528609.352       -2071.963          46.000    17152435.185    71188914.220       -1611.618          49.000  
R03  16764073.165    89739515.789        1050.626          52.000    16764072.252    69797444.476         817.088          49.000  
R01  20669294.044   110488913.289       -3906.543          47.000    20669314.704    85935749.109       -3038.202          37.000  
E33  22949063.880   120598063.531       -1931.007          43.000    22949072.710    92406365.646       -1479.609          46.000  
G07  17304923.618    90937969.484       -2935.904          47.000    17304923.568    70860754.451       -2287.660          46.000  
S31  35466997.731   186380286.898        -817.550          44.000  
S33  36415678.753   191365636.958        -817.079          42.000  
G14  18703740.615    98288959.010        2233.927          47.000    18703745.493    76588903.348        1740.687          46.000  
G20  17649362.864    92748096.476         294.672          47.000                                                                  
R12  17950964.899    95890818.598       -4110.519          48.000    17950968.810    74581757.031       -3197.070          49.000  
R14  18395869.268    98060473.820        3087.369          52.000    18395879.278    76269406.495        2401.329          47.000  
E07  20795967.100   109283517.101       -1353.261          46.000    20795974.794    83736727.325       -1036.937          52.000  
E08  24282851.339   127607055.971       -2554.965          40.000    24282868.708    97776806.940       -1957.753          47.000  
G13  20617075.185   108343463.960        1450.842          41.000                                                                  
E26  23192599.718   121877938.766       -3446.465          43.000    23192611.638    93386857.907       -2640.816          44.000  
G06  20926197.292   109967820.759       -3995.853          41.000    20926213.332    85689045.806       -3113.779          39.000  
G22  20911773.715   109892173.512        2845.105          39.000                                                                  
G30  16928970.268    88962397.655        -764.334          50.000    16928972.397    69321390.918        -595.569          45.000  
E30  21621196.850   113620239.288       -1108.291          44.000    21621204.647    87059735.492        -849.123          49.000  
> 2024 04 15 18 17 00.4890000  0 24                     
G05  20057789.359   105404357.311        2237.292          44.000    20057790.485    82133258.194        1743.117          41.000  
G09  18952586.886    99596437.563       -2538.787          47.000    18952592.024    77607592.890       -1978.402          42.000  
E27  21544300.867   113216214.371        1435.655          48.000    21544310.708    86750217.904        1100.123          51.000  
G11  20067353.100   105454584.234       -2970.543          41.000    20067360.028    82172387.862       -2314.583          44.000  
R13  15919592.155    85009885.865        -864.829          40.000    15919594.526    66118897.969        -672.887          43.000  
R02  17164112.932    91590965.232       -2085.553          47.000    17164119.953    71237413.171       -1622.089          48.000  
R03  16758208.092    89708123.075        1041.772          52.000    16758207.699    69773027.910         810.265          49.000  
R01  20691237.652   110606212.358       -3913.709          44.000    20691258.202    86026981.008       -3043.970          39.000  
E33  22960120.249   120656168.305       -1943.171          42.000    22960129.826    92450887.379       -1488.904          46.000  
G07  17321714.233    91026203.516       -2946.783          48.000    17321713.865    70929508.167       -2296.272          46.000  
S31  35471662.757   186404802.917        -817.386          43.000  
S33  36420341.843   191390139.239        -816.947          42.000  
G14  18691012.530    98222074.657        2224.575          47.000    18691017.370    76536785.894        1733.307          46.000  
G20  17647731.559    92739523.510         276.495          47.000                                                                  
R12  17974090.576    96014348.926       -4125.223          49.000    17974094.596    74677836.086       -3208.525          48.000  
R14  18378524.349    97968018.398        3075.746          53.000    18378535.599    76197496.951        2392.228          48.000  
E07  20803700.745   109324155.754       -1356.522          47.000    20803708.026    83767865.970       -1039.444          52.000  
E08  24297442.319   127683732.104       -2556.981          40.000    24297459.984    97835558.509       -1959.451          47.000  
G13  20608789.445   108299924.820        1451.263          40.000                                                                  
E26  23212280.812   121981366.649       -3449.169          41.000    23212293.774    93466107.458       -2642.859          44.000  
G06  20949003.715   110087668.530       -3994.358          39.000    20949019.861    85782432.872       -3112.466          39.000  
G22  20895527.760   109806800.614        2845.700          41.000                                                                  
G30  16933372.352    88985529.636        -778.365          51.000    16933373.677    69339415.817        -606.445          45.000  
E30  21627561.987   113653687.121       -1122.303          44.000    21627570.000    87085364.388        -859.813          49.000  
> 2024 04 15 18 17 30.4890000  0 25                     
G05  20045041.213   105337364.763        2228.895          45.000    20045042.621    82081056.302        1736.549          41.000  
G09  18967097.095    99672692.775       -2544.668          45.000    18967103.135    77667012.397       -1982.913          42.000  
E27  21536130.903   113173279.967        1426.566          47.000    21536140.409    86717320.248        1093.001          51.000  
G11  20084339.781   105543845.168       -2980.489          43.000    20084345.143    82241941.616       -2322.400          44.000  
R13  15924524.699    85036231.999        -891.361          39.000    15924528.954    66139389.388        -693.237          43.000  
R02  17175879.041    91653741.033       -2099.585          49.000    17175884.646    71286238.689       -1632.965          49.000  
R04  20030653.858                3       2522.703          19.000                                                                  
R03  16752395.492    89677008.813        1032.419          51.000    16752394.449    69748827.925         803.035          49.000  
R01  20713225.363   110723746.042       -3921.671          47.000    20713245.572    86118395.337       -3050.408          38.000  
E33  22971249.547   120714646.916       -1955.777          43.000    22971258.027    92495695.482       -1498.387          46.000  
G07  17338568.726    91114774.554       -2957.811          47.000    17338568.260    70998524.483       -2304.931          47.000  
S31  35476330.225   186429327.752        -817.412          44.000  
S33  36425005.951   191414650.567        -817.644          41.000  
G14  18678341.666    98155487.145        2214.725          48.000    18678345.357    76484899.703        1725.584          45.000  
G20  17646204.573    92731501.007         258.197          46.000                                                                  
R12  17997300.473    96138330.225       -4140.198          47.000    17997303.497    74774265.884       -3220.231          48.000  
R14  18361247.832    97875927.326        3063.549          52.000    18361259.373    76125870.808        2382.807          49.000  
E07  20811453.799   109364901.554       -1359.948          46.000    20811461.524    83799086.709       -1042.074          52.000  
E08  24312046.021   127760480.408       -2559.783          38.000    24312064.929    97894365.356       -1961.031          46.000  
G13  20600504.951   108256387.897        1450.549          41.000                                                                  
E26  23231978.405   122084877.074       -3451.717          41.000    23231990.104    93545420.254       -2644.685          42.000  
G06  20971804.151   110207485.079       -3993.418          37.000    20971819.973    85875795.654       -3111.746          39.000  
G22  20879280.119   109721426.900        2845.841          41.000                                                                  
G30  16937856.302    89009096.484        -792.935          50.000    16937857.868    69357779.584        -617.929          44.000  
E30  21634007.410   113687565.566       -1136.585          43.000    21634016.783    87111323.195        -870.781          49.000  
> 2024 04 15 18 18 00.4890000  0 25                     
G05  20032339.355   105270618.684        2220.594          45.000    20032341.139    82029046.445        1729.979          41.000  
G09  18981642.158    99749125.347       -2550.755          46.000    18981648.423    77726570.096       -1987.673          43.000  
E27  21528011.812   113130617.915        1417.490          47.000    21528021.922    86684631.267        1086.148          51.000  
G11  20101382.430   105633404.665       -2990.137          44.000    20101388.523    82311727.953       -2330.382          44.000  
R13  15929605.484    85063363.721        -917.773          41.000    15929609.002    66160491.825        -713.580          42.000  
R02  17187720.537    91716933.203       -2113.436          48.000    17187726.325    71335388.078       -1643.783          48.000  
R04  20016401.515                3       2519.539          15.000                                                                  
R03  16746634.849    89646169.946        1023.240          52.000    16746633.664    69724842.148         795.826          47.000  
R01  20735256.326   110841508.970       -3929.410          45.000    20735276.982    86209988.004       -3056.027          37.000  
E33  22982447.978   120773492.942       -1967.558          43.000    22982456.617    92540785.140       -1507.669          47.000  
G07  17355485.498    91203675.495       -2968.972          47.000    17355485.759    71067797.859       -2313.405          47.000  
S31  35480997.355   186453855.936        -817.697          44.000  
S33  36429670.746   191439165.820        -817.545          42.000  
G14  18665725.922    98089194.631        2204.760          47.000    18665730.568    76433243.358        1717.894          45.000  
G20  17644782.212    92724025.422         239.941          47.000                                                                  
R12  18020592.007    96262753.579       -4154.855          47.000    18020596.761    74871039.496       -3231.604          48.000  
R14  18344040.493    97784198.865        3051.479          52.000    18344051.333    76054526.720        2373.221          50.000  
E07  20819227.023   109405750.181       -1363.335          47.000    20819234.847    83830386.249       -1044.606          51.000  
E08  24326664.604   127837296.396       -2561.885          39.000    24326682.727    97953224.063       -1962.851          46.000  
G13  20592220.257   108212848.007        1451.324          42.000                                                                  
E26  23251690.080   122188463.049       -3453.907          41.000    23251702.862    93624790.984       -2646.818          42.000  
G06  20994595.588   110327262.559       -3992.347          36.000    20994613.657    85969127.867       -3110.583          37.000  
G22  20863033.208   109636050.385        2845.888          40.000                                                                  
G30  16942422.072    89033092.228        -807.142          49.000    16942424.820    69376477.557        -628.935          45.000  
E30  21640535.291   113721869.411       -1150.591          44.000    21640544.316    87137607.962        -881.616          49.000  
> 2024 04 15 18 18 30.4890000  0 24                     
G05  20019685.172   105204120.223        2212.706          45.000    20019686.212    81977229.515        1723.926          40.000  
G09  18996220.743    99825733.514       -2556.289          47.000    18996226.275    77786264.634       -1991.891          41.000  
E27  21519945.132   113088227.909        1408.505          47.000    21519955.291    86652150.742        1079.260          51.000  
G11  20118481.253   105723257.688       -2999.866          44.000    20118487.019    82381742.996       -2337.542          44.000  
R13  15934834.665    85091277.787        -943.436          42.000    15934835.598    66182202.791        -733.852          41.000  
R02  17199641.174    91780540.100       -2127.088          50.000    17199646.452    71384860.017       -1654.394          48.000  
R03  16740925.899    89615607.532        1014.289          52.000    16740924.317    69701071.365         788.828          49.000  
R01  20757328.494   110959498.094       -3936.701          40.000    20757350.820    86301756.681       -3062.396          34.000  
E33  22993715.530   120832703.031       -1979.717          43.000    22993724.253    92586153.761       -1516.861          47.000  
G07  17372464.604    91292901.954       -2979.505          48.000    17372465.566    71137324.917       -2321.630          46.000  
S31  35485665.938   186478386.698        -817.769          44.000  
S33  36434336.568   191463682.732        -816.904          42.000  
G14  18653166.515    98023198.108        2195.004          47.000    18653172.336    76381817.690        1710.318          46.000  
G20  17643463.734    92717096.084         222.021          47.000                                                                  
R12  18043965.041    96387612.869       -4169.060          48.000    18043969.956    74968152.118       -3242.703          47.000  
R14  18326900.710    97692834.574        3039.462          52.000    18326910.944    75983465.871        2363.997          49.000  
E07  20827020.398   109446700.213       -1366.708          47.000    20827027.558    83861763.463       -1047.156          51.000  
E08  24341295.539   127914178.516       -2563.735          39.000    24341312.837    98012133.426       -1964.495          46.000  
G13  20583934.051   108169303.382        1451.440          42.000                                                                  
E26  23271416.793   122292120.420       -3456.424          42.000    23271428.611    93704216.375       -2648.330          42.000  
G06  21017381.417   110446995.999       -3990.581          37.000    21017398.596    86062425.765       -3108.811          37.000  
G22  20846784.649   109550671.876        2846.177          39.000                                                                  
G30  16947068.985    89057513.745        -820.964          49.000    16947072.495    69395507.305        -639.826          45.000  
E30  21647144.169   113756596.519       -1164.587          44.000    21647152.377    87164217.031        -892.270          49.000  
> 2024 04 15 18 19 00.4890000  0 24                     
G05  20007077.392   105137865.823        2204.374          45.000    20007078.118    81925602.750        1717.490          40.000  
G09  19010831.188    99902511.517       -2562.044          46.000    19010836.655    77846091.506       -1996.741          42.000  
E27  21511929.608   113046105.528        1399.600          47.000    21511939.613    86619875.289        1072.374          52.000  
G11  20135634.038   105813395.076       -3009.414          45.000    20135639.797    82451979.651       -2344.966          44.000  
R13  15940207.412    85119966.986        -969.405          42.000    15940207.943    66204516.602        -754.103          41.000  
R02  17211638.326    91844556.364       -2140.755          49.000    17211642.938    71434650.355       -1664.985          48.000  
R03  16735267.403    89585317.881        1005.111          52.000    16735266.040    69677512.754         781.792          49.000  
R01  20779443.153   111077706.373       -3943.974          37.000    20779465.138    86393695.689       -3066.798          32.000  
E33  23005051.126   120892269.697       -1991.473          44.000    23005059.499    92631795.561       -1525.928          47.000  
G07  17389504.443    91382445.128       -2990.063          48.000    17389505.644    71207098.740       -2329.895          47.000  
S31  35490333.545   186502912.522        -817.557          44.000  
S33  36439001.305   191488196.103        -817.037          42.000  
G14  18640663.279    97957494.407        2185.243          46.000    18640668.941    76330620.187        1702.597          46.000  
G20  17642248.074    92710708.391         203.925          47.000                                                                  
R12  18067418.045    96512897.714       -4183.212          49.000    18067424.115    75065595.711       -3253.419          45.000  
R14  18309828.172    97601831.667        3027.295          52.000    18309838.685    75912686.078        2354.665          49.000  
E07  20834830.914   109487745.959       -1369.822          47.000    20834838.421    83893214.056       -1049.684          51.000  
E08  24355935.654   127991120.947       -2565.879          36.000    24355955.053    98071089.010       -1966.008          45.000  
G13  20575645.551   108125747.906        1451.880          42.000                                                                  
E26  23291154.498   122395840.845       -3458.490          42.000    23291166.309    93783690.097       -2650.006          42.000  
G06  21040157.129   110566676.247       -3988.782          37.000    21040174.540    86155682.217       -3107.914          36.000  
G22  20830535.868   109465287.697        2845.970          39.000                                                                  
G30  16951796.881    89082353.775        -834.994          50.000    16951799.777    69414863.177        -650.835          46.000  
E30  21653831.793   113791740.312       -1178.389          44.000    21653840.291    87191145.420        -903.040          49.000  
> 2024 04 15 18 19 30.4890000  0 25                     
G05  19994517.345   105071862.496        2196.125          44.000    19994517.864    81874171.613        1711.023          40.000  
G09  19025475.293    99979464.031       -2568.041          46.000    19025480.802    77906054.357       -2001.188          42.000  
E27  21503966.119   113004256.906        1390.278          47.000    21503975.972    86587809.585        1065.293          52.000  
G11  20152841.437   105903818.276       -3018.899          45.000    20152845.883    82522438.981       -2352.445          44.000  
R13  15945725.881    85149434.704        -995.427          42.000    15945727.404    66227435.952        -774.377          42.000  
R02  17223712.306    91908987.182       -2154.653          50.000    17223717.064    71484763.092       -1675.863          48.000  
R04  19973954.784                2       2533.036          26.000                                                                  
R03  16729661.696    89555308.131         995.613          52.000    16729660.290    69654171.846         774.398          49.000  
R01  20801598.357                       -3951.829          31.000    20801620.214                       -3073.103          28.000  
E33  23016454.901   120952195.822       -2003.643          44.000    23016462.306    92677712.828       -1535.236          47.000  
G07  17406604.752    91472307.144       -3000.659          47.000    17406605.315    71277120.994       -2338.190          47.000  
S31  35495000.493   186527438.701        -817.854          44.000  
S33  36443666.056   191512709.376        -817.152          42.000  
G14  18628217.671    97892090.955        2174.976          47.000    18628222.224    76279656.633        1694.890          45.000  
G20  17641136.221    92704867.843         185.419          46.000                                                                  
R12  18090952.456    96638608.596       -4197.405          49.000    18090957.459    75163370.692       -3264.802          46.000  
R14  18292825.557    97511197.857        3014.895          51.000    18292835.155    75842193.362        2344.777          49.000  
E07  20842659.891   109528892.401       -1373.406          46.000    20842668.281    83924741.779       -1052.271          51.000  
E08  24370586.853   128068128.487       -2567.938          34.000    24370609.057    98130094.475       -1967.791          44.000  
G13  20567356.059   108082185.693        1452.002          42.000                                                                  
E26  23310904.517   122499626.591       -3460.718          42.000    23310916.500    93863213.830       -2651.585          42.000  
G06  21062924.172   110686304.738       -3986.616          40.000    21062940.460    86248898.346       -3106.354          38.000  
G22  20814287.612   109379904.551        2846.062          39.000                                                                  
G30  16956604.207    89107615.581        -849.181          50.000    16956606.382    69434547.687        -661.667          45.000  
E30  21660599.821   113827305.034       -1192.532          44.000    21660608.579    87218396.295        -913.738          49.000  
> 2024 04 15 18 20 00.4890000  0 25                     
G05  19982003.622   105006104.361        2187.511          44.000    19982004.434    81822931.551        1704.657          40.000  
G09  19040150.823   100056582.901       -2573.649          45.000    19040155.505    77966146.792       -2005.239          41.000  
E27  21496054.229   112962675.141        1381.523          47.000    21496062.939    86555948.363        1058.531          52.000  
G11  20170101.482   105994515.736       -3028.098          45.000    20170106.769    82593112.056       -2359.493          45.000  
R13  15951388.024    85179671.587       -1020.534          41.000    15951389.414    66250953.519        -794.012          42.000  
R02  17235862.325    91973824.943       -2168.282          48.000    17235867.781    71535192.350       -1686.359          47.000  
R04  19959788.494                        2536.254          27.000                                                                  
R03  16724106.507    89525572.782         986.413          52.000    16724104.884    69631044.334         767.151          49.000  
R01  20823793.801                       -3959.540          26.000    20823815.592                3      -3078.351          26.000  
E33  23027924.494   121012471.393       -2015.168          43.000    23027932.719    92723897.835       -1544.060          46.000  
G07  17423764.011    91562476.877       -3010.986          48.000    17423763.871    71347383.053       -2346.228          47.000  
S31  35499666.220   186551956.434        -817.271          44.000  
S33  36448329.316   191537214.014        -817.179          42.000  
G14  18615827.862    97826982.184        2165.211          47.000    18615832.558    76228922.724        1686.991          45.000  
G20  17640127.868    92699567.237         167.365          47.000                                                                  
R12  18114563.942    96764732.700       -4211.094          49.000    18114569.015    75261467.054       -3275.333          46.000  
R14  18275891.101    97420927.611        3002.586          52.000    18275900.519    75771983.442        2335.472          49.000  
E07  20850507.687   109570131.494       -1376.301          46.000    20850515.701    83956340.504       -1054.593          51.000  
E08  24385255.504   128145193.062       -2569.846          37.000    24385274.271    98189143.613       -1969.156          44.000  
G13  20559064.037   108038608.346        1452.625          43.000                                                                  
E26  23330664.834   122603466.904       -3462.110          42.000    23330676.737    93942779.391       -2652.882          42.000  
G06  21085676.702   110805870.006       -3984.512          39.000    21085694.594    86342065.167       -3105.194          38.000  
G22  20798039.343   109294516.984        2846.220          40.000                                                                  
G30  16961490.018    89133289.488        -862.795          50.000    16961491.348    69454553.301        -672.230          44.000  
E30  21667445.957   113863281.780       -1206.151          44.000    21667454.926    87245962.884        -924.136          50.000  
> 2024 04 15 18 20 30.4890000  0 25                     
G05  19969538.072   104940598.350        2179.387          43.000    19969539.503    81771887.961        1698.211          41.000  
G09  19054858.726   100133873.252       -2579.500          45.000    19054862.786    78026372.901       -2009.927          41.000  
E27  21488192.816   112921366.768        1372.201          47.000    21488202.013    86524296.630        1051.479          52.000  
G11  20187411.719   106085489.316       -3037.247          43.000    20187418.615    82664000.234       -2366.308          46.000  
R13  15957194.468    85210681.178       -1046.636          41.000    15957197.278    66275072.069        -814.226          42.000  
R02  17248091.226    92039075.116       -2182.022          50.000    17248096.166    71585942.345       -1697.121          48.000  
R04  19945554.351   106807794.4071       2538.936          32.000    19945534.192                1       1975.030          27.000  
R03  16718604.643    89496118.841         977.007          53.000    16718602.237    69608135.726         759.880          48.000  
R01  20846027.487                3      -3961.235          23.000    20846058.342                3      -3085.348          23.000  
E33  23039461.148   121073099.859       -2026.885          42.000    23039470.055    92770353.250       -1553.043          46.000  
G07  17440982.225    91652956.987       -3021.118          48.000    17440981.841    71417886.984       -2354.315          46.000  
S31  35504331.042   186576470.633        -817.359          44.000  
S33  36452991.960   191561716.119        -816.769          42.000  
G14  18603496.447    97762175.979        2154.993          48.000    18603499.986    76178424.528        1679.139          45.000  
G20  17639223.290    92694812.868         149.091          47.000                                                                  
R12  18138253.466    96891270.905       -4224.928          51.000    18138257.427    75359885.577       -3285.994          46.000  
R14  18259027.235    97331029.699        2990.216          52.000    18259035.348    75702063.092        2325.703          49.000  
E07  20858373.455   109611468.661       -1379.523          46.000    20858381.980    83988014.386       -1057.129          51.000  
E08  24399934.672   128222319.782       -2572.181          41.000    24399951.817    98248240.348       -1970.600          44.000  
G13  20550768.987   107995020.345        1452.966          42.000                                                                  
E26  23350436.392   122707364.491       -3464.315          42.000    23350447.890    94022388.828       -2654.317          42.000  
G06  21108418.538   110925373.954       -3982.606          40.000    21108435.892    86435184.245       -3103.448          38.000  
G22  20781791.626   109209132.855        2846.150          41.000                                                                  
G30  16966454.283    89159379.149        -876.708          50.000    16966454.920    69474882.918        -683.065          43.000  
E30  21674372.426   113899675.089       -1220.167          45.000    21674380.420    87273848.674        -934.880          50.000  
> 2024 04 15 18 21 00.4890000  0 25                     
G05  19957120.984   104875344.500        2170.587          41.000    19957122.264    81721040.850        1691.506          40.000  
G09  19069598.404   100211332.073       -2585.124          44.000    19069601.671    78086730.315       -2014.389          39.000  
E27  21480383.372   112880330.154        1363.071          47.000    21480393.047    86492853.117        1044.493          52.000  
G11  20204774.909   106176732.685       -3046.113          43.000    20204781.977    82735098.659       -2373.468          46.000  
R13  15963145.814    85242458.873       -1072.057          41.000    15963148.268    66299788.032        -833.814          41.000  
R02  17260395.632    92104734.911       -2195.711          50.000    17260401.032    71637010.960       -1707.839          48.000  
R04  19931308.933   106731280.2651       2542.144          33.000    19931284.881                1       1977.029          28.000  
R03  16713154.448    89466945.391         967.581          52.000    16713153.120    69585445.285         752.440          49.000  
R01  20868306.552                3      -3970.673          23.000    20868335.770                3      -3096.217          15.000  
E33  23051064.670   121134076.428       -2038.667          42.000    23051073.925    92817075.362       -1561.944          47.000  
G07  17458257.551    91743741.770       -3031.524          47.000    17458257.818    71488628.310       -2362.048          47.000  
S31  35508994.267   186600978.152        -817.076          43.000  
S33  36457653.392   191586211.286        -816.490          41.000  
G14  18591220.834    97697671.961        2144.802          47.000    18591225.012    76128161.826        1671.305          45.000  
G20  17638422.288    92690602.527         131.042          47.000                                                                  
R12  18162017.206    97018215.704       -4238.411          51.000    18162021.047    75458620.331       -3296.685          46.000  
R14  18242231.986    97241503.936        2977.791          52.000    18242240.741    75632432.185        2315.990          49.000  
E07  20866258.639   109652901.106       -1382.933          46.000    20866266.157    84019761.258       -1059.639          51.000  
E08  24414623.079   128299505.816       -2574.233          40.000    24414640.233    98307382.633       -1972.491          44.000  
G13  20542471.249   107951418.916        1453.333          41.000                                                                  
E26  23370217.199   122811313.879       -3465.986          42.000    23370229.931    94102037.950       -2655.641          43.000  
G06  21131145.891   111044810.277       -3980.223          38.000    21131163.960    86528250.636       -3101.315          39.000  
G22  20765543.897   109123751.247        2845.889          41.000                                                                  
G30  16971497.389    89185880.116        -890.333          49.000    16971498.298    69495533.025        -693.894          44.000  
E30  21681375.912   113936481.351       -1234.000          44.000    21681384.403    87302050.846        -945.519          50.000  
> 2024 04 15 18 21 30.4890000  0 25                     
G05  19944753.366   104810351.603        2162.325          43.000    19944754.223    81670397.125        1684.704          41.000  
G09  19084370.450   100288966.508       -2590.448          42.000    19084376.472    78147224.528       -2018.838          42.000  
E27  21472627.998   112839573.825        1354.014          48.000    21472637.485    86461624.368        1037.448          52.000  
G11  20222190.825   106268249.587       -3055.049          43.000    20222197.732    82806410.262       -2380.494          46.000  
R13  15969241.451    85275010.629       -1097.807          41.000    15969243.121    66325106.040        -853.860          41.000  
R02  17272778.875    92170812.219       -2209.498          50.000    17272784.307    71688404.278       -1718.464          49.000  
R04  19917057.959   106654954.7761       2544.039          36.000    19917108.089                3       1979.273          31.000  
R03  16707758.507    89438062.690         957.912          52.000    16707757.633    69562980.970         745.086          49.000  
R01  20890626.108                       -3979.740          26.000    20890649.542                3      -3093.893          19.000  
E33  23062736.709   121195406.421       -2050.192          42.000    23062744.749    92864068.276       -1570.774          46.000  
G07  17475591.872    91834835.420       -3041.498          48.000    17475593.201    71559610.301       -2370.001          47.000  
S31  35513658.054   186625485.184        -816.771          44.000  
S33  36462314.683   191610706.049        -816.717          42.000  
G14  18579005.173    97633479.931        2134.545          48.000    18579009.558    76078142.186        1663.149          45.000  
G20  17637725.959    92686944.320         112.952          47.000                                                                  
R12  18185857.673    97145569.985       -4251.801          49.000    18185861.148    75557673.606       -3306.975          43.000  
R14  18225507.427    97152360.477        2965.089          51.000    18225517.712    75563098.604        2306.189          49.000  
E07  20874162.410   109694436.140       -1385.993          46.000    20874170.144    84051586.745       -1061.964          51.000  
E08  24429323.301   128376758.221       -2576.388          40.000    24429341.644    98366575.736       -1973.980          45.000  
G13  20534173.041   107907810.443        1453.784          42.000                                                                  
E26  23390009.421   122915319.642       -3467.384          42.000    23390021.865    94181730.269       -2657.000          43.000  
G06  21153862.514   111164182.960       -3978.122          39.000    21153880.559    86621267.398       -3099.679          38.000  
G22  20749297.596   109038381.592        2845.772          38.000                                                                  
G30  16976619.596    89212797.981        -904.158          49.000    16976621.252    69516507.985        -704.519          45.000  
E30  21688459.617   113973706.933       -1247.569          44.000    21688467.981    87330574.345        -956.031          50.000  
> 2024 04 15 18 22 00.4890000  0 25                     
G05  19932434.670   104745616.457        2153.506          44.000    19932435.430    81619954.220        1677.783          40.000  
G09  19099177.107   100366770.656       -2596.438          43.000    19099182.475    78207850.991       -2023.273          42.000  
E27  21464925.068   112799093.180        1344.552          48.000    21464934.221    86430606.870        1030.240          52.000  
G11  20239657.298   106360030.824       -3064.005          44.000    20239663.136    82877927.813       -2387.508          46.000  
R13  15975481.665    85308328.826       -1123.494          42.000    15975481.897    66351020.191        -874.104          40.000  
R02  17285239.135    92237301.493       -2223.392          49.000    17285243.953    71740118.040       -1729.151          48.000  
R04  19902788.747   106578577.910        2546.881          34.000    19902818.712                3       1980.793          24.000  
R03  16702417.278    89409466.696         948.196          53.000    16702415.292    69540739.627         737.514          49.000  
R01  20912983.509                3      -3990.264          24.000    20913006.415                3      -3103.159          20.000  
E33  23074472.954   121257082.124       -2061.546          42.000    23074481.435    92911326.109       -1579.833          46.000  
G07  17492983.778    91926229.388       -3051.648          49.000    17492984.796    71630826.323       -2377.960          47.000  
S31  35518320.651   186649986.621        -816.710          44.000  
S33  36466975.041   191635194.882        -816.408          42.000  
G14  18566848.623    97569596.614        2124.158          48.000    18566853.379    76028363.158        1655.122          45.000  
G20  17637133.896    92683833.156          94.354          47.000                                                                  
R12  18209773.242    97273323.301       -4265.215          50.000    18209776.409    75657037.136       -3317.242          43.000  
R14  18208854.977    97063596.270        2952.220          52.000    18208865.368    75494060.041        2296.063          49.000  
E07  20882085.238   109736068.154       -1389.494          46.000    20882092.551    84083486.545       -1064.633          51.000  
E08  24444035.463   128454071.190       -2578.202          40.000    24444053.880    98425815.275       -1975.579          45.000  
G13  20525872.154   107864188.653        1454.138          42.000                                                                  
E26  23409809.789   123019373.442       -3469.520          41.000    23409822.256    94261459.411       -2658.214          42.000  
G06  21176565.149   111283482.783       -3975.455          40.000    21176583.187    86714227.384       -3097.995          38.000  
G22  20733053.377   108953020.008        2844.876          39.000                                                                  
G30  16981819.549    89240125.338        -917.893          49.000    16981821.360    69537802.031        -715.157          45.000  
E30  21695620.907   114011345.305       -1261.696          44.000    21695630.688    87359414.129        -966.673          51.000  
> 2024 04 15 18 22 30.4890000  0 25                     
G05  19920165.385   104681140.491        2144.780          43.000    19920166.106    81569713.269        1671.058          40.000  
G09  19114015.140   100444743.397       -2602.237          44.000    19114020.730    78268608.791       -2027.367          42.000  
E27  21457273.071   112758888.423        1335.354          46.000    21457282.928    86399800.735        1023.250          52.000  
G11  20257171.484   106452071.901       -3072.456          43.000    20257178.410    82949647.802       -2394.137          46.000  
R13  15981864.710    85342410.781       -1149.173          43.000    15981864.892    66377528.356        -893.737          41.000  
R02  17297776.509    92304201.827       -2237.167          51.000    17297781.210    71792151.506       -1740.017          48.000  
R04  19888509.953                        2550.007          29.000    19888505.306                1       1982.465          28.000  
R03  16697128.941    89381158.517         938.585          52.000    16697128.010    69518722.166         730.020          50.000  
R01  20935372.483                1      -3993.685          27.000    20935401.482                3      -3105.249          20.000  
E33  23086274.134   121319100.614       -2073.134          42.000    23086283.589    92958846.587       -1588.592          46.000  
G07  17510431.669    92017919.924       -3061.499          49.000    17510432.806    71702273.467       -2385.583          47.000  
S31  35522981.735   186674479.910        -816.630          43.000  
S33  36471633.629   191659675.008        -815.930          42.000  
G14  18554750.937    97506023.555        2113.580          48.000    18554755.843    75978825.894        1646.956          46.000  
G20  17636646.008    92681268.784          76.288          48.000                                                                  
R12  18233762.971    97401470.020       -4278.405          50.000    18233764.992    75756706.683       -3327.581          45.000  
R14  18192273.953    96975213.321        2939.435          52.000    18192283.859    75425317.965        2286.235          49.000  
E07  20890025.895   109777796.175       -1392.647          46.000    20890032.938    84115459.918       -1067.155          50.000  
E08  24458759.375   128531443.674       -2580.304          40.000    24458777.406    98485100.369       -1976.990          45.000  
G13  20517567.942   107820552.353        1454.510          41.000                                                                  
E26  23429618.740   123123471.653       -3470.773          40.000    23429632.422    94341222.601       -2659.469          43.000  
G06  21199253.622   111402705.519       -3973.270          40.000    21199271.032    86807127.218       -3095.603          37.000  
G22  20716811.804   108867668.396        2844.716          40.000                                                                  
G30  16987097.419    89267859.567        -931.617          49.000    16987099.459    69559413.123        -725.853          45.000  
E30  21702862.813   114049394.597       -1275.322          45.000    21702871.301    87388568.804        -977.204          50.000  
> 2024 04 15 18 23 00.4890000  0 25                     
G05  19907947.196   104616933.263        2135.457          44.000    19907947.652    81519681.736        1664.239          39.000  
G09  19128887.314   100522892.192       -2608.097          45.000    19128893.149    78329503.815       -2032.325          43.000  
E27  21449676.836   112718968.451        1325.729          46.000    21449686.614    86369212.804        1015.826          52.000  
G11  20274737.803   106544377.023       -3081.201          44.000    20274743.821    83021573.578       -2401.144          45.000  
R13  15988390.446    85377262.469       -1174.743          42.000    15988392.049    66404635.210        -913.742          41.000  
R02  17310392.237    92371521.368       -2251.113          51.000    17310397.005    71844511.029       -1750.800          48.000  
R04  19874216.587                3       2553.374          26.000    19874219.307    82775515.2591       1985.124          36.000  
R03  16691896.544    89353148.606         928.518          52.000    16691895.626    69496936.678         722.183          50.000  
R01  20957808.309                3      -4002.366          19.000                                                                  
E33  23098141.970   121381467.543       -2084.954          42.000    23098151.543    93006634.058       -1597.408          46.000  
G07  17527937.928    92109911.979       -3071.588          49.000    17527938.536    71773955.496       -2393.378          47.000  
S31  35527642.548   186698972.693        -816.539          44.000  
S33  36476292.229   191684156.758        -816.204          42.000  
G14  18542714.249    97442770.930        2102.921          47.000    18542719.311    75929538.274        1638.602          47.000  
G20  17636264.128    92679259.728          57.733          48.000                                                                  
R12  18257826.680    97530013.412       -4291.505          49.000    18257829.775    75856684.775       -3337.877          46.000  
R14  18175767.166    96887222.504        2926.385          52.000    18175778.664    75356880.869        2276.138          50.000  
E07  20897986.197   109819628.021       -1396.352          47.000    20897993.349    84147512.825       -1069.929          50.000  
E08  24473495.389   128608883.258       -2582.519          38.000    24473513.960    98544436.903       -1978.875          44.000  
G13  20509263.030   107776908.730        1454.651          42.000                                                                  
E26  23449437.824   123227619.360       -3472.742          39.000    23449451.866    94421023.695       -2660.722          44.000  
G06  21221927.605   111521855.284       -3970.620          41.000    21221945.743    86899970.265       -3093.903          37.000  
G22  20700573.370   108782336.199        2843.975          39.000                                                                  
G30  16992453.606    89296006.639        -945.383          49.000    16992455.746    69581345.907        -736.731          45.000  
E30  21710183.441   114087861.737       -1289.300          44.000    21710191.102    87418043.582        -987.870          51.000  
> 2024 04 15 18 23 30.4890000  0 25                     
G05  19895780.364   104552999.723        2126.733          43.000    19895781.566    81469863.496        1657.089          40.000  
G09  19143792.220   100601219.646       -2613.695          45.000    19143798.293    78390538.056       -2036.609          42.000  
E27  21442134.433   112679337.065        1316.501          46.000    21442144.700    86338846.029        1008.604          52.000  
G11  20292352.960   106636945.316       -3089.807          45.000    20292359.279    83093704.430       -2407.685          46.000  
R13  15995060.423    85412884.799       -1200.168          41.000    15995063.066    66432341.457        -933.314          41.000  
R02  17323085.811    92439262.807       -2264.985          50.000    17323091.104    71897198.682       -1761.548          48.000  
R04  19859911.984   106348934.1741       2554.944          34.000    19859910.671    82715931.721        1987.223          34.000  
R03  16686720.520    89325441.522         918.695          51.000    16686720.045    69475386.737         714.463          50.000  
R01  20980290.366                3      -4007.008          18.000                                                                  
E33  23110076.962   121444183.677       -2096.066          43.000    23110086.600    93054689.116       -1606.094          46.000  
G07  17545500.677    92202205.060       -3081.165          48.000    17545500.961    71845872.101       -2400.842          46.000  
S31  35532304.095   186723467.328        -816.219          44.000  
S33  36480951.284   191708638.902        -815.785          42.000  
G14  18530738.943    97379843.875        2092.487          47.000    18530744.331    75880504.409        1630.162          47.000  
G20  17635987.952    92677809.393          39.111          48.000                                                                  
R12  18281964.747    97658951.719       -4304.315          51.000    18281968.729    75956970.018       -3347.987          47.000  
R14  18159334.566    96799628.961        2913.240          51.000    18159345.829    75288752.795        2265.784          50.000  
E07  20905966.506   109861566.428       -1399.474          47.000    20905973.908    84179647.405       -1072.394          50.000  
E08  24488244.310   128686392.494       -2584.454          38.000    24488263.813    98603826.872       -1980.422          44.000  
G13  20500956.346   107733259.905        1455.151          44.000                                                                  
E26  23469265.985   123331816.591       -3473.771          38.000    23469280.523    94500862.708       -2661.830          45.000  
G06  21244587.738   111640931.581       -3967.720          42.000    21244606.707    86992755.996       -3091.960          38.000  
G22  20684339.165   108697028.992        2843.231          41.000                                                                  
G30  16997888.566    89324567.586        -958.715          49.000    16997890.769    69603601.199        -747.232          45.000  
E30  21717582.370   114126748.458       -1303.093          44.000    21717591.205    87447839.879        -998.505          51.000  
> 2024 04 15 18 24 00.4890000  0 25                     
G05  19883665.669   104489334.997        2117.432          42.000    19883666.895    81420254.673        1650.247          41.000  
G09  19158730.184   100679718.835       -2619.623          44.000    19158736.439    78451706.104       -2041.013          42.000  
E27  21434647.597   112639988.752        1306.900          46.000    21434657.032    86308696.133        1001.370          52.000  
G11  20310015.930   106729766.624       -3098.359          43.000    20310023.085    83166032.410       -2414.320          46.000  
R13  16001874.194    85449268.995       -1225.530          42.000    16001876.669    66460640.254        -953.174          41.000  
R02  17335859.849    92507419.937       -2278.944          52.000    17335864.611    71950209.659       -1772.505          48.000  
R04  19845592.193                        2556.904          31.000    19845580.624    82656148.4271       1988.838          32.000  
R03  16681599.619    89298032.869         908.498          51.000    16681599.324    69454068.877         706.632          50.000  
R01  21002713.639                3      -4015.475          10.000                                                                  
E33  23122076.934   121507240.259       -2107.588          43.000    23122085.678    93103005.036       -1614.836          46.000  
G07  17563118.922    92294789.706       -3091.095          48.000    17563118.914    71918015.883       -2408.508          46.000  
S31  35536964.353   186747956.118        -816.152          44.000  
S33  36485609.158   191733116.489        -815.979          42.000  
G14  18518825.301    97317238.208        2081.499          48.000    18518831.343    75831720.932        1622.003          47.000  
G20  17635817.312    92676911.912          20.477          49.000                                                                  
R12  18306173.778    97788273.466       -4317.065          50.000    18306178.881    76057553.498       -3357.706          48.000  
R14  18142974.819    96712429.105        2900.068          50.000    18142985.881    75220930.874        2255.590          49.000  
E07  20913967.136   109903604.798       -1402.992          47.000    20913973.629    84211858.558       -1075.045          50.000  
E08  24503007.440   128763964.591       -2587.090          37.000    24503025.734    98663264.919       -1982.164          45.000  
G13  20492647.485   107689598.925        1455.353          44.000                                                                  
E26  23489103.212   123436054.007       -3475.328          40.000    23489116.315    94580732.491       -2662.704          44.000  
G06  21267232.320   111759924.263       -3965.259          41.000    21267251.314    87085476.569       -3089.551          39.000  
G22  20668109.807   108611742.017        2842.389          43.000                                                                  
G30  17003400.219    89353533.986        -972.358          48.000    17003402.825    69626172.420        -757.790          45.000  
E30  21725060.420   114166047.142       -1316.770          44.000    21725069.881    87477951.838       -1009.038          51.000  
> 2024 04 15 18 24 30.4890000  0 24                     
G05  19871601.498   104425941.340        2108.282          41.000    19871604.077    81370857.106        1642.833          41.000  
G09  19173699.693   100758389.478       -2625.530          43.000    19173706.435    78513007.772       -2045.857          42.000  
E27  21427214.615   112600924.602        1296.966          47.000    21427223.068    86278763.948         993.766          52.000  
G11  20327727.214   106822837.300       -3106.960          44.000    20327733.676    83238554.693       -2420.987          45.000  
R13  16008830.891    85486413.140       -1251.292          42.000    16008832.549    66489530.127        -973.155          41.000  
R02  17348710.158    92575992.538       -2293.123          52.000    17348716.089    72003543.762       -1783.491          49.000  
R04  19831266.963   106195506.4591       2560.021          32.000    19831251.075    82596445.816        1990.831          38.000  
R03  16676535.315    89270924.805         898.207          51.000    16676535.648    69432984.853         698.409          49.000  
E33  23134140.104   121570635.138       -2119.095          43.000    23134149.967    93151580.164       -1623.808          47.000  
G07  17580791.913    92387663.022       -3101.007          48.000    17580791.873    71990384.626       -2416.394          46.000  
S31  35541623.353   186772438.729        -816.359          45.000  
S33  36490265.930   191757587.645        -815.720          42.000  
G14  18506973.671    97254956.292        2070.244          47.000    18506978.708    75783189.733        1613.016          47.000  
G20  17635752.041    92676567.763           1.837          48.000                                                                  
R12  18330453.730    97917974.108       -4329.968          51.000    18330458.285    76158431.654       -3367.870          47.000  
R14  18126691.425    96625625.172        2886.327          51.000    18126701.384    75153416.924        2244.900          49.000  
E07  20921985.757   109945743.063       -1406.660          47.000    20921992.421    84244146.266       -1077.838          50.000  
E08  24517781.146   128841599.429       -2589.235          36.000    24517798.743    98722751.008       -1983.877          44.000  
G13  20484336.452   107645924.824        1455.566          44.000                                                                  
E26  23508945.981   123540328.864       -3476.948          40.000    23508959.297    94660631.020       -2664.099          43.000  
G06  21289860.041   111878829.877       -3962.476          40.000    21289880.529    87178129.310       -3087.621          40.000  
G22  20651884.401   108526477.194        2841.412          43.000                                                                  
G30  17008989.471    89382904.041        -986.043          49.000    17008991.867    69649058.143        -768.449          45.000  
E30  21732616.889   114205756.791       -1330.964          45.000    21732626.257    87508378.707       -1019.755          51.000  
> 2024 04 15 18 25 00.4890000  0 24                     
G05  19859590.233   104362823.233        2099.039          40.000    19859593.127    81321674.249        1635.845          41.000  
G09  19188703.646   100837233.990       -2630.894          44.000    19188709.213    78574444.885       -2049.941          41.000  
E27  21419835.427   112562148.198        1287.790          47.000    21419844.249    86249052.260         986.670          52.000  
G11  20345485.294   106916156.302       -3114.853          44.000    20345492.096    83311270.482       -2427.052          46.000  
R13  16015928.835    85524318.071       -1276.012          42.000    16015930.643    66519011.757        -992.643          40.000  
R02  17361639.422    92644983.268       -2306.581          52.000    17361644.519    72057203.075       -1793.982          48.000  
R04  19816917.786                3       2552.319          24.000    19816906.767    82536686.862        1993.087          38.000  
R03  16671527.959    89244121.850         888.482          51.000    16671528.739    69412138.112         690.977          49.000  
E33  23146267.864   121634368.885       -2129.976          43.000    23146278.411    93200414.952       -1632.135          47.000  
G07  17598520.004    92480824.588       -3110.016          48.000    17598520.146    72062977.972       -2423.438          46.000  
S31  35546281.510   186796917.976        -815.909          44.000  
S33  36494921.982   191782054.425        -815.339          42.000  
G14  18495184.728    97193003.059        2059.728          48.000    18495189.239    75734914.639        1604.958          47.000  
G20  17635792.098    92676779.646         -16.180          48.000                                                                  
R12  18354804.681    98048051.581       -4342.047          51.000    18354809.192    76259602.928       -3377.188          48.000  
R14  18110482.211    96539222.768        2873.460          51.000    18110492.420    75086215.285        2234.817          49.000  
E07  20930023.551   109987983.878       -1409.781          46.000    20930030.704    84276512.554       -1080.114          50.000  
E08  24532568.233   128919299.221       -2590.963          39.000    24532584.299    98782286.925       -1985.322          43.000  
G13  20476024.268   107602239.897        1456.287          45.000                                                                  
E26  23528796.328   123644641.087       -3477.754          40.000    23528809.716    94740558.139       -2664.769          44.000  
G06  21312471.889   111997647.653       -3959.008          40.000    21312491.779    87270713.623       -3084.751          39.000  
G22  20635664.467   108441239.574        2840.735          44.000                                                                  
G30  17014655.742    89412678.543        -999.092          49.000    17014657.633    69672259.055        -778.572          45.000  
E30  21740251.733   114245879.004       -1344.358          44.000    21740261.026    87539121.692       -1029.981          51.000  
> 2024 04 15 18 25 30.4890000  0 24                     
G05  19847631.431   104299980.497        2089.580          40.000    19847634.769    81272705.945        1628.583          41.000  
G09  19203739.763   100916249.468       -2636.838          43.000    19203744.506    78636015.229       -2054.698          40.000  
E27  21412511.254   112523658.076        1277.911          47.000    21412519.908    86219559.911         979.196          53.000  
G11  20363290.210   107009717.510       -3123.055          45.000    20363296.581    83384174.991       -2433.392          45.000  
R13  16023168.791    85562978.841       -1301.973          42.000    16023170.278    66549081.224       -1012.609          39.000  
R02  17374645.536    92714389.603       -2320.808          51.000    17374650.588    72111185.666       -1805.030          48.000  
R04  19802560.645                2       2565.429          30.000    19802546.054    82476870.496        1994.172          35.000  
R03  16666579.100    89217623.885         877.861          52.000    16666577.637    69391528.588         682.829          48.000  
E33  23158459.864   121698436.760       -2141.501          43.000    23158469.703    93249505.743       -1640.745          46.000  
G07  17616301.986    92574269.016       -3119.751          48.000    17616302.315    72135791.762       -2431.000          45.000  
S31  35550938.503   186821389.761        -815.861          44.000  
S33  36499576.321   191806515.236        -815.627          42.000  
G14  18483457.621    97131378.288        2048.338          47.000    18483462.738    75686895.527        1596.157          47.000  
G20  17635937.781    92677545.673         -35.040          47.000                                                                  
R12  18379225.466    98178498.747       -4354.539          51.000    18379229.359    76361061.727       -3386.931          47.000  
R14  18094348.537    96453221.986        2859.767          51.000    18094358.686    75019325.978        2224.197          48.000  
E07  20938080.951   110030324.613       -1413.360          46.000    20938087.846    84308955.413       -1082.830          50.000  
E08  24547365.662   128997061.275       -2593.673          39.000    24547382.692    98841870.547       -1987.226          43.000  
G13  20467708.616   107558541.174        1456.525          45.000                                                                  
E26  23548652.778   123748985.319       -3478.959          41.000    23548666.806    94820509.788       -2665.721          44.000  
G06  21335064.489   112116371.551       -3956.067          39.000    21335085.273    87363224.747       -3082.928          40.000  
G22  20619448.527   108356028.656        2839.752          44.000                                                                  
G30  17020398.048    89442853.073       -1012.789          49.000    17020399.709    69695771.664        -789.081          46.000  
E30  21747964.795   114286410.185       -1358.188          44.000    21747973.776    87570178.037       -1040.703          51.000  
> 2024 04 15 18 26 00.4890000  0 25                     
G05  19835725.103   104237414.332        2080.564          40.000    19835728.656    81223953.144        1621.433          41.000  
G09  19218809.399   100995434.966       -2642.679          44.000    19218813.657    78697718.045       -2059.080          42.000  
E27  21405240.671   112485454.574        1268.527          46.000    21405250.052    86190287.205         971.923          53.000  
G11  20381140.052   107103516.596       -3130.652          44.000    20381145.728    83457264.866       -2439.397          45.000  
R13  16030549.410    85602393.044       -1326.619          41.000    16030550.698    66579736.719       -1031.656          39.000  
R02  17387731.587    92784211.015       -2334.376          52.000    17387736.210    72165491.051       -1815.595          48.000  
R04  19788168.338   105964832.0961       2567.270          34.000    19788170.525    82416996.846        1996.660          32.000  
R03  16661686.648    89191432.215         867.820          52.000    16661684.926    69371157.333         674.849          48.000  
E33  23170714.164   121762835.898       -2152.182          42.000    23170724.610    93298850.395       -1648.979          46.000  
G07  17634137.227    92667992.474       -3128.900          48.000    17634137.321    72208822.963       -2438.025          45.000  
S31  35555593.972   186845853.359        -815.474          44.000  
S33  36504229.783   191830967.394        -815.162          42.000  
G14  18471793.223    97070083.672        2037.513          47.000    18471798.505    75639133.681        1587.703          47.000  
G20  17636189.390    92678866.094         -53.326          48.000                                                                  
R12  18403713.817    98309309.974       -4366.571          51.000    18403717.771    76462803.695       -3396.131          49.000  
R14  18078291.886    96367624.532        2846.416          53.000    18078301.094    74952750.371        2213.748          49.000  
E07  20946156.249   110072764.587       -1416.495          46.000    20946163.792    84341474.317       -1085.461          50.000  
E08  24562174.725   129074884.637       -2595.055          41.000    24562192.024    98901501.154       -1988.546          42.000  
G13  20459389.335   107514827.257        1457.159          43.000                                                                  
E26  23568514.539   123853358.229       -3479.714          41.000    23568528.528    94900483.388       -2666.083          43.000  
G06  21357639.335   112234997.499       -3952.364          39.000    21357659.471    87455659.502       -3079.816          40.000  
G22  20603237.981   108270846.040        2838.989          44.000                                                                  
G30  17026215.817    89473425.103       -1025.740          50.000    17026217.127    69719594.071        -799.479          45.000  
E30  21755754.490   114327348.645       -1371.530          43.000    21755764.093    87601546.431       -1050.919          51.000  
E21                                                                  24736250.031                3       1743.698          25.000  
> 2024 04 15 18 26 30.4890000  0 25                     
G05  19823872.403   104175127.153        2071.202          41.000    19823875.626    81175417.753        1613.801          41.000  
G09  19233909.949   101074790.502       -2648.347          44.000    19233915.693    78759553.379       -2063.505          43.000  
E27  21398025.667   112447539.038        1258.757          46.000    21398034.770    86161235.149         964.480          53.000  
G11  20399034.852   107197550.230       -3138.550          45.000    20399040.201    83530537.503       -2445.563          44.000  
R13  16038070.379    85642558.412       -1351.672          41.000    16038073.137    66610976.461       -1051.147          40.000  
R02  17400891.859    92854447.579       -2348.511          51.000    17400897.363    72220119.370       -1826.587          47.000  
R04  19773784.531   105887779.350        2569.128          33.000    19773779.774    82357066.930        1998.479          34.000  
R03  16656850.904    89165549.358         857.251          52.000    16656849.022    69351026.214         666.739          48.000  
E33  23183031.806   121827564.527       -2163.525          42.000    23183042.396    93348447.480       -1657.740          47.000  
G07  17652024.154    92761992.552       -3138.202          46.000    17652025.211    72282069.696       -2445.423          46.000  
S31  35560247.529   186870308.297        -815.488          44.000  
S33  36508881.470   191855410.552        -815.276          42.000  
G14  18460192.977    97009121.853        2026.296          47.000    18460197.291    75591631.168        1578.816          47.000  
G20  17636546.458    92680741.342         -72.040          48.000                                                                  
R12  18428269.024    98440481.274       -4378.646          51.000    18428272.954    76564825.706       -3405.535          48.000  
R14  18062310.331    96282433.747        2832.544          53.000    18062318.385    74886491.080        2203.014          49.000  
E07  20954251.539   110115304.082       -1419.810          47.000    20954258.882    84374069.477       -1087.951          50.000  
E08  24576996.290   129152769.493       -2597.491          42.000    24577013.495    98961178.898       -1990.332          43.000  
G13  20451067.848   107471097.801        1457.580          44.000                                                                  
E26  23588380.302   123957757.347       -3480.876          41.000    23588395.422    94980477.110       -2667.132          42.000  
G06  21380194.535   112353522.392       -3949.506          38.000    21380215.244    87548015.506       -3077.593          39.000  
G22  20587033.334   108185694.094        2837.433          43.000                                                                  
G30  17032108.291    89504393.154       -1039.058          49.000    17032109.007    69743725.016        -809.781          44.000  
E30  21763622.567   114368693.560       -1385.156          45.000    21763631.818    87633226.313       -1061.380          51.000  
E21                                                                  24723252.714                3       1744.375          25.000  
> 2024 04 15 18 27 00.4890000  0 25                     
G05  19812073.935   104113125.935        2061.799          43.000    19812076.698    81127105.167        1606.635          40.000  
G09  19249044.220   101154320.255       -2653.950          44.000    19249051.057    78821524.479       -2068.215          44.000  
E27  21390865.403   112409916.866        1249.062          46.000    21390875.514    86132407.871         957.060          53.000  
G11  20416973.651   107291819.160       -3146.558          45.000    20416979.289    83603993.496       -2451.752          42.000  
R13  16045734.416    85683477.455       -1376.553          42.000    16045735.842    66642802.399       -1070.769          40.000  
R02  17414133.292    92925103.646       -2362.482          52.000    17414138.642    72275073.943       -1837.463          47.000  
R04  19759379.508   105810660.269        2571.771          35.000    19759377.207    82297085.473        2000.044          35.000  
R03  16652074.055    89139981.755         846.745          52.000    16652073.484    69331140.286         658.553          48.000  
E33  23195414.016   121892624.807       -2174.445          42.000    23195422.847    93398298.690       -1665.997          47.000  
G07  17669965.154    92856270.647       -3147.400          47.000    17669965.692    72355533.052       -2452.545          46.000  
S31  35564900.540   186894758.166        -815.004          44.000  
S33  36513531.792   191879849.694        -814.721          42.000  
G14  18448657.063    96948499.596        2014.815          49.000    18448660.418    75544393.241        1569.802          46.000  
G20  17637009.559    92683176.267         -90.692          48.000                                                                  
R12  18452892.363    98572012.073       -4390.436          51.000    18452895.572    76667127.356       -3414.900          48.000  
R14  18046406.022    96197656.411        2818.800          52.000    18046414.514    74820553.357        2192.300          49.000  
E07  20962366.957   110157947.554       -1423.360          47.000    20962373.825    84406744.290       -1090.578          50.000  
E08  24591828.737   129230719.971       -2599.694          40.000    24591847.483    99020906.923       -1991.878          43.000  
G13  20442744.635   107427356.604        1457.898          44.000                                                                  
E26  23608252.420   124062184.405       -3481.561          41.000    23608267.689    95060492.184       -2667.465          41.000  
G06  21402729.852   112471947.213       -3946.235          35.000    21402751.781    87640293.546       -3074.782          38.000  
G22  20570836.631   108100579.325        2836.267          44.000                                                                  
G30  17038076.905    89535759.766       -1052.414          49.000    17038078.329    69768166.517        -819.972          45.000  
E30  21771569.153   114410448.329       -1398.864          46.000    21771577.445    87665220.221       -1071.793          51.000  
E21                                                                  24710249.531                        1745.226          28.000  
> 2024 04 15 18 27 30.4890000  0 25                     
G05  19800331.062   104051413.169        2052.128          44.000    19800331.958    81079017.363        1599.174          39.000  
G09  19264211.405   101234024.961       -2659.848          44.000    19264218.220    78883631.880       -2072.697          44.000  
E27  21383762.716   112372590.104        1239.264          46.000    21383772.191    86103806.921         949.593          52.000  
G11  20434957.778   107386320.749       -3153.833          45.000    20434963.436    83677630.799       -2457.416          42.000  
R13  16053538.253    85725148.625       -1401.434          42.000    16053539.343    66675213.313       -1090.160          40.000  
R02  17427453.706    92996180.524       -2376.349          51.000    17427457.213    72330355.800       -1848.102          46.000  
R04  19744964.295   105733476.952        2574.132          35.000    19744963.900    82237054.034        2002.140          36.000  
R03  16647357.695    89114732.664         836.299          53.000    16647357.109    69311502.114         650.375          49.000  
E33  23207857.428   121958015.633       -2185.297          42.000    23207866.942    93448403.164       -1674.435          48.000  
G07  17687958.346    92950824.570       -3156.385          48.000    17687958.677    72429211.370       -2459.507          46.000  
S31  35569552.013   186919203.473        -814.825          43.000  
S33  36518181.626   191904284.147        -814.186          41.000  
G14  18437185.448    96888220.183        2003.655          48.000    18437189.180    75497422.447        1561.220          46.000  
G20  17637579.805    92686172.229        -109.302          48.000                                                                  
R12  18477581.760    98703898.997       -4402.110          51.000    18477585.119    76769705.962       -3423.797          48.000  
R14  18030580.481    96113296.600        2804.963          52.000    18030588.434    74754940.374        2181.699          50.000  
E07  20970501.286   110200695.957       -1426.766          47.000    20970508.897    84439499.524       -1093.218          51.000  
E08  24606673.654   129308736.918       -2601.925          37.000    24606694.111    99080685.844       -1993.631          44.000  
G13  20434419.047   107383604.512        1458.472          44.000                                                                  
E26  23628129.676   124166637.700       -3482.203          41.000    23628144.720    95140527.361       -2667.971          41.000  
G06  21425247.378   112590269.655       -3942.274          36.000    21425269.139    87732491.776       -3071.902          36.000  
G22  20554647.350   108015505.358        2834.882          44.000                                                                  
G30  17044121.708    89567524.074       -1065.536          49.000    17044123.524    69792917.915        -830.332          46.000  
E21  24697215.552                1       2278.897          28.000    24697240.030                        1746.891          30.000  
E30  21779592.731   114452612.819       -1412.257          46.000    21779600.850    87697528.088       -1082.029          51.000  
> 2024 04 15 18 28 00.4890000  0 25                     
G05  19788644.110   103989997.027        2042.237          45.000    19788644.944    81031160.687        1591.155          39.000  
G09  19279414.131   101313910.500       -2665.824          45.000    19279420.053    78945880.216       -2077.233          44.000  
E27  21376717.643   112335565.969        1229.167          46.000    21376726.627    86075437.861         941.846          52.000  
G11  20452985.255   107481057.650       -3161.749          43.000    20452991.326    83751451.408       -2463.855          40.000  
R13  16061483.118    85767576.370       -1427.063          42.000    16061484.211    66708212.650       -1109.419          40.000  
R02  17440853.767    93067684.568       -2390.546          51.000    17440858.414    72385969.930       -1859.387          47.000  
R04  19730542.059                        2575.201          29.000    19730540.611    82176978.441        2003.302          36.000  
R03  16642701.994    89089810.758         825.151          52.000    16642701.836    69292118.414         641.831          49.000  
E33  23220364.222   122023741.008       -2196.376          41.000    23220374.365    93498763.991       -1682.913          48.000  
G07  17706004.525    93045658.121       -3165.933          47.000    17706005.390    72503107.555       -2466.736          46.000  
S31  35574204.211   186943650.792        -814.754          44.000  
S33  36522832.250   191928720.891        -814.500          42.000  
G14  18425781.531    96828292.234        1991.726          48.000    18425785.475    75450725.502        1552.041          46.000  
G20  17638257.791    92689735.959        -128.284          48.000                                                                  
R12  18502338.808    98836143.542       -4414.039          51.000    18502341.557    76872562.748       -3433.110          48.000  
R14  18014834.170    96029362.758        2790.558          52.000    18014843.355    74689658.670        2170.552          50.000  
E07  20978657.198   110243555.517       -1430.353          48.000    20978664.739    84472339.924       -1096.008          50.000  
E08  24621534.264   129386826.282       -2604.312          35.000    24621553.823    99140520.228       -1995.319          43.000  
G13  20426092.115   107339847.122        1458.472          44.000                                                                  
E26  23648012.376   124271120.665       -3482.963          41.000    23648027.994    95220585.311       -2668.899          40.000  
G06  21447745.162   112708492.569       -3938.995          33.000    21447767.681    87824612.495       -3069.621          35.000  
G22  20538467.362   107930479.834        2833.282          45.000                                                                  
G30  17050242.756    89599690.411       -1078.919          49.000    17050245.343    69817982.583        -840.654          47.000  
E21  24684199.501                        2280.794          30.000    24684225.390    99393157.8031       1747.003          32.000  
E30  21787695.520   114495192.234       -1426.105          47.000    21787703.522    87730153.877       -1092.687          51.000  
> 2024 04 15 18 28 30.4890000  0 25                     
G05  19777012.044   103928874.838        2032.394          44.000    19777014.283    80983533.035        1583.837          40.000  
G09  19294647.790   101393971.665       -2671.887          44.000    19294655.333    79008265.354       -2082.020          44.000  
E27  21369728.207   112298840.436        1219.103          46.000    21369737.747    86047297.594         934.143          52.000  
G11  20471056.241   107576021.118       -3169.202          42.000    20471062.735    83825448.623       -2469.409          40.000  
R13  16069569.017    85810753.272       -1451.794          42.000    16069569.820    66741794.718       -1129.090          40.000  
R02  17454333.082    93139610.480       -2404.718          52.000    17454338.785    72441912.109       -1870.221          48.000  
R04  19716119.076                1       2577.556          28.000    19716105.337    82116855.454        2004.898          39.000  
R03  16638106.984    89065212.531         814.390          52.000    16638106.827    69272986.435         633.371          50.000  
E33  23232933.531   122089793.737       -2207.237          41.000    23232943.857    93549375.632       -1691.361          48.000  
G07  17724102.224    93140763.011       -3174.804          48.000    17724103.275    72577215.187       -2473.893          46.000  
S31  35578855.774   186968093.390        -814.650          44.000  
S33  36527481.475   191953152.938        -814.629          42.000  
G14  18414443.461    96768712.966        1980.040          47.000    18414447.787    75404300.243        1543.019          46.000  
G20  17639043.196    92693862.549        -147.076          48.000                                                                  
R12  18527160.023    98968736.079       -4425.646          50.000    18527163.861    76975690.135       -3442.082          49.000  
R14  17999168.438    95945852.761        2776.487          53.000    17999176.679    74624706.626        2159.491          50.000  
E07  20986833.537   110286521.246       -1433.928          48.000    20986840.822    84505261.674       -1098.826          50.000  
E08  24636408.945   129464982.781       -2606.911          39.000    24636426.334    99200406.100       -1997.104          42.000  
G13  20417762.768   107296078.928        1458.948          44.000                                                                  
E26  23667900.452   124375625.641       -3483.934          43.000    23667915.321    95300660.087       -2669.365          40.000  
G06  21470222.409   112826607.553       -3935.407          33.000    21470244.669                       -3066.666          31.000  
G22  20522296.289   107845500.384        2831.830          45.000                                                                  
G30  17056438.518    89632251.900       -1092.073          48.000    17056441.854    69843355.176        -850.916          47.000  
E21  24671180.590   129647952.1021       2281.242          33.000    24671206.542    99340737.113        1747.573          35.000  
E30  21795876.363   114538180.403       -1439.785          47.000    21795883.836    87763092.870       -1103.209          51.000  
> 2024 04 15 18 29 00.4890000  0 25                     
G05  19765437.771   103868054.395        2022.257          44.000    19765441.369    80936140.517        1576.075          40.000  
G09  19309917.623   101474214.125       -2677.841          44.000    19309923.952    79070791.778       -2086.656          42.000  
E27  21362797.795   112262420.502        1209.000          46.000    21362807.291    86019391.512         926.258          52.000  
G11  20489170.507   107671213.612       -3177.051          40.000    20489178.532    83899624.289       -2475.293          40.000  
R13  16077796.129    85854683.216       -1476.846          42.000    16077797.328    66775962.479       -1149.013          40.000  
R02  17467891.865    93211964.362       -2418.884          52.000    17467897.304    72498187.239       -1881.293          48.000  
R04  19701647.800   105501482.9571       2579.300          34.000    19701660.319    82056690.810        2006.193          37.000  
R03  16633574.296    89040946.684         803.238          52.000    16633573.233    69254112.991         624.773          49.000  
E33  23245568.352   122156177.653       -2218.197          43.000    23245576.543    93600241.035       -1699.689          48.000  
G07  17742252.353    93236142.231       -3183.805          46.000    17742253.646    72651536.557       -2480.859          47.000  
S31  35583507.614   186992537.392        -814.755          44.000  
S33  36532130.516   191977585.706        -814.252          42.000  
G14  18403173.932    96709490.732        1968.226          48.000    18403178.942    75358153.213        1533.592          47.000  
G20  17639936.993    92698558.500        -165.985          48.000                                                                  
R12  18552046.783    99101678.146       -4437.197          50.000    18552051.850    77079089.412       -3451.083          50.000  
R14  17983582.888    95862775.336        2762.012          53.000    17983591.539    74560091.002        2148.237          50.000  
E07  20995030.744   110329599.158       -1437.752          48.000    20995038.446    84538269.387       -1101.645          51.000  
E08  24651296.990   129543212.234       -2608.930          40.000    24651313.820    99260347.874       -1998.829          43.000  
G13  20409433.163   107252305.514        1459.204          44.000                                                                  
E26  23687791.277   124480155.932       -3484.602          41.000    23687807.542    95380754.251       -2670.023          40.000  
G06  21492679.450   112944617.356       -3931.810          29.000    21492703.754                       -3063.974          28.000  
G22  20506134.993   107760575.491        2830.176          45.000                                                                  
G30  17062710.295    89665212.706       -1105.253          49.000    17062713.508    69869038.928        -861.242          46.000  
E21  24658155.611   129579516.931        2281.659          35.000    24658182.631    99288300.439        1748.272          37.000  
E30  21804135.121   114581582.222       -1453.541          46.000    21804142.819    87796348.810       -1113.760          51.000  
> 2024 04 15 18 29 30.4890000  0 25                     
G05  19753921.566   103807532.698        2012.059          43.000    19753924.784    80888980.810        1567.913          41.000  
G09  19325221.516   101554632.148       -2683.778          45.000    19325226.822    79133454.967       -2091.171          42.000  
E27  21355924.540   112226301.714        1198.637          46.000    21355933.914    85991716.154         918.496          52.000  
G11  20507327.055   107766625.950       -3184.857          39.000    20507335.673    83973971.320       -2481.329          39.000  
R13  16086161.735    85899357.907       -1501.872          42.000    16086163.213    66810709.459       -1168.092          40.000  
R02  17481530.321    93284740.266       -2433.209          52.000    17481534.640    72554790.592       -1892.395          48.000  
R04  19687194.535   105424070.491        2580.910          36.000    19687200.951    81996481.330        2007.348          32.000  
R03  16629101.983    89017010.093         792.128          52.000    16629101.175    69235495.634         616.077          49.000  
E33  23258262.761   122222885.029       -2229.125          43.000    23258270.609    93651354.300       -1708.138          48.000  
G07  17760453.078    93331787.620       -3192.861          48.000    17760453.929    72726065.342       -2487.888          46.000  
S31  35588158.337   187016976.188        -814.757          44.000  
S33  36536779.124   192002013.060        -814.513          42.000  
G14  18391971.117    96650622.354        1956.027          47.000    18391977.138    75312281.904        1524.213          48.000  
G20  17640938.015    92703818.825        -184.827          48.000                                                                  
R12  18576997.901    99234959.440       -4448.581          51.000    18577002.257    77182752.522       -3459.998          49.000  
R14  17968078.584    95780127.358        2747.359          53.000    17968087.683    74495809.438        2136.872          50.000  
E07  21003248.222   110372783.774       -1441.570          47.000    21003256.472    84571358.848       -1104.591          51.000  
E08  24666194.825   129621509.010       -2611.229          39.000    24666213.485    99320341.255       -2000.657          43.000  
G13  20401101.088   107208521.054        1459.265          44.000                                                                  
E26  23707686.592   124584703.410       -3485.453          40.000    23707702.922    95460861.543       -2670.715          40.000  
G06  21515116.550                       -3928.170          28.000    21515133.806                       -3060.677          28.000  
G22  20489983.434   107675701.369        2827.802          45.000                                                                  
G30  17069057.764    89698565.448       -1118.559          49.000    17069060.062    69895028.056        -871.617          46.000  
E21  24645130.011   129511056.500        2282.187          37.000    24645154.749    99235844.440        1748.605          40.000  
E30  21812471.117   114625391.094       -1467.259          46.000    21812479.550    87829916.655       -1124.325          51.000  
