     3.00           OBSERVATION DATA    M: Mixed            RINEX VERSION / TYPE
CONVBIN 2.4.3                           20240417 045942 UTC PGM / RUN BY / DATE 
format: u-blox UBX                                          COMMENT             
log: /home/regis/git/gnsspwv/obsdata/VERT00CHL/2024-04-17/VECOMMENT             
{self.marker}                                               MARKER NAME         
                                                            MARKER NUMBER       
GEODETIC                                                    MARKER TYPE         
{self.observer}     {self.institution}                      OBSERVER / AGENCY   
UNKNOWN             UBLOX-ZED-F9P                           REC # / TYPE / VERS 
UNKNOWN             TWIVSP6037L                             ANT # / TYPE        
  1713381.0000 -5047934.0000 -3490983.0000                  APPROX POSITION XYZ 
        0.0000        0.0000        0.0000                  ANTENNA: DELTA H/E/N
G    8 C1C L1C D1C S1C C2L L2L D2L S2L                      SYS / # / OBS TYPES 
R    8 C1C L1C D1C S1C C2C L2C D2C S2C                      SYS / # / OBS TYPES 
E    8 C1C L1C D1C S1C C7Q L7Q D7Q S7Q                      SYS / # / OBS TYPES 
S    4 C1C L1C D1C S1C                                      SYS / # / OBS TYPES 
  2024    04    17    04    45   00.0010000     GPS         TIME OF FIRST OBS   
  2024    04    17    04    59   30.0010000     GPS         TIME OF LAST OBS    
                                                            END OF HEADER       
> 2024 04 17 04 45 00.0010000  0 24                     
G31  22219136.668   116762277.1591       -603.331          46.000    22219132.300    90983718.2371       -470.044          44.000  
G12  25046854.835   131622083.8371      -3667.806          44.000    25046851.724   102562642.5971      -2858.100          41.000  
G26  22318900.654   117286631.2291       2121.479          46.000    22318897.241    91392190.1741       1653.184          41.000  
G23  24128587.933   126796680.8361       2783.362          45.000    24128586.225    98802563.8701       2169.006          43.000  
R10  22140197.937   118019738.5141      -4522.044          47.000                                                                  
R22  20722061.643   110615912.5941       1091.739          51.000    20722058.180    86034423.9441        849.150          51.000  
R11  19418093.657   103764450.1551      -1108.845          52.000    19418087.735    80705674.3731       -862.347          49.000  
R05  25356666.817                3       1397.122          15.000                                                                  
R20  23697673.461   126722234.5071      -4290.136          33.000    23697674.757    98561793.7841      -3336.969          37.000  
G25  22066110.311   115958205.0211      -2962.402          48.000    22066108.543    90357062.5691      -2308.320          44.000  
G29  21980363.384   115507740.4511      -2118.749          48.000    21980358.975    90006115.4741      -1650.894          45.000  
S31  39049795.729   205208146.0861       -641.949          44.000  
S33  40004601.051   210225722.2191       -642.331          42.000  
R12  21879199.024   116874874.9121       2934.841          47.000    21879195.801    90902637.7521       2282.725          48.000  
R21  20096215.021   107539424.9931      -2331.690          52.000    20096209.331    83641868.7501      -1813.523          48.000  
G28  22336585.227   117379563.5571      -2760.239          45.000    22336580.909    91464581.5211      -2150.677          44.000  
E15  26069049.554   136993909.9951      -3053.057          39.000    26069050.618   104969438.0621      -2339.475          49.000  
E21  24027022.416   126262925.7481        430.718          48.000    24027022.000    96746954.4191        330.087          52.000  
E13  23508827.005   123540127.7191       -741.705          47.000    23508827.596    94660722.6331       -568.344          52.000  
E27  24657799.555   129577645.8891      -2042.050          45.000    24657799.841    99286782.0121      -1564.724          54.000  
G18  20606484.125   108288106.9951          2.729          48.000    20606480.426    84380453.7831          2.158          50.000  
G05  23879095.640   125485593.8761      -1436.796          42.000    23879091.993    97780996.7971      -1119.668          35.000  
E26  25501670.714   134012420.6131       1693.560          45.000    25501669.962   102684984.2751       1297.711          50.000  
E14  21966839.936   115436575.7751      -1765.851          45.000    21966839.926    88451426.0481      -1352.958          50.000  
> 2024 04 17 04 45 30.0010000  0 24                     
G31  22222633.826   116780655.097        -622.131          46.000    22222628.981    90998038.693        -484.758          44.000  
G12  25067809.774   131732198.763       -3673.533          46.000    25067804.188   102648446.360       -2862.562          38.000  
G26  22306808.282   117223083.927        2114.600          46.000    22306804.711    91342672.796        1647.812          41.000  
G23  24112696.541   126713173.572        2783.386          45.000    24112694.987    98737493.438        2168.829          44.000  
R10  22165679.761   118155574.016       -4533.810          46.000                                                                  
R22  20715968.985   110583392.701        1076.032          51.000    20715966.766    86009130.743         836.815          51.000  
R11  19424388.018   103798089.310       -1134.039          51.000    19424383.173    80731838.157        -882.090          50.000  
R20  23721733.944                       -4287.951          28.000    23721737.345    98661874.028       -3335.071          37.000  
G25  22083054.845   116047249.492       -2974.196          47.000    22083053.258    90426447.857       -2317.586          45.000  
G29  21992466.983   115571346.992       -2121.954          48.000    21992462.629    90055679.022       -1653.518          45.000  
S31  39053458.277   205227393.571        -641.543          44.000  
S33  40008265.014   210244976.741        -641.885          42.000  
R12  21862746.075   116786986.469        2923.967          48.000    21862742.833    90834280.109        2274.273          48.000  
R21  20109320.375   107609552.057       -2343.693          52.000    20109313.662    83696412.024       -1822.940          47.000  
G28  22352380.152   117462564.452       -2773.305          46.000    22352375.183    91529257.524       -2161.197          43.000  
E15  26086490.388   137085566.741       -3057.596          39.000    26086492.518   105039668.537       -2342.800          49.000  
E21  24024583.750   126250111.350         423.286          48.000    24024583.397    96737135.594         324.344          52.000  
E13  23513094.332   123562554.775        -753.697          46.000    23513095.351    94677907.007        -577.429          52.000  
E27  24669482.421   129639036.303       -2051.068          46.000    24669482.042    99333821.385       -1571.432          54.000  
G18  20606519.846   108288292.166         -15.396          48.000    20606514.265    84380598.086         -11.839          49.000  
G05  23887344.794   125528945.194       -1453.557          41.000    23887340.971    97814777.085       -1133.892          34.000  
E26  25492023.430   133961727.375        1685.677          44.000    25492023.393   102646141.471        1291.617          50.000  
E14  21976961.148   115489760.614       -1780.134          46.000    21976960.388    88492178.095       -1363.939          50.000  
R05                                                                  24750589.989                3        621.110          11.000  
> 2024 04 17 04 46 00.0010000  0 24                     
G31  22226239.720   116799600.459        -640.759          46.000    22226234.325    91012801.278        -499.371          44.000  
G12  25088796.084   131842482.484       -3678.686          45.000    25088790.254   102734381.693       -2866.883          37.000  
G26  22294754.642   117159743.655        2108.081          46.000    22294751.447    91293316.792        1642.448          41.000  
G23  24096804.599   126629664.665        2783.819          44.000    24096802.921    98672421.737        2169.354          43.000  
R10  22191226.495   118291752.957       -4544.772          46.000                                                                  
R22  20709965.821   110551343.623        1060.539          52.000    20709962.681    85984203.720         824.927          51.000  
R11  19430824.749   103832483.863       -1158.806          51.000    19430820.658    80758589.492        -901.500          51.000  
R05  24744974.238                3       1348.523          11.000                                                                  
R20  23745782.633                       -4284.856          28.000    23745785.237    98761889.475       -3332.365          36.000  
G25  22100065.172   116136642.991       -2985.529          46.000    22100063.894    90496105.099       -2326.430          44.000  
G29  22004589.314   115635052.206       -2125.017          48.000    22004584.739    90105319.431       -1655.782          45.000  
S31  39057118.921   205246629.486        -640.559          44.000  
S33  40011927.062   210264221.055        -640.875          43.000  
R12  21846355.083   116699427.506        2913.269          49.000    21846352.035    90766178.770        2265.818          47.000  
R21  20122491.460   107680037.539       -2355.331          52.000    20122485.358    83751234.067       -1831.878          47.000  
G28  22368249.583   117545954.362       -2786.015          47.000    22368243.266    91594236.609       -2170.764          43.000  
E15  26103957.920   137177353.131       -3061.634          40.000    26103958.398   105109998.366       -2345.980          48.000  
E21  24022187.331   126237518.100         416.260          48.000    24022186.811    96727486.227         318.927          52.000  
E13  23517428.520   123585334.653        -764.876          46.000    23517430.083    94695361.738        -586.178          52.000  
E27  24681213.375   129700685.663       -2059.193          46.000    24681213.636    99381059.212       -1577.791          54.000  
G18  20606657.615   108289016.543         -32.966          48.000    20606651.550    84381162.586         -25.704          48.000  
G05  23895690.473   125572805.729       -1470.381          41.000    23895687.807    97848954.107       -1145.902          36.000  
E26  25482421.387   133911267.129        1678.312          44.000    25482420.974   102607477.208        1285.893          50.000  
E14  21987163.789   115543373.199       -1794.096          47.000    21987162.268    88533257.914       -1374.655          50.000  
> 2024 04 17 04 46 30.0010000  0 24                     
G31  22229950.528   116819101.391        -659.596          47.000    22229945.280    91027996.802        -513.767          44.000  
G12  25109812.567   131952922.336       -3684.153          45.000    25109806.291   102820438.594       -2870.465          37.000  
G26  22282738.981   117096601.693        2101.177          46.000    22282736.394    91244115.302        1637.189          42.000  
G23  24080911.999   126546146.024        2783.679          44.000    24080908.821    98607342.412        2169.202          43.000  
R10  22216835.223   118428260.524       -4555.985          46.000                                                                  
R22  20704048.047   110519753.878        1044.919          52.000    20704044.351    85959633.933         812.835          50.000  
R11  19437400.539   103867622.581       -1183.984          51.000    19437396.570    80785919.566        -920.759          50.000  
R20  23769814.320                       -4281.088          27.000    23769813.180    98861829.695       -3330.120          36.000  
G25  22117140.895   116226373.463       -2996.792          47.000    22117138.641    90566024.937       -2335.034          44.000  
G29  22016728.991   115698844.888       -2128.038          48.000    22016724.706    90155027.997       -1658.196          46.000  
S31  39060775.300   205265843.525        -640.259          44.000  
S33  40015584.317   210283441.040        -640.403          42.000  
R12  21830024.720   116612190.657        2902.213          49.000    21830020.588    90698327.946        2257.222          47.000  
R21  20135727.869   107750867.292       -2366.894          52.000    20135721.748    83806323.866       -1840.847          48.000  
G28  22384189.429   117629719.308       -2798.585          46.000    22384182.919    91659507.996       -2180.760          43.000  
E15  26121446.605   137269256.284       -3065.673          40.000    26121447.088   105180417.642       -2348.979          48.000  
E21  24019831.339   126225136.156         408.899          48.000    24019830.666    96717998.760         313.408          52.000  
E13  23521827.795   123608455.364        -776.474          45.000    23521829.709    94713077.600        -594.906          52.000  
E27  24692990.778   129762582.897       -2067.632          45.000    24692992.398    99428486.940       -1584.173          54.000  
G18  20606897.071   108290268.712         -50.779          50.000    20606890.122    84382138.314         -39.510          48.000  
G05  23904131.696   125617164.430       -1487.173          41.000    23904128.438    97883519.320       -1158.768          33.000  
E26  25472862.274   133861029.607        1670.545          44.000    25472860.961   102568983.546        1280.177          50.000  
E14  21997443.793   115597398.840       -1807.867          47.000    21997442.912    88574654.241       -1385.261          50.000  
R05                                                                  24738903.796                3        595.494          12.000  
> 2024 04 17 04 47 00.0010000  0 24                     
G31  22233769.518   116839173.522        -679.237          47.000    22233764.553    91043637.431        -529.510          44.000  
G12  25130860.761   132063533.641       -3690.361          44.000    25130854.514   102906629.132       -2875.439          37.000  
G26  22270764.470   117033676.475        2093.262          47.000    22270762.059    91195082.708        1630.991          42.000  
G23  24065020.665   126462636.685        2782.690          44.000    24065018.175    98542270.390        2168.475          43.000  
R10  22242509.181   118565110.412       -4568.165          46.000                                                                  
R22  20698218.946   110488639.585        1028.483          52.000    20698214.132    85935433.949         799.963          49.000  
R11  19444118.700   103903522.048       -1210.072          52.000    19444114.035    80813841.351        -941.215          50.000  
R05  24737101.713                3       1292.350          11.000                                                                  
R20  23793840.665                3      -4280.851          25.000    23793826.200    98961706.049       -3328.939          35.000  
G25  22134281.442   116316456.303       -3009.494          45.000    22134280.976    90636219.369       -2345.044          43.000  
G29  22028888.060   115762740.094       -2132.279          47.000    22028883.354    90204816.458       -1661.553          46.000  
S31  39064430.233   205285050.755        -640.990          44.000  
S33  40019240.774   210302655.324        -641.030          42.000  
R12  21813758.020   116525296.056        2890.023          49.000    21813753.385    90630743.299        2247.692          47.000  
R21  20149031.005   107822054.314       -2379.582          52.000    20149024.830    83861691.547       -1850.854          48.000  
G28  22400202.531   117713872.648       -2812.287          45.000    22400197.043    91725082.011       -2191.478          43.000  
E15  26138957.606   137361290.534       -3070.629          38.000    26138960.774   105250937.400       -2352.927          48.000  
E21  24017518.543   126212982.867         400.643          49.000    24017518.051    96708686.514         306.885          52.000  
E13  23526295.592   123631932.076        -789.166          45.000    23526297.175    94731066.244        -604.762          52.000  
E27  24704820.144   129824744.070       -2077.138          44.000    24704821.336    99476116.925       -1591.594          54.000  
G18  20607238.361   108292064.392         -69.638          49.000    20607232.048    84383537.563         -54.418          49.000  
G05  23912671.556   125662036.786       -1504.939          38.000    23912663.909    97918484.664       -1172.060          32.000  
E26  25463346.703   133811031.574        1661.925          44.000    25463346.711   102530673.456        1273.388          50.000  
E14  22007805.668   115651850.240       -1822.750          47.000    22007804.907    88616376.796       -1396.779          51.000  
> 2024 04 17 04 47 30.0010000  0 23                     
G31  22237701.127   116859839.997        -698.619          44.000    22237697.091    91059741.128        -544.426          43.000  
G12  25151945.123   132174338.420       -3696.467          42.000    25151939.913   102992970.427       -2880.663          37.000  
G26  22258836.343   116970993.871        2085.401          47.000    22258833.991    91146239.130        1624.956          42.000  
G23  24049136.580   126379163.209        2781.879          45.000    24049133.569    98477226.264        2167.682          43.000  
R10  22268249.963   118702323.019       -4579.798          46.000                                                                  
R22  20692484.089   110458024.425        1012.310          52.000    20692479.199    85911622.216         787.341          49.000  
R11  19450983.596   103940206.615       -1235.804          51.000    19450979.413    80842373.790        -961.163          50.000  
R20  23817837.747                3      -4276.946          24.000    23817828.247    99061535.263       -3327.362          34.000  
G25  22151496.065   116406913.842       -3021.248          47.000    22151494.732    90706705.746       -2354.344          43.000  
G29  22041070.907   115826760.838       -2136.005          48.000    22041066.586    90254702.737       -1664.330          46.000  
S31  39068088.629   205304274.729        -640.962          44.000  
S33  40022899.904   210321885.917        -641.225          42.000  
R12  21797559.618   116438771.827        2877.988          49.000    21797555.710    90563446.697        2238.512          47.000  
R21  20162404.770   107893619.613       -2391.633          52.000    20162398.804    83917353.434       -1860.145          48.000  
G28  22416294.529   117798435.070       -2825.481          45.000    22416288.713    91790974.778       -2201.722          43.000  
E15  26156500.178   137453477.677       -3075.298          38.000    26156503.463   105321574.291       -2356.417          49.000  
E21  24015253.788   126201083.025         392.478          48.000    24015253.538    96699568.452         300.744          52.000  
E13  23530834.982   123655787.381        -801.474          45.000    23530836.732    94749344.978        -614.097          52.000  
E27  24716702.791   129887192.665       -2086.346          44.000    24716704.737    99523967.137       -1598.624          54.000  
G18  20607687.326   108294426.708         -87.995          49.000    20607682.508    84385378.340         -68.729          50.000  
G05  23921309.906   125707445.249       -1522.524          34.000    23921305.391                       -1186.484          31.000  
E26  25453882.472   133761297.451        1653.419          44.000    25453882.639   102492565.541        1266.942          50.000  
E14  22018251.599   115706747.372       -1837.276          47.000    22018251.731    88658440.862       -1407.772          51.000  
> 2024 04 17 04 48 00.0010000  0 23                     
G31  22241747.625   116881100.241        -718.837          46.000    22241742.968    91076307.511        -559.974          44.000  
G12  25173066.956   132285335.773       -3703.525          41.000    25173062.915   103079461.774       -2885.620          37.000  
G26  22246954.796   116908556.094        2076.774          47.000    22246952.844    91097586.322        1618.459          42.000  
G23  24033259.449   126295728.479        2780.285          45.000    24033256.469    98412212.343        2166.217          43.000  
R10  22294057.819   118839894.549       -4591.998          45.000                                                                  
R22  20686842.778   110427907.931         995.226          52.000    20686837.658    85888198.322         774.103          49.000  
R11  19457996.506   103977675.957       -1262.353          52.000    19457991.710    80871516.639        -981.977          51.000  
R20  23841829.708                3      -4271.542          21.000    23841820.024    99161315.366       -3326.303          33.000  
G25  22168780.931   116497745.267       -3034.260          47.000    22168778.633    90777483.435       -2364.073          43.000  
G29  22053277.467   115890907.049       -2140.714          49.000    22053273.229    90304686.799       -1668.155          46.000  
S31  39071750.160   205323516.339        -642.302          44.000  
S33  40026563.095   210341133.918        -642.655          42.000  
R12  21781431.627   116352621.879        2865.067          49.000    21781428.586    90496441.187        2228.555          47.000  
R21  20175848.902   107965560.279       -2404.554          52.000    20175843.176    83973307.259       -1870.215          48.000  
G28  22432463.845   117883403.632       -2839.448          45.000    22432457.504    91857183.999       -2212.401          42.000  
E15  26174073.572   137545815.868       -3080.851          40.000    26174074.619   105392326.905       -2360.619          48.000  
E21  24013037.730   126189437.784         383.613          48.000    24013037.628    96690645.484         293.828          52.000  
E13  23535447.164   123680020.221        -814.373          46.000    23535448.057    94767913.002        -623.945          52.000  
E27  24728640.394   129949928.573       -2096.265          43.000    24728642.882    99572037.472       -1606.263          54.000  
G18  20608244.225   108297355.156        -107.406          49.000    20608240.045    84387660.268         -83.650          50.000  
G05  23930051.092   125753389.287       -1540.920          35.000    23930047.824                       -1199.561          32.000  
E26  25444470.000   133711827.832        1644.122          45.000    25444468.803   102454660.307        1259.819          50.000  
E14  22028781.948   115762086.607       -1852.454          46.000    22028782.426    88700843.662       -1419.220          51.000  
> 2024 04 17 04 48 30.0010000  0 23                     
G31  22245908.359   116902960.667        -739.186          46.000    22245903.252    91093341.603        -576.115          44.000  
G12  25194226.381   132396531.873       -3710.144          39.000    25194223.392   103166107.982       -2891.054          39.000  
G26  22235121.349   116846372.772        2068.035          48.000    22235119.759    91049131.808        1611.454          43.000  
G23  24017391.552   126212342.844        2778.235          44.000    24017389.475    98347236.665        2164.832          44.000  
R10  22319933.471   118977829.367       -4604.475          44.000                                                                  
R22  20681295.483   110398297.265         978.121          52.000    20681290.701    85865167.829         760.668          50.000  
R11  19465156.429   104015937.612       -1289.139          52.000    19465152.268    80901275.700       -1002.563          52.000  
R20  23865804.285                3      -4275.777          24.000    23865800.514    99261051.122       -3323.389          34.000  
G25  22186138.385   116588956.875       -3047.062          47.000    22186136.326    90848557.391       -2374.462          42.000  
G29  22065509.246   115955184.996       -2145.253          49.000    22065504.530    90354773.503       -1671.728          46.000  
S31  39075416.139   205342781.306        -642.852          44.000  
S33  40030230.490   210360405.370        -642.965          42.000  
R12  21765376.361   116266857.511        2851.798          49.000    21765373.633    90429735.619        2218.123          47.000  
R21  20189363.055   108037880.503       -2417.417          52.000    20189358.102    84029556.347       -1880.337          48.000  
G28  22448710.501   117968782.780       -2853.223          44.000    22448705.099    91923713.179       -2223.486          42.000  
E15  26191675.541   137638310.592       -3086.062          41.000    26191676.093   105463199.471       -2364.806          49.000  
E21  24010871.949   126178055.694         374.468          48.000    24010871.555    96681924.142         286.920          52.000  
E13  23540132.111   123704636.963        -827.500          47.000    23540132.616    94786775.200        -633.981          52.000  
E27  24740635.655   130012959.010       -2106.382          44.000    24740637.253    99620333.508       -1613.991          54.000  
G18  20608910.090   108300856.593        -126.731          48.000    20608906.486    84390388.671         -98.771          50.000  
G05  23938900.111   125799876.289       -1558.962          32.000    23938892.170    98025892.251       -1215.185          33.000  
E26  25435106.682   133662630.759        1634.828          44.000    25435106.913   102416963.908        1252.693          50.000  
E14  22039397.422   115817871.793       -1867.476          46.000    22039397.916    88743588.170       -1430.943          50.000  
> 2024 04 17 04 49 00.0010000  0 23                     
G31  22250183.720   116925428.516        -758.944          46.000    22250178.731    91110849.004        -591.566          44.000  
G12  25215424.772   132507933.358       -3716.655          37.000    25215423.227   103252914.229       -2896.360          38.000  
G26  22223338.640   116784454.246        2059.412          47.000    22223337.192    91000883.625        1604.523          43.000  
G23  24001535.181   126129017.223        2776.416          44.000    24001532.847    98282307.755        2163.483          44.000  
R10  22345878.888   119116132.249       -4616.312          45.000                                                                  
R22  20675842.669   110369200.221         961.188          50.000    20675840.577    85842536.831         747.715          50.000  
R11  19472465.931   104055000.001       -1315.559          51.000    19472461.929    80931657.555       -1023.178          51.000  
R20  23889777.426                1      -4271.550          27.000    23889771.407    99360746.859       -3322.454          32.000  
G25  22203568.819   116680555.655       -3059.962          47.000    22203567.069    90919933.034       -2384.118          43.000  
G29  22077767.472   116019602.184       -2149.583          49.000    22077762.945    90404968.712       -1674.872          46.000  
S31  39079088.228   205362078.343        -643.727          44.000  
S33  40033903.858   210379709.114        -644.173          42.000  
R12  21749395.401   116181490.870        2838.778          49.000    21749393.351    90363339.377        2207.804          47.000  
R21  20202950.688   108110585.262       -2429.880          52.000    20202943.762    84086104.477       -1889.875          47.000  
G28  22465036.808   118054577.679       -2866.946          44.000    22465031.546    91990566.297       -2234.083          42.000  
E15  26209307.485   137730968.079       -3091.389          41.000    26209308.368   105534196.765       -2368.594          49.000  
E21  24008758.297   126166945.969         365.720          48.000    24008757.330    96673411.502         280.229          52.000  
E13  23544891.411   123729644.570        -840.121          47.000    23544891.450    94805936.900        -643.685          52.000  
E27  24752686.608   130076291.857       -2115.950          44.000    24752689.238    99668861.272       -1621.474          54.000  
G18  20609687.327   108304938.513        -145.811          48.000    20609682.811    84393569.391        -113.596          49.000  
G05  23947854.538   125846913.356       -1577.169          35.000    23947842.462    98062544.510       -1229.445          36.000  
E26  25425797.228   133613714.902        1625.982          44.000    25425798.768   102379483.011        1245.795          50.000  
E14  22050098.646   115874107.329       -1881.893          46.000    22050098.777    88786677.767       -1442.039          50.000  
> 2024 04 17 04 49 30.0010000  0 24                     
G31  22254572.573   116948493.577        -778.494          45.000    22254567.398    91128821.790        -606.602          44.000  
G12  25236659.695   132619529.193       -3722.639          38.000    25236659.024   103339871.940       -2901.031          39.000  
G26  22211604.930   116722793.192        2051.325          48.000    22211603.759    90952836.062        1598.415          43.000  
G23  23985688.660   126045745.021        2775.079          43.000    23985686.408    98217420.457        2162.549          44.000  
R10  22371889.496   119254789.694       -4627.574          44.000                                                                  
R22  20670486.090   110340606.669         944.982          51.000    20670483.623    85820297.394         735.015          50.000  
R11  19479924.245   104094852.976       -1341.429          52.000    19479919.377    80962654.294       -1043.212          50.000  
R20  23913734.043                3      -4269.127          28.000    23913730.554                       -3320.693          31.000  
G25  22221070.974   116772530.988       -3071.951          46.000    22221068.932    90991602.100       -2393.487          43.000  
G29  22090050.743   116084148.519       -2153.423          50.000    22090045.753    90455264.570       -1677.974          46.000  
S31  39082764.818   205381398.404        -644.113          44.000  
S33  40037581.284   210399036.511        -644.351          43.000  
R12  21733487.599   116096516.093        2826.120          48.000    21733485.808    90297247.881        2198.040          47.000  
R21  20216606.753   108183661.609       -2441.719          53.000    20216599.780    84142941.601       -1899.148          47.000  
G28  22481440.283   118140775.767       -2879.838          45.000    22481436.453    92057733.564       -2243.912          44.000  
E15  26226969.220   137823776.957       -3095.898          43.000    26226968.520   105605310.059       -2372.152          49.000  
E21  24006694.394   126156100.186         357.392          48.000    24006693.666    96665101.100         273.844          52.000  
E13  23549722.250   123755032.465        -852.331          47.000    23549722.641    94825389.978        -653.123          52.000  
E27  24764794.389   130139917.447       -2125.570          44.000    24764796.779    99717613.332       -1628.616          54.000  
G18  20610573.180   108309590.763        -164.339          48.000    20610567.626    84397194.520        -128.071          48.000  
G05  23956906.975                       -1593.419          31.000    23956899.431    98099617.364       -1242.322          36.000  
E26  25416541.815   133565071.383        1617.161          46.000    25416541.711   102342210.761        1239.082          50.000  
E14  22060882.898   115930780.102       -1896.120          46.000    22060882.935    88830102.373       -1452.762          50.000  
R05                                                                  24711395.459                3        456.906          13.000  
> 2024 04 17 04 50 00.0010000  0 23                     
G31  22259074.559   116972150.898        -798.828          46.000    22259070.020    91147256.057        -622.560          44.000  
G12  25257933.307   132731313.579       -3729.666          40.000    25257931.483   103426976.569       -2906.019          40.000  
G26  22199919.951   116661387.351        2042.123          48.000    22199918.505    90904987.359        1591.326          43.000  
G23  23969852.092   125962524.608        2772.462          43.000    23969848.972    98152573.530        2160.341          42.000  
R10  22397967.157   119393794.154       -4639.738          45.000                                                                  
R22  20665223.655   110312511.519         927.716          52.000    20665220.971    85798445.636         721.615          50.000  
R11  19487529.395   104135492.225       -1368.199          52.000    19487524.249    80994262.583       -1064.183          50.000  
R20  23937671.115                3      -4267.362          25.000    23937677.409    99559985.975       -3319.068          32.000  
G25  22238644.715   116864877.286       -3084.831          47.000    22238642.910    91063560.245       -2403.835          43.000  
G29  22102356.710   116148819.038       -2158.127          49.000    22102351.643    90505657.175       -1681.752          45.000  
S31  39086444.095   205400734.572        -645.235          44.000  
S33  40041262.209   210418379.871        -645.548          43.000  
R12  21717652.811   116011932.705        2812.519          49.000    21717651.175    90231460.813        2187.550          47.000  
R21  20230330.514   108257101.912       -2454.541          52.000    20230324.633    84200061.827       -1909.069          48.000  
G28  22497919.476   118227369.515       -2893.584          45.000    22497916.001    92125209.148       -2254.559          45.000  
E15  26244657.284   137916730.868       -3101.263          42.000    26244657.659   105676534.450       -2376.257          49.000  
E21  24004680.040   126145514.973         348.095          48.000    24004679.280    96656990.362         266.681          52.000  
E13  23554624.012   123780795.011        -865.420          46.000    23554625.073    94845130.116        -663.094          52.000  
E27  24776957.653   130203831.068       -2135.743          44.000    24776959.281    99766586.095       -1636.420          54.000  
G18  20611565.888   108314808.190        -183.626          48.000    20611560.940    84401260.059        -143.136          49.000  
G05  23966064.097   125942601.453       -1612.776          30.000    23966055.172    98137106.770       -1256.771          37.000  
E26  25407335.509   133516696.286        1607.687          45.000    25407335.999   102305144.180        1231.809          49.000  
E14  22071749.619   115987881.939       -1910.921          47.000    22071749.095    88873855.766       -1464.280          50.000  
> 2024 04 17 04 50 30.0010000  0 24                     
G31  22263692.875   116996422.257        -819.172          46.000    22263687.990    91166168.815        -638.591          44.000  
G12  25279246.312   132843307.933       -3736.580          44.000    25279244.532   103514244.740       -2911.313          41.000  
G26  22188288.427   116600261.804        2032.853          48.000    22188286.259    90857357.064        1584.059          43.000  
G23  23954030.909   125879381.768        2770.116          44.000    23954027.277    98087787.027        2158.630          42.000  
R10  22424112.908   119533164.939       -4651.719          45.000                                                                  
R22  20660057.739   110284937.486         910.582          51.000    20660055.709    85776999.198         708.164          50.000  
R11  19495285.436   104176940.360       -1395.082          52.000    19495280.541    81026500.010       -1084.944          51.000  
R20  23961615.234                3      -4266.275          25.000    23961616.311                       -3317.915          29.000  
G25  22256291.601   116957616.249       -3097.726          46.000    22256289.855    91135824.390       -2414.023          43.000  
G29  22114690.512   116213635.477       -2162.917          49.000    22114686.202    90556163.475       -1685.309          45.000  
S31  39090131.644   205420111.751        -646.598          44.000  
S33  40044951.151   210437763.805        -646.751          42.000  
R12  21701897.073   115927767.421        2798.586          48.000    21701894.857    90165998.961        2176.687          47.000  
R21  20244125.727   108330926.101       -2467.099          52.000    20244121.331    84257480.644       -1918.900          48.000  
G28  22514477.091   118314378.753       -2907.052          45.000    22514472.868    92193008.560       -2265.260          44.000  
E15  26262375.496   138009850.724       -3106.561          41.000    26262377.636   105747886.086       -2380.490          49.000  
E21  24002718.981   126135214.322         338.689          47.000    24002719.148    96649097.667         259.491          52.000  
E13  23559600.643   123806953.958        -878.604          45.000    23559602.812    94865173.981        -673.077          52.000  
E27  24789179.308   130268055.366       -2145.923          45.000    24789180.692    99815796.912       -1644.271          54.000  
G18  20612670.337   108320613.027        -203.232          48.000    20612665.911    84405783.335        -158.377          49.000  
G05  23975328.506   125991163.0271      -1632.014          31.000    23975318.182    98175029.585       -1271.550          40.000  
E26  25398184.789   133468613.050        1598.090          45.000    25398186.069   102268301.227        1224.437          49.000  
E14  22082701.046   116045432.101       -1925.748          48.000    22082700.665    88917952.668       -1475.490          50.000  
R05                                                                  24700505.698                3        420.548          12.000  
> 2024 04 17 04 51 00.0010000  0 23                     
G31  22268425.126   117021291.029        -839.055          47.000    22268419.795    91185547.027        -653.730          43.000  
G12  25300595.045   132955494.734       -3742.936          39.000    25300592.774   103601662.929       -2916.321          37.000  
G26  22176707.494   116539402.780        2024.074          48.000    22176705.298    90809934.463        1577.257          43.000  
G23  23938221.660   125796303.375        2768.157          44.000    23938217.389    98023050.760        2156.846          42.000  
R10  22450323.735   119672882.288       -4663.057          45.000                                                                  
R22  20654986.802   110257867.788         893.876          51.000    20654983.889    85755945.006         695.163          49.000  
R11  19503190.272   104219181.040       -1421.297          52.000    19503185.562    81059353.873       -1105.463          51.000  
R20  23985528.539                3      -4263.633          24.000    23985541.405                       -3315.912          26.000  
G25  22274010.791   117050730.782       -3109.903          46.000    22274008.945    91208381.165       -2423.615          43.000  
G29  22127049.554   116278581.755       -2167.127          49.000    22127044.459    90606770.964       -1688.674          45.000  
S31  39093823.513   205439513.353        -647.345          44.000  
S33  40048644.324   210457170.494        -647.289          42.000  
R12  21686217.164   115844008.122        2784.981          48.000    21686214.538    90100852.864        2166.167          47.000  
R21  20257989.791   108405114.886       -2479.043          52.000    20257985.068    84315183.045       -1928.240          47.000  
G28  22531109.650   118401784.511       -2920.242          44.000    22531105.584    92261116.914       -2275.515          44.000  
E15  26280125.383   138103118.781       -3111.502          43.000    26280125.587   105819351.197       -2384.146          49.000  
E21  24000810.511   126125183.339         329.839          48.000    24000810.282    96641411.590         252.740          52.000  
E13  23564650.279   123833492.167        -890.844          44.000    23564652.982    94885508.457        -682.671          53.000  
E27  24801457.762   130332574.112       -2155.687          45.000    24801458.363    99865233.351       -1651.724          55.000  
G18  20613883.504   108326988.603        -222.059          47.000    20613878.786    84410751.338        -173.068          49.000  
G05  23984689.861   126040370.807       -1649.225          34.000    23984681.776    98213373.283       -1285.034          40.000  
E26  25389088.259   133420806.233        1588.938          45.000    25389088.383   102231670.074        1217.480          49.000  
E14  22093733.737   116103410.909       -1939.846          48.000    22093733.648    88962378.042       -1486.428          50.000  
> 2024 04 17 04 51 30.0010000  0 23                     
G31  22273271.584   117046754.738        -859.169          47.000    22273265.762    91205388.858        -669.412          43.000  
G12  25321980.068   133067871.735       -3749.354          35.000    25321977.607                       -2921.470          30.000  
G26  22165177.274   116478811.545        2014.842          48.000    22165174.588    90762720.542        1570.010          43.000  
G23  23922424.577   125713291.344        2765.497          44.000    23922420.639    97958366.218        2154.974          42.000  
R10  22476599.192   119812941.932       -4674.550          45.000                                                                  
R22  20650009.705   110231300.902         876.767          51.000    20650005.730    85735281.910         681.894          48.000  
R11  19511243.666   104262212.888       -1447.971          52.000    19511238.884    81092823.073       -1126.168          52.000  
R20  24009441.855                3      -4260.252          25.000    24009463.621                3      -3320.852          22.000  
G25  22291800.684   117144218.790       -3122.883          45.000    22291798.766    91281228.921       -2433.465          43.000  
G29  22139433.247   116343656.197       -2171.700          50.000    22139427.397    90657478.304       -1692.240          44.000  
S31  39097519.774   205458937.434        -648.142          44.000  
S33  40052341.600   210476601.309        -648.566          42.000  
R12  21670613.561   115760657.672        2771.050          48.000    21670611.366    90036024.802        2155.386          47.000  
R21  20271921.619   108479664.024       -2491.359          52.000    20271915.817    84373165.696       -1937.683          48.000  
G28  22547816.606   118489582.724       -2933.556          43.000    22547812.215    92329531.084       -2285.939          45.000  
E15  26297900.877   138196532.148       -3116.493          43.000    26297901.783   105890927.667       -2388.021          49.000  
E21  23998952.880   126115422.177         320.329          48.000    23998952.762    96633932.267         245.526          52.000  
E13  23569773.091   123860407.547        -903.824          45.000    23569774.989    94906131.921        -692.557          53.000  
E27  24813789.501   130397386.109       -2165.693          44.000    24813791.538    99914894.490       -1659.406          54.000  
G18  20615205.255   108333933.204        -241.328          48.000    20615199.527    84416162.727        -188.082          49.000  
G05  23994153.180   126090116.439       -1666.858          33.000    23994146.365    98252136.154       -1299.164          39.000  
E26  25380042.956   133373275.468        1579.302          45.000    25380043.739   102195250.440        1210.077          49.000  
E14  22104847.812   116161813.775       -1954.228          48.000    22104847.264    89007128.321       -1497.335          50.000  
> 2024 04 17 04 52 00.0010000  0 24                     
G31  22278233.921   117072833.979        -879.544          46.000    22278228.136    91225710.313        -685.436          42.000  
G12  25343405.148   133180459.277       -3756.874          31.000    25343401.896                1      -2927.019          27.000  
G26  22153702.540   116418511.417        2005.113          48.000    22153700.049    90715733.437        1562.293          43.000  
G23  23906645.057   125630369.735        2762.539          45.000    23906641.068    97893752.137        2152.584          42.000  
R10  22502941.201   119953361.820       -4686.808          46.000                                                                  
R22  20645131.277   110205257.751         859.372          51.000    20645127.164    85715026.151         668.244          49.000  
R11  19519448.548   104306057.146       -1474.992          52.000    19519443.135    81126924.187       -1147.319          51.000  
R20  24033336.819                3      -4265.966          16.000    24033362.813                3      -3298.135          19.000  
G25  22309665.017   117238100.157       -3135.982          45.000    22309663.582    91354383.220       -2443.881          43.000  
G29  22151844.841   116408879.170       -2176.623          50.000    22151838.921    90708301.412       -1696.114          44.000  
S31  39101224.466   205478405.219        -649.805          44.000  
S33  40056047.590   210496076.535        -649.971          43.000  
R12  21655091.960   115677741.469        2756.473          48.000    21655089.843    89971534.470        2143.852          48.000  
R21  20285923.394   108554591.932       -2504.002          53.000    20285917.789    84431442.955       -1947.525          47.000  
G28  22564601.805   118577791.482       -2947.318          42.000    22564597.557    92398265.128       -2296.454          44.000  
E15  26315707.634   138290110.048       -3122.156          43.000    26315708.904   105962630.221       -2392.308          49.000  
E21  23997150.937   126105953.024         310.677          48.000    23997150.878    96626676.693         238.046          52.000  
E13  23574971.440   123887720.028        -917.082          46.000    23574972.455    94927059.665        -702.714          53.000  
E27  24826181.601   130462512.264       -2176.462          43.000    24826184.382    99964796.319       -1667.528          54.000  
G18  20616638.787   108341467.220        -261.107          48.000    20616632.873    84422033.402        -203.454          49.000  
G05  24003724.864   126140420.622       -1686.340          35.000    24003719.569    98291334.144       -1313.995          40.000  
E26  25371055.166   133326042.388        1569.337          45.000    25371055.201   102159058.908        1202.489          48.000  
E14  22116045.348   116220658.195       -1968.869          48.000    22116044.950    89052216.939       -1508.670          50.000  
R05                                                                  24688054.341                3        577.931          13.000  
> 2024 04 17 04 52 30.0010000  0 23                     
G31  22283314.970   117099533.200        -900.334          46.000    22283308.744    91246514.838        -701.290          43.000  
G12  25364872.345   133293260.837       -3763.511          28.000    25364873.282                3      -2932.203          25.000  
G26  22142285.021   116358509.775        1995.170          48.000    22142281.991    90668978.921        1554.737          43.000  
G23  23890884.550   125547546.569        2759.130          44.000    23890880.172    97829214.732        2149.993          42.000  
R10  22529351.290   120094143.108       -4698.691          45.000                                                                  
R22  20640351.219   110179742.911         841.689          52.000    20640347.669    85695181.281         654.767          50.000  
R11  19527806.297   104350718.813       -1502.262          52.000    19527800.749    81161661.026       -1168.418          51.000  
G25  22327606.333   117332378.796       -3149.201          46.000    22327603.656    91427847.061       -2453.960          42.000  
G29  22164284.948   116474254.985       -2181.777          50.000    22164280.136    90759243.613       -1699.986          44.000  
S31  39104938.260   205497922.297        -651.393          44.000  
S33  40059762.534   210515599.203        -651.595          42.000  
R12  21639653.574   115595268.412        2741.655          49.000    21639650.564    89907388.796        2132.468          48.000  
R21  20299997.498   108629900.463       -2516.600          53.000    20299991.093    84490016.267       -1957.284          48.000  
G28  22581465.576   118666412.801       -2960.804          44.000    22581461.625    92467320.671       -2307.029          45.000  
E15  26333547.825   138383855.761       -3127.658          44.000    26333548.235   106034461.340       -2396.424          50.000  
E21  23995406.199   126096782.085         300.749          49.000    23995405.587    96619649.621         230.487          52.000  
E13  23580245.546   123915433.549        -930.486          46.000    23580246.156    94948294.701        -712.897          53.000  
E27  24838636.159   130527957.358       -2186.604          43.000    24838638.201   100014942.546       -1675.519          54.000  
G18  20618185.539   108349595.026        -280.852          47.000    20618179.319    84428366.765        -218.781          48.000  
G05  24013403.121   126191286.845       -1704.919          37.000    24013399.853    98330970.213       -1328.296          40.000  
E26  25362125.140   133279112.628        1559.198          45.000    25362125.121   102123099.786        1194.763          49.000  
E14  22127328.058   116279945.624       -1983.538          49.000    22127326.911    89097644.988       -1519.770          50.000  
R05                                                                  24685742.287                3        334.914          10.000  
> 2024 04 17 04 53 00.0010000  0 22                     
G31  22288508.496   117126828.118        -919.757          46.000    22288502.818    91267783.606        -716.776          43.000  
G12  25386374.135                1      -3769.023          25.000    25386370.852                3      -2935.171          19.000  
G26  22130920.094   116298785.704        1985.998          48.000    22130916.622    90622440.691        1547.505          43.000  
G23  23875138.211   125464801.579        2756.829          45.000    23875134.464    97764738.279        2147.896          42.000  
R10  22555825.381   120235259.608       -4709.498          45.000                                                                  
R22  20635666.182   110154732.148         825.247          51.000    20635662.208    85675728.519         641.856          50.000  
R11  19536313.492   104396173.473       -1528.594          53.000    19536306.452    81197014.631       -1188.929          51.000  
G25  22345618.509   117427030.397       -3161.280          46.000    22345616.125    91501601.568       -2463.453          43.000  
G29  22176750.424   116539760.440       -2185.746          50.000    22176745.487    90810286.832       -1703.096          44.000  
S31  39108656.766   205517463.331        -651.947          44.000  
S33  40063482.271   210535147.151        -652.145          43.000  
R12  21624294.037   115513218.903        2727.819          50.000    21624290.544    89843572.557        2121.655          48.000  
R21  20314135.808   108705562.969       -2527.950          51.000    20314130.118    84548864.890       -1966.271          47.000  
G28  22598403.196   118755420.460       -2973.327          44.000    22598399.592    92536677.251       -2316.989          46.000  
E15  26351413.438   138477744.259       -3131.979          44.000    26351414.559   106106401.871       -2399.902          49.000  
E21  23993713.727   126087887.337         291.721          49.000    23993713.033    96612834.164         223.563          52.000  
E13  23585590.280   123943523.762        -942.594          45.000    23585591.137    94969818.382        -722.305          52.000  
E27  24851146.823   130593698.033       -2196.477          44.000    24851148.184   100065315.250       -1682.897          54.000  
G18  20619840.015   108358292.708        -299.503          47.000    20619834.766    84435144.206        -233.446          49.000  
G05  24023187.172   126242691.590       -1722.644          36.000    24023180.898    98371025.843       -1342.322          39.000  
E26  25353247.527   133232463.536        1550.263          45.000    25353248.073   102087355.758        1187.718          48.000  
E14  22138690.027   116339649.239       -1997.194          49.000    22138688.151    89143391.935       -1530.188          50.000  
> 2024 04 17 04 53 30.0010000  0 22                     
G31  22293815.601   117154715.008        -939.577          46.000    22293810.357    91289513.661        -732.136          44.000  
G26  22119607.672   116239338.766        1976.856          48.000    22119604.329    90576118.419        1540.483          43.000  
G23  23859407.249   125382135.093        2754.027          45.000    23859403.027    97700322.974        2145.915          42.000  
R10  22582360.062   120376704.738       -4720.290          45.000                                                                  
R22  20631074.554   110130222.289         808.536          51.000    20631070.268    85656665.312         628.799          49.000  
R11  19544967.595   104442418.340       -1554.814          53.000    19544961.144    81232982.814       -1209.134          51.000  
G25  22363700.218   117522051.105       -3173.541          46.000    22363697.867    91575643.637       -2472.798          43.000  
G29  22189240.023   116605392.173       -2189.910          50.000    22189234.695    90861428.428       -1706.467          43.000  
S31  39112379.840   205537028.337        -652.674          44.000  
S33  40067206.451   210554718.228        -653.020          42.000  
R12  21609013.542   115431594.175        2713.674          49.000    21609010.208    89780086.705        2110.624          48.000  
R21  20328339.375   108781573.292       -2539.524          51.000    20328334.285    84607984.021       -1975.098          47.000  
G28  22615414.123   118844808.749       -2986.122          43.000    22615409.523    92606330.388       -2326.641          46.000  
E15  26369307.414   138571771.065       -3136.601          45.000    26369307.154   106178448.386       -2403.367          50.000  
E21  23992073.482   126079267.181         282.791          49.000    23992072.700    96606229.118         216.549          52.000  
E13  23591006.456   123971986.887        -955.051          45.000    23591007.256    94991627.795        -731.806          52.000  
E27  24863712.544   130659731.334       -2206.107          44.000    24863713.767   100115912.189       -1690.305          53.000  
G18  20621603.208   108367556.784        -318.387          47.000    20621598.329    84442362.964        -248.093          50.000  
G05  24033068.383   126294631.634       -1740.698          32.000    24033063.710    98411498.609       -1356.317          37.000  
E26  25344424.718   133186093.089        1541.044          46.000    25344424.074   102051825.201        1180.659          48.000  
E14  22150128.539   116399762.781       -2010.816          48.000    22150127.253    89189452.994       -1540.772          50.000  
G12                                                                  25407911.441                3      -2931.329          19.000  
> 2024 04 17 04 54 00.0010000  0 22                     
G31  22299231.144   117183174.881        -958.087          47.000    22299227.182    91311690.156        -746.413          44.000  
G26  22108344.929   116180153.229        1968.809          48.000    22108341.693    90529999.840        1534.177          43.000  
G23  23843688.171   125299532.018        2752.539          45.000    23843684.294    97635957.065        2144.984          42.000  
R10  22608951.530   120518456.019       -4729.979          45.000                                                                  
R22  20626573.018   110106194.309         793.002          51.000    20626568.905    85637976.906         616.757          49.000  
R11  19553764.887   104489434.291       -1579.892          52.000    19553759.371    81269550.772       -1228.761          51.000  
G25  22381848.946   117617421.674       -3184.757          47.000    22381845.727    91649958.334       -2481.398          43.000  
G29  22201749.790   116671131.356       -2192.888          49.000    22201745.127    90912653.763       -1708.728          44.000  
S31  39116103.719   205556596.890        -652.168          44.000  
S33  40070931.649   210574293.363        -652.397          42.000  
R12  21593809.924   115350379.835        2700.369          49.000    21593806.470    89716920.019        2100.138          48.000  
R21  20342604.839   108857910.184       -2549.764          52.000    20342599.014    84667357.132       -1983.174          47.000  
G28  22632491.471   118934556.507       -2997.270          43.000    22632488.306    92676263.685       -2335.667          46.000  
E15  26387222.318   138665916.249       -3139.930          45.000    26387222.181   106250585.616       -2405.920          49.000  
E21  23990481.336   126070904.720         274.648          48.000    23990481.219    96599821.519         210.391          52.000  
E13  23596490.224   124000803.696        -966.115          45.000    23596490.595    95013708.210        -740.310          52.000  
E27  24876330.615   130726038.951       -2214.490          44.000    24876331.969   100166719.330       -1696.939          54.000  
G18  20623470.229   108377368.401        -335.900          48.000    20623465.255    84450008.401        -261.730          49.000  
G05  24043051.731   126347087.678       -1756.756          37.000    24043045.160    98452373.422       -1369.049          37.000  
E26  25335650.517   133139983.751        1532.902          46.000    25335649.586   102016494.702        1174.439          48.000  
E14  22161641.449   116460264.602       -2022.924          48.000    22161640.069    89235811.547       -1549.987          50.000  
G12                                                                  25429471.754                3      -2938.993          18.000  
> 2024 04 17 04 54 30.0010000  0 23                     
G31  22304754.766   117212199.238        -976.388          47.000    22304750.313    91334306.525        -760.810          44.000  
G26  22097131.067   116121224.012        1960.548          48.000    22097127.831    90484080.982        1527.725          43.000  
G23  23827980.388   125216988.019        2751.051          45.000    23827976.550    97571637.216        2143.438          42.000  
R10  22635600.200   120660503.239       -4739.251          45.000                                                                  
R22  20622160.566   110082640.154         777.752          52.000    20622157.074    85619657.036         604.906          50.000  
R11  19562704.899   104537213.696       -1604.806          51.000    19562701.564    81306712.495       -1248.146          52.000  
G25  22400062.019   117713133.570       -3195.647          46.000    22400058.543    91724539.031       -2489.999          41.000  
G29  22214278.064   116736970.385       -2195.702          49.000    22214273.873    90963956.901       -1711.066          44.000  
S31  39119826.652   205576161.581        -651.503          44.000  
S33  40074656.023   210593863.745        -651.681          42.000  
R12  21578682.913   115269572.126        2687.297          50.000    21578679.159    89654069.616        2090.069          48.000  
R21  20356929.999   108934563.075       -2559.772          52.000    20356923.941    84726976.045       -1990.955          48.000  
G28  22649636.315   119024653.416       -3008.541          43.000    22649633.218    92746469.003       -2344.354          46.000  
E15  26405158.459   138760170.731       -3143.116          45.000    26405158.585   106322806.581       -2408.342          49.000  
E21  23988937.867   126062793.761         266.558          48.000    23988937.944    96593606.621         204.334          52.000  
E13  23602039.418   124029965.657        -977.270          46.000    23602039.975    95036053.112        -748.833          52.000  
E27  24888999.435   130792613.382       -2223.042          44.000    24889000.553   100217730.887       -1703.447          53.000  
G18  20625440.376   108387719.499        -353.498          48.000    20625434.653    84458074.170        -275.372          49.000  
G05  24053130.541   126400051.571       -1773.401          38.000    24053124.268    98493644.058       -1381.708          37.000  
E26  25326923.764   133094128.723        1524.813          45.000    25326923.593   101981359.062        1168.259          49.000  
E14  22173225.308   116521143.763       -2035.147          47.000    22173225.239    89282459.237       -1559.422          50.000  
G12                                                                  25451072.656                3      -2951.169          12.000  
R05                                                                  24667872.398                3        254.393          11.000  
> 2024 04 17 04 55 00.0010000  0 22                     
G31  22310377.101   117241746.569        -993.441          46.000    22310372.295    91357330.449        -774.106          43.000  
G26  22085958.709   116062512.688        1953.629          48.000    22085954.990    90438331.923        1522.150          43.000  
G23  23812276.311   125134465.324        2750.757          44.000    23812271.969    97507333.930        2143.339          41.000  
R10  22662294.385   120802801.132       -4747.256          45.000                                                                  
R22  20617829.261   110059517.803         763.746          52.000    20617825.452    85601672.998         593.995          50.000  
R11  19571781.400   104585714.392       -1628.412          51.000    19571778.149    81344435.246       -1266.582          51.000  
G25  22418332.456   117809144.849       -3205.155          47.000    22418329.860    91799352.986       -2497.390          42.000  
G29  22226818.031   116802867.872       -2197.430          48.000    22226813.635    91015305.589       -1712.244          44.000  
S31  39123541.600   205595682.946        -649.934          44.000  
S33  40078371.829   210613390.923        -650.263          43.000  
R12  21563624.781   115189133.674        2675.262          49.000    21563621.016    89591506.415        2080.594          48.000  
R21  20371304.645   109011487.411       -2568.445          51.000    20371299.677    84786806.089       -1997.620          48.000  
G28  22666839.984   119115055.604       -3018.345          44.000    22666835.931    92816912.224       -2351.874          46.000  
E15  26423105.949   138854491.970       -3144.935          45.000    26423106.681   106395078.698       -2409.651          49.000  
E21  23987434.608   126054894.656         259.973          48.000    23987434.949    96587554.071         199.225          53.000  
E13  23607646.903   124059430.931        -987.000          46.000    23607647.481    95058630.399        -756.220          52.000  
E27  24901710.420   130859413.591       -2230.168          44.000    24901712.471   100268915.469       -1708.906          53.000  
G18  20627504.983   108398568.467        -369.688          48.000    20627498.918    84466527.904        -288.165          49.000  
G05  24063298.350   126453481.420       -1788.409          41.000    24063293.102    98535277.727       -1393.659          38.000  
E26  25318239.458   133048487.812        1518.027          46.000    25318238.530   101946387.497        1163.218          49.000  
E14  22184873.802   116582355.968       -2045.808          47.000    22184873.893    89329362.117       -1567.432          51.000  
G12                                                                  25472682.526                3      -2946.219          16.000  
> 2024 04 17 04 55 30.0010000  0 21                     
G31  22316096.274   117271802.871       -1010.638          46.000    22316090.860    91380750.905        -787.041          42.000  
G26  22074826.071   116004008.604        1946.577          49.000    22074821.830    90392744.328        1516.854          43.000  
G23  23796574.076   125051953.922        2750.035          43.000    23796570.397    97443039.464        2142.808          42.000  
R10  22689032.660   120945332.964       -4754.888          46.000                                                                  
R22  20613575.747   110036813.359         749.754          52.000    20613572.829    85584014.035         583.053          50.000  
R11  19580990.382   104634922.426       -1652.151          52.000    19580986.149    81382708.175       -1285.115          51.000  
G25  22436656.656   117905441.367       -3214.706          46.000    22436654.490    91874389.217       -2505.026          42.000  
G29  22239365.972   116868810.049       -2198.854          49.000    22239361.861    91066689.116       -1713.663          43.000  
S31  39127245.270   205615146.582        -648.095          44.000  
S33  40082076.808   210632861.201        -648.119          43.000  
R12  21548633.901   115109055.242        2663.210          49.000    21548630.435    89529223.223        2071.384          48.000  
R21  20385727.352   109088666.416       -2576.881          51.000    20385721.872    84846834.223       -2004.198          47.000  
G28  22684097.790   119205747.073       -3027.888          44.000    22684093.758    92887580.849       -2359.313          45.000  
E15  26441064.505   138948865.206       -3146.787          45.000    26441066.254   106467390.656       -2411.152          50.000  
E21  23985969.768   126047195.594         253.155          48.000    23985969.901    96581654.790         193.970          53.000  
E13  23613309.365   124089185.351        -996.759          47.000    23613309.692    95081429.243        -763.716          52.000  
E27  24914463.269   130926426.413       -2237.364          45.000    24914464.524   100320262.924       -1714.390          53.000  
G18  20629661.004   108409901.527        -386.003          48.000    20629655.405    84475358.869        -300.816          49.000  
G05  24073550.542   126507363.016       -1803.790          42.000    24073546.346    98577263.423       -1405.725          36.000  
E26  25309592.704   133003048.638        1511.071          46.000    25309591.664   101911570.508        1157.933          50.000  
E14  22196581.625   116643884.639       -2056.279          46.000    22196582.566    89376507.496       -1575.687          51.000  
> 2024 04 17 04 56 00.0010000  0 22                     
G31  22321914.915   117302379.103       -1027.868          46.000    22321909.789    91404576.549        -800.975          43.000  
G26  22063735.228   115945726.322        1939.062          48.000    22063730.879    90347329.597        1511.066          43.000  
G23  23780877.888   124969469.184        2749.041          44.000    23780874.809    97378765.752        2142.181          43.000  
R10  22715816.897   121088107.925       -4763.139          45.000                                                                  
R22  20609403.390   110014538.725         735.360          52.000    20609399.967    85566689.342         571.920          49.000  
R11  19590334.187   104684850.130       -1676.413          52.000    19590329.651    81421540.822       -1303.729          51.000  
R05  24657877.161                3        608.790          10.000                                                                  
G25  22455037.629   118002034.157       -3224.814          45.000    22455036.191    91949656.280       -2512.781          43.000  
G29  22251925.369   116934809.089       -2200.860          49.000    22251920.721    91118116.932       -1714.962          44.000  
S31  39130940.764   205634564.804        -646.518          44.000  
S33  40085773.373   210652285.789        -646.757          43.000  
R12  21533713.715   115029353.317        2650.353          49.000    21533709.866    89467232.856        2061.488          48.000  
R21  20400200.275   109166109.971       -2585.831          51.000    20400193.992    84907068.112       -2011.128          47.000  
G28  22701413.348   119296737.026       -3037.906          44.000    22701407.569    92958482.075       -2367.162          44.000  
E15  26459036.280   139043300.915       -3148.861          46.000    26459035.955   106539750.508       -2412.753          49.000  
E21  23984545.834   126039709.977         245.916          49.000    23984545.636    96575919.069         188.421          53.000  
E13  23619028.696   124119239.993       -1006.698          47.000    23619028.982    95104458.136        -771.402          52.000  
E27  24927257.759   130993663.821       -2245.183          45.000    24927259.335   100371782.471       -1720.211          53.000  
G18  20631911.943   108421730.124        -402.569          48.000    20631906.411    84484575.995        -313.706          49.000  
G05  24083892.308   126561708.092       -1819.409          42.000    24083888.065    98619610.220       -1417.664          37.000  
E26  25300985.635   132957823.941        1503.873          46.000    25300985.753   101876917.879        1152.399          50.000  
E14  22208352.502   116705738.502       -2067.054          46.000    22208352.961    89423902.046       -1583.917          51.000  
> 2024 04 17 04 56 30.0010000  0 21                     
G31  22327834.414   117333487.979       -1045.972          47.000    22327830.569    91428817.248        -815.131          44.000  
G26  22052689.397   115887682.001        1930.659          48.000    22052685.666    90302100.257        1504.387          44.000  
G23  23765189.706   124887027.914        2747.118          44.000    23765187.019    97314525.924        2140.421          43.000  
R10  22742648.857   121231136.834       -4772.065          45.000                                                                  
R22  20605313.573   109992707.203         720.052          52.000    20605309.465    85549709.285         560.051          49.000  
R11  19599814.734   104735510.580       -1701.124          52.000    19599809.577    81460943.379       -1323.213          51.000  
G25  22473477.674   118098935.784       -3235.400          45.000    22473476.102    92025164.016       -2521.138          43.000  
G29  22264498.082   117000878.119       -2203.713          49.000    22264493.383    91169599.293       -1717.192          42.000  
S31  39134630.141   205653952.496        -645.989          44.000  
S33  40089463.590   210671679.338        -646.145          43.000  
R12  21518867.381   114950045.728        2636.733          49.000    21518863.353    89405549.216        2050.817          48.000  
R21  20414723.927   109243828.740       -2595.300          52.000    20414718.239    84967516.036       -2018.604          47.000  
G28  22718786.548   119388036.157       -3048.591          44.000    22718781.473    93029624.210       -2375.584          43.000  
E15  26477021.704   139137811.180       -3151.849          46.000    26477021.642   106612167.438       -2415.061          50.000  
E21  23983164.535   126032452.769         237.815          48.000    23983164.576    96570358.357         182.235          53.000  
E13  23624807.202   124149607.510       -1017.578          47.000    23624807.609    95127726.772        -779.797          52.000  
E27  24940097.825   131061139.367       -2253.382          45.000    24940099.321   100423484.508       -1726.574          53.000  
G18  20634259.818   108434067.171        -419.955          48.000    20634253.874    84494189.294        -327.299          48.000  
G05  24094323.717   126616529.828       -1835.455          41.000    24094320.326    98662328.427       -1430.176          36.000  
E26  25292423.655   132912828.127        1495.877          46.000    25292423.470   101842440.620        1146.149          51.000  
E14  22220186.840   116767927.838       -2078.691          46.000    22220187.119    89471553.635       -1592.802          51.000  
> 2024 04 17 04 57 00.0010000  0 22                     
G31  22333861.284   117365157.029       -1065.000          47.000    22333856.641    91453494.394        -829.797          44.000  
G26  22041694.714   115829906.491        1921.339          48.000    22041691.768    90257080.405        1496.959          44.000  
G23  23749516.106   124804661.651        2744.304          45.000    23749512.474    97250344.534        2138.389          43.000  
R10  22769532.039   121374444.456       -4781.499          44.000                                                                  
R22  20601312.628   109971347.044         704.158          52.000    20601308.168    85533095.865         547.595          50.000  
R11  19609436.927   104786932.084       -1726.692          52.000    19609432.778    81500937.849       -1343.004          51.000  
R05  24652519.814                3        571.727          10.000                                                                  
G25  22491981.218   118196173.604       -3246.832          45.000    22491980.516    92100933.707       -2529.940          43.000  
G29  22277089.697   117067045.308       -2207.164          50.000    22277084.149    91221158.117       -1719.591          43.000  
S31  39138318.643   205673336.485        -645.610          44.000  
S33  40093153.170   210691068.513        -646.058          43.000  
R12  21504100.530   114871165.691        2622.232          47.000    21504096.924    89344198.122        2039.457          48.000  
R21  20429304.298   109321849.032       -2605.600          52.000    20429297.880    85028198.474       -2026.565          47.000  
G28  22736223.038   119479669.998       -3060.247          42.000    22736219.126    93101027.131       -2384.372          43.000  
E15  26495024.524   139232422.739       -3155.318          46.000    26495024.752   106684662.035       -2417.744          49.000  
E21  23981832.387   126025453.661         229.080          48.000    23981832.761    96564995.411         175.570          53.000  
E13  23630651.209   124180315.298       -1029.168          47.000    23630651.018    95151256.120        -788.595          52.000  
E27  24952988.659   131128881.389       -2262.610          45.000    24952990.202   100475390.703       -1733.562          53.000  
G18  20636709.857   108446940.405        -438.011          48.000    20636703.807    84504220.384        -341.213          49.000  
G05  24104852.093   126671855.754       -1852.618          41.000    24104848.891    98705439.547       -1443.433          36.000  
E26  25283910.064   132868090.279        1486.846          46.000    25283909.807   101808161.007        1139.398          50.000  
E14  22232090.195   116830477.608       -2090.956          46.000    22232089.604    89519481.418       -1602.098          51.000  
> 2024 04 17 04 57 30.0010000  0 21                     
G31  22339994.296   117397387.247       -1083.462          47.000    22339989.549    91478608.843        -844.473          44.000  
G26  22030752.147   115772404.434        1912.196          46.000    22030749.649    90212273.629        1489.823          44.000  
G23  23733858.002   124722375.749        2741.565          45.000    23733853.650    97186225.754        2136.188          43.000  
R10  22796468.990   121518030.057       -4790.727          45.000                                                                  
R22  20597398.936   109950459.891         688.353          51.000    20597396.168    85516850.328         535.431          51.000  
R11  19619202.998   104839116.091       -1752.169          52.000    19619198.352    81541525.405       -1362.779          51.000  
G25  22510548.841   118293748.573       -3258.003          45.000    22510547.655    92176966.129       -2538.677          42.000  
G29  22289699.477   117133312.123       -2210.497          50.000    22289694.460    91272794.628       -1722.427          43.000  
S31  39142007.152   205692719.371        -645.984          44.000  
S33  40096843.024   210710457.287        -646.110          43.000  
R12  21489414.115   114792719.354        2607.568          48.000    21489411.318    89283184.343        2028.156          48.000  
R21  20443940.685   109400169.798       -2615.563          52.000    20443934.015    85089114.631       -2034.376          48.000  
G28  22753723.393   119571637.641       -3070.948          42.000    22753719.832    93172690.200       -2393.056          43.000  
E15  26513047.974   139327136.119       -3158.681          47.000    26513048.570   106757234.625       -2420.363          49.000  
E21  23980549.878   126018716.057         220.252          48.000    23980550.673    96559832.842         168.737          53.000  
E13  23636558.544   124211364.430       -1040.694          46.000    23636559.578    95175047.011        -797.392          52.000  
E27  24965931.345   131196891.826       -2271.343          45.000    24965932.282   100527502.584       -1740.522          53.000  
G18  20639261.023   108460351.139        -455.877          47.000    20639255.991    84514670.320        -355.335          49.000  
G05  24115476.346   126727687.018       -1869.489          41.000    24115472.941    98748944.447       -1456.744          35.000  
E26  25275446.156   132823613.154        1478.168          45.000    25275445.863   101774081.186        1132.611          50.000  
E14  22244060.898   116893386.512       -2102.787          46.000    22244060.465    89567684.408       -1611.291          51.000  
> 2024 04 17 04 58 00.0010000  0 21                     
G31  22346235.527   117430184.465       -1102.565          47.000    22346230.773    91504165.082        -858.992          44.000  
G26  22019863.626   115715184.809        1902.624          47.000    22019861.217    90167686.910        1482.637          44.000  
G23  23718216.470   124640179.912        2738.630          46.000    23718212.126    97122177.169        2133.892          43.000  
R10  22823459.108   121661896.462       -4800.143          46.000                                                                  
R22  20593574.896   109930051.796         672.484          50.000    20593573.231    85500977.399         522.927          51.000  
R11  19629112.072   104892069.095       -1777.608          52.000    19629107.749    81582711.082       -1382.690          52.000  
G25  22529182.141   118391666.219       -3269.450          45.000    22529180.343    92253265.556       -2547.651          42.000  
G29  22302329.502   117199685.098       -2214.028          50.000    22302324.658    91324513.836       -1725.018          43.000  
S31  39145696.512   205712108.055        -645.901          44.000  
S33  40100533.569   210729851.917        -646.302          43.000  
R12  21474811.660   114714717.168        2592.741          48.000    21474809.017    89222515.991        2016.671          49.000  
R21  20458633.424   109478794.832       -2625.717          52.000    20458626.643    85150267.438       -2042.283          47.000  
G28  22771288.656   119663942.761       -3082.317          43.000    22771284.255    93244616.252       -2401.834          42.000  
E15  26531091.960   139421956.296       -3162.307          47.000    26531091.812   106829889.059       -2422.993          49.000  
E21  23979318.934   126012247.801         211.262          48.000    23979319.872    96554876.637         161.934          53.000  
E13  23642532.426   124242760.383       -1052.051          45.000    23642533.968    95199103.669        -806.186          52.000  
E27  24978926.339   131265177.133       -2280.533          46.000    24978926.511   100579825.080       -1747.461          53.000  
G18  20641916.196   108474305.171        -474.057          48.000    20641911.598    84525543.594        -369.450          49.000  
G05  24126197.755   126784028.939       -1886.566          40.000    24126192.248    98792847.175       -1470.367          33.000  
E26  25267032.433   132779403.971        1469.519          45.000    25267033.270   101740206.673        1125.873          51.000  
E14  22256099.789   116956657.773       -2115.001          45.000    22256100.657    89616165.012       -1620.586          51.000  
> 2024 04 17 04 58 30.0010000  0 22                     
G31  22352586.301   117463555.419       -1122.113          48.000    22352580.614    91530168.423        -874.436          43.000  
G26  22009030.683   115658257.821        1892.466          47.000    22009028.618    90123328.254        1474.727          44.000  
G23  23702594.206   124558085.090        2734.617          44.000    23702590.316    97058207.290        2130.845          44.000  
R10  22850501.961   121806048.554       -4809.952          45.000                                                                  
R22  20589844.037   109910129.998         655.718          51.000    20589840.077    85485482.680         510.073          49.000  
R11  19639167.402   104945797.835       -1803.967          52.000    19639162.351    81624500.099       -1403.247          52.000  
G25  22547881.581   118489933.107       -3281.750          43.000    22547879.369    92329837.121       -2557.011          42.000  
G29  22314982.228   117266172.194       -2218.280          50.000    22314976.508    91376321.969       -1728.531          43.000  
S31  39149388.548   205731509.814        -646.977          44.000  
S33  40104226.530   210749259.307        -647.422          42.000  
R12  21460295.273   114637171.371        2576.943          48.000    21460292.201    89162202.621        2004.309          49.000  
R21  20473384.317   109557729.307       -2636.345          52.000    20473377.519    85211660.890       -2050.505          47.000  
G28  22788918.637   119756590.136       -3093.943          44.000    22788914.149    93316808.990       -2410.864          41.000  
E15  26549156.683   139516889.347       -3166.368          46.000    26549157.425   106902629.972       -2426.205          49.000  
E21  23978141.396   126006057.872         201.644          48.000    23978142.019    96550133.716         154.446          53.000  
E13  23648573.475   124274509.847       -1064.293          45.000    23648575.533    95223431.194        -815.502          52.000  
E27  24991973.542   131333744.866       -2290.374          45.000    24991974.825   100632363.981       -1755.016          54.000  
G18  20644676.646   108488809.439        -492.760          48.000    20644672.069    84536845.633        -384.132          50.000  
G05  24137018.268   126840888.491       -1904.181          40.000    24137014.340    98837153.336       -1483.478          36.000  
E26  25258672.846   132735471.133        1459.713          45.000    25258673.031   101706543.902        1118.502          50.000  
E14  22268209.459   117020295.668       -2127.205          44.000    22268210.919    89664926.552       -1630.096          51.000  
R06                                                                  26369353.940                3       1442.120          13.000  
> 2024 04 17 04 59 00.0010000  0 21                     
G31  22359046.272   117497504.420       -1140.853          47.000    22359041.146    91556622.177        -889.198          43.000  
G26  21998255.271   115601631.486        1882.783          47.000    21998252.873    90079203.849        1467.104          45.000  
G23  23686992.862   124476099.947        2731.342          44.000    23686989.178    96994322.883        2128.209          44.000  
R10  22877598.364   121950487.952       -4819.114          45.000                                                                  
R22  20586204.626   109890699.492         639.818          52.000    20586200.025    85470370.074         497.669          50.000  
R11  19649368.300   105000307.574       -1829.609          52.000    19649363.338    81666896.536       -1423.052          52.000  
G25  22566648.513   118588553.588       -3292.798          44.000    22566646.520    92406684.230       -2565.863          42.000  
G29  22327657.457   117332777.697       -2221.806          51.000    22327650.528    91428222.353       -1731.196          42.000  
S31  39153084.295   205750930.722        -647.238          44.000  
S33  40107923.414   210768686.299        -647.529          42.000  
R12  21445865.695   114560091.760        2561.909          49.000    21445862.913    89102251.849        1992.579          49.000  
R21  20488193.221   109636975.566       -2646.368          51.000    20488185.957    85273296.854       -2058.183          47.000  
G28  22806615.053   119849582.261       -3105.073          44.000    22806611.499    93389270.369       -2419.514          42.000  
E15  26567244.636   139611939.219       -3169.765          47.000    26567245.127   106975460.410       -2428.935          49.000  
E21  23977017.320   126000153.054         192.470          47.000    23977018.275    96545609.251         147.448          53.000  
E13  23654683.996   124306617.277       -1075.817          45.000    23654685.199    95248033.003        -824.332          52.000  
E27  25005075.603   131402600.416       -2299.579          44.000    25005077.504   100685123.408       -1762.052          54.000  
G18  20647542.580   108503868.585        -510.778          48.000    20647537.654    84548580.043        -398.016          50.000  
G05  24147938.747   126898270.194       -1921.075          41.000    24147936.284    98881866.411       -1497.101          36.000  
E26  25250366.321   132691820.772        1450.789          45.000    25250366.748   101673097.562        1111.586          50.000  
E14  22280391.247   117084302.397       -2139.296          45.000    22280391.340    89713970.677       -1639.201          51.000  
> 2024 04 17 04 59 30.0010000  0 22                     
G31  22365614.314   117532019.159       -1159.634          47.000    22365609.004    91583516.769        -903.638          43.000  
G26  21987535.265   115545296.827        1873.046          47.000    21987532.878    90035306.744        1459.466          45.000  
G23  23671410.501   124394216.229        2727.872          45.000    23671407.461    96930517.539        2125.625          44.000  
R10  22904746.246   122095200.184       -4828.098          46.000                                                                  
R22  20582653.487   109871748.030         623.879          51.000    20582650.135    85455630.078         485.307          50.000  
R11  19659713.140   105055585.972       -1855.287          53.000    19659708.414    81709890.809       -1442.914          52.000  
R05  24636745.708                3        480.195          12.000                                                                  
G25  22585481.006   118687515.123       -3304.227          45.000    22585479.049    92483797.104       -2574.680          43.000  
G29  22340352.657   117399490.629       -2225.359          50.000    22340345.311    91480206.454       -1734.308          41.000  
S31  39156781.319   205770358.690        -647.864          44.000  
S33  40111621.173   210788119.345        -647.844          42.000  
R12  21431521.927   114483470.402        2546.535          49.000    21431519.227    89042657.490        1980.557          49.000  
R21  20503057.537   109716519.331       -2656.160          51.000    20503051.460    85335164.255       -2065.809          48.000  
G28  22824374.645   119942904.818       -3116.192          44.000    22824370.216    93461989.173       -2428.015          42.000  
E15  26585351.847   139707092.888       -3173.296          46.000    26585352.173   107048370.335       -2431.490          49.000  
E21  23975945.918   125994523.187         183.231          47.000    23975946.608    96541295.457         140.476          53.000  
E13  23660860.455   124339070.141       -1087.264          46.000    23660860.854    95272899.488        -833.106          52.000  
E27  25018231.341   131471732.183       -2308.908          44.000    25018232.735   100738094.481       -1769.027          53.000  
G18  20650511.049   108519470.408        -528.990          48.000    20650506.627    84560737.323        -412.131          50.000  
G05  24158954.684   126956161.935       -1938.104          43.000    24158951.020    98926976.832       -1510.242          36.000  
E26  25242111.570   132648442.108        1441.580          46.000    25242112.266   101639859.397        1104.628          51.000  
E14  22292639.652   117148663.083       -2151.050          46.000    22292638.773    89763286.036       -1648.207          52.000  
