     3.00           OBSERVATION DATA    M: Mixed            RINEX VERSION / TYPE
CONVBIN 2.4.3                           20240417 012942 UTC PGM / RUN BY / DATE 
format: u-blox UBX                                          COMMENT             
log: /home/regis/git/gnsspwv/obsdata/VERT00CHL/2024-04-17/VECOMMENT             
{self.marker}                                               MARKER NAME         
                                                            MARKER NUMBER       
GEODETIC                                                    MARKER TYPE         
{self.observer}     {self.institution}                      OBSERVER / AGENCY   
UNKNOWN             UBLOX-ZED-F9P                           REC # / TYPE / VERS 
UNKNOWN             TWIVSP6037L                             ANT # / TYPE        
  1713381.0000 -5047934.0000 -3490983.0000                  APPROX POSITION XYZ 
        0.0000        0.0000        0.0000                  ANTENNA: DELTA H/E/N
G    8 C1C L1C D1C S1C C2L L2L D2L S2L                      SYS / # / OBS TYPES 
R    8 C1C L1C D1C S1C C2C L2C D2C S2C                      SYS / # / OBS TYPES 
E    8 C1C L1C D1C S1C C7Q L7Q D7Q S7Q                      SYS / # / OBS TYPES 
S    4 C1C L1C D1C S1C                                      SYS / # / OBS TYPES 
  2024    04    17    01    15   00.4950000     GPS         TIME OF FIRST OBS   
  2024    04    17    01    29   30.4960000     GPS         TIME OF LAST OBS    
                                                            END OF HEADER       
> 2024 04 17 01 15 00.4950000  0 23                     
G06  22115172.844   116216005.1341      -2056.463          44.000    22115172.327    90557940.8591      -1602.318          43.000  
G11  21140286.428   111092960.0021         42.034          46.000    21140283.432    86565969.5181         32.616          45.000  
G12  19827707.189   104195301.3301       -980.759          50.000    19827701.619    81191129.5011       -764.222          45.000  
G24  19576749.073   102876496.3701      -2423.236          47.000    19576749.068    80163503.8381      -1888.484          46.000  
R10  19730725.407   105175883.1391       1442.503          48.000                                                                  
R18  22128509.414                3      -4657.354          22.000    22128518.350                3      -3622.285          23.000  
R09  18613519.175    99395153.5841       -762.164          49.000    18613516.860    77307335.3291       -592.730          52.000  
R16  21492016.973   114806483.0311      -3031.989          50.000    21492016.681    89293938.3891      -2358.163          45.000  
R20  19202707.938   102685582.4271       2509.436          40.000    19202710.315    79866607.2291       1951.794          44.000  
G25  20146006.769   105867979.5861        494.549          47.000    20146005.667    82494545.3211        385.370          45.000  
G29  20927311.267   109973832.1971       1993.357          45.000    20927311.187    85693958.6681       1553.297          42.000  
S31  37431378.944   196703231.5991       -739.250          45.000  
S33  38384809.291   201713554.5091       -740.072          43.000  
E07  24507885.890   128789777.5521      -3360.312          46.000    24507894.441    98683098.1611      -2574.678          49.000  
R19  19169649.282   102544714.0861      -2396.078          40.000    19169648.079    79756989.8231      -1863.514          50.000  
R07  22014861.951   117847125.7941      -4216.441          32.000    22014870.893    91658863.3001      -3279.908          32.000  
R08  21369355.077   114431922.2641      -2344.727          46.000    21369354.568    89002605.5021      -1823.708          44.000  
E15  24109420.515   126695924.5101       1667.924          47.000    24109425.364    97078756.1561       1278.082          49.000  
E27  22913276.179   120410096.6601        -62.501          48.000    22913277.694    92262291.2381        -47.895          53.000  
E30  23341765.600   122661804.9921      -1739.192          48.000    23341766.558    93987625.7071      -1332.599          51.000  
E34  24282161.802   127603630.1001       -659.262          46.000    24282163.316    97774231.9651       -505.165          48.000  
G32  21805396.616   114588129.0251       -534.690          46.000    21805397.478    89289469.8951       -416.762          43.000  
E02                                                                  27154392.081                3      -1918.587          15.000  
> 2024 04 17 01 15 30.4950000  0 22                     
G06  22126965.541   116277975.620       -2075.110          44.000    22126965.443    90606229.586       -1616.974          43.000  
G11  21140099.038   111091975.410          23.323          47.000    21140094.313    86565202.410          18.077          44.000  
G12  19833319.899   104224795.464        -985.969          50.000    19833314.409    81214112.003        -768.165          44.000  
G24  19590629.165   102949436.535       -2439.803          47.000    19590629.073    80220340.292       -1901.124          46.000  
R10  19722614.091   105132651.876        1439.078          46.000                                                                  
R09  18617828.196    99418165.432        -772.511          49.000    18617826.230    77325233.454        -600.825          52.000  
R16  21509065.905   114897553.642       -3039.896          49.000    21509066.258    89364770.992       -2364.165          47.000  
R20  19188681.890   102610577.589        2490.485          41.000    19188684.137    79808270.328        1936.993          44.000  
G25  20143193.404   105853195.599         490.647          48.000    20143192.572    82483025.395         382.438          45.000  
G29  20915965.322   109914215.010        1980.896          45.000    20915967.299    85647503.994        1543.599          44.000  
S31  37435600.316   196725414.710        -739.890          45.000  
S33  38389033.577   201735755.220        -740.389          43.000  
E07  24527081.900   128890654.743       -3365.335          45.000    24527091.677    98760393.491       -2578.644          50.000  
R19  19183158.895   102616979.541       -2422.243          40.000    19183157.299    79813196.319       -1883.888          50.000  
R08  21382549.878   114502568.153       -2365.283          47.000    21382547.129    89057552.248       -1839.672          46.000  
E15  24099920.219   126646000.067        1659.856          47.000    24099924.834    97040502.583        1271.730          49.000  
E27  22913639.046   120412003.464         -65.116          48.000    22913640.420    92263752.336         -49.966          52.000  
E30  23351698.161   122714004.986       -1741.399          48.000    23351699.762    94027623.127       -1334.334          51.000  
E34  24285967.913   127623630.689        -674.601          46.000    24285969.108    97789557.157        -516.916          48.000  
G32  21808504.729   114604458.243        -554.269          47.000    21808504.485    89302193.973        -432.129          43.000  
R18                                                                  22154726.378                3      -3634.128          20.000  
R07                                                                  22038515.975                3      -3281.166          25.000  
> 2024 04 17 01 16 00.4950000  0 21                     
G06  22138863.607   116340496.705       -2093.093          45.000    22138862.608    90654947.407       -1631.033          43.000  
G11  21140016.267   111091537.853           5.558          47.000    21140011.046    86564861.593           3.974          44.000  
G12  19838959.867   104254433.767        -990.323          50.000    19838955.019    81237206.806        -771.532          45.000  
G24  19604602.575   103022863.564       -2455.634          48.000    19604602.298    80277556.142       -1913.509          46.000  
R10  19714521.369   105089513.878        1436.313          47.000                                                                  
R09  18622193.814    99441477.372        -782.203          49.000    18622191.346    77343364.973        -608.324          52.000  
R16  21526157.919   114988850.936       -3046.971          50.000    21526156.850    89435779.875       -2369.864          46.000  
R20  19174761.260   102536137.637        2472.003          41.000    19174763.561    79750372.771        1922.661          44.000  
G25  20140400.535   105838517.320         487.454          47.000    20140399.603    82471587.841         379.730          46.000  
G29  20904689.527   109854957.568        1969.142          45.000    20904689.965    85601329.608        1534.455          43.000  
S31  37439823.238   196747608.376        -740.097          44.000  
S33  38393260.008   201757966.178        -740.403          43.000  
E07  24546305.650   128991675.315       -3369.527          44.000    24546315.646    98837798.677       -2581.971          50.000  
R19  19196812.759   102690018.255       -2447.425          41.000    19196809.862    79870004.225       -1903.558          48.000  
R08  21395856.583   114573821.960       -2385.301          46.000    21395852.981    89112971.815       -1855.269          46.000  
E15  24090465.425   126596313.606        1652.255          47.000    24090469.987    97002431.340        1266.044          50.000  
E27  22914014.043   120413974.814         -66.841          47.000    22914015.369    92265262.891         -51.124          52.000  
E30  23361642.840   122766260.629       -1742.760          48.000    23361643.533    94067663.169       -1335.310          51.000  
E34  24289858.252   127644079.957        -689.099          46.000    24289860.293    97805226.161        -527.947          47.000  
G32  21811721.167   114621360.607        -572.916          48.000    21811721.233    89315364.669        -446.457          43.000  
R18                                                                  22181002.177                3      -3651.571          16.000  
> 2024 04 17 01 16 30.4960000  0 21                     
G06  22150865.143   116403567.865       -2111.799          43.000    22150864.625    90704093.810       -1645.388          43.000  
G11  21140036.248   111091647.407         -13.171          47.000    21140032.343    86564947.095         -10.333          44.000  
G12  19844626.834   104284215.874        -995.366          49.000    19844622.328    81260413.685        -775.598          45.000  
G24  19618668.380   103096777.726       -2472.205          48.000    19618668.505    80335151.529       -1926.337          46.000  
R10  19706446.112   105046468.164        1432.867          47.000                                                                  
R18  22207300.722                2      -4688.863          26.000    22207326.344                3      -3651.948          20.000  
R09  18626616.192    99465090.007        -792.584          51.000    18626613.719    77361730.358        -616.396          52.000  
R16  21543291.167   115080376.728       -3054.877          50.000    21543290.850    89506966.528       -2376.114          47.000  
R20  19160947.116   102462262.675        2452.562          42.000    19160948.780    79692914.637        1907.469          45.000  
G25  20137626.411   105823942.915         483.590          47.000    20137626.060    82460231.235         376.958          45.000  
G29  20893480.779   109796058.122        1957.052          45.000    20893481.172    85555434.189        1524.895          43.000  
S31  37444048.393   196769811.487        -740.638          44.000  
S33  38397488.624   201780187.145        -741.357          43.000  
E07  24565556.394   129092839.091       -3374.680          44.000    24565566.918    98915313.557       -2585.665          51.000  
R19  19210611.211   102763828.806       -2473.183          40.000    19210607.965    79927412.464       -1923.882          49.000  
R08  21409274.716   114645680.686       -2405.381          42.000    21409272.242    89168861.835       -1871.080          46.000  
E15  24081055.203   126546864.089        1643.925          47.000    24081060.276    96964541.666        1259.644          50.000  
E27  22914401.167   120416009.166         -69.119          47.000    22914402.384    92266821.742         -52.966          52.000  
E30  23371597.551   122818572.290       -1744.845          49.000    23371598.059    94107746.154       -1336.860          51.000  
E34  24293834.942   127664977.340        -704.172          46.000    24293836.809    97821238.528        -539.524          47.000  
G32  21815045.917   114638834.866        -592.293          47.000    21815046.356    89328980.989        -461.423          43.000  
> 2024 04 17 01 17 00.4960000  0 22                     
G06  22162970.569   116467184.902       -2129.831          44.000    22162970.369    90753665.587       -1659.555          43.000  
G11  21140162.024   111092306.787         -31.406          46.000    21140159.020    86565460.983         -24.345          45.000  
G12  19850320.753   104314140.855       -1000.038          48.000    19850316.479    81283731.885        -779.128          45.000  
G24  19632826.737   103171174.531       -2487.994          49.000    19632825.115    80393123.048       -1938.800          46.000  
R10  19698389.577   105003520.252        1429.919          47.000                                                                  
R18  22233694.028                3      -4700.052          24.000    22233704.897                3      -3644.309          17.000  
R09  18631094.838    99489004.171        -802.204          50.000    18631092.205    77380330.289        -623.977          52.000  
R16  21560466.042   115172126.521       -3062.209          49.000    21560466.722    89578327.417       -2381.711          46.000  
R20  19147239.890   102388963.388        2433.696          43.000    19147240.525    79635904.268        1892.810          44.000  
G25  20134872.910   105809474.708         480.601          47.000    20134872.267    82448957.367         374.303          45.000  
G29  20882341.893   109737522.686        1944.975          46.000    20882342.277    85509822.426        1515.432          43.000  
S31  37448275.089   196792024.236        -740.596          45.000  
S33  38401718.908   201802417.910        -741.120          43.000  
E07  24584833.408   129194138.420       -3379.037          44.000    24584843.591    98992932.320       -2589.086          51.000  
R19  19224552.400   102838404.434       -2498.664          41.000    19224549.262    79985415.751       -1943.415          49.000  
R07  22109619.642                3      -4232.049          26.000                                                                  
R08  21422804.217   114718137.711       -2425.243          43.000    21422803.169    89225217.263       -1886.287          46.000  
E15  24071691.354   126497658.026        1636.061          47.000    24071696.519    96926838.539        1253.584          50.000  
E27  22914799.940   120418107.469         -71.006          47.000    22914801.553    92268429.604         -54.456          52.000  
E30  23381562.730   122870937.951       -1746.543          49.000    23381562.723    94147870.524       -1338.364          50.000  
E34  24297897.132   127686322.922        -719.111          46.000    24297898.519    97837594.309        -551.038          46.000  
G32  21818480.307   114656880.557        -611.156          48.000    21818480.612    89343042.582        -476.293          44.000  
> 2024 04 17 01 17 30.4960000  0 20                     
G06  22175180.252   116531347.417       -2147.928          43.000    22175179.923    90803662.396       -1673.672          42.000  
G11  21140390.983   111093515.954         -49.727          45.000    21140389.262    86566403.291         -38.632          45.000  
G12  19856042.769   104344208.182       -1004.713          49.000    19856038.203    81307161.003        -782.952          44.000  
G24  19647075.233   103246054.235       -2504.138          49.000    19647074.305    80451470.869       -1951.257          46.000  
R10  19690350.358   104960668.897        1426.550          47.000                                                                  
R09  18635629.847    99513221.002        -812.448          50.000    18635627.693    77399165.641        -631.887          53.000  
R16  21577684.480   115264102.669       -3069.746          48.000    21577684.050    89649864.383       -2387.745          46.000  
R20  19133640.188   102316239.206        2414.396          43.000    19133640.581    79579341.161        1877.885          44.000  
G25  20132140.319   105795110.932         477.006          47.000    20132138.739    82437764.859         371.616          45.000  
G29  20871272.174   109679349.253        1933.002          47.000    20871271.446    85464492.727        1506.093          42.000  
S31  37452503.662   196814245.932        -740.953          44.000  
S33  38405950.639   201824658.263        -741.582          43.000  
E07  24604135.529   129295573.313       -3383.445          43.000    24604146.078    99070654.951       -2592.519          50.000  
R19  19238636.066   102913744.182       -2524.172          41.000    19238632.976    80044013.359       -1963.135          49.000  
R08  21436447.344   114791190.489       -2445.052          45.000    21436445.761    89282036.054       -1901.662          46.000  
E15  24062373.185   126448694.425        1627.912          47.000    24062378.131    96889321.194        1247.311          49.000  
E27  22915211.446   120420268.303         -73.152          47.000    22915212.487    92270085.365         -56.125          52.000  
E30  23391537.864   122923358.077       -1748.334          49.000    23391537.749    94188036.610       -1339.574          50.000  
E34  24302043.026   127708116.145        -733.993          46.000    24302045.556    97854293.084        -562.365          47.000  
G32  21822022.877   114675496.344        -630.217          47.000    21822023.096    89357548.422        -491.139          44.000  
> 2024 04 17 01 18 00.4960000  0 20                     
G06  22187491.313   116596045.030       -2165.816          43.000    22187490.696    90854076.157       -1687.530          42.000  
G11  21140724.452   111095267.171         -67.709          44.000    21140722.222    86567767.982         -52.599          45.000  
G12  19861790.024   104374408.869       -1009.290          49.000    19861785.592    81330694.031        -786.461          45.000  
G24  19661414.124   103321406.905       -2519.952          48.000    19661413.550    80510187.192       -1963.379          46.000  
R10  19682327.818   104917906.629        1423.602          47.000                                                                  
R09  18640219.956    99537732.582        -822.331          49.000    18640217.281    77418230.228        -639.553          52.000  
R16  21594943.353   115356295.677       -3077.087          49.000    21594942.518    89721569.939       -2393.193          45.000  
R20  19120146.249   102244084.328        2395.229          43.000    19120146.987    79523220.874        1863.134          44.000  
G25  20129425.072   105780842.530         473.734          47.000    20129423.772    82426646.669         369.363          45.000  
G29  20860268.698   109621530.279        1921.072          46.000    20860267.646    85419439.209        1496.965          41.000  
S31  37456732.174   196836466.695        -741.025          45.000  
S33  38410182.554   201846896.572        -741.661          43.000  
E07  24623462.715   129397132.514       -3387.588          44.000    24623472.369    99148472.829       -2595.744          50.000  
R19  19252860.223   102989836.253       -2549.344          41.000    19252857.685    80103196.097       -1982.772          48.000  
R08  21450197.375   114864826.049       -2464.559          45.000    21450196.988    89339308.146       -1916.758          46.000  
E15  24053100.066   126399966.107        1620.084          47.000    24053105.176    96851984.120        1241.162          49.000  
E27  22915632.465   120422482.377         -75.051          47.000    22915633.672    92271781.907         -57.470          52.000  
E30  23401521.109   122975823.710       -1749.862          48.000    23401521.982    94228237.561       -1340.799          50.000  
E34  24306274.268   127730348.056        -748.660          46.000    24306276.530    97871327.980        -573.761          47.000  
G32  21825670.929   114694672.537        -648.802          47.000    21825672.761    89372490.953        -505.525          45.000  
> 2024 04 17 01 18 30.4960000  0 21                     
G06  22199903.131   116661265.814       -2183.218          44.000    22199900.602    90904897.596       -1701.150          41.000  
G11  21141157.878   111097551.185         -85.588          43.000    21141156.048    86569547.847         -66.573          43.000  
G12  19867560.663   104404731.893       -1013.257          50.000    19867555.651    81354322.397        -789.449          45.000  
E19  26243233.507                1        646.944          27.000                                                                  
G24  19675841.015   103397221.029       -2535.327          48.000    19675839.985    80569263.113       -1975.421          45.000  
R10  19674320.121   104875223.835        1420.947          47.000                                                                  
R09  18644863.830    99562529.559        -831.717          50.000    18644861.100    77437516.781        -646.921          52.000  
R16  21612240.113   115448695.230       -3083.914          50.000    21612240.469    89793436.152       -2398.619          46.000  
R20  19106757.860   102172492.706        2376.465          42.000    19106758.020    79467538.646        1848.534          43.000  
G25  20126726.028   105766658.948         470.958          48.000    20126724.632    82415594.605         366.967          45.000  
G29  20849331.380   109564056.525        1909.740          46.000    20849330.434    85374654.712        1487.821          41.000  
S31  37460958.586   196858676.553        -740.658          45.000  
S33  38414412.155   201869124.354        -741.161          43.000  
E07  24642810.581   129498803.320       -3391.227          44.000    24642819.538    99226376.259       -2598.524          50.000  
R19  19267223.679   103066666.229       -2573.671          43.000    19267219.996    80162952.767       -2001.815          49.000  
R08  21464055.341   114939030.400       -2483.179          45.000    21464055.173    89397022.608       -1931.505          45.000  
E15  24043870.968   126351464.478        1612.540          47.000    24043875.208    96814820.731        1235.537          49.000  
E27  22916061.594   120424738.888         -76.361          47.000    22916063.013    92273510.974         -58.514          52.000  
E30  23411511.767   123028324.398       -1751.049          49.000    23411512.683    94268465.360       -1341.748          51.000  
E34  24310585.445   127753008.143        -762.872          45.000    24310588.648    97888690.958        -584.493          47.000  
G32  21829424.681   114714398.006        -666.994          46.000    21829425.808    89387861.473        -519.913          44.000  
> 2024 04 17 01 19 00.4960000  0 20                     
G06  22212416.365   116727023.249       -2200.823          43.000    22212414.179    90956137.189       -1715.145          41.000  
G11  21141695.763   111100384.055        -103.617          43.000    21141694.810    86571755.380         -80.829          43.000  
G12  19873356.697   104435191.910       -1017.685          50.000    19873351.202    81378057.527        -793.209          45.000  
G24  19690357.982   103473510.446       -2550.879          47.000    19690357.836    80628709.385       -1987.628          46.000  
R10  19666331.445   104832636.996        1417.889          47.000                                                                  
R09  18649563.664    99587628.359        -841.645          49.000    18649561.286    77457038.108        -654.794          52.000  
R16  21629579.420   115541316.403       -3091.211          49.000    21629580.517    89865474.748       -2404.281          48.000  
R20  19093478.738   102101483.134        2357.248          42.000    19093479.206    79412309.155        1833.374          44.000  
G25  20124045.828   105752575.019         467.864          48.000    20124044.884    82404620.198         364.404          45.000  
G29  20838463.274   109506943.611        1897.858          46.000    20838462.478    85330151.389        1478.562          42.000  
S31  37465185.523   196880889.747        -740.470          45.000  
S33  38418642.687   201891355.768        -741.036          43.000  
E07  24662180.999   129600598.350       -3395.333          44.000    24662190.840    99304374.861       -2601.609          50.000  
R19  19281726.300   103144246.265       -2598.677          42.000    19281722.732    80223292.829       -2021.106          48.000  
R08  21478022.104   115013815.158       -2502.659          45.000    21478019.143    89455188.460       -1946.507          45.000  
E15  24034688.072   126303206.181        1604.448          48.000    24034691.583    96777843.804        1229.321          48.000  
E27  22916501.584   120427052.406         -78.172          46.000    22916503.277    92275283.723         -59.936          52.000  
E30  23421512.522   123080874.927       -1752.641          49.000    23421512.866    94308731.362       -1342.980          51.000  
E34  24314981.750   127776111.243        -777.702          45.000    24314984.666    97906393.397        -595.932          47.000  
G32  21833285.771   114734686.803        -685.589          47.000    21833286.547    89403670.967        -534.318          44.000  
> 2024 04 17 01 19 30.4960000  0 22                     
G06  22225028.536   116793300.959       -2217.646          43.000    22225026.632    91007782.180       -1727.904          40.000  
G11  21142337.892   111103752.103        -121.159          44.000    21142335.792    86574379.911         -94.363          43.000  
G12  19879176.077   104465773.754       -1021.070          50.000    19879170.847    81401887.559        -795.549          45.000  
G24  19704963.029   103550259.193       -2565.790          48.000    19704962.773    80688513.572       -1999.146          46.000  
R10  19658358.497   104790132.370        1415.680          49.000                                                                  
R09  18654317.525    99613015.207        -850.745          48.000    18654314.937    77476783.436        -661.785          52.000  
R16  21646957.936   115634144.320       -3097.424          50.000    21646958.786    89937674.162       -2409.045          49.000  
R20  19080306.205   102031043.644        2338.899          43.000    19080306.419    79357523.049        1819.070          44.000  
G25  20121381.919   105738575.886         465.457          48.000    20121380.684    82393711.852         362.780          45.000  
G29  20827660.917   109450177.881        1886.799          47.000    20827660.445    85285918.576        1470.300          42.000  
S31  37469410.408   196903091.992        -739.651          45.000  
S33  38422871.174   201913576.131        -740.105          43.000  
E07  24681572.465   129702500.439       -3398.549          44.000    24681582.305    99382455.492       -2603.894          50.000  
R19  19296366.261   103222558.737       -2622.056          43.000    19296362.390    80284202.586       -2039.527          47.000  
R07  22228468.199                3      -4243.389          25.000                                                                  
R08  21492092.514   115089161.213       -2520.630          47.000    21492088.220    89513790.895       -1960.364          44.000  
E15  24025547.688   126255178.160        1597.364          47.000    24025551.704    96741043.326        1223.920          48.000  
E27  22916950.326   120429407.748         -78.937          47.000    22916951.695    92277088.518         -60.444          53.000  
E30  23431518.819   123133460.444       -1753.182          49.000    23431519.740    94349024.178       -1343.390          51.000  
E34  24319459.902   127799642.382        -791.190          46.000    24319462.347    97924423.810        -606.223          47.000  
G32  21837250.836   114755523.300        -703.421          47.000    21837252.268    89419907.215        -548.073          44.000  
E19                                                                  26235982.130                1        477.709          27.000  
> 2024 04 17 01 20 00.4960000  0 21                     
G06  22237735.663   116860075.782       -2234.484          43.000    22237732.901    91059814.535       -1741.163          40.000  
G11  21143077.010   111107634.645        -138.519          44.000    21143073.320    86577405.407        -108.093          42.000  
G12  19885014.276   104496455.523       -1024.932          49.000    19885009.760    81425795.495        -798.788          46.000  
G24  19719649.929   103627444.479       -2580.670          47.000    19719650.197    80748657.962       -2010.950          45.000  
R10  19650396.821   104747690.116        1413.263          48.000                                                                  
R09  18659122.582    99638669.149        -860.165          49.000    18659118.962    77496736.529        -669.051          51.000  
R16  21664369.517   115727156.845       -3103.993          49.000    21664370.324    90010017.143       -2414.208          48.000  
R20  19067236.834   101961155.421        2319.896          43.000    19067236.385    79303165.717        1804.254          44.000  
G25  20118729.491   105724639.733         463.018          48.000    20118728.257    82382852.575         360.640          44.000  
G29  20816921.422   109393738.408        1875.306          48.000    20816920.367    85241939.973        1461.349          43.000  
S31  37473628.684   196925259.898        -738.934          45.000  
S33  38427092.731   201935763.615        -739.792          43.000  
E07  24700979.715   129804485.640       -3401.273          43.000    24700989.461    99460599.768       -2606.256          50.000  
R19  19311138.343   103301578.214       -2646.069          43.000    19311134.204    80345662.219       -2058.179          48.000  
R08  21506261.768   115165043.099       -2538.697          44.000    21506258.392    89572810.091       -1974.658          43.000  
E15  24016448.410   126207360.565        1589.731          47.000    24016452.645    96704404.073        1218.142          49.000  
E27  22917402.553   120431782.921         -80.043          47.000    22917403.754    92278908.521         -61.338          53.000  
E30  23441527.990   123186059.292       -1753.984          49.000    23441528.814    94389327.218       -1344.110          51.000  
E34  24324016.079   127823579.832        -805.249          46.000    24324016.923    97942765.572        -617.054          47.000  
G32  21841315.828   114776884.953        -721.129          47.000    21841316.856    89436552.686        -561.995          45.000  
E19                                                                  26232452.119                         469.471          27.000  
> 2024 04 17 01 20 30.4960000  0 21                     
G06  22250539.159   116927356.991       -2250.702          42.000    22250535.553    91112241.511       -1753.728          40.000  
G11  21143916.747   111112043.686        -155.418          45.000    21143911.983    86580841.138        -121.392          42.000  
G12  19890873.664   104527247.891       -1027.786          50.000    19890869.476    81449789.580        -801.070          46.000  
G24  19734422.764   103705076.064       -2594.739          47.000    19734423.783    80809150.077       -2021.832          46.000  
R10  19642447.919   104705321.534        1411.511          48.000                                                                  
R09  18663978.421    99664602.666        -868.766          49.000    18663975.762    77516907.047        -675.678          52.000  
R16  21681819.034   115820365.228       -3109.795          50.000    21681818.987    90082512.480       -2418.724          48.000  
R20  19054272.971   101891834.099        2301.675          42.000    19054273.416    79249249.325        1790.161          44.000  
G25  20116091.414   105710777.364         461.294          48.000    20116090.219    82372050.770         359.310          44.000  
G29  20806245.683   109337637.228        1864.999          48.000    20806243.966    85198225.011        1453.206          43.000  
S31  37477842.941   196947405.787        -737.510          44.000  
S33  38431310.125   201957927.306        -737.540          43.000  
E07  24720405.096   129906562.479       -3403.810          44.000    24720413.927    99538814.275       -2608.035          49.000  
R19  19326043.897   103381312.571       -2669.331          42.000    19326040.376    80407677.855       -2076.136          48.000  
R08  21520532.075   115241467.859       -2556.139          46.000    21520530.563    89632251.442       -1987.969          44.000  
E15  24007391.185   126159765.973        1583.036          47.000    24007396.236    96667935.701        1212.990          50.000  
E27  22917859.868   120434188.444         -80.268          47.000    22917861.568    92280751.769         -61.531          53.000  
E30  23451541.300   123238682.251       -1754.057          48.000    23451542.290    94429648.727       -1344.162          50.000  
E34  24328650.208   127847934.256        -818.536          46.000    24328651.241    97961426.824        -627.052          47.000  
G32  21845482.643   114798781.765        -738.498          46.000    21845483.383    89453615.143        -575.129          44.000  
E19                                                                  26228984.874                3        461.390          25.000  
> 2024 04 17 01 21 00.4960000  0 21                     
G06  22263432.382   116995112.854       -2266.011          42.000    22263429.326    91165038.369       -1765.766          39.000  
G11  21144850.162   111116950.078        -171.365          45.000    21144846.867    86584664.369        -133.613          44.000  
G12  19896748.601   104558120.616       -1030.000          50.000    19896744.033    81473846.305        -802.632          45.000  
G24  19749275.162   103783122.550       -2608.002          47.000    19749275.902    80869965.506       -2032.306          47.000  
R10  19634507.102   104662998.001        1410.449          47.000                                                                  
R09  18668880.746    99690786.177        -876.596          49.000    18668878.637    77537271.989        -681.689          52.000  
R16  21699299.157   115913738.760       -3114.660          51.000    21699298.449    90155136.263       -2422.542          47.000  
R20  19041410.663   101823051.794        2284.216          42.000    19041410.481    79195752.161        1776.337          43.000  
G25  20113461.571   105696958.481         460.403          48.000    20113461.190    82361282.873         358.853          45.000  
G29  20795628.973   109281845.454        1855.076          48.000    20795626.407    85154751.134        1445.386          43.000  
S31  37482046.577   196969498.073        -735.124          44.000  
S33  38435517.760   201980038.666        -735.710          43.000  
E07  24739839.642   130008698.463       -3404.958          43.000    24739849.822    99617074.120       -2608.965          49.000  
R19  19341076.677   103461728.222       -2691.364          43.000    19341073.561    80470223.402       -2093.292          49.000  
R08  21534899.816   115318401.184       -2572.383          48.000    21534898.572    89692088.400       -2000.842          45.000  
E15  23998370.187   126112365.918        1577.329          46.000    23998375.695    96631616.393        1208.575          49.000  
E27  22918317.895   120436593.753         -79.667          47.000    22918319.416    92282594.854         -61.040          53.000  
E30  23461555.045   123291299.061       -1753.355          49.000    23461554.844    94469965.513       -1343.388          50.000  
E34  24333358.682   127872675.318        -830.633          46.000    24333359.862    97980384.323        -636.401          48.000  
G32  21849745.755   114821182.585        -754.673          46.000    21849745.249    89471070.388        -588.057          44.000  
E19                                                                  26225574.467                3        453.759          22.000  
> 2024 04 17 01 21 30.4960000  0 22                     
G06  22276412.386   117063324.613       -2281.610          41.000    22276410.363    91218190.415       -1777.880          40.000  
G11  21145874.958   111122337.627        -187.956          45.000    21145872.035    86588862.586        -146.589          43.000  
G12  19902635.464   104589055.939       -1032.547          49.000    19902630.463    81497951.790        -804.722          45.000  
E19  26222231.325                1        580.413          27.000    26222222.981                3        446.652          17.000  
G24  19764202.402   103861565.624       -2621.692          47.000    19764202.801    80931089.934       -2042.920          46.000  
R10  19626572.542   104620703.717        1408.868          47.000                                                                  
R09  18673828.697    99717203.322        -884.890          50.000    18673825.701    77557818.667        -688.253          52.000  
R16  21716805.099   116007260.083       -3120.240          49.000    21716805.720    90227875.017       -2427.028          48.000  
R20  19028646.088   101754795.141        2265.969          42.000    19028645.614    79142663.801        1762.449          43.000  
G25  20110837.172   105683165.901         458.958          48.000    20110836.576    82350535.455         357.600          45.000  
G29  20785067.179   109226346.754        1844.714          47.000    20785065.668    85111505.639        1437.363          44.000  
S31  37486237.038   196991519.196        -733.152          45.000  
S33  38439712.183   202002079.803        -733.907          43.000  
E07  24759282.636   130110874.192       -3406.918          42.000    24759293.321    99695364.374       -2610.482          49.000  
R19  19356232.523   103542803.984       -2714.005          42.000    19356229.524    80533282.364       -2110.841          48.000  
R07  22323822.809                3      -4243.530          26.000                                                                  
R08  21549357.589   115395821.714       -2589.108          47.000    21549356.424    89752304.314       -2013.949          46.000  
E15  23989384.125   126065145.053        1570.516          46.000    23989389.358    96595434.371        1203.469          49.000  
E27  22918772.092   120438981.412         -79.631          47.000    22918773.753    92284424.420         -61.101          53.000  
E30  23471562.141   123343892.574       -1753.150          49.000    23471562.937    94510264.461       -1343.312          50.000  
E34  24338136.613   127897785.737        -843.592          46.000    24338138.599    97999624.821        -646.299          48.000  
G32  21854099.845   114844069.376        -771.240          44.000    21854100.951    89488904.297        -600.908          44.000  
> 2024 04 17 01 22 00.4960000  0 21                     
G06  22289484.526   117132021.083       -2298.634          40.000    22289484.294    91271720.179       -1791.034          41.000  
G11  21146998.011   111128237.795        -206.107          44.000    21146994.165    86593460.180        -160.519          43.000  
G12  19908539.530   104620084.106       -1036.558          49.000    19908534.810    81522129.601        -807.806          45.000  
E19  26218937.820                         569.506          29.000                                                                  
G24  19779210.527   103940434.539       -2636.755          48.000    19779210.306    80992546.189       -2054.712          46.000  
R10  19618649.892   104578470.521        1405.963          47.000                                                                  
R09  18678825.092    99743886.578        -894.783          49.000    18678822.877    77578572.333        -695.918          52.000  
R16  21734346.463   116100960.343       -3127.138          50.000    21734347.026    90300752.885       -2432.283          48.000  
R20  19015985.676   101687098.144        2246.132          41.000    19015985.904    79090010.756        1747.295          43.000  
G25  20108223.165   105669429.989         456.094          48.000    20108222.332    82339832.198         355.297          45.000  
G29  20774567.213   109171172.501        1832.989          48.000    20774566.152    85068512.916        1428.233          44.000  
S31  37490419.723   197013500.370        -732.820          45.000  
S33  38443897.984   202024078.783        -733.370          43.000  
E07  24778740.565   130213117.719       -3409.962          44.000    24778749.580    99773706.616       -2612.846          49.000  
R19  19371517.099   103624567.930       -2737.680          42.000    19371513.436    80596876.569       -2129.286          47.000  
R08  21563911.247   115473756.062       -2607.016          47.000    21563910.690    89812919.846       -2027.937          46.000  
E15  23980438.505   126018135.529        1562.678          47.000    23980443.713    96559414.285        1197.442          49.000  
E27  22919227.638   120441381.504         -80.949          46.000    22919230.437    92286263.515         -62.036          53.000  
E30  23481572.309   123396493.195       -1754.303          49.000    23481572.598    94550568.845       -1344.158          50.000  
E34  24342990.981   127923295.736        -857.668          46.000    24342992.704    98019171.500        -657.280          48.000  
G32  21858553.257   114867471.622        -789.380          45.000    21858555.744    89507139.821        -614.905          45.000  
> 2024 04 17 01 22 30.4960000  0 21                     
G06  22302653.210   117201225.005       -2315.149          40.000    22302652.651    91325645.327       -1804.122          40.000  
G11  21148222.299   111134675.785        -223.431          44.000    21148220.369    86598476.958        -174.303          45.000  
G12  19914466.088   104651229.545       -1040.121          49.000    19914461.429    81546398.800        -810.650          44.000  
E19  26215721.549                         558.398          29.000                                                                  
G24  19794304.418   104019752.375       -2651.576          48.000    19794303.519    81054352.256       -2066.102          45.000  
R10  19610743.703   104536324.745        1403.326          47.000                                                                  
R09  18683877.003    99770861.334        -903.973          50.000    18683874.518    77599552.701        -703.118          52.000  
R16  21751926.425   116194863.768       -3133.514          51.000    21751926.269    90373788.798       -2437.094          47.000  
R20  19003435.697   101619989.259        2226.989          41.000    19003436.648    79037815.130        1732.104          44.000  
G25  20105624.286   105655775.018         453.634          48.000    20105623.668    82329192.042         353.495          45.000  
G29  20764134.464   109116348.134        1821.676          48.000    20764132.920    85025792.838        1419.519          44.000  
S31  37494599.345   197035464.785        -731.831          45.000  
S33  38448081.317   202046061.644        -732.685          43.000  
E07  24798213.446   130315451.069       -3412.570          44.000    24798223.444    99852117.699       -2614.833          49.000  
R19  19386934.816   103707042.037       -2760.902          42.000    19386931.297    80661023.101       -2147.378          48.000  
R08  21578565.494   115552225.847       -2624.533          47.000    21578564.453    89873951.898       -2041.361          47.000  
E15  23971539.036   125971363.428        1555.054          48.000    23971543.216    96523576.130        1191.546          49.000  
E27  22919691.243   120443818.055         -81.872          46.000    22919694.093    92288130.536         -62.714          53.000  
E30  23491587.794   123449125.212       -1754.879          49.000    23491587.805    94590897.289       -1344.682          50.000  
E34  24347926.450   127949229.451        -871.501          47.000    24347927.641    98039042.843        -667.771          48.000  
G32  21863109.574   114891412.664        -807.166          45.000    21863111.786    89525795.217        -628.844          46.000  
> 2024 04 17 01 23 00.4960000  0 21                     
G06  22315915.134   117270913.518       -2330.990          40.000    22315913.003    91379948.106       -1816.131          38.000  
G11  21149545.194   111141631.426        -240.080          43.000    21149543.547    86603897.060        -187.243          44.000  
G12  19920411.457   104682470.408       -1042.670          50.000    19920406.427    81570742.333        -812.393          45.000  
E19  26212566.839                         548.074          29.000                                                                  
G24  19809480.103   104099496.725       -2664.900          48.000    19809478.158    81116490.643       -2076.464          45.000  
R10  19602849.819   104494247.005        1401.752          47.000                                                                  
R09  18688979.892    99798107.845        -912.426          51.000    18688976.768    77620744.425        -709.643          52.000  
R16  21769539.690   116288949.021       -3138.967          50.000    21769538.981    90446966.109       -2441.424          45.000  
R20  18990991.943   101553450.297        2208.884          40.000    18990993.375    78986062.773        1717.776          43.000  
G25  20103036.567   105642179.752         452.401          47.000    20103036.406    82318598.387         352.459          45.000  
G29  20753764.767   109061853.161        1811.302          48.000    20753762.210    84983329.422        1411.336          43.000  
S31  37498771.938   197057391.188        -730.002          45.000  
S33  38452257.593   202068008.403        -730.772          43.000  
E07  24817698.722   130417850.802       -3414.128          43.000    24817710.072    99930579.593       -2616.044          50.000  
R19  19402480.127   103790200.953       -2783.052          42.000    19402477.448    80725702.288       -2164.570          48.000  
R08  21593314.682   115631205.103       -2640.925          46.000    21593313.537    89935380.176       -2053.800          47.000  
E15  23962680.976   125924809.276        1548.442          48.000    23962683.978    96487904.972        1186.508          49.000  
E27  22920158.764   120446269.553         -81.543          46.000    22920160.336    92290009.018         -62.527          53.000  
E30  23501605.340   123501767.429       -1754.617          49.000    23501605.430    94631233.561       -1344.484          50.000  
E34  24352938.293   127975565.462        -884.170          46.000    24352939.251    98059222.428        -677.535          49.000  
G32  21867763.993   114915870.271        -823.563          45.000    21867765.300    89544853.135        -641.831          45.000  
> 2024 04 17 01 23 30.4960000  0 21                     
G06  22329267.094   117341081.115       -2347.031          36.000    22329265.185    91434624.194       -1828.792          38.000  
G11  21150966.491   111149101.875        -257.911          43.000    21150964.188    86609718.275        -200.964          43.000  
G12  19926374.092   104713802.747       -1046.105          51.000    19926368.918    81595157.174        -815.116          45.000  
E19  26209474.680                         536.894          29.000                                                                  
G24  19824735.621   104179662.564       -2679.421          48.000    19824733.851    81178957.528       -2088.022          46.000  
R10  19594968.380   104452234.189        1399.054          47.000                                                                  
R09  18694132.088    99825623.656        -921.986          50.000    18694129.846    77642145.623        -717.102          52.000  
R16  21787185.530   116383212.574       -3145.365          50.000    21787185.804    90520282.095       -2446.302          45.000  
R20  18978655.436   101487480.900        2189.136          41.000    18978656.486    78934753.380        1702.951          44.000  
G25  20100460.551   105628640.393         450.221          47.000    20100459.495    82308048.296         350.769          45.000  
G29  20743456.499   109007685.123        1799.925          48.000    20743454.223    84941120.745        1402.600          44.000  
S31  37502936.394   197079275.646        -728.997          45.000  
S33  38456425.462   202089911.958        -729.447          43.000  
E07  24837196.871   130520310.844       -3416.571          42.000    24837207.667   100009087.701       -2617.898          49.000  
R19  19418152.930   103874038.079       -2806.106          42.000    19418149.593    80790908.977       -2182.454          48.000  
R08  21608157.757   115710686.301       -2657.764          47.000    21608156.092    89997198.874       -2067.249          46.000  
E15  23953862.507   125878471.058        1540.717          48.000    23953865.720    96452399.244        1180.626          49.000  
E27  22920626.707   120448731.942         -82.333          47.000    22920628.815    92291895.849         -63.123          53.000  
E30  23511623.327   123554416.090       -1755.295          48.000    23511624.362    94671574.755       -1344.918          50.000  
E34  24358024.722   128002299.785        -898.080          46.000    24358026.522    98079707.228        -688.061          49.000  
G32  21872515.485   114940839.721        -841.022          46.000    21872515.647    89564309.907        -655.491          44.000  
> 2024 04 17 01 24 00.4960000  0 20                     
G06  22342712.905   117411739.587       -2363.572          36.000    22342711.955    91489682.762       -1841.698          40.000  
G11  21152489.622   111157101.422        -275.768          44.000    21152486.459    86615951.728        -214.797          43.000  
G12  19932356.120   104745239.605       -1049.971          50.000    19932351.846    81619653.457        -818.101          46.000  
G24  19840072.283   104260261.974       -2694.174          47.000    19840071.421    81241762.255       -2099.414          46.000  
R10  19587101.794   104410301.404        1396.118          46.000                                                                  
R09  18699337.532    99853422.963        -931.694          51.000    18699336.174    77663767.308        -724.637          53.000  
R16  21804867.193   116477667.682       -3151.952          49.000    21804866.895    90593747.081       -2451.322          43.000  
R20  18966428.989   101422098.176        2169.251          42.000    18966429.310    78883900.301        1687.341          44.000  
G25  20097897.814   105615170.356         447.528          48.000    20097895.942    82297552.206         348.832          45.000  
G29  20733213.774   108953857.599        1788.236          49.000    20733211.923    84899177.443        1393.411          44.000  
S31  37507095.253   197101131.281        -728.296          44.000  
S33  38460588.239   202111786.923        -728.876          42.000  
E07  24856708.698   130622842.241       -3418.924          42.000    24856718.818   100087650.481       -2619.815          49.000  
R19  19433953.995   103958562.883       -2829.234          42.000    19433950.833    80856650.528       -2200.429          48.000  
R08  21623095.447   115790679.120       -2675.243          46.000    21623094.546    90059415.453       -2080.806          47.000  
E15  23945087.881   125832363.845        1532.785          47.000    23945091.983    96417070.529        1174.553          50.000  
E27  22921100.279   120451218.292         -83.572          47.000    22921102.043    92293801.034         -64.010          53.000  
E30  23521646.132   123607084.515       -1756.216          49.000    23521646.623    94711931.099       -1345.625          49.000  
E34  24363189.619   128029445.514        -911.882          46.000    24363192.081    98100507.274        -698.760          49.000  
G32  21877368.075   114966333.302        -858.742          47.000    21877366.616    89584175.089        -668.990          44.000  
> 2024 04 17 01 24 30.4960000  0 22                     
G06  22356258.430   117482917.205       -2381.380          36.000    22356257.482    91545145.789       -1855.585          40.000  
G11  21154119.146   111165660.877        -294.872          45.000    21154115.966    86622621.505        -229.824          45.000  
G12  19938364.176   104776811.151       -1054.788          50.000    19938359.585    81644254.688        -821.933          45.000  
G24  19855496.887   104341323.748       -2710.058          46.000    19855497.980    81304927.240       -2111.585          47.000  
R10  19579256.040   104368480.906        1391.882          46.000                                                                  
R07  22466664.401                3      -4245.539          16.000                                                                  
R09  18704602.514    99881537.799        -942.692          50.000    18704600.938    77685634.410        -733.214          52.000  
R16  21822590.320   116572344.866       -3159.881          49.000    21822590.749    90667384.732       -2457.416          42.000  
R20  18954318.543   101357336.269        2148.428          42.000    18954318.745    78833530.077        1670.972          44.000  
G25  20095353.345   105601799.552         443.845          48.000    20095351.754    82287133.457         346.091          45.000  
G29  20723042.005   108900402.253        1775.444          49.000    20723039.746    84857524.104        1383.348          44.000  
S31  37511254.203   197122987.841        -728.731          44.000  
S33  38464750.785   202133663.283        -729.337          43.000  
E07  24876239.468   130725472.720       -3422.663          43.000    24876249.312   100166289.170       -2622.605          50.000  
R19  19449888.900   104043802.676       -2853.339          41.000    19449885.283    80922948.161       -2219.375          48.000  
R08  21638134.306   115871210.547       -2693.433          46.000    21638133.201    90122050.907       -2094.989          47.000  
E15  23936364.054   125786519.370        1523.561          48.000    23936367.992    96381943.139        1167.475          50.000  
E27  22921583.748   120453758.343         -85.714          47.000    22921585.224    92295747.359         -65.693          53.000  
E30  23531678.144   123659802.736       -1758.275          49.000    23531678.728    94752325.604       -1347.289          50.000  
E34  24368439.218   128057032.473        -926.975          46.000    24368441.629    98121645.399        -710.438          49.000  
G32  21882324.489   114992379.911        -877.641          47.000    21882323.718    89604471.200        -683.854          44.000  
E19                                                                  26203482.785                3        391.451          25.000  
> 2024 04 17 01 25 00.4960000  0 21                     
G06  22369906.518   117554632.370       -2399.396          35.000    22369904.355    91601027.760       -1869.653          39.000  
G11  21155858.617   111174801.298        -314.207          45.000    21155856.193    86629744.011        -244.903          44.000  
G12  19944401.477   104808537.172       -1059.937          50.000    19944396.594    81668976.295        -825.805          45.000  
G24  19871013.891   104422866.745       -2725.940          46.000    19871015.544    81368467.207       -2124.119          47.000  
R10  19571436.224   104326794.168        1387.292          46.000                                                                  
R09  18709931.454    99909990.051        -953.932          51.000    18709928.780    77707763.971        -742.032          52.000  
R16  21840359.623   116667264.487       -3167.870          50.000    21840360.028    90741211.073       -2464.021          44.000  
R20  18942327.030   101293218.316        2126.548          41.000    18942328.077    78783660.734        1654.104          44.000  
G25  20092831.962   105588548.192         439.987          48.000    20092830.351    82276807.799         343.081          44.000  
G29  20712944.187   108847339.688        1762.240          50.000    20712942.892    84816176.844        1373.215          44.000  
S31  37515417.511   197144864.797        -729.510          44.000  
S33  38468917.772   202155560.358        -730.023          43.000  
E07  24895790.577   130828220.147       -3426.829          42.000    24895801.657   100245017.489       -2625.676          50.000  
R19  19465959.950   104129775.281       -2877.865          41.000    19465957.458    80989815.766       -2238.380          49.000  
R08  21653276.578   115952296.518       -2711.950          46.000    21653274.334    90185117.697       -2109.215          44.000  
E15  23927693.867   125740959.566        1513.957          48.000    23927697.844    96347033.866        1160.112          50.000  
E27  22922081.207   120456371.971         -88.296          47.000    22922082.437    92297750.068         -67.632          53.000  
E30  23541723.534   123712590.937       -1760.638          49.000    23541723.838    94792773.722       -1349.039          50.000  
E34  24373776.175   128085080.595        -942.370          45.000    24373778.829    98143136.856        -722.157          49.000  
G32  21887388.211   115018998.710        -896.867          46.000    21887388.789    89625213.166        -698.731          43.000  
E19                                                                  26200601.102                         381.929          27.000  
> 2024 04 17 01 25 30.4960000  0 22                     
G06  22383649.518   117626867.762       -2415.574          36.000    22383649.611    91657315.113       -1882.161          39.000  
G11  21157706.356   111184507.961        -332.151          46.000    21157702.404    86637307.708        -258.802          44.000  
G12  19950465.282   104840401.714       -1063.660          50.000    19950459.995    81693805.833        -828.931          45.000  
G24  19886620.887   104504874.067       -2740.629          47.000    19886621.608    81432368.959       -2135.485          48.000  
R10  19563638.497   104285227.314        1384.241          47.000                                                                  
R09  18715320.550    99938764.886        -963.816          51.000    18715317.402    77730144.412        -749.670          52.000  
R16  21858171.534   116762410.930       -3174.677          50.000    21858171.602    90815213.722       -2468.983          45.000  
R20  18930454.037   101229732.159        2106.362          41.000    18930455.483    78734282.744        1638.225          44.000  
G25  20090329.506   105575400.660         437.268          48.000    20090328.755    82266563.058         340.764          45.000  
G29  20702918.757   108794655.467        1750.592          50.000    20702917.046    84775124.390        1364.044          45.000  
S31  37519581.413   197166747.523        -728.935          44.000  
S33  38473085.380   202177462.570        -729.340          42.000  
E07  24915361.285   130931066.670       -3429.329          40.000    24915372.713   100323821.732       -2627.564          49.000  
R19  19482164.898   104216461.040       -2900.717          40.000    19482162.397    81057238.051       -2256.037          49.000  
R08  21668517.985   116033917.700       -2729.024          44.000    21668517.262    90248600.761       -2122.353          44.000  
E15  23919075.668   125695670.518        1505.916          48.000    23919079.901    96312332.050        1153.809          50.000  
E27  22922589.426   120459043.299         -89.153          48.000    22922590.515    92299796.996         -68.392          52.000  
E30  23551778.855   123765433.543       -1761.591          48.000    23551779.595    94833263.538       -1349.766          50.000  
E34  24379198.747   128113573.923        -956.385          45.000    24379201.085    98164969.477        -732.943          50.000  
G32  21892559.261   115046172.979        -914.425          45.000    21892559.749    89646387.928        -712.475          43.000  
E19                                                                  26197793.626                         373.299          28.000  
R18                                                                  21789691.953                3      -4248.983          13.000  
> 2024 04 17 01 26 00.4960000  0 21                     
G06  22397488.667   117699577.451       -2430.967          37.000    22397485.492    91713971.946       -1894.084          39.000  
G11  21159652.405   111194737.399        -349.468          46.000    21159648.038    86645278.754        -272.221          43.000  
G12  19956546.502   104872360.439       -1066.606          49.000    19956541.451    81718708.737        -831.117          45.000  
G24  19902305.635   104587300.080       -2754.081          47.000    19902306.477    81496597.015       -2146.270          47.000  
R10  19555854.933   104243737.437        1382.178          47.000                                                                  
R09  18720761.008    99967818.761        -972.707          50.000    18720758.303    77752741.873        -756.583          52.000  
R16  21876017.555   116857738.835       -3180.220          50.000    21876018.467    90889357.545       -2473.506          47.000  
R20  18918692.401   101166836.190        2086.783          41.000    18918693.948    78685363.804        1623.234          44.000  
G25  20087838.537   105562312.781         435.582          47.000    20087837.979    82256364.769         339.355          45.000  
G29  20692956.295   108742306.266        1739.753          50.000    20692955.279    84734332.987        1355.580          45.000  
S31  37523737.827   197188590.059        -727.039          44.000  
S33  38477245.764   202199325.694        -727.767          43.000  
E07  24934943.099   131033965.732       -3430.612          41.000    24934953.750   100402666.231       -2628.504          49.000  
R19  19498493.438   104303810.893       -2922.345          40.000    19498491.521    81125176.855       -2272.925          49.000  
R08  21683850.678   116116024.731       -2744.716          45.000    21683848.994    90312461.726       -2134.807          41.000  
E15  23910500.331   125650609.710        1498.506          48.000    23910505.288    96277805.127        1148.187          51.000  
E27  22923099.366   120461727.859         -89.429          47.000    22923101.075    92301854.056         -68.462          52.000  
E30  23561837.309   123818286.360       -1761.627          48.000    23561837.318    94873761.155       -1349.833          50.000  
E34  24384697.889   128142467.996        -969.496          45.000    24384699.433    98187109.127        -742.727          50.000  
G32  21897827.000   115073857.268        -931.009          46.000    21897827.616    89667960.144        -725.412          43.000  
E19                                                                  26195047.266                         364.929          28.000  
> 2024 04 17 01 26 30.4960000  0 21                     
G06  22411413.663   117772756.695       -2447.707          37.000    22411411.134    91770994.753       -1907.369          39.000  
G11  21161696.840   111205487.531        -367.579          45.000    21161692.489    86653655.544        -286.294          43.000  
G12  19962644.688   104904410.559       -1070.383          49.000    19962640.115    81743682.881        -834.135          45.000  
G24  19918068.825   104670140.667       -2768.878          46.000    19918069.675    81561148.061       -2157.411          47.000  
R10  19548085.637   104202322.662        1378.558          47.000                                                                  
R09  18726253.621    99997149.636        -982.902          50.000    18726250.892    77775554.769        -764.506          52.000  
R16  21893897.079   116953245.504       -3187.051          50.000    21893898.021    90963640.433       -2478.835          47.000  
R20  18907040.374   101104530.966        2066.278          40.000    18907042.231    78636904.345        1607.162          43.000  
G25  20085358.685   105549281.709         432.819          47.000    20085357.899    82246210.738         337.332          45.000  
G29  20683057.349   108690289.698        1727.771          50.000    20683055.050    84693800.783        1346.397          43.000  
S31  37527886.225   197210390.294        -726.333          44.000  
S33  38481398.128   202221145.856        -727.258          43.000  
E07  24954533.671   131136912.200       -3432.850          41.000    24954544.121   100481547.034       -2630.291          49.000  
R19  19514945.581   104391819.142       -2945.301          39.000    19514943.665    81193627.727       -2290.594          50.000  
R08  21699274.067   116198611.198       -2761.338          46.000    21699270.995    90376695.597       -2147.610          44.000  
E15  23901968.911   125605776.046        1490.114          49.000    23901973.395    96243452.218        1141.764          51.000  
E27  22923611.696   120464422.539         -90.496          47.000    22923613.839    92303918.864         -69.342          52.000  
E30  23571895.754   123871146.519       -1762.733          48.000    23571896.072    94914264.416       -1350.557          50.000  
E34  24390270.626   128171759.624        -983.620          44.000    24390273.391    98209553.412        -753.599          50.000  
G32  21903191.894   115102047.622        -948.536          46.000    21903192.610    89689926.713        -739.218          44.000  
E19                                                                  26192364.040                         355.847          28.000  
> 2024 04 17 01 27 00.4960000  0 21                     
G06  22425435.809   117846443.859       -2464.676          36.000    22425433.039    91828413.339       -1920.324          41.000  
G11  21163849.474   111216799.229        -386.542          45.000    21163845.868    86662469.956        -301.016          43.000  
G12  19968768.443   104936591.857       -1074.864          49.000    19968764.048    81768759.252        -837.508          45.000  
G24  19933919.613   104753434.524       -2783.940          48.000    19933919.950    81626052.337       -2169.401          47.000  
R10  19540338.249   104161025.766        1374.542          46.000                                                                  
R09  18731804.930   100026800.125        -993.845          49.000    18731803.253    77798616.276        -772.906          52.000  
R16  21911816.831   117048971.566       -3194.554          49.000    21911817.957    91038093.919       -2484.583          48.000  
R20  18895507.185   101042860.808        2045.232          41.000    18895509.118    78588938.826        1590.715          44.000  
G25  20082897.847   105536347.544         429.603          48.000    20082896.700    82236132.227         334.818          45.000  
G29  20673229.140   108638647.113        1715.158          49.000    20673227.298    84653560.007        1336.487          43.000  
S31  37532034.139   197232187.522        -726.650          45.000  
S33  38485549.560   202242963.709        -727.429          43.000  
E07  24974140.379   131239943.881       -3435.831          41.000    24974150.480   100560493.129       -2632.586          48.000  
R19  19531528.322   104480523.163       -2968.286          40.000    19531526.046    81262619.725       -2308.673          50.000  
R08  21714793.509   116281713.375       -2778.586          46.000    21714789.757    90441330.576       -2161.386          43.000  
E15  23893488.380   125561211.240        1480.948          48.000    23893492.675    96209305.321        1134.760          51.000  
E27  22924134.953   120467167.160         -92.278          47.000    22924136.277    92306021.924         -70.721          52.000  
E30  23581963.720   123924054.149       -1764.409          49.000    23581964.181    94954804.048       -1351.864          51.000  
E34  24395926.980   128201488.549        -998.193          43.000    24395930.819    98232332.792        -764.902          50.000  
G32  21908659.911   115130782.944        -966.955          45.000    21908660.380    89712317.895        -753.265          43.000  
E19                                                                  26189751.694                3        346.396          24.000  
> 2024 04 17 01 27 30.4960000  0 20                     
G06  22439553.568   117920637.333       -2481.119          38.000    22439551.851    91886226.445       -1933.656          41.000  
G11  21166109.334   111228673.450        -405.022          46.000    21166105.081    86671722.674        -315.800          42.000  
G12  19974917.737   104968904.670       -1079.176          50.000    19974913.296    81793938.076        -841.055          45.000  
G24  19949856.095   104837180.530       -2799.091          47.000    19949856.173    81691308.943       -2181.137          47.000  
R10  19532613.321   104119847.802        1370.667          46.000                                                                  
R09  18737417.912   100056770.998       -1004.406          50.000    18737415.647    77821926.937        -781.117          52.000  
R16  21929778.441   117144917.521       -3201.795          50.000    21929779.208    91112718.442       -2490.360          47.000  
R20  18884095.096   100981828.594        2023.785          42.000    18884095.489    78541469.439        1574.116          44.000  
G25  20080454.826   105523510.565         426.278          48.000    20080454.010    82226129.458         332.214          45.000  
G29  20663472.884   108587379.588        1702.708          48.000    20663471.669    84613611.469        1326.575          43.000  
S31  37536181.208   197253982.381        -726.274          45.000  
S33  38489701.185   202264779.122        -727.027          43.000  
E07  24993763.033   131343058.696       -3438.437          42.000    24993772.684   100639502.925       -2634.672          48.000  
R19  19548240.553   104569919.727       -2991.071          40.000    19548238.389    81332150.428       -2326.624          50.000  
R08  21730406.843   116365327.713       -2795.579          45.000    21730404.967    90506363.857       -2174.163          44.000  
E15  23885060.011   125516917.257        1471.962          49.000    23885063.572    96175365.930        1127.841          51.000  
E27  22924667.798   120469961.682         -94.036          48.000    22924668.142    92308163.230         -72.003          52.000  
E30  23592039.550   123977009.483       -1766.022          48.000    23592041.045    94995380.241       -1353.145          51.000  
E34  24401669.341   128231654.711       -1012.813          44.000    24401671.211    98255447.166        -776.033          51.000  
G32  21914231.935   115160062.205        -985.015          47.000    21914231.324    89735132.970        -767.521          42.000  
> 2024 04 17 01 28 00.4960000  0 20                     
G06  22453768.348   117995334.475       -2497.903          37.000    22453765.893    91944432.041       -1946.295          41.000  
G11  21168475.983   111241110.140        -423.495          47.000    21168471.486    86681413.689        -329.953          41.000  
G12  19981092.123   105001347.532       -1083.242          50.000    19981087.376    81819218.263        -844.092          46.000  
G24  19965877.930   104921376.433       -2813.509          47.000    19965878.464    81756916.098       -2192.557          47.000  
R10  19524911.349   104078790.338        1367.108          46.000                                                                  
R09  18743091.243   100087063.134       -1014.615          51.000    18743088.909    77845487.476        -789.169          52.000  
R16  21947780.721   117241081.777       -3208.757          50.000    21947781.137    91187512.795       -2495.626          47.000  
R20  18872801.753   100921436.898        2002.858          42.000    18872802.233    78494498.274        1557.742          44.000  
G25  20078030.361   105510770.036         423.462          47.000    20078029.448    82216201.844         330.016          46.000  
G29  20653788.757   108536486.972        1690.562          48.000    20653786.989    84573955.004        1317.650          42.000  
S31  37540327.889   197275773.393        -726.068          44.000  
S33  38493851.518   202286590.313        -726.476          43.000  
E07  25013400.046   131446253.592       -3440.730          41.000    25013410.226   100718574.096       -2636.417          47.000  
R19  19565081.026   104660004.097       -3013.837          40.000    19565077.329    81402216.059       -2344.055          49.000  
R08  21746116.529   116449449.323       -2811.955          46.000    21746114.308    90571791.649       -2187.071          45.000  
E15  23876681.980   125472894.996        1463.284          48.000    23876686.131    96141634.749        1121.267          51.000  
E27  22925208.455   120472805.053         -95.087          48.000    22925209.313    92310341.992         -72.945          52.000  
E30  23602126.600   124030011.820       -1767.015          49.000    23602127.153    95035992.440       -1354.079          51.000  
E34  24407494.023   128262256.993       -1026.853          45.000    24407494.764    98278895.704        -786.905          51.000  
G32  21919906.106   115189883.451       -1002.472          46.000    21919905.034    89758370.387        -781.039          41.000  
> 2024 04 17 01 28 30.4960000  0 21                     
G06  22468074.427   118070517.663       -2514.170          38.000    22468073.807    92003016.339       -1959.186          42.000  
G11  21170945.983   111254094.144        -442.336          45.000    21170941.678    86691531.182        -344.517          41.000  
G12  19987287.493   105033904.618       -1087.408          50.000    19987283.079    81844587.422        -847.223          46.000  
G24  19981982.753   105006005.085       -2828.310          47.000    19981982.699    81822860.430       -2204.016          47.000  
R10  19517228.321   104037838.544        1362.915          46.000                                                                  
R09  18748822.063   100117661.377       -1025.375          50.000    18748818.456    77869286.102        -797.538          52.000  
R16  21965821.527   117337448.671       -3215.915          50.000    21965820.821    91262464.709       -2501.322          46.000  
R20  18861626.812   100861674.195        1981.307          43.000    18861626.260    78448016.307        1540.980          44.000  
G25  20075621.759   105498110.217         420.347          48.000    20075620.694    82206337.119         327.516          46.000  
G29  20644172.280   108485954.376        1678.188          48.000    20644170.807    84534579.148        1307.770          42.000  
S31  37544470.783   197297544.632        -725.535          44.000  
S33  38497997.941   202308381.252        -726.377          43.000  
E07  25033048.175   131549510.489       -3443.056          41.000    25033059.116   100797692.757       -2638.221          46.000  
R19  19582046.557   104750756.743       -3036.487          41.000    19582042.019    81472801.453       -2361.603          48.000  
R08  21761916.529   116534057.986       -2828.525          44.000    21761915.302    90637598.321       -2200.095          45.000  
E15  23868353.407   125429130.333        1454.248          48.000    23868357.889    96108100.959        1114.329          51.000  
E27  22925755.493   120475681.291         -96.600          48.000    22925756.584    92312545.929         -74.047          52.000  
E30  23612218.270   124083045.437       -1768.557          49.000    23612219.064    95076628.588       -1355.117          51.000  
E34  24413396.196   128293279.189       -1041.346          43.000    24413397.869    98302665.996        -797.821          51.000  
G32  21925681.130   115220229.591       -1020.472          48.000    21925680.603    89782016.814        -795.204          42.000  
E19                                                                  26182337.662                3        318.189          25.000  
> 2024 04 17 01 29 00.4960000  0 21                     
G06  22482480.233   118146223.065       -2532.203          39.000    22482479.880    92062007.587       -1972.965          41.000  
G11  21173528.288   111267664.213        -462.161          46.000    21173524.735    86702105.340        -359.780          42.000  
G12  19993511.763   105066613.963       -1092.800          50.000    19993506.974    81870075.248        -851.599          46.000  
G24  19998176.516   105091103.101       -2844.369          48.000    19998176.221    81889170.518       -2216.320          47.000  
R10  19509573.092   103997033.175        1357.758          45.000                                                                  
R09  18754616.120   100148605.557       -1037.161          50.000    18754613.542    77893353.786        -806.757          52.000  
R16  21983906.944   117434056.790       -3224.335          50.000    21983906.079    91337604.228       -2507.799          46.000  
R20  18850575.333   100802580.841        1958.653          43.000    18850574.983    78402054.924        1523.419          44.000  
G25  20073234.809   105485569.231         416.134          47.000    20073234.420    82196565.006         324.251          46.000  
G29  20634632.992   108435820.915        1664.333          48.000    20634630.722    84495514.301        1296.777          42.000  
S31  37548617.129   197319333.662        -726.550          44.000  
S33  38502148.398   202330192.898        -727.445          43.000  
E07  25052716.591   131652865.182       -3447.030          41.000    25052727.386   100876886.335       -2641.039          45.000  
R19  19599142.874   104842212.943       -3060.028          41.000    19599138.998    81543934.063       -2380.103          49.000  
R08  21777814.138   116619188.389       -2846.565          42.000    21777812.872    90703810.790       -2213.747          43.000  
E15  23860082.665   125385663.044        1443.868          49.000    23860085.687    96074795.032        1106.341          50.000  
E27  22926316.130   120478628.269         -99.512          48.000    22926317.263    92314804.054         -76.217          52.000  
E30  23622323.973   124136148.388       -1771.352          49.000    23622324.348    95117317.866       -1357.306          51.000  
E34  24419386.436   128324758.983       -1057.014          43.000    24419388.384    98326786.937        -809.925          51.000  
G32  21931562.534   115251137.429       -1039.744          47.000    21931563.269    89806100.858        -810.171          43.000  
E19                                                                  26180011.202                3        306.628          26.000  
> 2024 04 17 01 29 30.4960000  0 22                     
G06  22496989.468   118222465.348       -2550.000          39.000    22496987.687    92121417.126       -1987.115          41.000  
G11  21176226.069   111281837.474        -482.227          47.000    21176223.255    86713149.512        -375.909          44.000  
G12  19999767.762   105099491.840       -1098.396          49.000    19999762.816    81895694.358        -855.760          45.000  
G24  20014462.613   105176685.525       -2860.483          47.000    20014462.205    81955858.071       -2229.052          47.000  
R10  19501949.145   103956391.671        1352.173          46.000                                                                  
R09  18760478.386   100179914.086       -1049.553          49.000    18760477.142    77917704.868        -816.281          52.000  
R16  22002039.716   117530922.722       -3232.967          49.000    22002040.519    91412944.254       -2514.510          47.000  
R20  18839652.997   100744176.520        1935.602          43.000    18839653.011    78356629.482        1505.410          44.000  
G25  20070873.562   105473163.655         411.604          47.000    20070873.456    82186898.372         320.759          46.000  
G29  20625171.596   108386103.331        1650.485          48.000    20625169.809    84456773.490        1286.016          43.000  
S31  37552769.888   197341157.174        -727.989          44.000  
S33  38506305.360   202352037.725        -728.774          43.000  
E07  25072406.436   131756331.848       -3450.578          41.000    25072416.705   100956165.722       -2643.835          45.000  
R19  19616373.906   104934385.578       -3084.113          43.000    19616369.968    81615623.880       -2398.780          49.000  
R08  21793812.097   116704853.167       -2864.258          40.000    21793810.831    90770438.849       -2227.495          42.000  
E15  23851871.551   125342511.313        1433.282          50.000    23851873.822    96041730.871        1098.312          50.000  
E27  22926893.610   120481662.197        -102.253          48.000    22926894.571    92317128.815         -78.426          52.000  
E30  23632445.288   124189337.248       -1774.231          48.000    23632445.819    95158072.973       -1359.442          51.000  
E34  24425466.827   128356712.507       -1072.808          42.000    24425468.873    98351270.857        -822.044          51.000  
G32  21937553.938   115282622.152       -1058.828          47.000    21937555.110    89830634.454        -825.050          44.000  
E19                                                                  26177766.297                         296.272          28.000  
R18                                                                  21706923.882                3      -3309.789          14.000  
