     3.00           OBSERVATION DATA    M: Mixed            RINEX VERSION / TYPE
CONVBIN 2.4.3                           20240417 114442 UTC PGM / RUN BY / DATE 
format: u-blox UBX                                          COMMENT             
log: /home/regis/git/gnsspwv/obsdata/VERT00CHL/2024-04-17/VECOMMENT             
{self.marker}                                               MARKER NAME         
                                                            MARKER NUMBER       
GEODETIC                                                    MARKER TYPE         
{self.observer}     {self.institution}                      OBSERVER / AGENCY   
UNKNOWN             UBLOX-ZED-F9P                           REC # / TYPE / VERS 
UNKNOWN             TWIVSP6037L                             ANT # / TYPE        
  1713381.0000 -5047934.0000 -3490983.0000                  APPROX POSITION XYZ 
        0.0000        0.0000        0.0000                  ANTENNA: DELTA H/E/N
G    8 C1C L1C D1C S1C C2L L2L D2L S2L                      SYS / # / OBS TYPES 
R    8 C1C L1C D1C S1C C2C L2C D2C S2C                      SYS / # / OBS TYPES 
E    8 C1C L1C D1C S1C C7Q L7Q D7Q S7Q                      SYS / # / OBS TYPES 
S    4 C1C L1C D1C S1C                                      SYS / # / OBS TYPES 
  2024    04    17    11    30   00.0100000     GPS         TIME OF FIRST OBS   
  2024    04    17    11    44   30.0110000     GPS         TIME OF LAST OBS    
                                                            END OF HEADER       
> 2024 04 17 11 30 00.0100000  0 24                     
G08  24580712.424   129172533.4041      -3384.387          47.000    24580711.550   100653936.4441      -2637.194          47.000  
G31  27672552.606   145420264.1241       1616.418          44.000    27672551.366   113314464.6971       1259.655          41.000  
E19  27221744.147   143051191.7621       1242.871          44.000    27221743.585   109610664.1011        952.259          46.000  
G27  26910484.549   141415468.0711      -4382.746          43.000    26910483.091   110193906.4831      -3415.039          39.000  
G28  27127352.053   142555187.9741        900.921          43.000    27127351.516   111081944.6261        701.876          44.000  
R03  26168140.481   140080012.1161       3203.713          42.000    26168138.028   108951324.9791       2491.947          47.000  
R17  23737327.987   127023456.8711       2358.801          52.000    23737321.920    98795805.8821       1834.558          49.000  
R02  22586330.542   120525027.3111        622.616          51.000    22586329.984    93741693.2881        484.246          49.000  
G03  24857652.508   130627823.1341        753.663          49.000    24857649.886   101787909.0961        587.146          46.000  
G21  22840500.091   120027647.0961         81.220          46.000                                                                  
S31  41910973.397   220243749.2181       -599.031          44.000  
S33  42864490.865   225254571.7671       -598.290          42.000  
E33  26734821.754   140492544.2171       -562.038          49.000    26734821.344   107650111.7641       -430.702          54.000  
R01  23222331.475   124136629.7221      -3164.781          50.000    23222329.318    96550722.8601      -2461.460          46.000  
R23  26052841.846   139365118.6031      -4078.343          47.000                                                                  
R24  22575822.039   120723161.1041      -1291.275          51.000    22575818.748    93895753.8151      -1004.321          49.000  
G02  23463483.536   123301449.9811        743.796          49.000                                                                  
G32  26418546.930   138830389.9501      -3695.772          46.000    26418544.949   108179545.0741      -2879.787          44.000  
E12  28757838.721   151123421.8541       1329.969          40.000    28757836.867   115795899.1581       1019.016          47.000  
G04  26439328.074   138939582.2381       3062.707          44.000    26439324.805   108264547.0611       2386.098          42.000  
E07  30719951.207   161434366.7831      -3218.201          41.000    30719955.566   123696482.2151      -2465.612          45.000  
E26  29067364.946   152750249.7931      -2284.419          46.000    29067365.585   117042536.0051      -1750.370          48.000  
E14  29782195.234   156506517.0031       -560.604          46.000    29782196.162   119920595.1851       -429.585          49.000  
E10                                                                  30647897.781   123406387.3081       1264.807          33.000  
> 2024 04 17 11 30 30.0100000  0 24                     
G08  24600070.107   129274257.955       -3397.331          47.000    24600069.387   100733202.187       -2647.026          47.000  
G31  27663330.692   145371804.561        1614.195          45.000    27663329.300   113276703.997        1257.611          40.000  
E19  27214679.577   143014065.372        1232.068          44.000    27214678.403   109582216.545         944.236          46.000  
G27  26935512.072   141546988.158       -4385.162          43.000    26935510.121   110296389.379       -3417.084          38.000  
G28  27122240.583   142528332.095         889.332          43.000    27122241.018   111061017.914         693.204          43.000  
R03  26150210.128   139984024.186        3195.197          43.000    26150206.893   108876667.566        2484.887          48.000  
R17  23724131.843   126952842.328        2348.828          52.000    23724126.229    98740883.410        1826.843          49.000  
R02  22582892.469   120506676.941         600.591          52.000    22582891.307    93727420.713         467.167          50.000  
G03  24853370.269   130605320.297         746.601          49.000    24853367.406   101770374.375         581.749          46.000  
G21  22840078.946   120025434.686          66.041          47.000                                                                  
S31  41914392.199   220261714.614        -599.017          44.000  
S33  42867906.969   225272522.690        -598.164          42.000  
E33  26738047.219   140509493.070        -567.842          49.000    26738046.714   107663098.487        -435.164          54.000  
R01  23240130.707   124231776.710       -3178.491          50.000    23240128.412    96624725.976       -2472.130          46.000  
R23  26075742.055   139487618.993       -4088.519          45.000                                                                  
R24  22583124.681   120762206.948       -1311.807          52.000    22583120.421    93926122.731       -1020.329          49.000  
G02  23459271.636   123279315.378         731.656          49.000                                                                  
G32  26439674.302   138941413.524       -3705.887          46.000    26439673.112   108266056.779       -2887.537          45.000  
E12  28750247.696   151083529.882        1329.403          40.000    28750245.529   115765332.489        1018.695          47.000  
G04  26421859.153   138847782.523        3057.266          44.000    26421856.163   108193014.734        2382.385          42.000  
E07  30738335.358   161530972.678       -3222.348          41.000    30738339.384   123770504.684       -2469.146          44.000  
E26  29080420.740   152818861.744       -2289.642          45.000    29080421.943   117095108.654       -1754.408          47.000  
E14  29785392.965   156523320.958        -559.609          47.000    29785393.992   119933470.782        -428.852          49.000  
E10                                                                  30638468.990   123368417.055        1266.589          36.000  
> 2024 04 17 11 31 00.0100000  0 24                     
G08  24619500.281   129376367.199       -3410.125          48.000    24619500.020   100812767.763       -2657.135          46.000  
G31  27654124.086   145323420.996        1611.679          45.000    27654122.864   113239002.504        1255.704          41.000  
E19  27207676.526   142977263.816        1221.315          44.000    27207675.654   109554017.916         935.786          46.000  
G27  26960555.652   141678592.918       -4388.226          43.000    26960553.595   110398938.240       -3419.269          38.000  
G28  27117196.582   142501821.806         877.938          45.000    27117196.623   111040360.542         684.107          43.000  
R03  26132328.722   139888307.074        3186.256          43.000    26132326.632   108802220.837        2478.001          48.000  
R17  23710992.216   126882529.629        2338.708          52.000    23710986.751    98686195.694        1819.019          50.000  
R02  22579577.855   120488987.906         578.703          52.000    22579576.629    93713662.535         450.184          49.000  
G03  24849127.880   130583030.106         739.513          47.000    24849125.864   101753005.328         576.295          46.000  
G21  22839746.794   120023687.739          50.591          47.000                                                                  
S31  41917809.242   220279671.340        -598.301          44.000  
S33  42871321.366   225290465.204        -597.662          42.000  
E33  26741306.104   140526619.566        -573.857          49.000    26741305.630   107676221.319        -439.686          54.000  
R01  23258006.533   124327333.502       -3191.975          49.000    23258003.937    96699047.842       -2482.543          47.000  
R23  26098699.664   139610428.710       -4098.820          45.000                                                                  
R24  22590541.698   120801869.946       -1332.358          51.000    22590537.804    93956971.635       -1036.194          49.000  
G02  23455129.703   123257547.805         719.408          50.000                                                                  
G32  26460858.734   139052741.120       -3715.807          44.000    26460857.308   108352805.382       -2895.521          44.000  
E12  28742659.835   151043650.216        1329.055          40.000    28742656.836   115734775.249        1018.521          47.000  
G04  26404420.905   138756140.734        3052.087          44.000    26404417.989   108121605.493        2378.358          43.000  
E07  30756745.059   161627714.539       -3226.745          41.000    30756749.146   123844631.311       -2472.446          43.000  
E26  29093508.400   152887634.120       -2295.052          45.000    29093508.990   117147804.219       -1758.646          47.000  
E14  29788585.524   156540100.619        -558.739          46.000    29788586.821   119946327.765        -428.140          48.000  
E10                                                                  30629026.739   123330395.775        1268.561          37.000  
> 2024 04 17 11 31 30.0100000  0 25                     
G08  24639005.319   129478865.264       -3423.175          47.000    24639004.601   100892636.288       -2667.340          46.000  
G31  27644933.448   145275123.227        1608.375          45.000    27644931.370   113201367.817        1253.243          40.000  
E19  27200736.928   142940795.062        1209.761          44.000    27200736.352   109526074.265         927.148          47.000  
G27  26985616.887   141810286.281       -4391.419          44.000    26985614.421   110501556.160       -3421.743          39.000  
G28  27112219.334   142475666.477         865.801          45.000    27112219.839   111019979.753         674.847          42.000  
R03  26114499.978   139792869.607        3176.402          41.000    26114497.164   108727991.569        2470.643          46.000  
R17  23697910.368   126812529.498        2328.021          51.000    23697905.912    98631751.094        1810.626          49.000  
R02  22576389.665   120471966.703         556.095          53.000    22576386.745    93700423.780         432.535          50.000  
G03  24844927.451   130560958.858         731.918          48.000    24844925.773   101735806.899         570.298          46.000  
G21  22839504.425   120022414.975          34.450          47.000                                                                  
S31  41921226.131   220297626.432        -598.519          44.000  
S33  42874735.731   225308406.366        -597.998          42.000  
E33  26744600.950   140543931.502        -580.279          49.000    26744599.941   107689486.244        -444.655          54.000  
R01  23275959.651   124423303.189       -3205.803          50.000    23275957.464    96773690.872       -2493.657          46.000  
R23  26121717.804   139733552.439       -4109.437          48.000                                                                  
R24  22598075.797   120842157.802       -1353.445          52.000    22598072.225    93988306.564       -1052.649          50.000  
G02  23451058.443   123236155.998         706.732          49.000                                                                  
G32  26482103.222   139164376.662       -3726.416          44.000    26482102.176   108439793.936       -2903.495          46.000  
E12  28735075.428   151003790.549        1328.164          41.000    28735071.897   115704233.359        1017.798          47.000  
G04  26387014.106   138664666.235        3046.370          44.000    26387011.381   108050326.648        2373.620          43.000  
E07  30775181.358   161724597.515       -3231.944          41.000    30775185.758   123918866.055       -2476.350          43.000  
E26  29106627.178   152956573.939       -2300.869          46.000    29106628.138   117200628.078       -1763.093          47.000  
E14  29791775.291   156556862.973        -558.630          46.000    29791776.700   119959171.480        -428.128          48.000  
E10                                                                  30619572.743   123292329.125        1269.635          37.000  
R18                                                                  27760849.286                3       2933.920          11.000  
> 2024 04 17 11 32 00.0100000  0 24                     
G08  24658584.481   129581754.083       -3436.180          48.000    24658583.678   100972809.255       -2677.494          46.000  
G31  27635760.299   145226918.639        1605.216          44.000    27635759.504   113163805.779        1250.922          42.000  
E19  27193861.658   142904664.796        1198.585          44.000    27193860.931   109498389.987         918.421          47.000  
G27  27010694.167   141942070.226       -4394.125          43.000    27010692.934   110604244.644       -3424.079          40.000  
G28  27107311.234   142449873.448         853.569          45.000    27107309.901   110999881.292         665.283          41.000  
R03  26096725.566   139697719.306        3166.797          45.000    26096722.247   108653985.666        2463.164          44.000  
R17  23684889.516   126742850.543        2317.236          51.000    23684884.827    98577556.291        1802.252          50.000  
R02  22573325.458   120455618.457         533.703          52.000    22573323.258    93687708.449         415.055          49.000  
G03  24840769.823   130539110.762         724.487          47.000    24840768.561   101718782.348         564.483          46.000  
G21  22839354.311   120021622.745          18.436          48.000                                                                  
S31  41924643.815   220315586.306        -598.659          44.000  
S33  42878150.572   225326351.997        -598.347          43.000  
E33  26747931.806   140561434.598        -586.709          49.000    26747930.860   107702897.640        -449.561          54.000  
R01  23293990.729   124519687.026       -3219.695          49.000    23293987.857    96848655.959       -2504.146          45.000  
R23  26144794.225   139856993.367       -4120.013          47.000                                                                  
R24  22605727.641   120883075.945       -1374.459          51.000    22605724.440    94020131.731       -1069.183          50.000  
G02  23447060.457   123215146.832         693.889          49.000                                                                  
G32  26503405.457   139276322.133       -3736.586          42.000    26503404.111   108527023.976       -2911.641          45.000  
E12  28727495.871   150963956.639        1327.224          41.000    28727492.078   115673711.196        1017.034          47.000  
G04  26369640.360   138573366.401        3040.252          45.000    26369637.491   107979183.871        2369.026          43.000  
E07  30793645.519   161821624.661       -3236.682          41.000    30793649.907   123993211.268       -2480.086          44.000  
E10  30610121.452                1       1659.152          28.000    30610108.619   123254221.102        1270.990          38.000  
E26  29119778.395   153025686.234       -2306.658          45.000    29119779.630   117253584.110       -1767.420          47.000  
E14  29794963.256   156573612.919        -558.135          46.000    29794964.054   119972005.692        -427.712          48.000  
> 2024 04 17 11 32 30.0100000  0 25                     
G08  24678236.786   129685027.856       -3448.587          48.000    24678235.907   101053282.258       -2687.159          46.000  
G31  27626604.858   145178807.300        1602.090          42.000    27626604.087   113126316.416        1248.581          42.000  
E19  27187049.928   142868871.190        1187.729          44.000    27187049.822   109470963.687         909.943          47.000  
G27  27035787.376   142073939.027       -4396.699          42.000    27035786.953   110706999.254       -3425.833          40.000  
G28  27102471.873   142424442.281         841.871          46.000    27102471.728   110980064.776         655.947          43.000  
R18  28622244.617                3       2917.827          12.000    28621332.644                3       2902.006          13.000  
R03  26079005.192   139602855.486        3157.592          43.000    26079000.113   108580202.578        2455.978          43.000  
R17  23671928.905   126673493.446        2306.733          52.000    23671924.001    98523611.834        1794.049          50.000  
R02  22570386.605   120439939.754         511.588          52.000    22570385.188    93675513.849         397.974          49.000  
G03  24836654.601   130517482.301         717.568          48.000    24836653.187   101701928.949         558.873          46.000  
G21  22839294.663   120021310.288           2.562          48.000                                                                  
S31  41928061.184   220333546.177        -598.517          44.000  
S33  42881565.881   225344297.501        -598.002          42.000  
E33  26751298.085   140579126.908        -592.739          49.000    26751297.652   107716454.027        -454.183          54.000  
R01  23312096.385   124616478.241       -3232.940          49.000    23312094.894    96923937.930       -2514.421          46.000  
R23  26167928.015   139980746.337       -4130.102          46.000                                                                  
R24  22613497.574   120924622.611       -1395.109          52.000    22613493.137    94052445.742       -1085.150          49.000  
G02  23443135.355   123194519.226         681.422          49.000                                                                  
G32  26524766.480   139388571.668       -3746.576          42.000    26524765.370   108614490.975       -2919.267          46.000  
E12  28719919.799   150924146.365        1326.772          41.000    28719916.796   115643207.157        1016.572          47.000  
G04  26352299.203   138482240.784        3034.756          45.000    26352296.493   107908176.834        2364.652          42.000  
E07  30812136.109   161918791.350       -3240.932          40.000    30812140.252   124067663.399       -2483.517          43.000  
E10  30600637.113   160807489.8631       1660.419          29.000    30600633.538   123216069.882        1272.502          37.000  
E26  29132963.377   153094968.288       -2312.125          45.000    29132963.266   117306670.199       -1771.531          47.000  
E14  29798147.302   156590347.631        -557.386          46.000    29798148.825   119984828.224        -426.984          48.000  
> 2024 04 17 11 33 00.0100000  0 24                     
G08  24697961.277   129788678.472       -3461.094          47.000    24697961.162   101134048.848       -2696.966          46.000  
G31  27617465.745   145130786.431        1599.318          42.000    27617465.903   113088897.573        1246.279          41.000  
E19  27180301.918   142833409.917        1176.673          44.000    27180301.774   109443792.018         901.562          47.000  
G27  27060895.419   142205884.546       -4399.311          42.000    27060895.615   110809813.639       -3428.101          39.000  
G28  27097701.028   142399370.138         829.913          46.000    27097701.006   110960528.026         646.535          43.000  
R03  26061336.471   139508274.628        3148.226          45.000    26061332.995   108506639.634        2448.611          43.000  
R17  23659027.977   126604456.255        2296.100          52.000    23659022.808    98469916.182        1785.901          50.000  
R02  22567572.962   120424925.432         489.630          52.000    22567571.682    93663836.033         380.840          49.000  
G03  24832579.531   130496067.606         710.424          48.000    24832578.478   101685242.109         553.566          46.000  
G21  22839325.520   120021473.936         -13.152          49.000                                                                  
S31  41931478.267   220351501.495        -598.459          44.000  
S33  42884979.734   225362239.558        -597.628          43.000  
E33  26754700.025   140597004.066        -598.888          49.000    26754699.755   107730152.043        -458.790          54.000  
R01  23330278.778   124713668.206       -3246.038          50.000    23330277.003    96999530.047       -2524.812          46.000  
R23  26191118.897   140104804.409       -4140.051          46.000                                                                  
R24  22621383.606   120966792.845       -1415.834          52.000    22621379.706    94085244.746       -1101.229          49.000  
G02  23439282.220   123174269.970         668.909          49.000                                                                  
G32  26546182.516   139501117.123       -3756.121          41.000    26546182.081   108702188.530       -2926.960          45.000  
E12  28712347.590   150884355.329        1326.146          41.000    28712345.040   115612717.847        1016.183          48.000  
G04  26334991.070   138391286.683        3029.052          45.000    26334988.764   107837303.434        2360.484          42.000  
E07  30830651.462   162016090.586       -3245.258          40.000    30830656.090   124142217.087       -2486.643          42.000  
E10  30591152.224   160757638.299        1663.108          31.000    30591147.007   123177871.767        1274.288          37.000  
E26  29146178.517   153164415.003       -2317.437          45.000    29146178.420   117359882.479       -1775.715          46.000  
E14  29801328.489   156607061.935        -556.456          47.000    29801329.805   119997635.123        -426.449          48.000  
> 2024 04 17 11 33 30.0100000  0 24                     
G08  24717757.213   129892707.761       -3474.115          47.000    24717757.365   101215110.518       -2706.977          46.000  
G31  27608347.530   145082863.715        1595.762          44.000    27608346.918   113051555.172        1243.393          41.000  
E19  27173618.621   142798286.784        1164.919          44.000    27173618.170   109416879.424         892.642          47.000  
G27  27086019.190   142337908.618       -4402.080          43.000    27086019.470   110912689.274       -3430.072          39.000  
G28  27092999.812   142374664.227         817.421          45.000    27092999.667   110941276.618         636.879          44.000  
R03  26043723.512   139413984.153        3137.948          45.000    26043718.957   108433302.473        2440.899          41.000  
R17  23646188.318   126535747.511        2284.598          52.000    23646182.769    98416475.988        1776.908          50.000  
R02  22564884.987   120410579.673         466.895          53.000    22564882.177    93652678.152         363.105          49.000  
G03  24828546.279   130474870.850         702.664          48.000    24828544.812   101668725.101         547.437          46.000  
G21  22839449.148   120022120.222         -29.801          48.000                                                                  
S31  41934895.436   220369457.482        -598.562          44.000  
S33  42888394.158   225380180.918        -598.093          43.000  
E33  26758137.943   140615071.776        -605.602          48.000    26758138.032   107743996.082        -464.048          54.000  
R01  23348535.053   124811257.718       -3259.753          49.000    23348533.008    97075432.907       -2535.374          46.000  
R23  26214369.764   140229170.043       -4150.681          48.000    26216219.599                3      -3713.466          10.000  
R24  22629387.445   121009592.121       -1437.280          53.000    22629383.586    94118532.997       -1117.881          49.000  
G02  23435502.067   123154405.554         655.514          49.000                                                                  
G32  26567656.184   139613960.280       -3766.501          43.000    26567656.083   108790118.060       -2934.889          46.000  
E12  28704780.047   150844589.213        1324.786          41.000    28704778.034   115582247.618        1015.265          48.000  
G04  26317717.544   138300511.318        3022.612          45.000    26317714.620   107766569.329        2355.338          41.000  
E07  30849192.885   162113525.366       -3250.012          39.000    30849197.634   124216874.625       -2490.441          41.000  
E10  30581658.413                        1664.526          31.000    30581649.507   123139630.749        1275.638          37.000  
E26  29159424.354   153234031.297       -2323.465          43.000    29159426.174   117413224.698       -1780.297          46.000  
E14  29804506.515   156623760.694        -556.469          47.000    29804507.541   120010430.107        -426.340          48.000  
> 2024 04 17 11 34 00.0100000  0 24                     
G08  24737626.605   129997119.686       -3486.762          47.000    24737625.946   101296470.347       -2716.971          46.000  
G31  27599248.680   145035048.741        1591.889          44.000    27599248.791   113014296.731        1240.409          42.000  
E19  27167000.371   142763509.385        1153.356          44.000    27167000.218   109390231.778         883.821          47.000  
G27  27111158.030   142470015.307       -4404.863          43.000    27111159.867   111015629.295       -3432.325          41.000  
G28  27088369.696   142350333.889         804.575          45.000    27088369.440   110922317.878         626.866          43.000  
R03  26026164.024   139319993.742        3127.942          46.000    26026159.145   108360198.732        2432.765          40.000  
R17  23633412.224   126467377.738        2273.210          52.000    23633406.235    98363299.460        1768.102          50.000  
R02  22562323.422   120396909.483         444.365          53.000    22562321.307    93642045.749         345.700          49.000  
G03  24824555.800   130453898.250         695.261          48.000    24824553.485   101652382.768         541.710          45.000  
G21  22839665.794   120023257.797         -46.222          48.000                                                                  
S31  41938313.601   220387419.527        -598.627          44.000  
S33  42891809.625   225398128.682        -598.199          42.000  
E33  26761614.292   140633337.890        -612.226          48.000    26761613.995   107757992.135        -469.117          54.000  
R01  23366866.185   124909249.891       -3273.073          49.000    23366863.681    97151648.923       -2545.798          46.000  
R23  26237677.238   140353848.424       -4161.278          47.000                                                                  
R24  22637510.294   121053028.205       -1458.503          52.000    22637505.499    94152316.557       -1134.335          48.000  
G02  23431797.047   123134934.642         642.418          48.000                                                                  
G32  26589187.088   139727105.161       -3776.736          43.000    26589186.736   108878282.725       -2942.817          46.000  
E12  28697219.158   150804855.696        1323.699          40.000    28697217.089   115551802.383        1014.410          48.000  
G04  26300479.418   138209924.082        3016.360          45.000    26300477.648   107695981.812        2350.364          43.000  
E07  30867760.929   162211100.817       -3254.784          39.000    30867765.758   124291639.955       -2493.994          41.000  
E10  30572145.155   160657774.661        1666.169          31.000    30572143.084   123101352.559        1276.322          37.000  
E26  29172707.935   153303824.225       -2329.444          45.000    29172707.915   117466702.237       -1784.833          47.000  
E14  29807682.025   156640450.870        -556.303          46.000    29807683.672   120023218.508        -426.140          48.000  
> 2024 04 17 11 34 30.0110000  0 24                     
G08  24757570.109   130101920.801       -3499.465          47.000    24757568.666   101378133.424       -2726.964          46.000  
G31  27590171.533   144987348.422        1588.064          44.000    27590171.702   112977127.667        1237.313          41.000  
E19  27160449.055   142729083.434        1141.849          43.000    27160448.926   109363853.419         874.906          47.000  
G27  27136314.733   142602212.164       -4407.782          43.000    27136316.900   111118639.511       -3434.601          41.000  
G28  27083813.709   142326386.684         792.065          46.000    27083811.510   110903657.674         617.053          42.000  
R03  26008662.756   139226308.245        3117.672          45.000    26008657.826   108287332.140        2424.678          40.000  
R17  23620699.707   126399354.509        2261.698          52.000    23620694.630    98310392.480        1759.074          49.000  
R02  22559890.103   120383920.367         421.749          53.000    22559887.444    93631943.067         328.129          49.000  
G03  24820608.116   130433154.476         687.682          48.000    24820606.284   101636218.744         535.803          45.000  
G21  22839977.651   120024894.529         -62.755          48.000                                                                  
S31  41941734.207   220405394.787        -599.209          44.000  
S33  42895227.799   225416090.706        -598.901          42.000  
E33  26765129.949   140651809.856        -618.944          49.000    26765129.093   107772145.922        -474.331          54.000  
R01  23385274.589   125007650.581       -3286.422          51.000    23385271.692    97228182.713       -2556.112          46.000  
R23  26261044.050   140478847.668       -4171.711          46.000                                                                  
R24  22645753.602   121097109.099       -1479.885          52.000    22645748.672    94186601.624       -1150.987          48.000  
G02  23428168.051   123115864.885         629.144          47.000                                                                  
G32  26610777.517   139840558.530       -3786.476          45.000    26610776.794   108966687.761       -2950.545          46.000  
E12  28689665.025   150765160.280        1322.628          41.000    28689663.240   115521386.354        1013.416          48.000  
G04  26283277.594   138119530.366        3009.823          44.000    26283276.712   107625545.097        2345.364          44.000  
E07  30886357.034   162308824.432       -3259.499          38.000    30886362.234   124366518.817       -2497.879          40.000  
E10  30562627.796   160607774.702        1667.672          32.000    30562628.499   123063040.736        1278.030          37.000  
E26  29186024.503   153373802.206       -2335.439          45.000    29186024.671   117520321.593       -1789.491          47.000  
E14  29810858.561   156657139.013        -556.069          46.000    29810859.650   120036005.341        -426.019          48.000  
> 2024 04 17 11 35 00.0110000  0 24                     
G08  24777584.257   130207099.284       -3512.103          46.000    24777583.264   101460090.547       -2736.497          46.000  
G31  27581117.383   144939767.136        1584.161          44.000    27581116.262   112940051.312        1234.451          41.000  
E19  27153964.795   142695010.180        1129.977          43.000    27153964.995   109337745.287         866.019          47.000  
G27  27161485.617   142734485.587       -4410.168          43.000    27161488.548   111221709.370       -3436.566          41.000  
G28  27079329.144   142302824.698         779.150          45.000    27079327.533   110885297.662         607.129          43.000  
R03  25991219.793   139132934.158        3107.332          46.000    25991214.801   108214707.780        2416.541          41.000  
R17  23608053.354   126331683.998        2249.918          51.000    23608048.852    98257759.785        1749.881          50.000  
R02  22557583.064   120371610.904         399.032          53.000    22557580.629    93622369.012         310.379          49.000  
G03  24816703.551   130412638.407         680.321          47.000    24816701.995   101620232.133         530.156          45.000  
G21  22840383.798   120027030.102         -79.398          48.000                                                                  
S31  41945157.027   220423381.233        -599.638          45.000  
S33  42898647.635   225434062.676        -598.887          43.000  
E33  26768684.239   140670485.503        -625.865          49.000    26768682.956   107786455.760        -479.455          54.000  
R01  23403756.202   125106447.454       -3299.790          50.000    23403753.530    97305024.638       -2566.301          45.000  
R23  26284469.384   140604155.504       -4181.997          46.000                                                                  
R24  22654117.103   121141830.504       -1501.341          53.000    22654112.100    94221384.856       -1167.623          49.000  
G02  23424615.476   123097197.640         615.498          48.000                                                                  
G32  26632423.937   139954308.121       -3796.503          44.000    26632422.370   109055323.621       -2958.358          46.000  
E12  28682119.315   150725504.599        1321.235          41.000    28682116.989   115491000.746        1012.472          47.000  
G04  26266114.378   138029336.842        3003.256          45.000    26266113.374   107555264.369        2340.157          44.000  
E07  30904979.481   162406686.109       -3264.251          38.000    30904984.939   124441503.423       -2500.983          39.000  
E10  30553108.721   160557732.954        1668.874          34.000    30553105.894   123024696.882        1278.817          36.000  
E26  29199374.555   153443958.885       -2341.413          45.000    29199375.736   117574077.855       -1794.236          48.000  
E14  29814034.228   156673822.192        -555.898          47.000    29814034.675   120048788.381        -425.961          48.000  
> 2024 04 17 11 35 30.0110000  0 24                     
G08  24797670.265   130312650.611       -3524.442          46.000    24797669.046   101542338.218       -2746.183          45.000  
G31  27572085.074   144892300.733        1580.446          45.000    27572084.185   112903064.522        1231.453          43.000  
E19  27147547.617   142661284.428        1118.694          43.000    27147547.518   109311903.436         857.125          47.000  
G27  27186671.451   142866832.088       -4412.359          43.000    27186673.615   111324836.190       -3438.263          41.000  
G28  27074918.086   142279644.487         766.522          45.000    27074916.400   110867235.150         597.150          43.000  
R03  25973834.002   139039865.693        3097.494          47.000    25973829.651   108142321.078        2409.250          44.000  
R17  23595472.840   126264362.397        2238.403          51.000    23595468.815    98205398.470        1741.021          50.000  
R02  22555402.522   120359974.863         376.867          53.000    22555400.272    93613318.722         293.094          49.000  
G03  24812841.902   130392343.679         673.144          47.000    24812839.750   101604417.998         524.454          45.000  
G21  22840884.370   120029661.285         -95.746          48.000                                                                  
S31  41948580.904   220441372.483        -599.589          45.000  
S33  42902069.063   225452039.671        -599.214          43.000  
E33  26772276.328   140689361.265        -632.340          50.000    26772275.051   107800918.948        -484.505          54.000  
R01  23422310.865   125205635.262       -3312.542          49.000    23422308.744    97382170.633       -2576.546          46.000  
R23  26307951.011   140729768.928       -4191.855          46.000                                                                  
R24  22662599.506   121187189.476       -1522.374          52.000    22662594.986    94256663.994       -1184.094          48.000  
G02  23421138.874   123078928.901         602.482          48.000                                                                  
G32  26654125.639   140068349.664       -3806.056          44.000    26654124.354   109144186.981       -2965.842          46.000  
E12  28674578.772   150685883.135        1320.332          41.000    28674577.207   115460641.386        1011.711          47.000  
G04  26248988.311   137939337.896        2996.964          44.000    26248987.115   107485135.256        2335.266          44.000  
E07  30923627.428   162504682.275       -3268.573          36.000    30923633.007   124516591.131       -2504.859          38.000  
E10  30543579.802   160507643.076        1670.957          36.000    30543574.150   122986316.193        1279.995          36.000  
E26  29212757.140   153514291.608       -2347.172          44.000    29212759.604   117627969.031       -1798.442          48.000  
E14  29817206.682   156690495.967        -555.466          47.000    29817207.687   120061564.218        -425.598          48.000  
> 2024 04 17 11 36 00.0110000  0 24                     
G08  24817827.882   130418579.656       -3537.482          47.000    24817827.012   101624880.212       -2756.548          45.000  
G31  27563075.883   144844959.831        1575.608          46.000    27563074.921   112866175.535        1227.846          42.000  
E19  27141198.613   142627914.800        1106.033          44.000    27141197.565   109286334.456         847.477          47.000  
G27  27211871.555   142999256.589       -4415.869          44.000    27211873.185   111428023.809       -3441.040          39.000  
G28  27070581.525   142256856.248         752.960          44.000    27070580.502   110849478.064         586.499          44.000  
R03  25956507.666   138947112.493        3086.216          48.000    25956502.994   108070179.671        2400.387          43.000  
R17  23582959.984   126197401.367        2225.766          52.000    23582955.422    98153317.614        1731.019          50.000  
R02  22553348.972   120349020.287         353.592          52.000    22553347.276    93604798.444         274.920          49.000  
G03  24809023.600   130372277.417         664.821          47.000    24809021.020   101588781.897         517.947          44.000  
G21  22841481.279   120032797.361        -113.280          48.000                                                                  
S31  41952007.010   220459376.973        -600.694          45.000  
S33  42905492.462   225470030.904        -600.396          43.000  
E33  26775907.615   140708445.828        -639.909          49.000    26775906.587   107815542.135        -490.302          54.000  
R01  23440940.976   125305217.884       -3326.213          51.000    23440937.929    97459623.689       -2586.972          46.000  
R23  26331491.532   140855693.935       -4202.893          47.000                                                                  
R24  22671202.659   121233194.404       -1544.518          52.000    22671197.959    94292445.541       -1201.304          48.000  
G02  23417740.439   123061068.486         588.359          48.000                                                                  
G32  26675882.830   140182688.058       -3816.477          43.000    26675882.114   109233281.627       -2973.880          45.000  
E12  28667047.638   150646304.599        1318.253          42.000    28667045.479   115430314.916        1010.115          47.000  
G04  26231900.938   137849543.790        2989.425          43.000    26231900.031   107415165.759        2329.539          44.000  
E07  30942302.249   162602818.975       -3273.878          36.000    30942307.795   124591786.469       -2508.196          36.000  
E10  30534039.506   160457513.412        1671.611          36.000    30534034.780   122947905.040        1280.377          36.000  
E26  29226176.892   153584808.353       -2353.916          44.000    29226178.618   117682001.191       -1803.654          48.000  
E14  29820378.985   156707168.215        -555.974          46.000    29820380.538   120074338.875        -425.979          48.000  
> 2024 04 17 11 36 30.0110000  0 24                     
G08  24838058.498   130524888.665       -3549.753          48.000    24838057.266   101707718.256       -2765.802          45.000  
G31  27554093.394   144797752.380        1571.669          46.000    27554091.761   112829390.501        1224.678          43.000  
E19  27134917.615   142594907.518        1094.550          44.000    27134916.298   109261043.120         838.526          47.000  
G27  27237086.125   143131761.465       -4417.767          43.000    27237087.536   111531274.039       -3442.316          38.000  
G28  27066321.664   142234467.524         739.746          45.000    27066320.620   110832032.266         576.526          44.000  
R03  25939240.890   138854682.559        3075.823          47.000    25939236.759   107998289.627        2392.385          45.000  
R17  23570516.891   126130809.925        2213.825          53.000    23570511.309    98101524.221        1721.851          50.000  
R02  22551424.334   120338751.567         331.044          52.000    22551423.397    93596811.601         257.505          49.000  
G03  24805249.485   130352444.241         657.644          46.000    24805246.949   101573327.413         512.491          45.000  
G21  22842175.284   120036445.539        -129.940          48.000                                                                  
S31  41955437.181   220477400.288        -600.646          45.000  
S33  42908919.505   225488040.988        -600.657          43.000  
E33  26779579.740   140727745.422        -646.690          49.000    26779579.091   107830330.078        -495.533          53.000  
R01  23459643.641   125405196.995       -3338.934          49.000    23459641.338    97537385.120       -2596.886          46.000  
R23  26355091.835   140981933.438       -4213.101          47.000                                                                  
R24  22679927.759   121279850.926       -1565.794          52.000    22679923.123    94328733.866       -1217.854          49.000  
G02  23414421.443   123043623.299         574.792          48.000                                                                  
G32  26697696.903   140297325.625       -3826.062          42.000    26697697.480   109322609.383       -2981.466          46.000  
E12  28659525.301   150606775.114        1317.118          42.000    28659523.137   115400026.018        1009.185          47.000  
G04  26214854.348   137759962.232        2982.853          43.000    26214852.881   107345361.914        2324.175          44.000  
E07  30961003.827   162701099.729       -3278.166          35.000    30961009.980   124667092.247       -2512.298          34.000  
E10  30524493.099   160407349.779        1672.923          35.000    30524489.072   122909467.839        1281.832          36.000  
E26  29239630.838   153655514.459       -2359.850          44.000    29239633.430   117736178.450       -1808.268          48.000  
E14  29823551.972   156723844.209        -555.647          46.000    29823553.915   120087116.404        -425.711          48.000  
> 2024 04 17 11 37 00.0110000  0 24                     
G08  24858359.255   130631568.500       -3562.080          48.000    24858357.831   101790845.301       -2775.780          45.000  
G31  27545135.391   144750674.988        1567.003          47.000    27545133.807   112792706.823        1221.024          43.000  
E19  27128703.976   142562257.179        1082.411          44.000    27128703.499   109236025.281         829.378          47.000  
G27  27262315.195   143264337.738       -4420.544          44.000    27262315.994   111634579.919       -3443.885          38.000  
G28  27062136.449   142212474.526         726.648          44.000    27062134.770   110814894.849         566.101          43.000  
R03  25922033.871   138762571.824        3065.134          46.000    25922029.864   107926647.911        2383.973          45.000  
R17  23558140.785   126064585.283        2201.417          53.000    23558135.575    98050016.124        1712.083          49.000  
R02  22549627.707   120329162.404         308.399          53.000    22549626.809    93589353.306         239.782          49.000  
G03  24801518.690   130332837.349         649.917          46.000    24801516.584   101558049.248         506.444          45.000  
G21  22842966.423   120040601.313        -146.910          48.000                                                                  
S31  41958868.870   220495435.739        -601.213          44.000  
S33  42912349.422   225506063.344        -600.903          43.000  
E33  26783292.020   140747254.734        -653.815          49.000    26783291.653   107845278.710        -500.932          53.000  
R01  23478419.604   125505562.689       -3351.855          48.000    23478417.608    97615447.215       -2606.981          46.000  
R23  26378748.586   141108479.190       -4223.080          47.000                                                                  
R24  22688773.448   121327153.211       -1587.466          53.000    22688768.975    94365524.452       -1234.669          49.000  
G02  23411179.709   123026589.066         561.010          48.000                                                                  
G32  26719567.964   140412253.284       -3835.563          44.000    26719568.077   109412163.174       -2988.719          46.000  
E12  28652011.306   150567289.362        1315.565          42.000    28652009.400   115369770.638        1007.979          47.000  
G04  26197847.035   137670589.590        2975.615          43.000    26197845.969   107275720.857        2318.456          44.000  
E07  30979732.399   162799516.636       -3283.174          33.000    30979737.746   124742502.290       -2515.233          32.000  
E10  30514938.914   160357146.496        1673.815          34.000    30514936.283   122871000.269        1282.751          37.000  
E26  29253122.398   153726403.877       -2366.081          45.000    29253123.637   117790496.156       -1813.007          49.000  
E14  29826724.985   156740517.866        -555.734          45.000    29826726.723   120099892.155        -425.827          48.000  
> 2024 04 17 11 37 30.0110000  0 25                     
G08  24878729.852   130738617.943       -3574.364          47.000    24878727.948   101874260.316       -2785.109          45.000  
G31  27536201.336   144703731.985        1562.581          46.000    27536200.363   112756127.836        1217.633          43.000  
E19  27122559.054   142529966.169        1070.571          44.000    27122558.639   109211282.782         820.430          47.000  
G27  27287557.297   143396984.291       -4422.638          43.000    27287557.961   111737940.602       -3446.705          38.000  
G28  27058026.715   142190881.318         713.116          43.000    27058025.885   110798068.952         555.701          44.000  
R03  25904887.905   138670784.073        3054.331          46.000    25904882.308   107855257.348        2375.544          46.000  
R17  23545835.214   125998732.697        2188.982          53.000    23545829.408    97998797.403        1702.534          49.000  
R02  22547957.586   120320253.842         285.697          52.000    22547957.145    93582424.367         222.232          49.000  
G03  24797830.255   130313457.848         642.343          46.000    24797829.317   101542948.267         500.508          45.000  
G21  22843854.228   120045268.023        -163.986          48.000                                                                  
S31  41962303.572   220513485.069        -601.707          45.000  
S33  42915781.740   225524099.506        -601.268          43.000  
E33  26787044.656   140766976.418        -660.877          49.000    26787044.640   107860390.071        -506.292          53.000  
R01  23497266.581   125606312.985       -3364.545          48.000    23497265.221    97693808.489       -2616.926          46.000  
R23  26402462.784   141235331.054       -4233.488          47.000                                                                  
R24  22697739.964   121375103.445       -1608.964          52.000    22697736.255    94402819.028       -1251.505          49.000  
G02  23408016.968   123009969.671         547.285          47.000                                                                  
G32  26741493.341   140527469.816       -3845.317          44.000    26741493.534   109501942.088       -2996.378          45.000  
E12  28644506.112   150527850.042        1314.110          42.000    28644504.704   115339550.822        1006.894          47.000  
G04  26180880.424   137581430.056        2968.524          43.000    26180879.615   107206245.832        2313.144          44.000  
E07  30998486.372   162898069.672       -3286.880          33.000    30998491.932   124818016.658       -2518.955          31.000  
E10  30505376.732   160306905.830        1675.602          33.000    30505376.755   122832504.058        1283.812          37.000  
E26  29266647.650   153797478.438       -2372.001          45.000    29266649.352   117844955.731       -1817.516          49.000  
G17  26990261.179                3       2658.936          29.000                                                                  
E14  29829897.005   156757190.973        -555.634          45.000    29829899.125   120112667.475        -425.722          47.000  
> 2024 04 17 11 38 00.0110000  0 25                     
G08  24899167.734   130846021.734       -3586.333          47.000    24899166.622   101957951.467       -2794.218          45.000  
G31  27527292.157   144656913.919        1558.447          45.000    27527291.067   112719646.203        1214.399          43.000  
E19  27116480.535   142498023.257        1058.803          44.000    27116480.118   109186807.020         811.401          47.000  
G27  27312809.917   143529685.992       -4424.427          43.000    27312810.902   111841344.197       -3447.692          38.000  
G28  27053991.764   142169677.984         700.116          44.000    27053991.272   110781546.834         545.734          44.000  
R03  25887798.518   138579308.914        3043.895          44.000    25887795.290   107784109.925        2367.484          46.000  
R17  23533596.817   125933243.608        2176.854          52.000    23533590.584    97947861.392        1693.107          49.000  
R02  22546414.046   120312013.230         263.551          52.000    22546412.289    93576014.978         204.919          49.000  
G03  24794183.280   130294292.837         635.289          46.000    24794181.963   101528014.433         495.007          45.000  
G21  22844837.092   120050435.088        -180.622          48.000                                                                  
S31  41965738.693   220531536.348        -601.966          45.000  
S33  42919214.343   225542138.113        -601.142          43.000  
E33  26790836.775   140786899.157        -667.418          49.000    26790835.863   107875655.487        -511.409          53.000  
R01  23516182.488   125707431.701       -3376.705          48.000    23516181.616    97772456.274       -2626.421          46.000  
R23  26426230.433   141362474.048       -4242.929          45.000                                                                  
R24  22706826.406   121423689.471       -1630.215          53.000    22706821.944    94440608.070       -1267.749          48.000  
G02  23404930.501   122993754.700         533.826          47.000                                                                  
G32  26763470.358   140642960.121       -3854.219          42.000    26763469.702   109591934.336       -3003.290          44.000  
E12  28637006.953   150488445.807        1312.873          42.000    28637006.551   115309357.891        1006.006          47.000  
G04  26163952.214   137492473.789        2961.840          44.000    26163952.188   107136929.255        2307.817          44.000  
E07  31017264.343   162996744.947       -3291.177          32.000    31017270.026                       -2521.392          30.000  
E10  30495806.249   160256616.032        1677.003          32.000    30495808.274   122793970.180        1285.354          39.000  
E26  29280205.500   153868726.090       -2377.788          45.000    29280207.483   117899547.917       -1821.986          49.000  
G17  26975110.256                        2647.622          28.000                                                                  
E14  29833067.612   156773851.340        -555.051          45.000    29833069.997   120125433.037        -425.303          47.000  
> 2024 04 17 11 38 30.0110000  0 24                     
G08  24919673.632   130953779.821       -3598.000          47.000    24919672.139   102041918.686       -2803.704          44.000  
G31  27518406.861   144610226.343        1553.859          44.000    27518406.590   112683266.294        1210.775          42.000  
E19  27110469.490   142466432.131        1046.967          44.000    27110468.461   109162600.793         802.210          47.000  
G27  27338073.006   143662443.006       -4426.376          42.000    27338074.472   111944790.884       -3449.264          39.000  
G28  27050033.257   142148869.790         686.914          43.000    27050031.871   110765332.624         535.193          44.000  
R03  25870769.205   138488151.752        3033.068          44.000    25870766.298   107713209.784        2359.007          47.000  
R17  23521426.816   125868124.626        2164.206          52.000    23521421.273    97897213.261        1683.293          49.000  
R02  22544995.108   120304442.537         240.982          52.000    22544993.211    93570126.635         187.366          48.000  
G03  24790577.494   130275344.604         627.726          46.000    24790575.686   101513249.533         489.238          45.000  
G21  22845917.172   120056107.004        -197.799          49.000                                                                  
S31  41969174.714   220549592.117        -602.235          45.000  
S33  42922647.795   225560179.470        -601.634          43.000  
E33  26794667.176   140807026.778        -674.646          50.000    26794666.087   107891077.893        -516.879          53.000  
R01  23535167.115   125808918.246       -3389.057          49.000    23535166.419    97851390.166       -2635.964          46.000  
R23  26450052.746   141489909.384       -4253.026          44.000                                                                  
R24  22716030.925   121472914.995       -1651.770          52.000    22716026.932    94478894.518       -1284.698          48.000  
G02  23401922.558   122977948.751         519.697          46.000                                                                  
G32  26785499.429   140758724.172       -3863.613          43.000    26785499.322   109682139.869       -3010.554          44.000  
E12  28629516.485   150449080.540        1311.312          42.000    28629515.668   115279194.830        1004.678          47.000  
G04  26147064.375   137403726.244        2954.627          44.000    26147062.949   107067775.296        2302.184          43.000  
E07  31036066.494   163095543.611       -3295.365          30.000    31036072.128                       -2525.349          31.000  
E10  30486226.631   160206280.572        1678.335          32.000    30486229.577   122755401.350        1286.017          39.000  
E26  29293795.201   153940149.793       -2383.950          43.000    29293798.421   117954275.029       -1826.649          48.000  
E14  29836237.140   156790501.925        -555.167          45.000    29836238.919   120138191.082        -425.263          48.000  
> 2024 04 17 11 39 00.0110000  0 25                     
G08  24940250.550   131061908.905       -3610.807          48.000    24940249.252   102126174.980       -2813.594          45.000  
G31  27509551.585   144563692.088        1548.162          45.000    27509551.616   112647005.853        1206.156          43.000  
E19  27104528.447   142435213.490        1033.932          44.000    27104527.982   109138679.975         792.379          48.000  
G27  27363350.151   143795272.109       -4429.303          42.000    27363350.875   112048293.727       -3451.323          37.000  
G28  27046152.698   142128478.676         672.314          43.000    27046151.683   110749443.449         523.981          44.000  
R03  25853803.091   138397334.900        3021.033          43.000    25853800.928   107642574.364        2349.912          46.000  
R17  23509331.374   125803399.542        2150.525          51.000    23509326.639    97846871.489        1672.571          49.000  
R02  22543706.357   120297561.636         217.550          52.000    22543703.329    93564774.782         169.242          47.000  
G03  24787016.511   130256632.228         619.586          47.000    24787014.487   101498668.430         482.665          44.000  
G21  22847096.771   120062305.353        -215.740          49.000                                                                  
S31  41972615.159   220567671.966        -603.447          45.000  
S33  42926086.205   225578248.168        -603.001          43.000  
E33  26798540.069   140827379.848        -682.552          49.000    26798539.279   107906673.035        -522.966          53.000  
R01  23554225.002   125910788.888       -3402.429          48.000    23554222.880    97930622.825       -2646.443          43.000  
R23  26473933.605   141617654.832       -4263.666          46.000                                                                  
R24  22725360.097   121522800.133       -1674.171          52.000    22725356.177    94517693.978       -1302.084          49.000  
G02  23398997.303   122962573.671         504.939          47.000                                                                  
G32  26807583.549   140874778.809       -3873.703          44.000    26807583.422   109772571.854       -3018.515          43.000  
E12  28622037.227   150409774.702        1308.896          43.000    28622035.756   115249077.292        1002.875          46.000  
G04  26130220.163   137315209.574        2946.411          44.000    26130217.722   106998801.219        2295.781          42.000  
E07  31054890.042                       -3301.060          28.000    31054901.212                       -2528.762          31.000  
E10  30476635.104   160155919.745        1678.431          30.000    30476646.407   122716813.058        1286.431          39.000  
E26  29307425.779   154011769.393       -2391.047          45.000    29307427.224   118009152.213       -1832.072          48.000  
E14  29839407.581   156807162.472        -555.898          44.000    29839409.640   120150956.778        -425.927          48.000  
G17                                                                  26945021.819                1       2045.322          26.000  
> 2024 04 17 11 39 30.0110000  0 25                     
G08  24960902.017   131170430.017       -3623.836          48.000    24960901.066   102210736.723       -2823.744          46.000  
G31  27500731.402   144517337.691        1542.255          46.000    27500730.611   112610885.558        1201.567          43.000  
E19  27098662.888   142404391.889        1020.976          44.000    27098662.744   109115063.409         782.216          47.000  
G27  27388645.125   143928194.607       -4431.894          40.000    27388644.645   112151869.404       -3453.558          37.000  
G28  27042357.698   142108530.982         657.721          42.000    27042354.919   110733899.775         512.372          43.000  
R03  25836907.468   138306884.600        3008.881          45.000    25836903.965   107572224.050        2340.313          46.000  
R17  23497315.227   125739096.235        2136.429          52.000    23497310.009    97796857.731        1661.679          50.000  
R02  22542550.265   120291393.945         193.778          52.000    22542547.873    93559977.659         150.732          47.000  
G03  24783506.324   130238179.112         610.846          48.000    24783502.410   101484289.306         476.244          44.000  
G21  22848381.055   120069055.498        -234.136          48.000                                                                  
S31  41976064.941   220585800.200        -605.104          45.000  
S33  42929533.344   225596363.253        -604.438          43.000  
E33  26802460.968   140847983.412        -690.900          50.000    26802460.041   107922460.118        -529.384          53.000  
R01  23573358.392   126013064.451       -3415.793          49.000    23573355.378    98010170.369       -2656.783          44.000  
R23  26497877.345   141745732.804       -4274.666          47.000                                                                  
R24  22734817.054   121573369.668       -1696.960          53.000    22734813.181    94557025.797       -1319.880          48.000  
G02  23396159.110   122947655.389         489.738          48.000                                                                  
G32  26829727.271   140991145.120       -3883.813          44.000    26829727.747   109863246.689       -3026.510          43.000  
E12  28614574.567   150370553.416        1306.183          44.000    28614572.024   115219024.556        1000.711          46.000  
G04  26113425.104   137226950.282        2937.740          45.000    26113422.729   106930027.711        2288.985          42.000  
E07  31073748.956                       -3306.378          26.000    31073760.858                       -2533.223          29.000  
E10  30467052.881   160105558.135        1678.912          32.000    30467062.662   122678224.174        1286.509          39.000  
E26  29321096.235   154083608.972       -2398.197          45.000    29321098.058   118064197.974       -1837.634          48.000  
E14  29842584.113   156823857.103        -556.885          44.000    29842586.622   120163748.583        -426.682          48.000  
G17                                                                  26930055.508                1       2035.480          26.000  
> 2024 04 17 11 40 00.0110000  0 25                     
G08  24981627.642   131279343.826       -3637.199          47.000    24981626.671   102295604.483       -2834.141          46.000  
G31  27491946.108   144471169.620        1535.816          46.000    27491945.963   112574910.411        1196.901          43.000  
E19  27092874.600   142373971.906        1007.170          44.000    27092873.805   109091754.552         771.698          47.000  
G27  27413957.151   144061211.292       -4435.286          41.000    27413957.075   112255518.392       -3455.992          38.000  
G28  27038646.111   142089032.672         642.334          41.000    27038644.574   110718706.267         500.464          43.000  
R03  25820079.472   138216806.877        2996.355          44.000    25820076.585   107502163.488        2330.407          46.000  
R17  23485379.126   125675222.161        2121.783          52.000    23485373.972    97747177.873        1650.324          50.000  
R02  22541528.522   120285943.075         169.633          52.000    22541526.492    93555738.064         131.989          48.000  
G03  24780044.902   130219988.291         601.895          48.000    24780041.417   101470114.584         468.873          44.000  
G21  22849771.690   120076363.150        -253.098          48.000                                                                  
S31  41979524.753   220603980.042        -606.808          44.000  
S33  42932990.717   225614530.224        -606.756          43.000  
E33  26806430.551   140868842.027        -699.755          50.000    26806429.291   107938442.630        -536.130          53.000  
R01  23592567.231   126115745.020       -3429.593          49.000    23592564.665    98090032.944       -2667.258          44.000  
R23  26521883.261   141874144.874       -4286.059          48.000                                                                  
R24  22744402.907   121624627.613       -1720.218          53.000    22744399.071    94596893.021       -1337.896          48.000  
G02  23393408.145   122933199.285         474.042          48.000                                                                  
G32  26851930.433   141107823.900       -3894.505          44.000    26851930.656   109954165.035       -3034.772          41.000  
E12  28607128.278   150331421.276        1302.727          44.000    28607125.127   115189040.113         998.100          45.000  
G04  26096680.681   137138954.554        2928.600          46.000    26096678.613   106861459.565        2281.828          42.000  
E07  31092645.526                3      -3310.001          26.000    31092650.563                       -2537.014          28.000  
E10  30457472.058   160055200.042        1678.287          32.000    30457479.937   122639637.969        1286.260          39.000  
E26  29334809.968   154155672.407       -2405.999          45.000    29334811.402   118119415.224       -1843.526          48.000  
E14  29845767.840   156840589.552        -558.674          44.000    29845771.173   120176569.357        -427.948          49.000  
G17                                                                  26915185.781                        2024.925          29.000  
> 2024 04 17 11 40 30.0110000  0 25                     
G08  25002429.478   131388661.590       -3651.132          46.000    25002428.372   102380787.051       -2844.887          45.000  
G31  27483199.096   144425204.907        1528.226          44.000    27483199.065   112539093.739        1190.908          43.000  
E19  27087165.020   142343968.542         992.835          43.000    27087164.491   109068764.922         760.733          47.000  
G27  27439289.652   144194333.617       -4439.329          40.000    27439290.106   112359249.725       -3459.155          37.000  
G28  27035023.603   142070000.241         626.276          43.000    27035022.793   110703875.794         488.007          43.000  
R03  25803322.457   138127118.442        2982.688          42.000    25803321.523   107432405.753        2319.866          44.000  
R17  23473526.344   125611795.716        2106.332          52.000    23473521.440    97697846.146        1638.247          50.000  
R02  22540644.037   120281222.594         144.784          51.000    22540641.660    93552066.559         112.640          48.000  
G03  24776635.733   130202073.384         592.224          48.000    24776633.051   101456154.864         461.466          45.000  
G21  22851271.299   120084243.910        -272.690          48.000                                                                  
S31  41982996.677   220622225.948        -609.473          44.000  
S33  42936460.428   225632764.506        -609.519          43.000  
E33  26810450.786   140889970.844        -709.116          49.000    26810450.142   107954632.183        -543.300          53.000  
R01  23611852.724   126218841.212       -3443.858          48.000    23611851.349    98170218.773       -2678.426          45.000  
R23  26545954.459   142002903.263       -4297.926          48.000                                                                  
R24  22754119.320   121676588.878       -1744.178          52.000    22754116.668    94637307.260       -1356.539          49.000  
G02  23390748.328   122919221.436         457.597          48.000                                                                  
G32  26874195.750   141224826.559       -3905.750          45.000    26874195.761   110045335.696       -3043.422          41.000  
E12  28599701.718   150292393.491        1298.810          45.000    28599698.486   115159135.631         995.301          45.000  
G04  26079989.112   137051239.064        2918.781          46.000    26079986.515   106793109.736        2274.404          43.000  
E07  31111553.367                3      -3317.987          24.000    31111574.700                       -2542.441          27.000  
E10  30447903.326   160004860.272        1677.154          35.000    30447900.820   122601065.835        1285.097          39.000  
E26  29348568.039   154227973.941       -2414.398          44.000    29348569.763   118174814.959       -1850.006          48.000  
E14  29848962.493   156857374.092        -560.678          44.000    29848965.882   120189430.050        -429.602          49.000  
G17                                                                  26900376.765                        2014.269          27.000  
> 2024 04 17 11 41 00.0110000  0 25                     
G08  25023308.439   131498381.370       -3663.747          47.000    25023307.867   102466282.852       -2854.817          45.000  
G31  27474491.598   144379447.196        1521.835          44.000    27474491.524   112503438.372        1185.898          42.000  
E19  27081535.124   142314383.708         979.195          44.000    27081534.475   109046096.001         750.314          47.000  
G27  27464641.946   144327559.913       -4442.125          38.000    27464642.729   112463062.107       -3461.060          35.000  
G28  27031491.541   142051437.075         610.956          44.000    27031490.436   110689410.991         476.123          43.000  
R03  25786641.278   138037822.314        2969.993          44.000    25786641.000   107362953.139        2309.969          44.000  
R17  23461758.224   125548821.599        2091.500          52.000    23461753.408    97648866.241        1626.743          50.000  
R02  22539896.968   120277232.682         120.962          52.000    22539894.387    93548963.251          93.937          49.000  
G03  24773279.197   130184434.851         583.298          48.000    24773276.814   101442410.498         454.564          45.000  
G21  22852880.715   120092700.562        -291.382          48.000                                                                  
S31  41986481.925   220640539.196        -611.562          45.000  
S33  42939943.139   225651063.959        -611.009          43.000  
E33  26814522.609   140911371.880        -717.937          49.000    26814522.661   107971030.328        -550.102          53.000  
R01  23631216.398   126322350.659       -3457.168          49.000    23631215.087    98250726.057       -2688.883          44.000  
R23  26570088.537   142132006.815       -4309.245          48.000                                                                  
R24  22763968.781   121729254.504       -1767.134          53.000    22763964.914    94678269.319       -1374.432          48.000  
G02  23388180.088   122905725.020         441.887          49.000                                                                  
G32  26896522.114   141342151.249       -3915.959          45.000    26896522.095   110136757.340       -3051.520          41.000  
E12  28592295.336   150253472.148        1295.639          44.000    28592292.105   115129312.725         992.648          45.000  
G04  26063351.371   136963807.373        2909.610          46.000    26063349.102   106724981.110        2267.399          43.000  
E07  31130519.926                3      -3323.471          23.000    31130533.344                       -2546.897          27.000  
E10  30438320.011   159954540.507        1677.258          34.000    30438324.905   122562509.032        1284.867          39.000  
E26  29362372.818   154300514.846       -2421.870          44.000    29362374.052   118230398.071       -1855.816          48.000  
E14  29852166.393   156874211.899        -562.199          43.000    29852170.485   120202331.538        -430.785          50.000  
G17                                                                  26885663.595                1       2003.848          31.000  
> 2024 04 17 11 41 30.0110000  0 25                     
G08  25044262.318   131608493.114       -3676.765          47.000    25044261.214   102552084.104       -2865.089          45.000  
G31  27465823.283   144333892.194        1515.147          45.000    27465822.020   112467940.967        1180.478          42.000  
E19  27075984.020   142285211.051         965.608          44.000    27075982.976   109023742.885         739.844          47.000  
G27  27490010.876   144460880.416       -4445.407          33.000    27490012.843   112566947.831       -3464.011          32.000  
G28  27028047.779   142033338.330         595.551          44.000    27028046.069   110675308.085         464.160          43.000  
R03  25770034.820   137948913.547        2957.139          47.000    25770032.428   107293801.782        2300.140          45.000  
R17  23450073.862   125486296.268        2076.734          52.000    23450068.762    97600235.405        1615.140          50.000  
R02  22539284.533   120273965.832          96.902          52.000    22539282.315    93546422.328          75.451          49.000  
G03  24769973.542   130167065.024         574.412          48.000    24769971.214   101428875.520         447.771          45.000  
G21  22854598.176   120101727.573        -310.434          48.000                                                                  
S31  41989977.922   220658911.683        -613.327          44.000  
S33  42943437.147   225669426.377        -612.799          43.000  
E33  26818646.276   140933039.014        -726.667          49.000    26818645.886   107987632.356        -556.779          53.000  
R01  23650656.104   126426262.710       -3470.387          49.000    23650654.162    98331546.441       -2699.160          44.000  
R23  26594285.449   142261446.434       -4320.049          47.000                                                                  
R24  22773947.484   121782617.701       -1790.381          53.000    22773943.748    94719773.954       -1392.656          47.000  
G02  23385702.904   122892704.584         426.091          49.000                                                                  
G32  26918908.061   141459788.072       -3926.331          47.000    26918907.660   110228422.208       -3059.534          40.000  
E12  28584908.460   150214651.079        1292.441          44.000    28584904.892   115099566.631         990.345          45.000  
G04  26046766.792   136876654.900        2900.425          45.000    26046764.994   106657070.043        2260.236          44.000  
E10  30428745.395   159904234.398        1676.008          34.000    30428751.542   122523962.646        1284.346          39.000  
E26  29376220.169   154373288.146       -2429.500          43.000    29376222.548   118286159.246       -1861.555          48.000  
G17  26871025.854                3       2558.828          31.000    26871019.386   110032281.3791       1994.759          31.000  
E14  29855379.003   156891096.011        -563.532          42.000    29855383.438   120215268.498        -431.750          49.000  
E07                                                                  31149525.525                3      -2550.560          25.000  
> 2024 04 17 11 42 00.0110000  0 25                     
G08  25065290.528   131718996.893       -3690.094          47.000    25065289.406   102638190.800       -2875.444          45.000  
G31  27457194.424   144288546.050        1507.791          46.000    27457192.915   112432606.301        1175.184          42.000  
E19  27070512.031   142256454.582         951.380          43.000    27070510.974   109001708.655         729.073          47.000  
G27  27515398.495                       -4448.596          31.000    27515400.443                1      -3466.751          30.000  
G28  27024692.348   142015709.337         579.578          43.000    27024692.760   110661571.173         451.556          44.000  
R03  25753500.133   137860397.732        2943.720          48.000    25753498.066   107224956.123        2289.498          46.000  
R17  23438474.395   125424226.717        2061.062          52.000    23438469.207    97551959.057        1603.032          50.000  
R02  22538807.790   120271424.478          72.391          52.000    22538806.597    93544445.680          56.216          49.000  
G03  24766719.220   130149966.347         565.093          47.000    24766717.618   101415551.835         440.413          45.000  
G21  22856426.074   120111329.827        -329.960          48.000                                                                  
S31  41993486.385   220677347.614        -615.990          44.000  
S33  42946943.394   225687850.437        -615.555          42.000  
E33  26822820.161   140954976.229        -735.877          48.000    26822820.287   108004441.334        -563.874          53.000  
R01  23670170.338   126530576.682       -3484.042          49.000    23670167.195    98412679.431       -2709.940          42.000  
R23  26618545.795   142391223.101       -4331.803          46.000                                                                  
R24  22784058.214   121836681.859       -1814.077          53.000    22784053.405    94761823.769       -1410.918          46.000  
G02  23383316.732   122880165.293         409.648          48.000                                                                  
G32  26941353.655   141577737.248       -3936.935          47.000    26941353.428   110320330.484       -3067.906          39.000  
E12  28577540.811   150175934.390        1288.724          44.000    28577537.521   115069900.538         987.401          46.000  
G04  26030236.763   136789787.234        2890.548          44.000    26030234.864   106589380.923        2252.396          45.000  
E10  30419185.275   159853945.525        1675.948          34.000    30419181.478   122485429.482        1283.814          38.000  
E26  29390112.278   154446297.025       -2437.775          43.000    29390116.543   118342100.943       -1867.868          49.000  
G17  26856461.084                1       2544.867          30.000    26856452.271   109972632.863        1982.656          32.000  
E14  29858603.231   156908029.505        -565.426          43.000    29858605.561   120228243.316        -433.290          48.000  
E07                                                                  31168546.639                3      -2551.130          21.000  
> 2024 04 17 11 42 30.0110000  0 26                     
G08  25086394.178   131829896.549       -3703.494          47.000    25086392.808   102724605.974       -2885.679          45.000  
G31  27448607.145   144243418.213        1500.392          46.000    27448605.947   112397441.730        1169.237          43.000  
E19  27065120.411   142228121.774         937.330          44.000    27065119.707   108979999.067         718.172          47.000  
G28  27021429.061   141998559.236         563.373          45.000    27021429.595   110648207.453         438.892          44.000  
R03  25737040.324   137772283.543        2930.154          48.000    25737036.738   107156422.794        2279.270          44.000  
R17  23426963.089   125362623.585        2045.419          53.000    23426957.392    97504045.457        1590.854          50.000  
R02  22538468.147   120269614.823          47.842          51.000    22538466.739    93543038.133          37.245          48.000  
G03  24763517.848   130133145.104         555.844          47.000    24763517.125   101402444.308         433.239          46.000  
G21  22858364.609   120121515.421        -349.452          48.000                                                                  
S31  41997008.246   220695854.266        -618.315          44.000  
S33  42950462.807   225706343.910        -617.929          42.000  
E33  26827047.684   140977191.377        -745.390          48.000    26827047.855   108021463.259        -571.111          53.000  
R01  23689760.507   126635295.829       -3497.536          49.000    23689757.426    98494127.568       -2720.252          44.000  
R23  26642870.738   142521341.527       -4343.324          47.000                                                                  
R24  22794301.277   121891453.832       -1837.789          53.000    22794295.715    94804424.134       -1429.329          47.000  
G02  23381024.038   122868116.247         393.220          47.000                                                                  
G32  26963859.046   141696002.821       -3947.596          49.000    26963858.766   110412485.266       -3076.279          39.000  
E12  28570194.167   150137330.081        1284.777          44.000    28570191.639   115040320.542         984.386          46.000  
G04  26013762.573   136703213.688        2880.527          44.000    26013760.700   106521920.977        2244.533          45.000  
E10  30409618.957   159803681.452        1674.604          34.000    30409616.170   122446915.336        1283.254          38.000  
E04  31240895.642                3       2403.999          24.000    31240897.408                1       1843.095          31.000  
E26  29404051.583   154519548.484       -2446.028          43.000    29404055.663   118398228.509       -1874.227          48.000  
E14  29861836.402   156925019.346        -567.526          45.000    29861838.829   120241261.338        -434.774          48.000  
E07                                                                  31187605.397                3      -2565.990          22.000  
G27                                                                  27540808.442                       -3469.137          26.000  
G17                                                                  26841964.229   109913309.338        1972.607          32.000  
> 2024 04 17 11 43 00.0110000  0 26                     
G08  25107572.773   131941192.039       -3716.734          46.000    25107571.957   102811329.619       -2896.100          45.000  
G31  27440062.278   144198514.427        1492.804          46.000    27440061.020   112362451.761        1163.301          43.000  
E19  27059810.727   142200216.236         922.852          45.000    27059809.545   108958616.878         706.948          47.000  
G28  27018258.194   141981893.155         547.021          45.000    27018256.881   110635220.815         426.422          43.000  
R03  25720656.424   137684576.100        2916.440          49.000    25720651.381   107088205.866        2268.395          45.000  
R17  23415539.644   125301493.600        2029.436          53.000    23415534.215    97456499.871        1578.466          50.000  
R02  22538266.242   120268539.059          23.341          50.000    22538265.309    93542201.421          18.097          48.000  
G03  24760371.030   130116603.668         546.514          48.000    24760369.740   101389554.802         425.836          46.000  
G21  22860414.946   120132288.918        -369.234          48.000                                                                  
S31  42000543.303   220714432.219        -620.730          44.000  
S33  42953996.022   225724911.472        -620.282          43.000  
E33  26831328.873   140999688.297        -754.903          48.000    26831328.966   108038701.110        -578.472          53.000  
R01  23709426.627   126740419.693       -3511.072          50.000    23709423.850    98575890.461       -2730.866          44.000  
R23  26667258.493   142651802.313       -4354.794          46.000                                                                  
R24  22804676.766   121946937.127       -1861.591          53.000    22804672.135    94847577.704       -1447.927          47.000  
G02  23378824.895   122856561.493         376.491          48.000                                                                  
G32  26986424.255   141814584.853       -3958.301          48.000    26986423.237   110504886.635       -3084.198          36.000  
E12  28562870.487   150098841.951        1280.703          44.000    28562867.975   115010829.575         981.196          47.000  
G04  25997345.316   136616939.685        2870.712          43.000    25997342.921   106454694.455        2236.814          44.000  
E10  30400059.354   159753445.756        1673.606          34.000    30400056.593   122408422.951        1282.287          38.000  
E04  31227168.737                3       2400.298          23.000    31227179.625   125738910.1711       1839.313          33.000  
E26  29418038.644   154593045.564       -2454.272          43.000    29418042.146   118454544.262       -1880.657          49.000  
E14  29865080.434   156942068.555        -569.652          44.000    29865082.835   120254324.854        -436.306          47.000  
E07                                                                  31206697.915                3      -2555.382          21.000  
G27                                                                  27566228.837                3      -3472.627          26.000  
G17                                                                  26827551.576                        1960.485          30.000  
> 2024 04 17 11 43 30.0110000  0 26                     
G08  25128828.502   132052891.517       -3729.844          46.000    25128827.741   102898368.032       -2906.403          44.000  
G31  27431563.007   144153848.796        1485.229          46.000    27431561.203   112327647.374        1157.062          43.000  
E19  27054583.568   142172750.071         908.256          44.000    27054582.853   108937571.329         696.027          47.000  
G28  27015181.658   141965724.418         531.018          45.000    27015181.038   110622621.799         413.593          44.000  
R03  25704350.518   137597289.048        2902.698          48.000    25704345.679   107020315.883        2257.735          45.000  
R17  23404206.638   125240851.622        2013.426          53.000    23404202.143    97409333.831        1565.927          50.000  
R02  22538204.385   120268207.622          -1.183          51.000    22538202.888    93541943.605          -0.790          48.000  
G03  24757279.334   130100352.554         536.948          49.000    24757277.006   101376891.522         418.470          46.000  
G21  22862579.278   120143662.992        -388.983          48.000                                                                  
S31  42004094.936   220733095.707        -623.409          44.000  
S33  42957545.258   225743562.554        -622.742          43.000  
E33  26835664.766   141022479.114        -764.441          47.000    26835665.804   108056164.147        -585.686          53.000  
R01  23729169.400   126845955.846       -3524.562          50.000    23729166.585    98657974.046       -2741.322          44.000  
R23  26691713.121   142782614.768       -4366.072          47.000                                                                  
R24  22815187.656   122003142.944       -1885.375          53.000    22815182.416    94891293.237       -1466.506          46.000  
G02  23376721.955   122845514.491         360.034          47.000                                                                  
G32  27009052.009   141933491.657       -3968.719          49.000    27009050.080   110597541.086       -3092.981          36.000  
E12  28555570.887   150060482.280        1276.740          44.000    28555568.653   114981437.037         978.277          47.000  
G04  25980987.188   136530978.859        2860.287          43.000    25980984.351   106387711.965        2228.672          44.000  
E10  30390512.574   159703250.329        1672.482          33.000    30390505.078   122369961.371        1281.815          38.000  
E04  31213484.937                3       2396.316          27.000    31213486.457   125683774.122        1836.295          35.000  
E26  29432075.466   154666799.497       -2462.536          45.000    29432076.883   118511056.834       -1886.996          48.000  
E14  29868338.166   156959188.395        -571.653          43.000    29868340.789   120267442.476        -437.990          47.000  
E07                                                                  31225816.120                3      -2572.842          20.000  
G27                                                                  27591681.623                3      -3474.124          25.000  
G17                                                                  26813227.236                        1949.555          31.000  
> 2024 04 17 11 44 00.0110000  0 26                     
G08  25150157.956   132164980.493       -3742.981          46.000    25150157.451   102985709.944       -2916.542          44.000  
G31  27423106.339   144109412.614        1477.120          45.000    27423104.487   112293021.753        1151.073          43.000  
E19  27049437.648   142145712.645         893.839          44.000    27049437.987   108916854.316         684.821          48.000  
G28  27012198.317   141950043.882         514.307          46.000    27012196.100   110610403.193         400.690          43.000  
R03  25688121.502   137510412.826        2888.712          49.000    25688115.718   106952745.439        2246.653          45.000  
R17  23392964.396   125180690.096        1997.166          53.000    23392959.859    97362541.505        1553.262          50.000  
R02  22538279.962   120268607.938         -25.757          52.000    22538278.690    93542254.927         -20.084          49.000  
G03  24754239.499   130084379.694         527.479          49.000    24754237.547   101364445.067         411.163          46.000  
G21  22864855.390   120155627.888        -408.890          47.000                                                                  
S31  42007660.338   220751831.149        -625.882          44.000  
S33  42961108.501   225762286.741        -625.631          42.000  
E33  26840056.498   141045553.375        -774.167          47.000    26840056.869   108073844.349        -593.169          53.000  
R01  23748985.390   126951889.207       -3538.003          49.000    23748982.778    98740366.554       -2751.852          44.000  
R23  26716230.696   142913765.221       -4377.590          46.000                                                                  
R24  22825831.659   122060059.881       -1909.314          53.000    22825825.037    94935561.894       -1485.039          45.000  
G02  23374715.254   122834965.508         342.912          48.000                                                                  
G32  27031737.924   142052708.979       -3979.358          48.000    27031736.046   110690437.485       -3100.696          38.000  
E12  28548293.842   150022240.602        1272.371          44.000    28548291.636   114952134.906         974.949          47.000  
G04  25964686.808   136445322.293        2849.934          43.000    25964685.310   106320966.561        2220.687          45.000  
E10  30380961.212   159653084.345        1671.071          34.000    30380958.998   122331522.396        1280.645          38.000  
E04  31199812.166   163956135.3981       2392.601          30.000    31199816.440   125628730.778        1833.371          36.000  
E26  29446157.184   154740798.917       -2470.951          45.000    29446159.043   118567757.525       -1893.398          48.000  
E14  29871608.014   156976367.493        -573.837          43.000    29871610.245   120280605.487        -439.744          47.000  
E07                                                                  31244978.395                3      -2578.749          20.000  
G27                                                                  27617141.048                3      -3476.079          23.000  
G17                                                                  26798987.208                        1938.842          31.000  
> 2024 04 17 11 44 30.0110000  0 26                     
G08  25171562.857   132277458.533       -3756.017          47.000    25171561.024   103073355.049       -2926.725          44.000  
G31  27414695.894   144065211.292        1469.359          46.000    27414694.382   112258579.159        1144.666          43.000  
E19  27044374.778   142119107.299         879.448          43.000    27044375.248   108896468.360         673.760          48.000  
G28  27009307.850   141934856.305         497.809          44.000    27009305.846   110598568.682         387.860          43.000  
R03  25671969.384   137423952.076        2874.755          47.000    25671964.218   106885498.102        2235.871          45.000  
R17  23381812.378   125121015.184        1980.787          53.000    23381807.812    97316127.629        1540.596          49.000  
R02  22538493.171   120269742.002         -50.188          52.000    22538491.176    93543136.949         -39.120          48.000  
G03  24751253.085   130068687.082         518.154          48.000    24751251.015   101352217.005         403.807          46.000  
G21  22867245.383   120168187.529        -428.850          47.000                                                                  
S31  42011239.910   220770641.247        -628.408          44.000  
S33  42964685.919   225781085.679        -627.867          42.000  
E33  26844502.496   141068914.523        -783.753          48.000    26844502.705   108091744.386        -600.521          53.000  
R01  23768876.128   127058218.749       -3551.094          48.000    23768874.555    98823067.200       -2761.910          44.000  
R23  26740810.033   143045253.929       -4388.809          45.000                                                                  
R24  22836608.851   122117690.427       -1933.115          53.000    22836602.729    94980385.578       -1503.486          45.000  
G02  23372803.561   122824919.300         326.282          48.000                                                                  
G32  27054483.111   142172236.533       -3989.532          48.000    27054482.027   110783575.585       -3108.802          38.000  
E12  28541039.564   149984120.590        1268.483          44.000    28541037.723   114922925.985         971.942          47.000  
G04  25948445.553   136359975.010        2839.451          44.000    25948444.493   106254462.147        2212.610          46.000  
E10  30371417.014   159602951.028        1670.201          33.000    30371419.457   122293108.465        1279.722          39.000  
E04  31186162.083   163884424.423        2388.440          32.000    31186170.031   125573783.251        1830.068          37.000  
E26  29460285.135   154815046.521       -2479.304          44.000    29460287.822   118624648.398       -1899.732          48.000  
G17  26784845.754                1       2470.407          32.000    26784830.316   109679359.880        1926.319          32.000  
E14  29874889.537   156993608.501        -575.888          44.000    29874891.116   120293815.918        -441.232          47.000  
E07                                                                  31264171.667                3      -2578.788          19.000  
G27                                                                  27642614.844                3      -3481.061          17.000  
