     3.00           OBSERVATION DATA    M: Mixed            RINEX VERSION / TYPE
CONVBIN 2.4.3                           20240417 041442 UTC PGM / RUN BY / DATE 
format: u-blox UBX                                          COMMENT             
log: /home/regis/git/gnsspwv/obsdata/VERT00CHL/2024-04-17/VECOMMENT             
{self.marker}                                               MARKER NAME         
                                                            MARKER NUMBER       
GEODETIC                                                    MARKER TYPE         
{self.observer}     {self.institution}                      OBSERVER / AGENCY   
UNKNOWN             UBLOX-ZED-F9P                           REC # / TYPE / VERS 
UNKNOWN             TWIVSP6037L                             ANT # / TYPE        
  1713381.0000 -5047934.0000 -3490983.0000                  APPROX POSITION XYZ 
        0.0000        0.0000        0.0000                  ANTENNA: DELTA H/E/N
G    8 C1C L1C D1C S1C C2L L2L D2L S2L                      SYS / # / OBS TYPES 
R    8 C1C L1C D1C S1C C2C L2C D2C S2C                      SYS / # / OBS TYPES 
E    8 C1C L1C D1C S1C C7Q L7Q D7Q S7Q                      SYS / # / OBS TYPES 
S    4 C1C L1C D1C S1C                                      SYS / # / OBS TYPES 
  2024    04    17    04    00   00.5000000     GPS         TIME OF FIRST OBS   
  2024    04    17    04    14   30.0000000     GPS         TIME OF LAST OBS    
                                                            END OF HEADER       
> 2024 04 17 04 00 00.5000000  0 23                     
G31  22348503.918   117442102.9601       1071.295          49.000    22348498.298    91513452.5071        834.797          45.000  
G12  23321118.883   122553300.7711      -3020.814          46.000    23321113.487    95496062.8501      -2353.737          40.000  
G26  23521267.444   123605092.6951       2464.734          36.000    23521266.977    96315662.3071       1920.465          34.000  
G20  24091585.332   126602124.0081      -1926.492          43.000                                                                  
R10  20186266.338   107604199.3161      -3082.375          47.000                                                                  
R22  21629946.655   115462250.9781       2460.786          45.000    21629947.416    89803792.2851       1913.875          47.000  
R11  19408690.826   103714205.5911        980.810          51.000    19408685.957    80666595.1151        762.778          51.000  
R20  21531543.546   115138962.3871      -4167.056          41.000    21531541.990    89552582.5271      -3241.047          42.000  
G25  20831700.778   109471347.7951      -1837.018          48.000    20831698.786    85302369.9801      -1431.421          47.000  
G29  20990412.749   110305517.7221      -1699.765          48.000    20990408.050    85952435.6201      -1324.337          45.000  
S31  38718084.963   203464990.3581       -650.831          44.000  
S33  39672729.325   208481716.1971       -651.282          42.000  
R21  19265858.126   103096020.3491       -841.031          51.000    19265853.944    80185886.9071       -654.133          48.000  
G28  21281785.166   111836559.5651      -1259.836          46.000    21281780.292    87145359.6341       -981.925          45.000  
E15  24648596.518   129529379.8451      -2400.148          49.000    24648596.638    99249863.3351      -1839.053          49.000  
E21  24393459.261   128188565.7721        935.690          46.000    24393459.899    98222443.8721        716.905          52.000  
E13  23420287.860   123074844.1531        409.603          48.000    23420288.283    94304204.9301        313.830          52.000  
E27  23809456.375   125119578.6451      -1279.695          48.000    23809457.296    95870860.8161       -980.606          53.000  
E30  27397937.046   143977122.0861      -2809.799          41.000    27397940.271   110320137.5881      -2152.939          46.000  
G18  21024183.076   110483115.8261       1587.869          48.000    21024178.528    86090847.8001       1237.159          47.000  
G05  23536811.977   123686887.7481         72.880          34.000    23536809.298    96379406.4811         56.676          37.000  
E26  26533528.478   139434829.8371       2269.805          41.000    26533530.126   106839807.3041       1739.287          46.000  
E14  21473790.938   112845561.1451        -22.974          43.000    21473792.501    86466096.4891        -17.581          48.000  
> 2024 04 17 04 00 30.5000000  0 23                     
G31  22342439.823   117410236.478        1053.319          48.000    22342433.819    91488621.507         820.802          44.000  
G12  23338390.246   122644062.044       -3029.614          46.000    23338385.255    95566785.864       -2360.682          40.000  
G26  23507200.838   123531171.911        2463.639          38.000    23507200.065    96258061.785        1919.428          34.000  
G20  24102634.876   126660191.977       -1944.293          43.000                                                                  
R10  20203672.134   107696977.331       -3102.488          48.000                                                                  
R22  21616159.072   115388649.608        2446.312          46.000    21616158.657    89746546.857        1902.750          46.000  
R11  19403242.706   103685092.168         960.289          51.000    19403237.795    80643951.338         747.098          51.000  
R20  21554941.977   115264080.758       -4174.018          41.000    21554940.373    89649896.794       -3246.471          42.000  
G25  20842226.849   109526662.960       -1850.433          48.000    20842225.213    85345472.702       -1441.870          48.000  
G29  21000137.434   110356620.215       -1706.675          48.000    21000132.328    85992255.764       -1329.887          44.000  
S31  38721803.667   203484531.109        -651.734          44.000  
S33  39676449.961   208501268.607        -651.773          43.000  
R21  19270632.402   103121570.198        -862.088          51.000    19270628.335    80205759.010        -670.432          48.000  
G28  21289035.991   111874659.388       -1279.860          47.000    21289031.288    87175047.794        -997.239          46.000  
E15  24662329.342   129601548.418       -2410.845          48.000    24662330.003    99305161.331       -1847.319          49.000  
E21  24388131.024   128160569.016         931.093          46.000    24388132.212    98200991.823         713.453          52.000  
E13  23417990.133   123062767.766         395.579          48.000    23417990.062    94294951.619         303.212          51.000  
E27  23816787.023   125158103.776       -1288.446          47.000    23816788.600    95900380.063        -987.112          53.000  
E30  27413994.322   144061505.828       -2815.307          41.000    27413998.382   110384795.226       -2157.319          47.000  
G18  21015166.737   110435735.376        1570.995          48.000    21015161.908    86053928.012        1224.191          47.000  
G05  23536443.296   123684956.143          56.987          35.000    23536442.405    96377901.351          44.042          38.000  
E26  26520585.804   139366819.828        2264.293          41.000    26520588.122   106787695.993        1735.085          46.000  
E14  21473991.517   112846615.290         -47.265          44.000    21473993.506    86466904.317         -36.011          49.000  
> 2024 04 17 04 01 00.5000000  0 24                     
G31  22336474.926   117378895.609        1036.307          48.000    22336470.249    91464200.066         807.525          45.000  
G12  23355709.783   122735079.461       -3037.703          45.000    23355704.509    95637708.551       -2367.358          39.000  
G26  23493142.539   123457295.338        2462.336          37.000    23493141.648    96200495.680        1918.775          34.000  
G20  24113783.637   126718782.046       -1961.387          42.000                                                                  
R10  20221188.786   107790348.937       -3121.828          47.000                                                                  
R22  21602448.711   115315471.945        2432.800          44.000    21602449.429    89689631.035        1892.015          44.000  
R11  19397907.997   103656585.285         940.518          51.000    19397903.484    80621779.320         731.560          51.000  
R20  21578376.693   115389388.996       -4179.744          42.000    21578373.513    89747358.732       -3250.778          41.000  
G25  20852827.015   109582367.965       -1862.891          48.000    20852825.090    85388879.195       -1451.593          47.000  
G29  21009899.256   110407918.240       -1712.695          49.000    21009894.238    86032228.271       -1334.699          45.000  
S31  38725524.515   203504083.901        -651.304          44.000  
S33  39680172.864   208520833.803        -652.217          43.000  
R21  19275524.714   103147741.976        -882.282          52.000    19275518.927    80226114.845        -686.218          48.000  
G28  21296398.039   111913347.544       -1298.934          47.000    21296393.104    87205194.391       -1012.109          46.000  
E15  24676121.311   129674026.131       -2420.574          48.000    24676122.019    99360696.193       -1854.698          49.000  
E21  24382827.670   128132699.753         927.289          46.000    24382828.788    98179637.463         710.524          52.000  
E13  23415768.010   123051096.337         382.841          47.000    23415769.091    94286008.613         293.306          51.000  
E27  23824164.953   125196877.354       -1296.157          47.000    23824166.990    95930089.688        -993.144          54.000  
E30  27430081.317   144146044.918       -2820.023          40.000    27430085.538   110449571.879       -2160.834          47.000  
G18  21006244.968   110388851.887        1555.013          48.000    21006241.068    86017395.467        1211.562          47.000  
G05  23536166.201   123683500.442          41.222          35.000    23536165.108    96376767.012          31.914          37.000  
E26  26507672.808   139298962.339        2259.875          42.000    26507675.093   106735701.527        1731.594          46.000  
E14  21474326.858   112848382.772         -70.158          43.000    21474329.362    86468258.730         -53.780          48.000  
R12                                                                  23489393.052                3       2663.334          25.000  
> 2024 04 17 04 01 30.0000000  0 24                     
G31  22330705.089   117348575.259        1019.688          47.000    22330700.596    91440573.831         794.614          45.000  
G12  23372785.362   122824813.513       -3045.485          43.000    23372780.678    95707631.122       -2373.056          40.000  
G26  23479324.103   123384678.737        2461.445          38.000    23479322.616    96143911.424        1917.760          33.000  
G20  24124841.218   126776887.229       -1977.493          44.000                                                                  
R10  20238517.131   107882725.965       -3140.467          47.000                                                                  
R22  21589044.147   115243912.468        2419.242          46.000    21589043.323    89633973.749        1881.826          44.000  
R11  19392770.595   103629131.870         921.104          51.000    19392765.883    80600426.684         716.440          52.000  
R20  21601450.082   115512774.004       -4185.115          42.000    21601447.191    89843324.799       -3254.935          42.000  
G25  20863320.091   109637509.077       -1875.055          48.000    20863318.301    85431846.280       -1461.108          47.000  
G29  21019531.401   110458535.499       -1718.470          48.000    21019526.761    86071670.282       -1339.023          45.000  
S31  38729182.544   203523307.191        -651.161          44.000  
S33  39683833.186   208540069.529        -651.730          42.000  
R12  23470468.973                3       3423.489          25.000    23470510.105                1       2663.088          29.000  
R21  19280443.693   103174065.853        -901.912          51.000    19280438.768    80246588.989        -701.504          49.000  
G28  21303743.189   111951947.661       -1317.511          47.000    21303738.644    87235272.397       -1026.711          47.000  
E15  24689737.842   129745579.681       -2430.026          48.000    24689738.235    99415522.936       -1861.944          49.000  
E21  24377633.963   128105404.419         923.753          46.000    24377634.612    98158722.861         707.800          52.000  
E13  23413655.696   123039998.550         370.199          47.000    23413657.270    94277505.147         283.614          51.000  
E27  23831464.246   125235231.591       -1303.664          48.000    23831465.312    95959478.004        -998.919          54.000  
E30  27445926.315   144229310.193       -2824.585          41.000    27445930.416   110513372.496       -2164.334          47.000  
G18  20997561.831   110343220.008        1539.278          48.000    20997558.187    85981838.206        1199.390          48.000  
G05  23535980.903   123682517.119          25.214          36.000    23535977.334    96376000.814          19.904          35.000  
E26  26495000.828   139232369.946        2255.267          42.000    26495002.791   106684676.390        1727.990          45.000  
E14  21474785.848   112850798.418         -92.827          43.000    21474788.981    86470109.811         -71.180          48.000  
> 2024 04 17 04 02 00.0000000  0 24                     
G31  22324932.623   117318240.230        1002.753          48.000    22324928.072    91416936.172         781.351          45.000  
G12  23390194.079   122916296.531       -3053.209          43.000    23390189.599    95778916.535       -2379.145          41.000  
G26  23465275.865   123310852.832        2460.555          38.000    23465274.156    96086384.831        1917.242          35.000  
G20  24136179.037   126836466.765       -1994.186          43.000                                                                  
R10  20256245.631   107977228.143       -3159.374          47.000                                                                  
R22  21575488.250   115171537.422        2405.848          47.000    21575484.277    89577682.085        1871.369          42.000  
R11  19387655.093   103601794.878         901.342          51.000    19387649.946    80579164.587         701.147          51.000  
R20  21624944.066   115638405.189       -4190.337          41.000    21624940.929    89941037.933       -3259.002          42.000  
G25  20874059.762   109693946.439       -1887.415          47.000    20874057.753    85475823.426       -1470.654          47.000  
G29  21029358.121   110510176.732       -1724.149          49.000    21029353.484    86111910.209       -1343.563          44.000  
S31  38732900.494   203542843.749        -650.970          44.000  
S33  39687552.681   208559615.574        -651.256          42.000  
R12  23451245.795   125272311.1301       3422.442          33.000    23451240.634                        2661.883          31.000  
R21  19285555.796   103201422.368        -921.780          51.000    19285551.232    80267866.303        -716.907          48.000  
G28  21311318.679   111991757.809       -1336.200          47.000    21311314.456    87266293.281       -1041.200          47.000  
E15  24703637.311   129818623.581       -2439.488          48.000    24703637.959    99471491.650       -1869.260          49.000  
E21  24372371.089   128077749.552         920.074          45.000    24372372.170    98137532.773         705.047          52.000  
E13  23411579.346   123029089.069         357.221          46.000    23411581.445    94269145.958         273.719          52.000  
E27  23838928.931   125274457.874       -1311.306          48.000    23838929.808    95989534.505       -1004.798          54.000  
E30  27462064.851   144314114.627       -2828.959          41.000    27462068.197   110578352.480       -2167.712          48.000  
G18  20988820.886   110297285.128        1523.293          48.000    20988816.392    85946044.832        1186.980          48.000  
G05  23535874.794   123681966.448          10.471          38.000    23535871.296    96375571.783           9.153          34.000  
E26  26482137.453   139164777.175        2250.569          40.000    26482140.067   106632884.717        1724.613          45.000  
E14  21475383.823   112853932.837        -116.033          44.000    21475384.742    86472511.621         -88.833          48.000  
> 2024 04 17 04 02 30.5000000  0 24                     
G31  22319164.600   117287926.340         985.199          47.000    22319159.375    91393314.969         767.627          44.000  
G12  23407939.339   123009549.015       -3061.628          44.000    23407935.271    95851580.840       -2385.742          41.000  
G26  23450999.885   123235829.834        2459.323          38.000    23450998.050    96027925.414        1916.279          35.000  
G20  24147803.336   126897554.266       -2011.663          43.000                                                                  
R10  20274379.258   108073892.067       -3179.171          46.000                                                                  
R22  21561781.544   115098377.979        2391.447          44.000    21561780.776    89520780.443        1860.245          44.000  
R11  19382568.637   103574616.498         880.783          51.000    19382563.463    80558025.853         685.066          51.000  
R20  21648860.420   115766296.434       -4196.151          40.000    21648857.714    90040508.886       -3263.635          42.000  
G25  20885051.603   109751708.093       -1900.110          47.000    20885048.986    85520832.502       -1480.548          47.000  
G29  21039383.601   110562858.804       -1730.389          49.000    21039378.046    86152961.152       -1348.046          44.000  
S31  38736679.070   203562701.079        -651.051          44.000  
S33  39691334.098   208579485.506        -651.457          43.000  
R12  23431709.999   125167925.410        3422.606          33.000    23431691.298    97352923.6431       2661.467          36.000  
R21  19290868.076   103229848.704        -942.270          52.000    19290862.804    80289975.687        -732.884          48.000  
G28  21319131.908   112032814.332       -1355.848          48.000    21319127.387    87298285.367       -1056.576          46.000  
E15  24717825.014   129893179.513       -2449.512          48.000    24717825.278    99528618.932       -1876.862          49.000  
E21  24367043.183   128049750.975         915.869          45.000    24367044.371    98116079.338         701.774          52.000  
E13  23409545.289   123018396.465         343.795          47.000    23409546.932    94260952.957         263.431          52.000  
E27  23846563.485   125314577.452       -1319.543          47.000    23846564.249    96020275.467       -1011.045          54.000  
E30  27478499.956   144400473.843       -2834.043          42.000    27478501.637   110644523.765       -2171.392          47.000  
G18  20980028.549   110251082.030        1506.506          47.000    20980024.541    85910042.446        1173.889          48.000  
G05  23535860.240   123681882.033          -5.059          40.000    23535854.292    96375506.018          -4.247          34.000  
E26  26469087.914   139096201.311        2245.797          39.000    26469090.268   106580339.801        1720.863          45.000  
E14  21476125.767   112857827.549        -139.824          43.000    21476126.150    86475495.989        -106.958          48.000  
> 2024 04 17 04 03 00.5000000  0 25                     
G31  22313588.918   117258632.227         967.988          47.000    22313584.576    91370488.411         754.375          44.000  
G12  23425440.933   123101515.877       -3069.402          44.000    23425436.333    95923243.310       -2391.629          41.000  
G26  23436964.597   123162074.145        2458.020          37.000    23436963.612    95970453.517        1915.122          36.000  
G20  24159333.967   126958148.476       -2028.422          44.000                                                                  
R10  20292324.145   108169549.215       -3197.956          46.000                                                                  
R22  21548380.964   115026837.573        2377.658          46.000    21548378.568    89465138.046        1849.626          46.000  
R11  19377679.720   103548493.526         860.797          51.000    19377674.407    80537707.997         669.510          50.000  
R20  21672415.500   115892254.627       -4200.966          40.000    21672412.406    90138476.357       -3267.534          41.000  
G25  20895935.341   109808903.448       -1912.671          47.000    20895933.633    85565400.319       -1490.387          47.000  
G29  21049278.834   110614856.105       -1736.108          49.000    21049272.935    86193478.544       -1352.779          44.000  
S31  38740395.400   203582231.552        -650.919          44.000  
S33  39695053.100   208599028.076        -651.304          43.000  
R12  23412492.130                        3421.384          31.000    23412472.728    97273086.717        2661.117          38.000  
R21  19296206.133   103258413.877        -961.951          52.000    19296201.087    80312193.054        -748.309          48.000  
G28  21326925.742   112073772.937       -1374.668          47.000    21326920.621    87330201.144       -1071.202          46.000  
E15  24731835.450   129966804.177       -2458.830          49.000    24731835.419    99585032.650       -1883.922          49.000  
E21  24361826.161   128022330.753         912.202          46.000    24361826.433    98095069.049         698.910          52.000  
E13  23407619.546   123008274.421         330.905          47.000    23407620.575    94253197.124         253.627          52.000  
E27  23854118.056   125354278.419       -1327.234          47.000    23854119.057    96050695.689       -1016.975          54.000  
E30  27494690.940   144485558.992       -2838.341          41.000    27494692.411   110709718.851       -2174.911          47.000  
G18  20971473.868   110206130.019        1490.381          47.000    20971470.174    85875014.976        1161.212          48.000  
G05  23535934.225   123682270.203         -20.907          40.000    23535930.676    96375808.497         -15.570          38.000  
E26  26456281.087   139028895.086        2241.103          40.000    26456282.192   106528767.686        1717.244          45.000  
E14  21476986.754   112862355.533        -162.404          43.000    21476987.424    86478965.646        -124.444          48.000  
R09                                                                  23938426.358                3      -3641.230          16.000  
> 2024 04 17 04 03 30.5000000  0 24                     
G31  22308114.093   117229858.400         950.951          47.000    22308109.644    91348067.251         740.951          44.000  
G12  23442986.720   123193723.755       -3077.288          43.000    23442982.625    95995093.557       -2397.918          40.000  
G26  23422935.718   123088357.180        2456.621          35.000    23422936.087    95913011.788        1914.609          37.000  
G20  24170960.250   127019245.522       -2044.980          44.000                                                                  
R10  20310376.343   108265777.936       -3216.776          46.000                                                                  
R22  21535055.115   114955714.805        2364.145          45.000    21535055.164    89409820.469        1838.796          45.000  
R11  19372905.072   103522978.323         840.709          51.000    19372899.647    80517862.872         653.885          51.000  
R20  21695999.254   116018370.541       -4206.313          39.000    21695996.744    90236566.480       -3271.764          41.000  
G25  20906891.073   109866476.586       -1925.153          46.000    20906889.277    85610262.508       -1500.287          47.000  
G29  21059206.827   110667029.673       -1741.711          49.000    21059201.037    86234133.264       -1357.111          44.000  
S31  38744111.657   203601760.816        -650.570          44.000  
S33  39698771.209   208618568.966        -650.895          43.000  
R12  23393274.713                        3419.723          31.000    23393262.648    97193272.748        2660.183          36.000  
R21  19301656.297   103287576.651        -981.699          52.000    19301650.959    80334875.233        -763.632          48.000  
G28  21334828.294   112115300.708       -1393.501          47.000    21334823.731    87362560.460       -1085.818          47.000  
E15  24745899.638   130040715.679       -2468.258          48.000    24745900.330    99641666.147       -1891.244          49.000  
E21  24356631.449   127995030.093         908.349          47.000    24356631.202    98074150.381         695.961          53.000  
E13  23405767.631   122998544.489         318.110          47.000    23405768.953    94245741.756         243.765          52.000  
E27  23861718.585   125394217.095       -1335.083          48.000    23861719.012    96081298.043       -1022.925          54.000  
E30  27510908.240   144570784.346       -2842.866          42.000    27510910.243   110775021.355       -2178.287          46.000  
G18  20963013.770   110161669.175        1474.164          47.000    20963008.825    85840370.186        1148.663          47.000  
G05  23536097.868   123683127.337         -36.262          41.000    23536094.488    96376476.382         -27.902          38.000  
E26  26443499.085   138961734.396        2236.634          39.000    26443501.904   106477307.064        1713.650          45.000  
E14  21477979.949   112867572.859        -185.071          44.000    21477980.388    86482963.476        -141.743          48.000  
> 2024 04 17 04 04 00.5000000  0 24                     
G31  22302740.283   117201613.704         932.407          48.000    22302735.080    91326058.414         726.408          44.000  
G12  23460580.434   123286179.381       -3086.403          44.000    23460575.438    96067136.878       -2404.629          39.000  
G26  23408914.231   123014688.030        2454.440          34.000    23408916.990    95855607.215        1912.535          37.000  
G20  24182683.754   127080851.514       -2062.348          43.000                                                                  
R10  20328538.225   108362584.050       -3236.826          47.000                                                                  
R22  21521811.890   114885018.605        2348.912          46.000    21521811.331    89354834.637        1827.186          45.000  
R11  19368246.373   103498081.398         819.310          52.000    19368241.252    80498498.588         637.301          52.000  
R20  21719613.186   116144648.833       -4211.996          38.000    21719611.669    90334782.891       -3276.080          41.000  
G25  20917920.132   109924435.016       -1938.733          46.000    20917919.011    85655424.906       -1510.675          48.000  
G29  21069170.155   110719385.768       -1748.619          49.000    21069164.112    86274930.226       -1362.654          44.000  
S31  38747829.384   203621296.291        -651.403          44.000  
S33  39702490.856   208638115.270        -651.963          42.000  
R12  23374068.565   124860081.306        3418.506          32.000    23374061.566    97113489.817        2658.177          37.000  
R21  19307218.314   103317342.172       -1002.455          52.000    19307213.771    80358026.218        -779.887          49.000  
G28  21342840.265   112157403.855       -1413.397          46.000    21342836.183    87395368.086       -1101.204          47.000  
E15  24760020.118   130114919.534       -2478.652          48.000    24760021.104    99698523.658       -1899.158          49.000  
E21  24351460.312   127967857.417         903.374          47.000    24351460.606    98053329.782         692.166          53.000  
E13  23403992.132   122989214.094         303.984          47.000    23403993.474    94238592.519         232.997          52.000  
E27  23869365.422   125434401.282       -1343.822          48.000    23869365.902    96112088.526       -1029.725          54.000  
E30  27527154.524   144656156.859       -2848.549          43.000    27527156.537   110840436.638       -2182.526          47.000  
G18  20954648.052   110117708.264        1456.708          48.000    20954643.312    85806114.983        1135.065          47.000  
G05  23536351.535   123684462.936         -52.771          41.000    23536348.412    96377517.111         -41.288          39.000  
E26  26430748.649   138894727.846        2230.694          38.000    26430750.919   106425964.539        1709.344          45.000  
E14  21479104.057   112873484.647        -208.885          43.000    21479104.646    86487493.422        -159.984          48.000  
> 2024 04 17 04 04 30.0000000  0 24                     
G31  22297556.893   117174376.120         914.565          47.000    22297551.230    91304834.306         712.755          44.000  
G12  23477930.060   123377354.205       -3094.537          45.000    23477926.159    96138182.191       -2411.684          40.000  
G26  23395142.001   122942314.034        2452.896          34.000    23395144.405    95799211.977        1911.361          37.000  
G20  24194309.790   127141945.453       -2079.108          43.000                                                                  
R10  20346504.834   108458357.098       -3256.028          47.000                                                                  
R22  21508871.455   114815937.653        2334.629          48.000    21508869.712    89301105.112        1815.869          45.000  
R11  19363781.966   103474224.802         798.488          51.000    19363777.170    80479943.471         620.892          52.000  
R20  21742866.909   116268997.270       -4217.999          39.000    21742865.675    90431498.328       -3280.723          41.000  
G25  20928841.421   109981822.796       -1951.599          47.000    20928839.099    85700142.637       -1520.807          47.000  
G29  21079003.863   110771065.316       -1754.842          49.000    21078998.512    86315200.041       -1367.557          44.000  
S31  38751489.226   203640530.588        -651.953          44.000  
S33  39706153.156   208657361.531        -652.474          43.000  
R12  23355191.008   124759274.464        3416.864          32.000    23355191.760    97035084.607        2657.252          36.000  
R21  19312800.443   103347217.192       -1022.562          52.000    19312796.628    80381262.348        -795.422          49.000  
G28  21350828.666   112199384.462       -1432.438          46.000    21350824.555    87428080.252       -1116.241          46.000  
E15  24773963.459   130188189.376       -2488.386          48.000    24773964.044    99754665.485       -1906.741          49.000  
E21  24346403.161   127941282.883         898.830          47.000    24346403.659    98032967.503         688.596          53.000  
E13  23402324.235   122980448.232         290.551          47.000    23402325.204    94231875.844         222.674          52.000  
E27  23876934.130   125474175.039       -1352.267          48.000    23876934.694    96142564.517       -1036.180          54.000  
E30  27543159.871   144740269.019       -2853.539          42.000    27543163.300   110904886.181       -2186.552          48.000  
G18  20946519.156   110074988.333        1439.874          48.000    20946513.902    85772826.765        1121.851          47.000  
G05  23536694.333   123686263.175         -68.837          43.000    23536690.272    96378919.960         -53.761          39.000  
E26  26418243.276   138829008.989        2225.249          39.000    26418245.099   106375608.716        1705.004          45.000  
E14  21480341.934   112879992.348        -232.094          43.000    21480342.972    86492479.950        -177.831          48.000  
> 2024 04 17 04 05 00.0000000  0 25                     
G31  22292383.177   117147188.374         898.039          48.000    22292377.003    91283649.054         699.830          44.000  
G12  23495618.471   123470303.141       -3101.625          45.000    23495613.361    96210609.892       -2416.840          39.000  
G26  23381142.830   122868747.988        2452.188          36.000    23381144.543    95741887.816        1910.938          37.000  
G20  24206225.087   127204561.558       -2095.044          41.000                                                                  
R10  20364879.256   108556306.060       -3273.722          46.000                                                                  
R22  21495787.401   114746095.428        2321.595          49.000    21495786.302    89246783.497        1805.623          46.000  
R11  19359354.713   103450566.835         778.921          51.000    19359349.796    80461542.829         605.782          51.000  
R09  24043477.925                3      -4700.938          12.000                                                                  
R20  21766541.692   116395590.977       -4221.727          39.000    21766539.691    90529960.043       -3283.582          41.000  
G25  20940015.934   110040549.741       -1963.257          46.000    20940014.679    85745903.915       -1530.005          47.000  
G29  21089035.655   110823783.379       -1759.602          49.000    21089030.952    86356279.040       -1371.309          45.000  
S31  38755209.601   203660080.431        -651.223          44.000  
S33  39709875.858   208676923.248        -651.100          43.000  
R12  23335995.779   124656788.296        3416.190          34.000    23336007.077    96955373.267        2656.984          33.000  
R21  19318586.640   103378175.705       -1041.282          52.000    19318581.773    80405341.175        -809.799          49.000  
G28  21359057.838   112242628.656       -1450.360          45.000    21359054.177    87461776.999       -1130.049          47.000  
E15  24788193.953   130262971.467       -2496.874          48.000    24788194.684    99811966.042       -1913.159          50.000  
E21  24341281.658   127914371.084         895.532          47.000    24341282.615    98012346.775         686.236          53.000  
E13  23400700.207   122971914.074         278.593          47.000    23400701.154    94225336.708         213.463          52.000  
E27  23884674.795   125514851.411       -1359.231          48.000    23884675.300    96173732.121       -1041.570          54.000  
E30  27559461.657   144825936.023       -2857.185          41.000    27559465.615   110970527.096       -2189.413          48.000  
G18  20938344.293   110032026.913        1424.310          48.000    20938338.582    85739350.382        1109.778          47.000  
G05  23537130.190   123688554.318         -83.532          41.000    23537124.998    96380705.266         -65.145          38.000  
E26  26405550.188   138762315.556        2221.082          38.000    26405553.242   106324506.150        1701.815          45.000  
E14  21481728.837   112887278.564        -253.582          42.000    21481729.555    86498062.978        -194.357          48.000  
> 2024 04 17 04 05 30.0000000  0 24                     
G31  22287304.157   117120497.431         881.333          48.000    22287297.919    91262850.953         686.703          43.000  
G12  23513346.230   123563462.132       -3109.047          45.000    23513341.726    96283201.279       -2422.355          40.000  
G26  23367147.123   122795198.138        2451.280          36.000    23367147.874    95684576.298        1909.846          37.000  
G20  24218230.355   127267646.761       -2110.727          40.000                                                                  
R10  20383355.081   108654789.851       -3291.715          47.000                                                                  
R22  21482777.136   114676646.989        2308.211          48.000    21482776.627    89192768.143        1795.330          46.000  
R11  19355037.703   103427498.662         759.005          51.000    19355032.861    80443600.939         590.240          51.000  
R20  21790236.472   116522299.630       -4225.482          39.000    21790234.934    90628511.185       -3286.766          41.000  
G25  20951258.459   110099626.222       -1974.957          47.000    20951256.378    85791937.513       -1539.038          47.000  
G29  21099094.700   110876643.811       -1764.513          49.000    21099090.456    86397468.974       -1375.036          45.000  
S31  38758923.925   203679600.038        -650.044          44.000  
S33  39713592.072   208696452.710        -650.494          43.000  
R12  23316809.203   124554314.150        3415.302          33.000    23316824.525    96875671.223        2657.017          33.000  
R21  19324476.090   103409693.503       -1059.967          52.000    19324471.032    80429855.026        -824.461          48.000  
G28  21367388.464   112286407.950       -1468.313          45.000    21367384.754    87495890.727       -1144.146          47.000  
E15  24802472.306   130338004.131       -2505.427          48.000    24802473.114    99869458.608       -1919.750          50.000  
E21  24336178.639   127887554.154         892.221          47.000    24336179.537    97991798.757         683.570          53.000  
E13  23399145.337   122963743.165         266.130          47.000    23399146.272    94219075.911         203.895          52.000  
E27  23892454.974   125555738.405       -1366.515          48.000    23892455.606    96205061.105       -1047.103          54.000  
E30  27575784.390   144911712.684       -2861.114          41.000    27575788.069   111036252.021       -2192.307          47.000  
G18  20930257.918   109989533.296        1408.514          47.000    20930252.171    85706238.511        1097.559          47.000  
G05  23537650.652   123691290.824         -98.717          42.000    23537645.173    96382837.657         -77.380          37.000  
E26  26392883.406   138695743.608        2216.720          39.000    26392884.907   106273496.646        1698.623          44.000  
E14  21483239.211   112895216.051        -275.466          41.000    21483240.021    86504145.053        -211.167          48.000  
> 2024 04 17 04 06 00.5000000  0 24                     
G31  22282238.391   117093878.241         864.253          47.000    22282233.306    91242108.748         673.537          44.000  
G12  23531410.705   123658393.861       -3115.942          44.000    23531406.947    96357174.056       -2428.065          41.000  
G26  23352923.467   122720446.458        2450.497          37.000    23352922.443    95626328.320        1909.262          36.000  
G20  24230527.904   127332268.800       -2126.565          38.000                                                                  
R10  20402241.723   108755466.765       -3309.686          46.000                                                                  
R22  21469626.566   114606452.055        2294.745          48.000    21469625.519    89138172.222        1784.904          45.000  
R11  19350763.568   103404659.589         738.692          51.000    19350759.115    80425837.202         574.616          51.000  
R20  21814348.507   116651240.019       -4229.336          40.000    21814347.461    90728798.171       -3289.511          40.000  
G25  20962757.050   110160051.525       -1987.103          47.000    20962755.103    85839022.160       -1548.480          47.000  
G29  21109350.541   110930535.966       -1769.274          49.000    21109345.103    86439462.858       -1378.526          44.000  
S31  38762695.341   203699418.062        -649.156          44.000  
S33  39717365.789   208716283.550        -649.612          43.000  
R12  23297309.362   124450153.228        3414.722          35.000    23297326.140    96794657.278        2655.298          32.000  
R21  19330571.868   103442313.171       -1078.946          52.000    19330566.758    80455225.889        -839.168          48.000  
G28  21375963.494   112331469.806       -1486.404          46.000    21375959.817    87531003.870       -1158.327          47.000  
E15  24817038.285   130414548.077       -2513.830          48.000    24817039.309    99928109.158       -1926.186          51.000  
E21  24331010.608   127860394.444         888.949          47.000    24331011.269    97970988.085         681.126          53.000  
E13  23397636.533   122955814.203         253.951          48.000    23397637.330    94213000.505         194.518          52.000  
E27  23900407.517   125597528.988       -1373.701          48.000    23900408.102    96237082.464       -1052.569          54.000  
E30  27592402.307   144999036.733       -2864.764          41.000    27592405.038   111103162.614       -2195.167          46.000  
G18  20922128.292   109946818.078        1392.688          46.000    20922123.937    85672953.978        1085.187          47.000  
G05  23538268.699   123694536.381        -114.146          40.000    23538263.210    96385366.608         -88.468          36.000  
E26  26380029.893   138628193.672        2212.661          40.000    26380029.836   106221737.782        1695.516          44.000  
E14  21484901.727   112903956.721        -297.506          43.000    21484903.211    86510842.579        -227.866          48.000  
> 2024 04 17 04 06 30.5000000  0 24                     
G31  22277351.183   117068201.133         847.394          46.000    22277347.226    91222100.645         660.334          44.000  
G12  23549220.817   123751981.089       -3123.169          46.000    23549215.750    96430099.132       -2433.705          41.000  
G26  23338936.169   122646941.518        2450.209          38.000    23338935.207    95569051.837        1908.885          37.000  
G20  24242712.304   127396303.657       -2142.280          32.000                                                                  
R10  20420919.868   108855030.094       -3327.766          47.000                                                                  
R22  21456767.639   114537809.311        2281.411          48.000    21456764.997    89084783.580        1774.309          45.000  
R11  19346672.558   103382797.222         718.625          51.000    19346667.648    80408833.170         558.980          51.000  
R20  21838085.421   116778177.146       -4233.001          39.000    21838085.074    90827526.965       -3292.259          39.000  
G25  20974133.976   110219840.599       -1998.993          47.000    20974132.715    85885611.043       -1557.678          47.000  
G29  21119464.798   110983687.428       -1774.082          49.000    21119459.731    86480879.571       -1382.438          45.000  
S31  38766399.031   203718882.064        -648.607          44.000  
S33  39721071.777   208735757.864        -648.607          43.000  
R12  23278133.680   124347719.556        3414.131          32.000    23278144.954                        2655.723          27.000  
R21  19336672.104   103474958.809       -1097.484          52.000    19336667.515    80480616.967        -853.631          48.000  
G28  21384500.223   112376331.426       -1504.341          47.000    21384496.353    87565960.939       -1172.172          47.000  
E15  24831412.609   130490087.798       -2522.260          47.000    24831414.077    99985990.237       -1932.523          51.000  
E21  24325946.026   127833779.566         885.360          47.000    24325946.618    97950594.881         678.424          53.000  
E13  23396222.920   122948383.113         241.483          48.000    23396223.419    94207306.578         185.065          52.000  
E27  23908270.592   125638849.453       -1381.024          48.000    23908271.066    96268743.606       -1058.195          54.000  
E30  27608769.405   145085040.612       -2868.632          42.000    27608770.812   111169061.629       -2198.213          46.000  
G18  20914223.266   109905279.186        1376.550          46.000    20914219.000    85640586.045        1072.815          47.000  
G05  23538961.447   123698182.842        -129.430          41.000    23538956.897    96388208.005        -100.151          37.000  
E26  26367410.583   138561877.719        2208.156          41.000    26367410.232   106170924.448        1692.124          44.000  
E14  21486661.659   112913207.736        -319.276          43.000    21486663.592    86517931.133        -244.639          48.000  
> 2024 04 17 04 07 00.5000000  0 23                     
G31  22272563.177   117043037.507         830.119          47.000    22272558.680    91202492.635         646.999          44.000  
G12  23567071.390   123845789.202       -3130.733          45.000    23567066.852    96503196.309       -2439.256          41.000  
G26  23324955.021   122573470.146        2448.361          38.000    23324954.104    95511801.440        1908.121          37.000  
R10  20439699.111   108955134.756       -3345.968          46.000                                                                  
R22  21443985.122   114469576.986        2267.493          49.000    21443982.207    89031714.043        1763.800          44.000  
R11  19342694.994   103361545.677         698.137          51.000    19342690.994    80392304.207         543.001          52.000  
R20  21861845.149   116905230.725       -4237.264          40.000    21861843.804    90926346.405       -3295.021          39.000  
G25  20985580.326   110279991.983       -2011.102          47.000    20985579.442    85932482.234       -1567.188          47.000  
G29  21129607.539   111036990.150       -1779.206          48.000    21129603.112    86522414.186       -1386.486          44.000  
S31  38770099.174   203738326.635        -647.879          45.000  
S33  39724773.728   208755213.942        -648.319          43.000  
R12  23258967.486   124245319.566        3412.800          34.000    23258962.324    96635342.551        2654.230          31.000  
R21  19342878.815   103508169.326       -1116.385          52.000    19342873.793    80506447.364        -868.188          48.000  
G28  21393141.060   112421736.395       -1522.579          48.000    21393136.608    87601341.424       -1186.370          47.000  
E15  24845836.563   130565884.914       -2530.726          48.000    24845837.786   100044068.554       -1939.207          51.000  
E21  24320902.494   127807275.247         881.586          47.000    24320902.777    97930286.390         675.565          52.000  
E13  23394879.929   122941327.575         228.937          48.000    23394880.882    94201900.405         175.430          52.000  
E27  23916176.478   125680394.296       -1388.682          48.000    23916176.653    96300576.663       -1063.991          54.000  
E30  27625156.852   145171165.240       -2872.617          41.000    27625160.071   111235053.178       -2201.273          46.000  
G18  20906411.117   109864224.458        1360.437          47.000    20906406.101    85608595.367        1060.187          47.000  
G05  23539744.782   123702290.647        -144.740          43.000    23539739.524    96391408.974        -113.239          38.000  
E26  26354816.284   138495699.305        2203.669          41.000    26354816.374   106120216.510        1688.404          44.000  
E14  21488548.026   112923115.233        -341.169          44.000    21488549.242    86525522.706        -261.431          49.000  
> 2024 04 17 04 07 30.0000000  0 24                     
G31  22267951.434   117018796.144         813.274          47.000    22267945.484    91183603.258         633.675          44.000  
G12  23584666.055   123938249.560       -3137.799          45.000    23584661.386    96575243.300       -2444.989          40.000  
G26  23311213.059   122501258.166        2447.288          38.000    23311212.543    95455532.463        1906.533          38.000  
G20  24267149.574                1      -2173.875          31.000                                                                  
R10  20458264.147   109054097.801       -3363.509          45.000                                                                  
R22  21431492.159   114402883.933        2254.157          50.000    21431487.865    88979841.769        1753.119          44.000  
R11  19338895.691   103341247.620         678.093          50.000    19338893.120    80376516.850         527.309          52.000  
R20  21885229.519   117030278.197       -4240.582          41.000    21885227.557    91023605.576       -3298.549          38.000  
G25  20996903.737   110339494.855       -2023.082          48.000    20996901.704    85978848.081       -1576.416          47.000  
G29  21139609.531   111089551.295       -1784.197          48.000    21139605.270    86563370.905       -1390.201          45.000  
S31  38773734.305   203757429.386        -647.162          44.000  
S33  39728410.888   208774327.888        -647.578          43.000  
R12  23240124.366   124144662.755        3411.392          33.000    23240115.455    96557053.990        2652.963          33.000  
R21  19349084.063   103541375.269       -1134.731          52.000    19349079.087    80532274.242        -882.608          49.000  
G28  21401738.218   112466913.697       -1540.234          48.000    21401734.188    87636544.513       -1200.203          47.000  
E15  24860067.825   130640668.594       -2539.103          48.000    24860068.611   100101370.324       -1945.669          51.000  
E21  24315963.267   127781322.192         878.027          47.000    24315963.909    97910400.305         672.746          52.000  
E13  23393628.677   122934756.407         216.672          47.000    23393630.368    94196865.391         165.974          52.000  
E27  23923992.441   125721466.611       -1395.972          48.000    23923992.535    96332047.651       -1069.575          54.000  
E30  27641296.008   145255972.523       -2876.883          42.000    27641298.558   111300035.281       -2204.288          46.000  
G18  20898819.369   109824328.010        1344.531          47.000    20898813.897    85577507.265        1047.571          47.000  
G05  23540599.390   123706782.645        -159.859          43.000    23540594.227    96394909.238        -124.925          38.000  
E26  26342459.215   138430759.774        2199.309          41.000    26342458.358   106070457.811        1684.976          43.000  
E14  21490524.783   112933495.987        -362.479          45.000    21490524.612    86533476.877        -277.787          49.000  
> 2024 04 17 04 08 00.0000000  0 24                     
G31  22263359.398   116994664.264         795.842          47.000    22263353.512    91164799.185         620.206          44.000  
G12  23602602.614   124032503.173       -3145.489          46.000    23602596.920    96648687.663       -2450.860          39.000  
G26  23297246.936   122427867.507        2446.218          38.000    23297246.810    95398344.978        1905.719          39.000  
G20  24279609.548   127590211.5601      -2190.461          29.000                                                                  
R10  20477244.620   109155279.651       -3381.479          45.000                                                                  
R22  21418865.805   114335478.841        2240.001          52.000    21418861.905    88927415.666        1742.173          45.000  
R11  19335149.193   103321225.651         657.274          51.000    19335145.444    80360944.222         511.135          51.000  
R20  21909032.910   117157563.260       -4244.454          42.000    21909030.317    91122605.068       -3301.459          37.000  
G25  21008489.081   110400374.442       -2035.259          47.000    21008487.148    86026286.722       -1586.018          47.000  
G29  21149811.214   111143159.728       -1789.317          49.000    21149806.598    86605143.750       -1394.280          45.000  
S31  38777429.362   203776845.570        -646.856          44.000  
S33  39732107.950   208793756.062        -647.125          43.000  
R12  23220972.564   124042348.028        3410.537          35.000    23220957.720    96477475.965        2652.580          33.000  
R21  19355499.758   103575708.268       -1153.674          52.000    19355494.922    80558977.690        -897.229          48.000  
G28  21410584.499   112513401.380       -1558.506          47.000    21410580.429    87672768.680       -1214.401          47.000  
E15  24874590.504   130716980.115       -2547.943          48.000    24874589.794   100159842.767       -1952.277          51.000  
E21  24310963.526   127755049.786         873.894          47.000    24310964.482    97890269.515         669.609          52.000  
E13  23392429.769   122928454.867         203.871          47.000    23392431.024    94192036.957         156.260          52.000  
E27  23931985.128   125763467.133       -1403.703          48.000    23931984.915    96364229.864       -1075.578          54.000  
E30  27657732.344   145342344.778       -2881.141          42.000    27657734.599   111366216.549       -2207.546          45.000  
G18  20891192.344   109784246.703        1327.991          48.000    20891186.839    85546275.132        1034.821          47.000  
G05  23541557.705   123711818.870        -175.561          41.000    23541552.799    96398833.555        -136.625          39.000  
E26  26329920.131   138364867.052        2194.140          41.000    26329919.281   106019968.737        1681.192          43.000  
E14  21492657.335   112944707.543        -384.541          44.000    21492657.708    86542067.656        -294.655          49.000  
> 2024 04 17 04 08 30.0000000  0 25                     
G31  22258866.328   116971056.309         778.147          46.000    22258861.346    91146403.407         606.246          44.000  
G12  23620581.896   124126981.593       -3153.097          48.000    23620576.702    96722307.181       -2456.979          41.000  
G26  23283289.674   122354521.816        2443.735          39.000    23283289.731    95341192.514        1904.382          38.000  
G20  24292157.265   127656157.287       -2206.293          32.000                                                                  
R10  20496328.123   109257003.222       -3399.758          45.000                                                                  
R22  21406317.343   114268494.546        2225.776          51.000    21406313.589    88875316.844        1731.216          45.000  
R11  19331520.595   103301829.038         636.050          51.000    19331515.131    80345857.991         494.681          51.000  
R09  24227171.372                3      -4276.064          10.000                                                                  
R20  21932857.686   117284961.722       -4248.335          42.000    21932856.384    91221692.708       -3304.497          38.000  
G25  21020144.111   110461623.050       -2047.723          47.000    21020142.485    86074012.899       -1595.638          47.000  
G29  21160041.861   111196922.287       -1794.768          49.000    21160037.202    86647036.670       -1398.596          44.000  
S31  38781121.542   203796248.817        -646.351          44.000  
S33  39735802.125   208813168.838        -646.806          43.000  
R12  23201828.666   123940082.692        3408.274          33.000    23201817.341    96397936.346        2650.342          35.000  
R21  19362021.207   103610605.275       -1172.723          52.000    19362016.334    80586119.821        -912.110          48.000  
G28  21419534.365   112560434.486       -1576.869          47.000    21419530.089    87709417.861       -1228.748          47.000  
E15  24889160.908   130793549.916       -2556.537          48.000    24889160.535   100218513.115       -1958.947          51.000  
E21  24305987.196   127728897.682         869.594          47.000    24305988.010    97870230.898         666.421          52.000  
E13  23391303.832   122922535.106         190.968          48.000    23391304.673    94187501.060         146.337          52.000  
E27  23940021.787   125805699.780       -1411.580          48.000    23940021.638    96396589.928       -1081.634          54.000  
E30  27674193.205   145428842.906       -2885.387          44.000    27674194.305   111432494.308       -2210.938          45.000  
G18  20883659.008   109744659.791        1311.255          46.000    20883653.867    85515428.241        1021.796          47.000  
G05  23542604.729   123717327.340        -191.506          40.000    23542601.070    96403125.886        -149.300          39.000  
E26  26317408.397   138299121.887        2188.966          40.000    26317408.753   105969592.702        1677.292          44.000  
E14  21494915.701   112956574.546        -406.419          44.000    21494915.530    86551160.649        -311.302          48.000  
> 2024 04 17 04 09 00.5000000  0 24                     
G31  22254400.684   116947589.660         760.506          46.000    22254396.204    91128117.721         592.466          44.000  
G12  23638902.599   124223262.063       -3160.720          46.000    23638898.600    96797330.882       -2463.071          41.000  
G26  23269109.707   122279997.937        2442.515          40.000    23269108.123    95283122.043        1903.132          38.000  
G20  24305009.831   127723689.193       -2222.183          32.000                                                                  
R10  20515832.781   109360972.041       -3418.117          45.000                                                                  
R22  21393638.892   114200822.867        2211.520          50.000    21393636.718    88822683.398        1719.927          46.000  
R11  19327950.320   103282749.678         614.756          51.000    19327944.338    80331018.497         478.181          50.000  
R20  21957098.379   117414592.181       -4252.327          41.000    21957098.320    91322516.365       -3307.272          39.000  
G25  21032064.646   110524267.361       -2060.235          46.000    21032062.684    86122826.633       -1605.521          46.000  
G29  21170472.188   111251734.205       -1799.832          49.000    21170466.797    86689747.259       -1402.531          44.000  
S31  38784872.170   203815958.549        -646.014          44.000  
S33  39739555.001   208832890.855        -646.355          43.000  
R12  23182374.883   123836163.045        3406.547          35.000    23182366.868    96317110.075        2649.156          36.000  
R21  19368758.577   103646656.249       -1191.599          52.000    19368753.321    80614159.480        -926.891          49.000  
G28  21428739.877   112608805.632       -1595.312          48.000    21428735.010    87747109.635       -1243.097          47.000  
E15  24904023.230   130871655.273       -2565.289          48.000    24904023.553   100278360.073       -1965.609          50.000  
E21  24300951.134   127702430.670         865.675          47.000    24300951.373    97849951.007         663.161          52.000  
E13  23390232.396   122916904.464         177.984          48.000    23390233.161    94183186.700         136.420          53.000  
E27  23948237.250   125848871.211       -1419.514          48.000    23948236.950    96429669.327       -1087.684          54.000  
E30  27690950.868   145516907.885       -2889.787          43.000    27690952.688   111499972.599       -2214.103          45.000  
G18  20876095.665   109704917.692        1294.354          47.000    20876091.560    85484460.433        1008.630          47.000  
G05  23543761.321   123723408.778        -207.551          40.000    23543757.435    96407864.744        -162.140          37.000  
E26  26304716.365   138232429.941        2183.865          40.000    26304717.494   105918491.262        1673.440          44.000  
E14  21497337.594   112969305.238        -428.494          44.000    21497337.658    86560915.474        -328.406          48.000  
> 2024 04 17 04 09 30.5000000  0 24                     
G31  22250109.369   116925040.084         742.518          46.000    22250104.445    91110546.638         578.450          44.000  
G12  23656966.708   124318191.565       -3168.261          45.000    23656963.979    96871301.852       -2468.885          42.000  
G26  23255170.958   122206745.970        2440.711          41.000    23255168.553    95226042.629        1901.771          39.000  
G20  24317739.055   127790596.985       -2238.701          36.000                                                                  
R10  20535119.048   109463779.840       -3436.151          45.000                                                                  
R22  21381250.330   114134688.801        2197.040          50.000    21381246.940    88771245.829        1708.884          46.000  
R11  19324557.949   103264620.757         593.487          52.000    19324551.895    80316918.223         461.563          50.000  
R20  21980962.757   117542207.185       -4255.977          42.000    21980962.345    91421772.488       -3310.143          40.000  
G25  21043860.920   110586258.324       -2072.963          47.000    21043859.766    86171131.257       -1615.187          47.000  
G29  21180761.317   111305802.042       -1805.184          48.000    21180754.805    86731878.028       -1406.516          43.000  
S31  38788559.256   203835333.414        -645.903          44.000  
S33  39743244.027   208852276.064        -646.247          43.000  
R12  23163248.944                        3404.366          30.000    23163245.819    96237653.559        2647.377          37.000  
R21  19375490.883   103682681.558       -1210.606          52.000    19375485.261    80642179.173        -941.567          49.000  
G28  21437898.240   112656932.191       -1613.697          47.000    21437893.036    87784610.824       -1257.368          47.000  
E15  24918691.115   130948738.328       -2574.034          47.000    24918691.836   100337423.709       -1972.287          50.000  
E21  24296020.442   127676522.533         861.273          46.000    24296021.113    97830099.342         659.819          52.000  
E13  23389252.359   122911752.338         164.938          48.000    23389252.848    94179238.982         126.446          53.000  
E27  23956361.806   125891571.282       -1427.679          47.000    23956362.477    96462387.556       -1093.885          54.000  
E30  27707457.694   145603656.611       -2894.277          42.000    27707460.589   111566442.370       -2217.459          46.000  
G18  20868753.243   109666329.538        1277.649          48.000    20868748.638    85454391.782         995.490          48.000  
G05  23544991.361   123729870.297        -223.739          41.000    23544986.382    96412899.669        -174.040          38.000  
E26  26292263.952   138166983.983        2178.594          41.000    26292263.145   105868344.501        1669.279          44.000  
E14  21499845.707   112982484.486        -450.519          44.000    21499845.557    86571013.958        -345.264          48.000  
> 2024 04 17 04 10 00.5000000  0 24                     
G31  22245919.162   116903021.024         725.072          46.000    22245914.143    91093388.933         565.091          43.000  
G12  23675074.327   124413347.370       -3175.390          45.000    23675070.788    96945449.181       -2474.445          41.000  
G26  23241241.895   122133546.773        2439.351          41.000    23241238.732    95169004.344        1900.601          39.000  
G20  24330561.818   127857983.593       -2254.106          36.000                                                                  
R10  20554506.709   109567125.801       -3453.756          45.000                                                                  
R22  21368939.966   114068981.938        2183.197          49.000    21368939.006    88720140.601        1697.997          47.000  
R11  19321283.932   103247128.469         572.534          51.000    19321278.690    80303313.108         445.315          51.000  
R20  22004847.305   117669927.748       -4258.883          42.000    22004845.629    91521110.721       -3312.308          38.000  
G25  21055728.645   110648621.224       -2084.681          46.000    21055727.098    86219725.689       -1624.439          47.000  
G29  21191078.959   111360023.095       -1809.694          48.000    21191073.105    86774128.209       -1410.176          44.000  
S31  38792243.554   203854696.925        -645.038          44.000  
S33  39746930.821   208871650.259        -645.320          43.000  
R12  23144135.753   123631907.603        3402.118          32.000    23144133.603    96158244.790        2646.500          35.000  
R21  19382327.432   103719266.364       -1228.618          52.000    19382322.455    80670634.029        -955.577          49.000  
G28  21447159.748   112705602.330       -1631.240          47.000    21447154.335    87822535.585       -1271.121          46.000  
E15  24933407.654   131026076.828       -2582.134          47.000    24933408.973   100396683.085       -1978.489          50.000  
E21  24291114.938   127650740.790         857.476          47.000    24291115.214    97810344.520         656.910          52.000  
E13  23388345.652   122906984.413         152.618          49.000    23388345.861    94175585.657         116.988          53.000  
E27  23964532.801   125934507.512       -1435.059          47.000    23964533.050    96495286.740       -1099.594          54.000  
E30  27723988.856   145690532.658       -2897.894          41.000    27723993.249   111633009.686       -2220.501          47.000  
G18  20861505.631   109628242.209        1261.298          49.000    20861501.020    85424713.387         982.874          48.000  
G05  23546312.575   123736809.511        -239.118          42.000    23546306.623    96418306.870        -186.445          38.000  
E26  26279838.005   138101691.894        2173.806          41.000    26279838.124   105818315.606        1665.753          44.000  
E14  21502477.234   112996314.351        -471.742          44.000    21502477.428    86581610.960        -361.548          48.000  
> 2024 04 17 04 10 30.5000000  0 24                     
G31  22241828.538   116881521.812         708.099          46.000    22241823.558    91076636.309         551.469          44.000  
G12  23693223.387   124508716.903       -3182.556          45.000    23693218.269    97019763.052       -2479.749          40.000  
G26  23227320.588   122060390.346        2437.899          41.000    23227317.671    95111999.394        1899.640          39.000  
G20  24343473.756   127925835.597       -2269.700          38.000                                                                  
R10  20573992.212   109670995.463       -3471.186          45.000                                                                  
R22  21356708.549   114003691.521        2169.294          49.000    21356708.308    88669359.263        1687.302          47.000  
R11  19318128.127   103230263.275         551.711          52.000    19318122.828    80290195.759         429.019          51.000  
R20  22028749.221   117797738.490       -4261.858          43.000    22028746.945    91620519.025       -3314.417          36.000  
G25  21067663.914   110711344.305       -2096.787          46.000    21067662.621    86268600.801       -1633.906          47.000  
G29  21201423.137   111414384.565       -1814.430          48.000    21201418.769    86816487.811       -1413.881          45.000  
S31  38795924.007   203874037.863        -644.396          44.000  
S33  39750613.436   208891002.083        -644.451          43.000  
R12  23125033.024   123529863.350        3400.295          36.000    23125033.192    96078877.079        2644.768          35.000  
R21  19389266.090   103756396.288       -1246.731          52.000    19389261.596    80699512.875        -969.705          49.000  
G28  21456522.025   112754802.693       -1648.923          47.000    21456516.135    87860873.510       -1284.843          45.000  
E15  24948171.500   131103657.124       -2590.036          48.000    24948171.901   100456127.733       -1984.547          50.000  
E21  24286230.919   127625074.796         853.556          47.000    24286231.014    97790678.390         654.038          52.000  
E13  23387508.792   122902588.800         140.219          49.000    23387509.491    94172217.610         107.496          53.000  
E27  23972745.489   125977668.526       -1442.562          47.000    23972746.561    96528358.169       -1105.292          55.000  
E30  27740543.300   145777523.772       -2901.447          40.000    27740547.348   111699665.106       -2223.347          48.000  
G18  20854350.689   109590645.079        1245.044          48.000    20854346.772    85395416.942         970.203          48.000  
G05  23547720.725   123744215.583        -254.607          42.000    23547714.431    96424077.881        -198.412          37.000  
E26  26267439.861   138036543.132        2168.979          40.000    26267440.591   105768396.532        1662.101          44.000  
E14  21505230.586   113010780.431        -492.897          45.000    21505230.214    86592695.447        -377.538          48.000  
> 2024 04 17 04 11 00.0000000  0 24                     
G31  22237902.499   116860892.131         690.713          46.000    22237897.667    91060561.237         537.999          44.000  
G12  23711109.163   124602707.979       -3189.752          44.000    23711105.119    97093002.836       -2485.382          41.000  
G26  23213640.073   121988499.607        2436.024          41.000    23213637.412    95055980.668        1898.352          39.000  
G20  24356256.813   127993012.376       -2285.380          37.000                                                                  
R10  20593249.463   109773646.266       -3488.287          46.000                                                                  
R22  21344758.146   113939899.631        2155.565          50.000    21344757.701    88619743.401        1676.453          48.000  
R11  19315140.102   103214296.432         530.784          51.000    19315135.182    80277777.105         412.731          51.000  
R20  22052268.469   117923507.372       -4264.666          43.000    22052266.813    91718339.317       -3316.996          39.000  
G25  21079468.895   110773376.340       -2108.603          46.000    21079467.308    86316937.438       -1643.373          47.000  
G29  21211621.944   111467979.102       -1819.170          49.000    21211617.618    86858249.817       -1417.643          45.000  
S31  38799539.615   203893038.124        -643.855          44.000  
S33  39754230.797   208910013.727        -644.178          43.000  
R12  23106259.255   123429577.182        3398.643          39.000    23106260.759    96000876.737        2644.055          35.000  
R21  19396188.355   103793439.530       -1264.736          52.000    19396183.088    80728324.292        -983.695          49.000  
G28  21465826.810   112803701.647       -1666.382          47.000    21465821.341    87898976.566       -1298.405          46.000  
E15  24962733.856   131180181.477       -2598.127          48.000    24962734.229   100514763.283       -1990.835          50.000  
E21  24281450.381   127599953.604         849.487          47.000    24281450.576    97771429.711         650.925          52.000  
E13  23386755.462   122898632.429         127.907          48.000    23386756.430    94169186.144          97.966          53.000  
E27  23980864.360   126020332.844       -1450.119          47.000    23980865.457    96561049.002       -1111.124          55.000  
E30  27756842.507   145863179.826       -2905.341          39.000    27756847.176   111765297.610       -2226.320          48.000  
G18  20847407.354   109554156.779        1228.723          48.000    20847403.671    85366984.532         957.422          48.000  
G05  23549195.217   123751958.249        -270.197          44.000    23549189.844    96430111.138        -210.621          40.000  
E26  26255276.126   137972624.062        2164.354          39.000    26255276.868   105719419.710        1658.282          45.000  
E14  21508055.478   113025626.267        -513.762          46.000    21508055.677    86604070.936        -393.548          48.000  
> 2024 04 17 04 11 30.0000000  0 24                     
G31  22234008.720   116840432.117         673.235          47.000    22234004.090    91044618.368         524.802          44.000  
G12  23729338.484   124698504.578       -3196.735          44.000    23729333.879    97167649.508       -2490.796          40.000  
G26  23199736.513   121915437.733        2434.737          40.000    23199733.934    94999049.384        1897.237          39.000  
G20  24369344.334   128061788.209       -2300.002          38.000                                                                  
R10  20612930.547   109878553.664       -3505.413          46.000                                                                  
R22  21332684.232   113875443.386        2141.646          52.000    21332682.511    88569610.869        1665.505          47.000  
R11  19312218.852   103198687.236         509.796          51.000    19312213.096    80265636.634         396.462          50.000  
R20  22076202.134   118051492.804       -4267.702          42.000    22076201.131    91817883.520       -3318.958          38.000  
G25  21091541.324   110836818.542       -2120.832          46.000    21091539.714    86366372.883       -1652.385          47.000  
G29  21222020.066   111522620.562       -1823.675          49.000    21222015.905    86900827.599       -1421.038          45.000  
S31  38803212.675   203912339.109        -642.904          44.000  
S33  39757905.262   208929324.091        -643.106          43.000  
R12  23087177.333   123327651.383        3396.566          40.000    23087179.904    95921601.265        2641.105          34.000  
R21  19403328.126   103831647.678       -1282.485          52.000    19403323.543    80758041.764        -997.570          49.000  
G28  21475389.225   112853953.645       -1683.839          47.000    21475384.730    87938133.941       -1311.965          47.000  
E15  24977587.525   131258240.524       -2605.939          48.000    24977588.056   100574574.763       -1996.772          49.000  
E21  24276611.449   127574525.184         845.693          47.000    24276611.631    97751945.627         647.950          51.000  
E13  23386060.382   122894979.473         115.558          48.000    23386061.104    94166387.146          88.571          53.000  
E27  23989162.593   126063945.582       -1457.576          46.000    23989164.855    96594466.552       -1116.846          55.000  
E30  27773439.620   145950402.468       -2909.565          37.000    27773444.712   111832130.479       -2229.263          47.000  
G18  20840439.485   109517540.010        1212.311          48.000    20840435.163    85338452.002         944.733          48.000  
G05  23550781.831   123760298.953        -285.809          43.000    23550778.295    96436610.396        -222.897          40.000  
E26  26242934.299   137907767.627        2159.300          38.000    26242935.139   105669724.620        1654.662          45.000  
E14  21511046.740   113041350.966        -534.655          45.000    21511047.261    86616119.823        -409.741          47.000  
> 2024 04 17 04 12 00.0000000  0 24                     
G31  22230218.968   116820515.635         654.293          46.000    22230213.918    91029099.027         510.002          44.000  
G12  23747611.424   124794533.252       -3205.396          44.000    23747607.949    97242477.024       -2497.693          40.000  
G26  23185845.963   121842443.851        2431.371          40.000    23185844.104    94942171.058        1894.484          39.000  
G20  24382522.700   128131045.295       -2317.065          37.000                                                                  
R10  20632711.129   109983998.889       -3524.280          45.000                                                                  
R22  21320691.691   113811427.450        2125.970          52.000    21320688.280    88519820.779        1653.455          45.000  
R11  19309419.666   103183733.275         487.000          51.000    19309414.279    80254005.779         378.841          50.000  
R20  22100155.603   118179579.921       -4271.803          44.000    22100154.585    91917506.856       -3322.823          38.000  
G25  21103685.958   110900641.042       -2134.315          45.000    21103684.395    86416104.704       -1663.199          46.000  
G29  21232447.433   111577419.062       -1829.788          48.000    21232443.102    86943527.747       -1425.984          45.000  
S31  38806884.956   203931637.025        -643.779          44.000  
S33  39761579.735   208948632.354        -644.073          43.000  
R12  23068111.714   123225808.160        3392.691          41.000    23068114.051    95842389.923        2639.260          35.000  
R21  19410572.294   103870413.846       -1302.036          52.000    19410567.244    80788193.228       -1012.743          48.000  
G28  21485055.433   112904751.197       -1702.919          47.000    21485051.172    87977716.429       -1327.001          47.000  
E15  24992490.079   131336555.890       -2615.355          48.000    24992490.951   100634582.646       -2003.978          49.000  
E21  24271799.042   127549235.992         840.133          47.000    24271799.147    97732568.212         643.762          52.000  
E13  23385439.488   122891718.462         101.560          48.000    23385440.512    94163888.470          77.913          53.000  
E27  23997509.597   126107804.410       -1466.601          47.000    23997510.955    96628072.659       -1123.734          55.000  
E30  27790064.267   146037758.818       -2914.994          39.000    27790067.461   111899065.809       -2233.199          46.000  
G18  20833569.701   109481436.873        1194.440          49.000    20833564.599    85310319.730         930.719          48.000  
G05  23552462.886   123769130.652        -303.027          44.000    23552457.264    96443492.239        -235.991          39.000  
E26  26230624.438   137843078.031        2153.061          39.000    26230625.243   105620157.389        1649.696          46.000  
E14  21514161.926   113057724.036        -557.201          45.000    21514162.744    86628665.476        -426.784          46.000  
> 2024 04 17 04 12 30.5000000  0 24                     
G31  22226474.638   116800838.249         636.072          47.000    22226469.479    91013766.000         495.598          44.000  
G12  23766237.304   124892411.521       -3212.958          45.000    23766234.089    97318745.809       -2503.595          41.000  
G26  23171740.613   121768317.682        2429.041          41.000    23171738.448    94884410.462        1893.007          39.000  
G20  24396018.312   128201961.223       -2332.994          37.000                                                                  
R10  20652927.006   110091763.713       -3542.374          46.000                                                                  
R22  21308586.002   113746809.945        2111.128          51.000    21308583.941    88469562.782        1641.962          46.000  
R11  19306703.952   103169217.366         464.873          51.000    19306697.746    80242715.650         361.612          50.000  
R20  22124528.877   118309914.720       -4274.668          44.000    22124528.119    92018878.333       -3324.459          39.000  
G25  21116110.169   110965929.806       -2146.868          46.000    21116108.420    86466979.049       -1672.861          46.000  
G29  21243081.483   111633303.717       -1834.882          47.000    21243077.266    86987074.194       -1429.606          45.000  
S31  38810620.190   203951266.106        -643.407          44.000  
S33  39765317.556   208968273.769        -643.888          43.000  
R12  23048747.631   123122368.472        3390.077          40.000    23048749.942    95761936.936        2636.893          35.000  
R21  19418046.778   103910408.681       -1320.552          52.000    19418041.101    80819300.324       -1027.072          48.000  
G28  21494991.459   112956965.681       -1721.049          47.000    21494987.693    88018403.012       -1341.107          47.000  
E15  25007693.754   131416450.133       -2623.653          48.000    25007694.408   100695800.302       -2010.288          49.000  
E21  24266936.419   127523681.933         835.687          47.000    24266936.455    97712987.848         640.274          52.000  
E13  23384887.581   122888817.456          88.550          48.000    23384888.330    94161665.635          67.850          52.000  
E27  24006044.707   126152659.665       -1474.740          46.000    24006046.563    96662442.271       -1129.985          55.000  
E30  27806995.393   146126720.478       -2918.820          42.000    27806996.032   111967231.194       -2236.543          46.000  
G18  20826687.846   109445272.525        1177.045          49.000    20826682.692    85282139.746         917.316          48.000  
G05  23554269.571   123778625.978        -319.551          44.000    23554264.409    96450891.204        -248.957          40.000  
E26  26218143.246   137777495.347        2147.506          38.000    26218145.542   105569905.823        1645.365          46.000  
E14  21517457.349   113075044.632        -578.904          45.000    21517458.341    86641937.171        -443.344          46.000  
> 2024 04 17 04 13 00.5000000  0 24                     
G31  22222896.349   116782033.961         617.487          47.000    22222890.911    90999113.311         481.386          43.000  
G12  23784602.098   124988918.914       -3220.898          45.000    23784598.770    97393946.327       -2509.766          41.000  
G26  23157879.733   121695478.878        2426.696          41.000    23157877.641    94827653.011        1891.055          39.000  
G20  24409383.784   128272196.682       -2349.198          36.000                                                                  
R10  20672913.382   110198299.548       -3560.374          46.000                                                                  
R22  21296763.721   113683697.983        2096.181          51.000    21296760.952    88420475.828        1630.422          47.000  
R11  19304156.312   103155605.305         442.656          51.000    19304151.420    80232128.522         344.296          50.000  
R20  22148520.877   118438208.596       -4278.097          44.000    22148520.455    92118662.528       -3327.605          41.000  
G25  21128403.334   111030531.750       -2159.835          46.000    21128401.885    86517318.216       -1683.065          46.000  
G29  21253571.518   111688428.250       -1840.155          48.000    21253566.492    87030028.375       -1433.989          45.000  
S31  38814293.774   203970570.324        -643.556          44.000  
S33  39768992.553   208987587.908        -644.063          43.000  
R12  23029717.984   123020714.272        3386.626          40.000    23029719.776    95682872.645        2634.379          32.000  
R21  19425502.911   103950305.026       -1339.202          53.000    19425497.198    80850330.842       -1041.542          49.000  
G28  21504868.676   113008870.896       -1739.331          47.000    21504865.219    88058848.620       -1355.220          47.000  
E15  25022697.021   131495289.313       -2632.230          49.000    25022696.853   100756209.537       -2016.954          49.000  
E21  24262180.428   127498689.491         830.643          47.000    24262180.527    97693837.811         636.468          52.000  
E13  23384418.569   122886358.842          75.490          47.000    23384420.368    94159781.793          57.795          52.000  
E27  24014488.319   126197028.554       -1483.140          47.000    24014489.574    96696439.211       -1136.440          55.000  
E30  27823672.027   146214357.702       -2923.687          42.000    27823672.957   112034381.716       -2240.083          46.000  
G18  20820017.646   109410221.221        1159.668          49.000    20820013.006    85254827.083         903.558          48.000  
G05  23556141.677   123788461.955        -336.196          44.000    23556137.312    96458555.612        -261.879          41.000  
E26  26205900.066   137713158.382        2141.656          39.000    26205902.873   105520608.805        1640.990          47.000  
E14  21520823.266   113092729.557        -600.095          46.000    21520823.433    86655488.030        -459.740          46.000  
> 2024 04 17 04 13 30.5000000  0 24                     
G31  22219419.929   116763765.373         600.111          48.000    22219414.840    90984878.064         467.605          43.000  
G12  23803009.108   125085645.531       -3227.734          46.000    23803004.169    97469317.637       -2515.125          40.000  
G26  23144030.059   121622702.312        2424.601          40.000    23144028.516    94770944.056        1889.555          39.000  
G20  24422837.896   128342897.923       -2363.904          34.000                                                                  
R10  20692997.758   110305355.427       -3577.002          46.000                                                                  
R22  21285021.241   113621018.401        2082.260          51.000    21285019.152    88371725.123        1619.465          48.000  
R11  19301731.428   103142644.464         421.317          52.000    19301726.231    80222047.852         327.663          51.000  
R20  22172526.944   118566582.121       -4280.132          43.000    22172526.995    92218508.585       -3329.355          40.000  
G25  21140767.000   111095502.845       -2171.744          46.000    21140765.373    86567945.019       -1692.340          47.000  
G29  21264089.082   111743695.715       -1844.529          48.000    21264083.836    87073093.917       -1437.164          45.000  
S31  38817964.252   203989859.761        -642.464          44.000  
S33  39772665.116   209006887.376        -642.784          43.000  
R12  23010702.749   122919141.259        3384.334          40.000    23010705.369    95603871.471        2632.820          33.000  
R21  19433059.863   103990740.429       -1356.623          53.000    19433053.376    80881780.619       -1055.138          48.000  
G28  21514847.345   113061305.508       -1756.552          48.000    21514842.501    88099706.741       -1368.826          47.000  
E15  25037744.761   131574368.094       -2639.728          48.000    25037745.122   100816802.366       -2022.690          49.000  
E21  24257449.103   127473828.631         826.683          47.000    24257449.457    97674788.587         633.469          51.000  
E13  23384023.189   122884280.534          63.096          47.000    23384024.817    94158189.350          48.355          52.000  
E27  24022976.268   126241633.629       -1490.595          47.000    24022977.823    96730617.131       -1142.138          55.000  
E30  27840371.887   146302116.135       -2927.226          43.000    27840372.718   112101625.125       -2242.715          46.000  
G18  20813443.219   109375675.785        1143.243          48.000    20813438.248    85227908.602         890.845          47.000  
G05  23558104.186   123798780.654        -351.906          42.000    23558101.348    96466596.197        -274.281          41.000  
E26  26193687.855   137648980.781        2136.568          40.000    26193690.306   105471433.846        1637.246          47.000  
E14  21524308.256   113111043.549        -620.790          46.000    21524309.064    86669520.910        -475.731          47.000  
> 2024 04 17 04 14 00.0000000  0 24                     
G31  22216101.601   116746326.432         582.146          48.000    22216096.909    90971289.282         453.409          44.000  
G12  23821149.389   125180974.513       -3235.376          45.000    23821143.988    97543599.927       -2520.990          39.000  
G26  23130424.046   121551202.555        2422.497          40.000    23130422.411    94715230.015        1887.603          39.000  
G20  24436154.753   128412874.788       -2379.880          33.000                                                                  
R10  20712840.948   110411133.045       -3594.610          46.000                                                                  
R22  21273554.450   113559807.522        2067.586          51.000    21273552.633    88324116.751        1608.055          48.000  
R11  19299466.006   103130538.903         399.332          52.000    19299460.381    80212632.394         310.600          50.000  
R20  22196147.388   118692892.333       -4283.229          43.000    22196147.390    92316749.832       -3331.225          41.000  
G25  21152994.324   111159752.405       -2184.161          47.000    21152992.334    86618009.598       -1701.919          47.000  
G29  21274457.525   111798181.738       -1849.572          49.000    21274452.431    87115550.578       -1441.327          44.000  
S31  38821571.271   204008814.998        -642.671          44.000  
S33  39776274.363   209025853.551        -642.830          43.000  
R12  22992020.758   122819344.727        3381.352          41.000    22992025.335    95526251.936        2629.844          32.000  
R21  19440588.078   104031026.537       -1374.697          53.000    19440581.358    80913114.267       -1069.149          49.000  
G28  21524757.447   113113382.198       -1774.155          47.000    21524752.356    88140285.964       -1382.576          47.000  
E15  25052586.460   131652362.146       -2647.989          48.000    25052586.746   100876564.047       -2028.931          49.000  
E21  24252821.837   127449512.946         821.845          47.000    24252822.235    97656157.104         629.728          51.000  
E13  23383705.145   122882608.883          50.137          47.000    23383706.520    94156908.516          38.461          52.000  
E27  24031366.760   126285727.407       -1498.785          47.000    24031368.692    96764403.288       -1148.436          55.000  
E30  27856816.298   146388531.082       -2931.663          44.000    27856817.321   112167839.110       -2246.330          46.000  
G18  20807073.530   109342201.847        1126.111          47.000    20807068.125    85201825.031         877.618          47.000  
G05  23560124.997   123809399.656        -368.129          42.000    23560121.537    96474870.715        -286.674          41.000  
E26  26181708.803   137586030.638        2131.004          39.000    26181710.916   105423199.437        1632.856          47.000  
E14  21527851.943   113129664.451        -641.682          46.000    21527853.015    86683788.941        -491.731          48.000  
> 2024 04 17 04 14 30.0000000  0 24                     
G31  22212830.393   116729137.054         563.556          47.000    22212825.981    90957894.936         439.257          44.000  
G12  23839639.739   125278146.625       -3243.018          44.000    23839635.876    97619318.445       -2527.002          40.000  
G26  23116602.192   121478568.142        2419.917          41.000    23116600.555    94658631.818        1885.447          39.000  
G20  24449786.041   128484508.186       -2396.199          33.000                                                                  
R10  20733118.678   110519226.121       -3611.823          45.000                                                                  
R22  21261976.602   113498002.040        2052.458          51.000    21261973.885    88276045.875        1596.436          47.000  
R11  19297286.131   103118890.986         376.999          51.000    19297280.277    80203572.905         293.155          50.000  
R20  22220184.566   118821428.612       -4286.012          43.000    22220182.962    92416722.474       -3333.432          40.000  
G25  21165499.083   111225468.797       -2197.149          46.000    21165497.685    86669217.155       -1712.096          47.000  
G29  21285030.064   111853742.419       -1854.723          48.000    21285024.894    87158844.601       -1445.200          44.000  
S31  38825238.974   204028089.552        -642.523          44.000  
S33  39779944.102   209045138.012        -642.964          43.000  
R12  22973039.839   122717955.416        3377.530          40.000    22973060.915                3       2628.153          24.000  
R21  19448343.816   104072536.665       -1393.019          52.000    19448339.204    80945399.932       -1083.392          49.000  
G28  21534937.213   113166874.984       -1792.228          47.000    21534931.949    88181968.624       -1396.564          47.000  
E15  25067726.573   131731923.934       -2656.232          48.000    25067726.747   100937526.978       -2035.471          48.000  
E21  24248143.666   127424929.744         816.853          47.000    24248144.318    97637320.633         625.884          51.000  
E13  23383456.780   122881297.507          37.034          48.000    23383456.769    94155903.710          28.400          52.000  
E27  24039946.908   126330815.407       -1507.192          47.000    24039948.778    96798951.236       -1154.916          55.000  
E30  27873563.770   146476541.773       -2935.917          43.000    27873565.174   112235275.805       -2249.718          46.000  
G18  20800693.705   109308676.089        1108.746          48.000    20800688.694    85175701.116         863.824          47.000  
G05  23562274.264   123820691.023        -384.896          43.000    23562270.733    96483669.191        -299.861          41.000  
E26  26169560.571   137522185.631        2124.863          40.000    26169561.463   105374279.352        1628.272          47.000  
E14  21531575.925   113149231.182        -662.833          46.000    21531576.787    86698781.699        -507.954          49.000  
