     3.00           OBSERVATION DATA    M: Mixed            RINEX VERSION / TYPE
CONVBIN 2.4.3                           20240417 022942 UTC PGM / RUN BY / DATE 
format: u-blox UBX                                          COMMENT             
log: /home/regis/git/gnsspwv/obsdata/VERT00CHL/2024-04-17/VECOMMENT             
{self.marker}                                               MARKER NAME         
                                                            MARKER NUMBER       
GEODETIC                                                    MARKER TYPE         
{self.observer}     {self.institution}                      OBSERVER / AGENCY   
UNKNOWN             UBLOX-ZED-F9P                           REC # / TYPE / VERS 
UNKNOWN             TWIVSP6037L                             ANT # / TYPE        
  1713381.0000 -5047934.0000 -3490983.0000                  APPROX POSITION XYZ 
        0.0000        0.0000        0.0000                  ANTENNA: DELTA H/E/N
G    8 C1C L1C D1C S1C C2L L2L D2L S2L                      SYS / # / OBS TYPES 
R    8 C1C L1C D1C S1C C2C L2C D2C S2C                      SYS / # / OBS TYPES 
E    8 C1C L1C D1C S1C C7Q L7Q D7Q S7Q                      SYS / # / OBS TYPES 
S    4 C1C L1C D1C S1C                                      SYS / # / OBS TYPES 
  2024    04    17    02    15   00.4970000     GPS         TIME OF FIRST OBS   
  2024    04    17    02    29   30.4970000     GPS         TIME OF LAST OBS    
                                                            END OF HEADER       
> 2024 04 17 02 15 00.4970000  0 24                     
G11  21873891.442   114948107.8001      -2181.578          45.000    21873889.986    89569985.5721      -1699.879          46.000  
G12  20674883.728   108647250.1611      -1511.730          49.000    20674879.025    84660181.2591      -1178.093          46.000  
E19  26281345.380   138109426.3521       -787.256          36.000    26281347.186   105824076.1581       -603.505          36.000  
G20  23817756.585   125163172.0901       1109.530          42.000                                                                  
G24  21808643.858   114605140.9611      -3953.076          45.000    21808645.501    89302698.1481      -3080.161          44.000  
R10  18955450.215   101043252.6651        678.089          47.000                                                                  
R11  22004395.202   117584927.3961       2635.755          34.000    22004384.519                        2050.605          30.000  
R09  19576602.937   104537960.9081      -2187.625          51.000    19576599.366    81307295.4521      -1701.337          49.000  
R20  18414708.873    98471828.0771       -344.297          41.000    18414707.758    76589253.1831       -267.659          46.000  
G25  19941133.184   104791375.2521         64.136          49.000    19941130.542    81655636.8961         49.988          44.000  
G29  20078058.990   105511042.6921        446.222          49.000    20078056.139    82216475.2301        347.699          46.000  
S31  37923345.635   199288571.5841       -692.758          44.000  
S33  38877291.543   204301616.9361       -693.697          43.000  
E07  26869108.892   141197879.6791      -3370.608          42.000    26869130.644   108190550.1021      -2582.731          45.000  
R19  21617886.385                       -4565.316          31.000    21617882.641    89943088.1801      -3550.965          46.000  
R21  20878889.892   111727590.7471       3259.459          51.000    20878889.497    86899309.2301       2535.031          46.000  
G28  22070665.602   115982126.8441       2200.489          44.000    22070660.629    90375666.4591       1714.733          42.000  
E15  23363485.469   122776061.7941        385.170          45.000    23363489.422    94075237.7651        295.216          55.000  
E21  25703514.853   135072911.6261       1076.450          44.000    25703517.217   103497451.5481        824.769          47.000  
E13  25279497.532   132844965.5301       2331.655          46.000    25279504.212   101790377.6631       1786.579          49.000  
E27  23017505.660   120957844.9561       -252.674          47.000    23017507.293    92681997.9381       -193.605          52.000  
E30  24596223.922   129254028.8781      -1949.588          46.000    24596225.948    99038809.8491      -1493.776          50.000  
E34  25309213.204   133000827.3041      -2285.764          40.000    25309213.830   101909749.0251      -1751.547          48.000  
G32  22868613.941   120175363.8871      -2425.885          46.000    22868614.264    93643131.8011      -1890.155          41.000  
> 2024 04 17 02 15 30.4970000  0 24                     
G11  21886393.531   115013798.969       -2198.038          45.000    21886391.114    89621173.485       -1712.749          47.000  
G12  20683524.477   108692658.058       -1515.813          49.000    20683519.474    84695564.028       -1181.108          45.000  
E19  26285874.839   138133228.482        -799.554          36.000    26285877.504   105842314.166        -612.774          36.000  
G20  23811438.541   125129974.391        1103.158          41.000                                                                  
G24  21831232.455   114723841.495       -3960.720          45.000    21831234.317    89395191.907       -3086.300          44.000  
R10  18951660.389   101023054.758         668.030          47.000                                                                  
R11  21989586.959   117505806.505        2638.945          33.000    21989574.605    91393245.846        2052.373          32.000  
R09  19588927.199   104603773.175       -2200.213          50.000    19588923.471    81358482.770       -1711.451          49.000  
R20  18416709.612    98482529.838        -369.893          40.000    18416708.610    76597576.819        -287.585          45.000  
G25  19940776.944   104789505.664          60.242          47.000    19940774.369    81654180.096          47.015          44.000  
G29  20075545.971   105497834.295         433.899          50.000    20075541.690    82206182.996         338.184          44.000  
S31  37927296.309   199309330.722        -691.421          44.000  
S33  38881246.152   204322397.925        -691.853          43.000  
E07  26888336.428   141298919.154       -3365.706          44.000    26888358.693   108267969.254       -2578.899          44.000  
R19  21643515.427   115778216.729       -4574.415          33.000    21643510.056    90049713.470       -3557.656          45.000  
R21  20860644.230   111629961.052        3248.808          50.000    20860645.119    86823375.326        2526.725          47.000  
G28  22058125.976   115916229.686        2192.200          45.000    22058120.873    90324318.092        1708.144          42.000  
E15  23361320.503   122764682.813         372.728          45.000    23361324.052    94066518.838         285.683          54.000  
E21  25697362.506   135040578.786        1078.472          44.000    25697364.577   103472677.093         826.283          47.000  
E13  25266190.741   132775042.016        2329.535          45.000    25266197.544   101736800.207        1784.800          49.000  
E27  23018950.646   120965435.842        -253.804          47.000    23018951.789    92687814.345        -194.535          52.000  
E30  24607357.700   129312532.041       -1951.003          46.000    24607358.576    99083636.931       -1494.935          49.000  
E34  25322293.442   133069559.522       -2296.631          41.000    25322292.288   101962413.981       -1759.749          47.000  
G32  22882490.489   120248287.655       -2436.102          45.000    22882490.800    93699955.421       -1898.206          40.000  
> 2024 04 17 02 16 00.4970000  0 24                     
G11  21898992.832   115080005.936       -2215.395          47.000    21898987.796    89672763.307       -1726.326          46.000  
G12  20692193.283   108738212.985       -1520.890          50.000    20692188.401    84731061.380       -1185.000          45.000  
E19  26290474.289   138157405.888        -812.294          36.000    26290478.271   105860839.735        -623.043          36.000  
G20  23805161.629   125096988.672        1096.150          40.000                                                                  
G24  21853869.196   114842794.901       -3969.237          45.000    21853870.883    89487882.722       -3092.967          44.000  
R10  18947932.877   101003184.987         656.985          46.000                                                                  
R11  21974761.342   117426620.836        2640.898          33.000    21974761.350    91331657.193        2053.938          35.000  
R09  19601327.945   104669992.900       -2214.143          50.000    19601324.139    81409986.981       -1722.077          49.000  
R20  18418858.584    98494021.813        -396.108          40.000    18418857.191    76606515.046        -308.061          44.000  
G25  19940447.586   104787775.857          55.402          47.000    19940445.464    81652832.219          43.140          45.000  
G29  20073106.731   105485017.633         420.697          49.000    20073102.669    82196196.049         327.734          44.000  
S31  37931242.280   199330067.892        -690.749          44.000  
S33  38885196.314   204343158.188        -691.924          43.000  
E07  26907540.192   141399833.857       -3361.753          41.000    26907562.740   108345292.793       -2575.914          46.000  
R19  21669195.348   115915589.835       -4583.475          35.000    21669191.462    90156559.219       -3565.100          46.000  
R21  20842465.357   111532679.649        3236.911          51.000    20842465.920    86747712.340        2517.558          47.000  
G28  22045637.611   115850606.320        2182.865          44.000    22045633.334    90273183.048        1700.987          42.000  
E15  23359228.868   122753698.777         359.633          44.000    23359233.339    94058102.554         275.458          54.000  
E21  25691201.276   135008205.258        1079.830          44.000    25691204.141   103447871.458         827.305          47.000  
E13  25252901.000   132705207.367        2326.233          44.000    25252908.385   101683290.828        1782.565          49.000  
E27  23020406.152   120973082.354        -255.848          48.000    23020407.029    92693673.380        -196.023          52.000  
E30  24618502.242   129371103.673       -1953.436          46.000    24618504.293    99128516.482       -1496.860          49.000  
E34  25335438.473   133138634.482       -2308.203          42.000    25335437.313   102015341.583       -1768.576          47.000  
G32  22896432.173   120321545.033       -2447.510          46.000    22896431.585    93757038.973       -1907.349          42.000  
> 2024 04 17 02 16 30.4970000  0 24                     
G11  21911686.376   115146713.239       -2231.586          46.000    21911681.848    89724743.018       -1738.843          45.000  
G12  20700887.479   108783901.419       -1524.838          50.000    20700882.858    84766662.754       -1188.100          45.000  
E19  26295142.577   138181944.094        -823.405          35.000    26295146.531   105879641.729        -631.363          35.000  
G20  23798923.212   125064204.548        1089.680          41.000                                                                  
G24  21876549.524   114961984.845       -3976.469          44.000    21876551.860    89580757.834       -3098.453          44.000  
R10  18944264.124   100983631.753         646.700          47.000                                                                  
R11  21959922.489                1       2643.561          27.000    21959928.651    91270008.139        2055.962          35.000  
R09  19613802.359   104736606.016       -2226.795          51.000    19613799.198    81461797.137       -1731.978          50.000  
R20  18421152.117    98506290.010        -421.751          40.000    18421151.246    76616056.989        -327.897          44.000  
G25  19940141.776   104786172.844          51.636          47.000    19940140.222    81651583.132          40.375          44.000  
G29  20070739.542   105472578.607         408.655          48.000    20070735.968    82186503.316         318.457          45.000  
S31  37935181.654   199350768.668        -689.226          44.000  
S33  38889140.286   204363882.771        -689.770          43.000  
E07  26926717.375   141500608.191       -3356.554          43.000    26926740.430   108422508.739       -2571.874          45.000  
R19  21694923.555   116053229.214       -4592.261          36.000    21694921.839    90263612.056       -3571.576          46.000  
R21  20824348.747   111435735.747        3226.061          50.000    20824348.724    86672311.860        2509.209          47.000  
G28  22033199.202   115785245.401        2174.677          43.000    22033195.879    90222252.509        1694.507          42.000  
E15  23357212.088   122743096.704         347.165          45.000    23357215.566    94049978.919         266.087          54.000  
E21  25685030.401   134975777.135        1081.980          44.000    25685033.020   103423024.001         829.074          47.000  
E13  25239626.431   132635449.629        2324.107          45.000    25239633.750   101629840.399        1780.897          49.000  
E27  23021868.636   120980771.003        -256.785          48.000    23021870.146    92699564.693        -196.712          52.000  
E30  24629658.779   129429730.404       -1954.747          46.000    24629660.510    99173438.238       -1497.983          50.000  
E34  25348644.034   133208036.879       -2318.588          42.000    25348643.623   102068520.063       -1776.549          46.000  
G32  22910433.216   120395119.231       -2457.526          47.000    22910433.171    93814369.415       -1915.125          43.000  
> 2024 04 17 02 17 00.4970000  0 24                     
G11  21924473.316   115213908.451       -2248.129          46.000    21924467.965    89777102.956       -1751.942          44.000  
G12  20709605.491   108829712.566       -1529.251          50.000    20709600.676    84802359.754       -1191.759          45.000  
E19  26299879.376   138206831.667        -835.657          36.000    26299882.075   105898711.436        -640.247          35.000  
G20  23792720.694   125031613.913        1083.084          40.000                                                                  
G24  21899272.105   115081398.002       -3984.146          42.000    21899275.983    89673806.859       -3104.728          45.000  
R10  18940653.629   100964386.790         636.094          46.000                                                                  
R11  21945076.598   117267821.7341       2646.469          37.000    21945071.407    91208291.533        2057.694          33.000  
R09  19626349.341   104803601.991       -2239.820          52.000    19626345.145    81513905.074       -1742.122          50.000  
R20  18423589.966    98519323.047        -447.544          40.000    18423588.984    76626193.818        -348.152          45.000  
G25  19939858.971   104784686.652          47.479          47.000    19939857.319    81650425.084          36.871          44.000  
G29  20068441.616   105460505.310         396.143          47.000    20068437.955    82177095.625         308.777          44.000  
S31  37939112.034   199371424.069        -687.989          44.000  
S33  38893075.042   204384559.189        -688.510          43.000  
E07  26945865.686   141601229.296       -3351.757          42.000    26945888.675   108499607.393       -2568.107          46.000  
R19  21720700.961   116191118.974       -4600.733          38.000    21720698.914    90370859.683       -3578.387          46.000  
R21  20806294.847   111339121.480        3214.740          52.000    20806293.647    86597167.771        2500.251          47.000  
G28  22020810.132   115720138.650        2165.776          44.000    22020807.249    90171520.002        1687.597          43.000  
E15  23355265.854   122732866.446         334.663          45.000    23355268.802    94042140.199         256.362          53.000  
E21  25678847.151   134943283.516        1084.084          44.000    25678849.359   103398126.367         830.604          47.000  
E13  25226364.493   132565759.770        2321.710          44.000    25226371.521   101576441.973        1778.977          49.000  
E27  23023338.531   120988491.397        -258.073          48.000    23023339.197    92705480.327        -197.740          52.000  
E30  24640823.682   129488401.713       -1956.662          46.000    24640825.358    99218394.154       -1499.382          50.000  
E34  25361910.024   133277754.417       -2329.373          42.000    25361910.366   102121940.022       -1784.846          46.000  
G32  22924491.730   120468996.574       -2467.804          47.000    22924492.057    93871936.089       -1923.169          44.000  
> 2024 04 17 02 17 30.4970000  0 24                     
G11  21937358.383   115281618.234       -2266.142          46.000    21937353.683    89829863.826       -1765.779          45.000  
G12  20718351.968   108875675.498       -1535.254          50.000    20718346.617    84838175.006       -1196.225          44.000  
E19  26304686.859   138232096.052        -849.329          36.000    26304690.000   105918069.855        -650.333          35.000  
G20  23786560.801   124999247.665        1074.520          41.000                                                                  
G24  21922043.740   115201060.071       -3993.487          43.000    21922047.121    89767049.827       -3111.707          45.000  
R10  18937108.212   100945481.332         623.829          47.000                                                                  
R11  21930222.048   117188415.351        2647.332          37.000    21930207.275    91146531.023        2059.323          36.000  
R09  19638972.438   104871010.290       -2254.322          51.000    19638968.837    81566333.744       -1753.413          50.000  
R20  18426175.327    98533149.453        -475.057          40.000    18426174.990    76636947.727        -369.334          45.000  
G25  19939603.835   104783346.417          41.632          47.000    19939602.465    81649380.739          32.251          44.000  
G29  20066219.384   105448825.953         382.263          48.000    20066214.472    82167994.902         297.766          43.000  
S31  37943039.060   199392060.679        -688.150          44.000  
S33  38897005.983   204405218.606        -689.145          43.000  
E07  26964990.223   141701723.705       -3348.159          41.000    26965012.448   108576608.908       -2565.546          47.000  
R19  21746531.913   116329283.780       -4610.707          39.000    21746526.807    90478321.177       -3586.045          44.000  
R21  20788307.089   111242869.527        3201.826          50.000    20788306.354    86522305.463        2490.093          47.000  
G28  22008475.284   115655316.764        2155.380          44.000    22008472.493    90121009.459        1679.505          43.000  
E15  23353394.898   122723037.085         320.375          45.000    23353398.208    94034608.650         245.488          54.000  
E21  25672656.848   134910752.622        1084.349          44.000    25672659.085   103373200.178         830.944          47.000  
E13  25213121.895   132496167.932        2317.364          44.000    25213128.326   101523118.657        1775.727          49.000  
E27  23024819.030   120996272.230        -260.915          48.000    23024819.552    92711442.271        -199.908          51.000  
E30  24652001.663   129547146.273       -1960.016          45.000    24652004.326    99263406.185       -1501.720          50.000  
E34  25375242.488   133347813.872       -2341.432          43.000    25375242.869   102175621.954       -1794.132          46.000  
G32  22938612.334   120543202.505       -2479.669          47.000    22938613.150    93929758.763       -1932.086          44.000  
> 2024 04 17 02 18 00.4970000  0 24                     
G11  21950346.236   115349876.168       -2284.180          46.000    21950342.993    89883051.846       -1779.882          46.000  
G12  20727134.203   108921826.256       -1541.230          50.000    20727128.598    84874136.647       -1200.960          45.000  
E19  26309574.237   138257772.066        -862.677          37.000    26309575.399   105937743.696        -660.961          34.000  
G20  23780452.371   124967143.646        1066.146          42.000                                                                  
G24  21944868.014   115321003.755       -4002.497          43.000    21944870.837    89860512.273       -3118.880          43.000  
R10  18933631.979   100926953.588         611.540          47.000                                                                  
R11  21915362.442   117108990.279        2648.032          40.000    21915351.912    91084756.063        2059.622          38.000  
R09  19651680.242   104938866.549       -2269.180          52.000    19651676.846    81619110.780       -1764.980          50.000  
R20  18428915.192    98547803.525        -501.961          40.000    18428915.442    76648345.369        -390.487          45.000  
G25  19939384.002   104782188.221          35.712          48.000    19939382.415    81648478.241          27.930          45.000  
G29  20064078.438   105437575.124         368.091          49.000    20064072.925    82159228.076         286.688          43.000  
S31  37946968.830   199412713.227        -688.667          44.000  
S33  38900940.858   204425894.689        -689.380          43.000  
E07  26984096.142   141802124.677       -3345.132          44.000    26984118.721   108653538.825       -2562.913          48.000  
R19  21772417.725   116467755.618       -4620.519          39.000    21772412.845    90586021.476       -3593.677          44.000  
R21  20770394.977   111147018.881        3188.543          51.000    20770394.057    86447755.256        2479.923          47.000  
G28  21996201.583   115590817.521        2144.820          45.000    21996198.944    90070750.355        1671.432          43.000  
E15  23351607.164   122713644.535         306.033          45.000    23351610.746    94027411.788         234.498          54.000  
E21  25666465.495   134878219.572        1084.633          43.000    25666468.244   103348272.308         831.067          47.000  
E13  25199904.716   132426711.160        2313.225          45.000    25199910.769   101469898.835        1772.413          49.000  
E27  23026318.464   121004149.029        -263.959          48.000    23026318.311    92717477.744        -202.227          51.000  
E30  24663202.019   129605999.627       -1963.316          46.000    24663203.888    99308501.581       -1504.370          50.000  
E34  25388644.304   133418248.935       -2353.843          42.000    25388645.947   102229591.705       -1803.767          46.000  
G32  22952801.802   120617769.289       -2491.211          47.000    22952802.328    93987862.638       -1941.193          43.000  
> 2024 04 17 02 18 30.4970000  0 24                     
G11  21963434.628   115418651.646       -2300.753          46.000    21963430.461    89936643.145       -1792.711          44.000  
G12  20735946.542   108968136.114       -1546.070          49.000    20735941.331    84910222.227       -1204.652          44.000  
E19  26314532.246   138283830.067        -874.886          36.000    26314533.622   105957710.207        -669.768          33.000  
G20  23774388.714   124935275.712        1058.564          42.000                                                                  
G24  21967740.742   115441197.601       -4010.388          45.000    21967743.102    89954169.641       -3124.978          43.000  
R10  18930222.141   100908776.171         600.314          47.000                                                                  
R11  21900490.455   117029518.859        2649.945          41.000    21900484.719    91022945.055        2061.361          38.000  
R09  19664465.526   105007141.691       -2282.471          51.000    19664462.038    81672213.626       -1775.257          50.000  
R20  18431805.046    98563255.366        -528.182          40.000    18431804.828    76660363.486        -410.706          45.000  
G25  19939193.157   104781183.978          31.238          48.000    19939191.417    81647695.714          24.426          45.000  
G29  20062013.590   105426723.202         355.408          49.000    20062008.387    82150772.087         276.971          44.000  
S31  37950896.829   199433354.143        -687.453          44.000  
S33  38904872.740   204446557.608        -688.394          43.000  
E07  27003178.472   141902401.365       -3340.077          44.000    27003201.503   108730373.561       -2559.318          47.000  
R19  21798354.054   116606500.093       -4628.957          39.000    21798349.851    90693933.844       -3600.400          44.000  
R21  20752553.300   111051543.634        3176.530          51.000    20752552.712    86373497.018        2470.617          48.000  
G28  21983983.945   115526614.513        2135.548          45.000    21983981.267    90020722.093        1663.944          43.000  
E15  23349897.245   122704660.595         293.048          45.000    23349901.170    94020528.022         224.496          54.000  
E21  25660269.032   134845655.452        1086.356          43.000    25660271.663   103323320.644         832.382          47.000  
E13  25186708.121   132357362.432        2310.107          45.000    25186713.832   101416761.769        1770.135          49.000  
E27  23027829.638   121012093.361        -265.508          48.000    23027829.758    92723564.972        -203.483          51.000  
E30  24674416.455   129664933.239       -1965.540          45.000    24674418.259    99353658.488       -1506.037          50.000  
E34  25402113.204   133489029.173       -2364.604          43.000    25402114.140   102283825.959       -1811.832          44.000  
G32  22967053.865   120692665.173       -2501.611          47.000    22967054.877    94046222.949       -1949.304          43.000  
> 2024 04 17 02 19 00.4970000  0 24                     
G11  21976617.638   115487929.760       -2317.780          46.000    21976614.939    89990626.096       -1806.023          46.000  
G12  20744787.395   109014592.002       -1551.183          50.000    20744781.900    84946421.617       -1208.709          45.000  
E19  26319560.937   138310256.013        -887.027          37.000    26319561.748   105977958.712        -680.136          33.000  
G20  23768367.111   124903633.118        1050.811          41.000                                                                  
G24  21990657.827   115561625.814       -4018.210          45.000    21990659.457    90048009.633       -3130.988          43.000  
R10  18926874.854   100890938.709         588.745          47.000                                                                  
R11  21885606.185   116949989.107        2652.133          40.000    21885603.943    90961088.748        2062.371          36.000  
R09  19677327.899   105075822.792       -2296.249          51.000    19677323.685    81725632.247       -1786.043          50.000  
R20  18434841.114    98579490.904        -554.753          40.000    18434840.569    76672991.162        -431.167          45.000  
G25  19939028.756   104780321.383          26.239          47.000    19939027.151    81647023.588          20.349          44.000  
G29  20060021.880   105416256.595         342.285          49.000    20060017.344    82142616.345         266.687          45.000  
S31  37954819.582   199453968.946        -686.765          44.000  
S33  38908800.074   204467194.301        -687.854          43.000  
E07  27022234.001   142002538.677       -3335.727          42.000    27022257.853   108807101.498       -2555.831          45.000  
R19  21824338.140   116745499.850       -4637.720          40.000    21824334.996    90802044.736       -3606.979          43.000  
R21  20734778.953   110956433.356        3164.052          52.000    20734778.446    86299522.632        2460.911          47.000  
G28  21971820.699   115462696.974        2125.678          45.000    21971817.582    89970916.287        1656.248          43.000  
E15  23348263.652   122696072.690         279.590          45.000    23348267.224    94013947.720         214.179          54.000  
E21  25654063.719   134813046.899        1087.655          43.000    25654066.481   103298334.964         833.374          47.000  
E13  25173529.601   132288110.251        2306.742          45.000    25173535.573   101363698.699        1767.525          49.000  
E27  23029351.101   121020092.439        -267.688          47.000    23029352.045    92729694.154        -205.052          51.000  
E30  24685644.392   129723934.237       -1967.896          46.000    24685645.703    99398867.028       -1507.844          50.000  
E34  25415645.724   133560139.864       -2375.981          43.000    25415647.381   102338313.366       -1820.538          46.000  
G32  22981365.291   120767873.972       -2512.305          47.000    22981366.529    94104827.119       -1957.697          42.000  
> 2024 04 17 02 19 30.4970000  0 24                     
G11  21989898.206   115557721.005       -2335.114          45.000    21989894.954    90045008.908       -1819.590          45.000  
G12  20753657.886   109061206.736       -1556.629          50.000    20753652.255    84982744.777       -1213.093          44.000  
E19  26324662.911   138337061.751        -900.272          38.000    26324662.516   105998498.144        -689.859          34.000  
G20  23762391.654   124872230.954        1042.580          42.000                                                                  
G24  22013621.391   115682297.992       -4026.369          45.000    22013622.950    90142039.708       -3137.504          43.000  
R10  18923595.599   100873456.216         576.568          48.000                                                                  
R11  21870713.180   116870415.450        2652.857          38.000    21870712.722    90899198.157        2063.621          37.000  
R09  19690267.672   105144922.474       -2310.389          51.000    19690264.392    81779376.408       -1797.158          51.000  
R20  18438026.028    98596522.222        -581.096          40.000    18438025.635    76686237.774        -451.952          45.000  
G25  19938893.332   104779613.424          20.886          47.000    19938892.311    81646471.938          16.302          44.000  
G29  20058106.050   105406186.973         328.870          49.000    20058101.468    82134769.933         256.384          45.000  
S31  37958739.839   199474570.021        -686.585          44.000  
S33  38912724.234   204487818.642        -687.088          43.000  
E07  27041265.661   142102546.977       -3331.741          40.000    27041289.277   108883730.640       -2553.038          42.000  
R19  21850371.700   116884763.234       -4646.571          40.000    21850368.922    90910360.722       -3613.993          43.000  
R21  20717076.172   110861704.023        3151.073          52.000    20717075.447    86225844.550        2450.666          47.000  
G28  21959714.217   115399079.601        2115.346          44.000    21959711.587    89921344.353        1648.276          43.000  
E15  23346707.922   122687893.677         265.647          46.000    23346710.937    94007680.722         203.535          55.000  
E21  25647852.161   134780406.101        1088.462          43.000    25647854.826   103273324.574         833.917          47.000  
E13  25160372.273   132218968.666        2302.660          45.000    25160378.361   101310720.371        1764.402          50.000  
E27  23030885.879   121028158.799        -270.154          46.000    23030887.220    92735874.885        -207.011          51.000  
E30  24696887.269   129783015.181       -1970.863          46.000    24696888.443    99444136.817       -1510.125          50.000  
E34  25429243.075   133631591.602       -2387.513          44.000    25429242.944   102393062.109       -1829.458          45.000  
G32  22995738.433   120843404.933       -2523.285          46.000    22995740.303    94163682.305       -1966.241          43.000  
> 2024 04 17 02 20 00.4970000  0 24                     
G11  22003278.295   115628033.475       -2352.931          46.000    22003275.020    90099797.876       -1833.387          43.000  
G12  20762560.293   109107990.592       -1562.778          51.000    20762554.650    85019199.720       -1217.627          45.000  
E19  26329834.826   138364256.312        -913.780          35.000    26329838.004   106019335.500        -699.551          35.000  
G20  23756464.425   124841081.754        1033.547          40.000                                                                  
G24  22036632.766   115803221.509       -4035.425          45.000    22036634.122    90236265.637       -3144.746          42.000  
R10  18920385.588   100856340.846         563.809          48.000                                                                  
R11  21855814.303   116790809.338        2653.667          39.000    21855816.439    90837282.416        2064.156          37.000  
R09  19703288.159   105214450.808       -2325.240          52.000    19703285.552    81833453.951       -1808.510          51.000  
R20  18441362.608    98614358.722        -608.435          41.000    18441360.632    76700110.618        -473.235          44.000  
G25  19938790.570   104779070.954          14.813          48.000    19938788.721    81646049.234          11.304          44.000  
G29  20056266.372   105396523.709         314.893          49.000    20056262.850    82127240.176         245.367          46.000  
S31  37962659.612   199495167.548        -686.951          44.000  
S33  38916648.068   204508438.827        -687.748          43.000  
E07  27060274.017   142202434.405       -3327.926          37.000    27060297.227   108960267.211       -2549.967          38.000  
R19  21876456.250   117024295.814       -4655.960          41.000    21876452.903    91018886.091       -3621.391          42.000  
R21  20699447.146   110767369.256        3137.360          51.000    20699446.432    86152473.320        2440.153          47.000  
G28  21947667.305   115335774.799        2104.375          44.000    21947665.077    89872015.966        1639.928          43.000  
E15  23345231.606   122680134.103         251.296          46.000    23345234.438    94001735.115         192.455          55.000  
E21  25641637.367   134747742.845        1088.808          43.000    25641638.863   103248296.966         834.161          46.000  
E13  25147238.745   132149949.397        2298.104          46.000    25147244.481   101257835.746        1760.901          50.000  
E27  23032435.874   121036302.702        -273.076          46.000    23032437.031    92742115.027        -209.412          51.000  
E30  24708147.113   129842186.362       -1974.405          46.000    24708148.131    99489475.738       -1512.793          50.000  
E34  25442906.371   133703392.750       -2399.653          44.000    25442906.911   102448078.538       -1838.607          45.000  
G32  23010174.476   120919265.066       -2534.778          47.000    23010176.576    94222793.956       -1974.908          44.000  
> 2024 04 17 02 20 30.4970000  0 24                     
G11  22016760.870   115698887.194       -2371.184          45.000    22016757.355    90155008.598       -1847.824          42.000  
G12  20771499.415   109154966.082       -1569.426          50.000    20771494.516    85055803.969       -1222.827          45.000  
E19  26335088.142   138391860.537        -927.433          35.000    26335090.756   106040486.786        -710.745          35.000  
G20  23750588.440   124810209.763        1024.024          39.000                                                                  
G24  22059694.650   115924415.532       -4044.805          44.000    22059696.396    90330702.287       -3151.790          43.000  
R10  18917248.964   100839617.828         550.562          48.000                                                                  
R11  21840915.377   116711194.912        2653.709          42.000    21840918.857    90775360.204        2064.134          36.000  
R09  19716393.971   105284430.166       -2340.424          53.000    19716390.228    81887882.311       -1820.430          51.000  
R20  18444852.692    98633021.312        -636.054          40.000    18444850.357    76714626.015        -494.846          44.000  
G25  19938723.681   104778716.560           8.435          47.000    19938720.953    81645773.113           6.494          44.000  
G29  20054508.849   105387287.666         300.488          48.000    20054505.084    82120043.303         234.058          45.000  
S31  37966582.174   199515782.353        -687.669          44.000  
S33  38920575.404   204529074.970        -688.302          43.000  
E07  27079262.777   142302220.808       -3325.098          34.000    27079285.749   109036726.468       -2548.185          34.000  
R19  21902593.440   117164114.954       -4665.595          41.000    21902589.932    91127634.301       -3629.052          40.000  
R21  20681896.560   110673454.129        3123.131          52.000    20681897.106    86079428.501        2429.012          48.000  
G28  21935685.105   115272806.756        2092.941          45.000    21935682.688    89822949.994        1630.858          43.000  
E15  23343838.985   122672816.371         236.138          46.000    23343842.059    93996128.061         180.928          55.000  
E21  25635420.327   134715078.828        1088.466          42.000    25635423.264   103223268.775         833.964          46.000  
E13  25134132.685   132081075.982        2292.876          46.000    25134137.987   101205062.882        1756.928          50.000  
E27  23034005.520   121044546.371        -276.852          47.000    23034005.721    92748431.597        -212.178          51.000  
E30  24719428.612   129901469.781       -1978.264          46.000    24719428.982    99534900.690       -1515.895          49.000  
E34  25456640.624   133775563.495       -2412.231          45.000    25456640.803   102503378.195       -1848.298          46.000  
G32  23024676.436   120995473.073       -2546.381          46.000    23024678.664    94282176.740       -1984.186          44.000  
> 2024 04 17 02 21 00.4970000  0 24                     
G11  22030349.720   115770295.965       -2389.439          46.000    22030344.764    90210651.828       -1861.850          41.000  
G12  20780477.773   109202148.861       -1575.935          50.000    20780472.492    85092569.783       -1228.233          45.000  
E19  26340422.799   138419889.499        -941.250          35.000    26340424.717   106061963.493        -721.346          35.000  
G20  23744768.993   124779633.683        1014.188          37.000                                                                  
G24  22082811.663   116045892.997       -4053.701          45.000    22082812.641    90425359.852       -3159.013          42.000  
R10  18914187.871   100823304.694         536.980          47.000                                                                  
R11  21826019.284   116631589.701        2653.499          42.000    21826018.746                        2063.721          30.000  
R09  19729585.027   105354876.936       -2355.842          51.000    19729581.397    81942674.226       -1832.436          50.000  
R20  18448499.321    98652525.608        -664.018          40.000    18448497.793    76729796.042        -516.540          44.000  
G25  19938694.727   104778566.691           1.819          47.000    19938692.114    81645656.335           1.324          44.000  
G29  20052835.868   105378493.987         285.803          49.000    20052830.971    82113191.136         222.711          44.000  
S31  37970511.494   199536430.991        -688.683          44.000  
S33  38924508.709   204549745.873        -689.566          43.000  
E07  27098235.080   142401919.893       -3322.005          30.000    27098258.698   109113118.782       -2545.482          32.000  
R19  21928787.093   117304232.806       -4675.569          40.000    21928783.467    91236614.844       -3636.303          42.000  
R21  20664428.191   110579977.936        3108.705          52.000    20664427.823    86006725.098        2417.772          48.000  
G28  21923769.810   115210193.553        2081.411          45.000    21923767.620    89774160.508        1621.793          43.000  
E15  23342533.457   122665956.666         221.082          46.000    23342536.646    93990871.951         169.542          55.000  
E21  25629206.550   134682429.630        1088.256          41.000    25629210.284   103198251.919         833.897          47.000  
E13  25121056.244   132012365.827        2287.789          45.000    25121062.272   101152415.111        1752.927          50.000  
E27  23035596.073   121052905.767        -280.291          47.000    23035596.429    92754836.858        -214.873          51.000  
E30  24730734.255   129960881.462       -1982.394          46.000    24730734.977    99580423.922       -1518.957          50.000  
E34  25470446.692   133848117.812       -2424.566          44.000    25470447.247   102558971.734       -1857.862          46.000  
G32  23039247.031   121072041.641       -2558.020          46.000    23039249.216    94341840.457       -1993.543          44.000  
> 2024 04 17 02 21 30.4970000  0 24                     
G11  22044045.019   115842260.065       -2408.144          46.000    22044038.585    90266727.743       -1876.810          40.000  
G12  20789496.469   109249541.698       -1583.358          51.000    20789491.794    85129499.236       -1233.594          46.000  
E19  26345839.483   138448344.557        -955.938          37.000    26345839.598   106083766.683        -732.110          36.000  
G20  23739007.872   124749358.053        1004.126          36.000                                                                  
G24  22105982.077   116167653.480       -4063.560          45.000    22105983.335    90520237.932       -3166.522          43.000  
R10  18911205.392   100807406.165         522.842          48.000                                                                  
R11  21811125.564   116551997.803        2652.615          43.000    21811128.142                        2063.234          29.000  
R09  19742866.329   105425793.527       -2371.864          52.000    19742862.750    81997831.511       -1844.720          50.000  
R20  18452303.792    98672872.148        -692.351          39.000    18452303.564    76745621.152        -538.403          45.000  
G25  19938704.963   104778624.327          -5.591          47.000    19938703.020    81645701.239          -4.297          44.000  
G29  20051246.537   105370144.203         270.807          49.000    20051242.606    82106684.851         211.066          46.000  
S31  37974447.323   199557113.889        -689.854          44.000  
S33  38928448.691   204570451.531        -690.662          43.000  
E07  27117190.484                1      -3319.302          27.000    27117214.308   109189444.413       -2543.462          29.000  
R19  21955035.527   117444647.010       -4685.349          39.000    21955030.946    91345825.951       -3644.530          36.000  
R21  20647043.042   110486946.295        3093.601          52.000    20647040.818    85934367.418        2405.927          47.000  
G28  21911923.589   115147939.774        2069.082          45.000    21911920.735    89725651.108        1612.281          43.000  
E15  23341315.739   122659557.697         205.395          46.000    23341319.014    93985968.878         157.484          56.000  
E21  25622996.594   134649797.278        1087.428          41.000    25623000.709   103173247.976         833.146          47.000  
E13  25108012.413   131943822.796        2281.858          44.000    25108018.611   101099895.408        1748.410          49.000  
E27  23037208.854   121061383.432        -284.718          47.000    23037209.612    92761332.744        -218.152          51.000  
E30  24742064.576   130020423.762       -1987.019          46.000    24742065.861    99626047.249       -1522.539          50.000  
E34  25484325.296   133921056.257       -2437.780          43.000    25484326.941   102614859.636       -1868.007          46.000  
G32  23053885.521   121148969.918       -2570.258          45.000    23053888.112    94401784.447       -2002.979          44.000  
> 2024 04 17 02 22 00.4970000  0 24                     
G11  22057843.518   115914771.659       -2426.020          45.000    22057837.881    90323230.284       -1890.600          41.000  
G12  20798553.767   109297138.969       -1589.848          51.000    20798549.249    85166588.020       -1238.764          45.000  
E19  26351333.629   138477218.864        -969.340          37.000    26351334.850   106105891.152        -742.762          36.000  
G20  23733300.196                         994.921          31.000                                                                  
G24  22129205.497   116289688.302       -4072.381          45.000    22129206.309    90615329.781       -3173.065          43.000  
R10  18908299.672   100791919.082         509.532          47.000                                                                  
R11  21796233.624   116472414.632        2652.758          41.000    21796246.577                1       2063.454          29.000  
R09  19756233.125   105497173.644       -2386.915          52.000    19756230.556    82053349.341       -1856.439          50.000  
R20  18456264.782    98694054.708        -719.975          40.000    18456264.502    76762096.490        -559.883          44.000  
G25  19938754.809   104778884.383         -11.810          47.000    19938752.519    81645903.882          -9.210          43.000  
G29  20049740.971   105362231.486         256.665          49.000    20049737.234    82100519.121         200.024          46.000  
S31  37978388.911   199577825.850        -690.801          44.000  
S33  38932394.388   204591185.566        -691.586          43.000  
R19  21981338.532   117585347.857       -4694.797          39.000    21981334.405    91455259.898       -3651.469          40.000  
R21  20629740.678   110394356.149        3079.172          52.000    20629737.452    85862353.130        2394.733          47.000  
G28  21900145.331   115086041.916        2057.410          45.000    21900141.389    89677419.048        1603.165          43.000  
E15  23340184.984   122653614.019         190.620          47.000    23340187.841    93981414.671         146.042          55.000  
E21  25616789.290   134617175.695        1087.399          41.000    25616792.756   103148252.269         833.173          47.000  
E13  25094999.066   131875442.707        2276.707          44.000    25095005.956   101047500.552        1744.531          49.000  
E27  23038843.482   121069973.768        -288.117          47.000    23038844.379    92767914.959        -220.842          51.000  
E30  24753419.010   130080091.127       -1990.984          45.000    24753420.176    99671766.363       -1525.486          50.000  
E34  25498276.458   133994371.156       -2449.999          44.000    25498278.502   102671035.970       -1877.322          47.000  
G32  23068591.078   121226248.871       -2581.616          45.000    23068594.084    94462001.689       -2011.383          44.000  
E07                                                                  27136152.286                       -2540.309          28.000  
> 2024 04 17 02 22 30.4970000  0 24                     
G11  22071741.583   115987813.887       -2443.535          44.000    22071737.815    90380146.325       -1903.786          42.000  
G12  20807647.911   109344925.910       -1595.866          51.000    20807642.477    85203824.582       -1243.582          44.000  
E19  26356905.076   138506496.604        -982.689          37.000    26356906.203   106128324.747        -752.755          37.000  
G20  23727650.971   124689685.450         985.284          35.000                                                                  
G24  22152476.309   116411979.863       -4080.368          45.000    22152478.179    90710621.720       -3179.728          43.000  
R10  18905469.033   100776830.290         496.420          47.000                                                                  
R11  21781339.364   116392826.993        2653.262          40.000    21781342.627    90527773.3131       2063.655          33.000  
R09  19769684.122   105569002.051       -2401.553          51.000    19769681.391    82109215.844       -1867.916          50.000  
R20  18460379.417    98716056.857        -746.798          41.000    18460378.183    76779209.311        -581.066          43.000  
G25  19938840.492   104779332.736         -17.877          47.000    19938837.707    81646253.271         -13.776          43.000  
G29  20048315.418   105354740.397         242.822          49.000    20048312.074    82094681.957         189.246          46.000  
S31  37982332.777   199598552.560        -690.997          44.000  
S33  38936342.498   204611933.470        -691.498          43.000  
R19  22007691.040   117726314.984       -4703.367          40.000    22007687.080    91564901.044       -3658.001          41.000  
R21  20612519.044   110302195.440        3064.941          53.000    20612515.214    85790672.833        2383.987          47.000  
G28  21888432.037   115024487.346        2046.289          46.000    21888427.947    89629454.497        1594.267          43.000  
E15  23339137.782   122648111.192         176.330          47.000    23339140.444    93977198.259         135.087          55.000  
E21  25610581.173   134584549.853        1087.857          41.000    25610584.098   103123253.340         833.413          46.000  
E13  25082015.493   131807212.374        2272.028          45.000    25082021.849   100995220.418        1740.948          48.000  
E27  23040496.502   121078662.174        -291.059          47.000    23040497.551    92774572.332        -223.063          51.000  
E30  24764795.267   130139868.838       -1994.252          46.000    24764795.786    99717570.050       -1528.058          50.000  
E34  25512295.048   134068045.914       -2461.592          44.000    25512298.047   102727488.068       -1886.190          47.000  
G32  23083360.777   121303860.528       -2592.322          46.000    23083363.197    94522478.178       -2019.946          44.000  
E07                                                                  27155069.654                       -2536.813          27.000  
> 2024 04 17 02 23 00.4970000  0 24                     
G11  22085736.690   116061362.235       -2459.978          43.000    22085733.028    90437456.758       -1916.890          41.000  
G12  20816773.300   109392880.688       -1601.244          51.000    20816767.753    85241191.961       -1247.801          44.000  
E19  26362549.726   138536154.547        -994.981          36.000    26362550.303   106151049.652        -762.460          38.000  
G20  23722053.005   124660256.009         976.686          40.000                                                                  
G24  22175791.640   116534502.914       -4087.751          45.000    22175794.404    90806093.997       -3185.367          44.000  
R10  18902708.979   100762119.297         483.989          46.000                                                                  
R11  21766440.688   116313213.376        2654.277          37.000    21766442.254    90465851.672        2064.246          36.000  
R09  19783214.495   105641256.303       -2415.455          50.000    19783211.933    82165413.546       -1878.718          50.000  
R20  18464642.763    98738853.708        -772.990          41.000    18464641.000    76796940.207        -601.394          43.000  
G25  19938957.619   104779947.625         -23.151          48.000    19938954.714    81646732.429         -18.158          43.000  
G29  20046965.039   105347647.619         229.895          48.000    20046962.082    82089155.158         179.114          46.000  
S31  37986275.016   199619269.424        -690.308          44.000  
S33  38940288.962   204632672.227        -690.977          43.000  
R19  22034088.160   117867521.209       -4710.538          39.000    22034084.506    91674728.132       -3663.802          38.000  
R21  20595372.343   110210444.445        3051.545          52.000    20595369.339    85719311.247        2373.398          47.000  
G28  21876780.079   114963255.944        2035.658          45.000    21876776.080    89581741.757        1586.409          43.000  
E15  23338169.699   122643027.141         162.517          47.000    23338172.925    93973302.717         124.581          55.000  
E21  25604368.340   134551897.014        1088.969          42.000    25604370.452   103098233.698         834.343          46.000  
E13  25069056.298   131739110.947        2268.084          45.000    25069062.747   100943039.046        1737.868          49.000  
E27  23042164.695   121087426.440        -293.382          47.000    23042165.257    92781287.814        -224.706          50.000  
E30  24776185.915   130199734.579       -1996.991          45.000    24776187.918    99763441.188       -1530.113          51.000  
E34  25526378.622   134142056.267       -2472.619          44.000    25526382.158   102784197.303       -1894.469          48.000  
G32  23098188.584   121381779.195       -2602.270          46.000    23098190.416    94583193.887       -2027.980          43.000  
E07                                                                  27173959.826                       -2533.455          27.000  
> 2024 04 17 02 23 30.4970000  0 25                     
G11  22099827.447   116135406.389       -2476.497          43.000    22099825.142    90495153.495       -1929.775          41.000  
G12  20825929.772   109440995.436       -1606.644          50.000    20825923.534    85278683.926       -1251.955          44.000  
E19  26368262.166   138566183.334       -1007.180          35.000    26368265.103   106174058.715        -771.899          38.000  
G20  23716501.868   124631085.473         967.766          38.000                                                                  
G24  22199149.370   116657246.372       -4095.240          45.000    22199152.708    90901737.999       -3191.165          45.000  
R10  18900019.508   100747780.538         471.636          47.000                                                                  
R11  21751535.686   116233567.104        2655.608          35.000    21751534.115                        2065.560          32.000  
R09  19796822.690   105713927.390       -2429.419          51.000    19796820.958    82221935.464       -1889.594          50.000  
R20  18469052.909    98762435.722        -799.286          41.000    18469051.890    76815281.820        -621.709          43.000  
G25  19939104.789   104780721.470         -28.668          48.000    19939102.120    81647335.455         -22.424          43.000  
G29  20045689.191   105340944.032         216.913          47.000    20045686.007    82083931.624         168.915          45.000  
S31  37990214.022   199639968.505        -689.871          44.000  
S33  38944231.995   204653393.471        -690.690          43.000  
R19  22060528.420   118008954.176       -4718.352          39.000    22060524.505    91784731.581       -3669.745          42.000  
R21  20578301.377   110119097.884        3037.953          52.000    20578297.950    85648264.157        2362.892          46.000  
G28  21865188.749   114902341.685        2025.073          46.000    21865184.739    89534276.167        1577.828          43.000  
E15  23337279.721   122638353.938         148.811          46.000    23337283.392    93969721.998         114.013          54.000  
E21  25598148.263   134519208.740        1090.040          42.000    25598150.130   103073186.928         835.147          47.000  
E13  25056120.117   131671131.745        2263.841          45.000    25056126.469   100890951.335        1734.635          49.000  
E27  23043845.983   121096258.545        -295.541          48.000    23043845.782    92788055.295        -226.525          50.000  
E30  24787593.440   130259680.270       -1999.693          45.000    24787595.542    99809373.590       -1532.173          51.000  
E34  25540524.649   134216392.156       -2483.335          45.000    25540527.782   102841155.984       -1902.950          48.000  
G32  23113072.892   121459993.387       -2612.249          47.000    23113074.052    94644139.893       -2035.508          43.000  
G18  23947932.733                3       3151.264          23.000    23947951.992                3       2454.447          24.000  
E07                                                                  27192821.995                       -2530.160          27.000  
> 2024 04 17 02 24 00.4970000  0 25                     
G11  22114013.713   116209948.426       -2492.724          43.000    22114009.065    90553238.279       -1942.750          41.000  
G12  20835116.761   109489274.295       -1612.002          50.000    20835110.906    85316303.805       -1255.981          44.000  
E19  26374046.507   138596585.950       -1019.911          34.000    26374050.409   106197354.207        -781.183          37.000  
G20  23710999.775   124602180.408         959.166          35.000                                                                  
G24  22222549.063   116780211.605       -4102.391          45.000    22222552.251    90997554.829       -3196.829          44.000  
R10  18897400.302   100733820.137         459.079          46.000                                                                  
R11  21736625.045   116153894.448        2656.303          35.000    21736618.940                        2065.648          30.000  
R09  19810511.983   105787020.041       -2443.445          52.000    19810509.344    82278785.256       -1900.397          50.000  
R20  18473610.063    98786806.564        -825.268          41.000    18473608.859    76834236.974        -641.959          43.000  
G25  19939283.849   104781659.190         -33.972          48.000    19939280.901    81648066.152         -26.331          44.000  
G29  20044488.815   105334632.740         203.986          49.000    20044484.188    82079013.800         158.978          44.000  
S31  37994150.193   199660653.867        -689.036          44.000  
S33  38948172.600   204674101.451        -689.965          43.000  
R19  22087009.742   118150613.221       -4725.568          40.000    22087006.315    91894910.828       -3675.231          40.000  
R21  20561307.726   110028162.936        3024.282          52.000    20561305.326    85577537.200        2352.135          48.000  
G28  21853658.884   114841751.065        2014.310          46.000    21853654.507    89487062.724        1569.424          44.000  
E15  23336470.364   122634096.137         135.057          47.000    23336472.939    93966459.572         103.469          54.000  
E21  25591923.076   134486489.025        1091.346          43.000    25591923.594   103048116.045         836.060          47.000  
E13  25043208.737   131603280.588        2259.526          45.000    25043214.097   100838961.710        1731.469          48.000  
E27  23045540.492   121105162.960        -297.990          48.000    23045540.172    92794878.171        -228.335          50.000  
E30  24799015.922   130319710.216       -2002.365          45.000    24799018.975    99855370.535       -1534.320          51.000  
E34  25554732.965   134291055.964       -2494.111          45.000    25554735.948   102898365.902       -1911.041          49.000  
G32  23128012.951   121538504.150       -2621.933          46.000    23128014.664    94705316.998       -2043.323          44.000  
G18  23929947.799                1       3151.792          29.000    23929960.676                        2456.193          29.000  
E07                                                                  27211657.040                       -2525.910          26.000  
> 2024 04 17 02 24 30.4970000  0 25                     
G11  22128291.474   116284982.695       -2509.326          43.000    22128288.013    90611706.573       -1955.162          41.000  
G12  20844334.316   109537714.027       -1617.150          50.000    20844329.309    85354049.046       -1259.979          44.000  
E19  26379902.646   138627358.008       -1032.161          33.000    26379906.207   106220932.774        -790.434          37.000  
G20  23705550.805   124573539.643         950.187          39.000                                                                  
G24  22245989.724   116903392.249       -4109.528          45.000    22245992.456    91093539.506       -3202.110          43.000  
R10  18894852.400   100720237.103         446.790          47.000                                                                  
R11  21721713.198   116074193.161        2657.277          36.000    21721704.124                        2066.679          29.000  
R09  19824278.287   105860530.035       -2457.050          52.000    19824274.438    82335959.660       -1911.029          50.000  
R20  18478314.241    98811961.199        -851.555          41.000    18478312.967    76853801.716        -662.064          43.000  
G25  19939492.677   104782757.955         -39.136          49.000    19939490.024    81648922.364         -30.511          44.000  
G29  20043361.665   105328709.413         191.180          49.000    20043356.947    82074398.284         148.962          44.000  
S31  37998083.279   199681321.749        -688.297          44.000  
S33  38952109.693   204694791.235        -689.348          43.000  
R19  22113531.943   118292490.812       -4732.549          39.000    22113529.206    92005260.086       -3680.902          42.000  
R21  20544390.651   109937639.012        3010.812          51.000    20544388.938    85507129.960        2341.622          47.000  
G28  21842190.488   114781482.750        2003.721          46.000    21842185.986    89440100.438        1561.374          44.000  
E15  23335738.824   122630250.434         121.536          47.000    23335740.836    93963512.904          93.108          54.000  
E21  25585690.278   134453734.048        1092.464          44.000    25585690.375   103023018.169         837.183          47.000  
E13  25030321.212   131535555.436        2255.612          45.000    25030326.297   100787068.656        1728.299          48.000  
E27  23047248.325   121114136.310        -300.122          48.000    23047247.755    92801753.857        -229.955          50.000  
E30  24810455.456   130379821.056       -2004.866          45.000    24810457.126    99901429.468       -1536.141          51.000  
E34  25569003.109   134366042.257       -2504.756          46.000    25569005.113   102955822.954       -1919.234          49.000  
G32  23143008.294   121617304.695       -2631.127          46.000    23143010.242    94766719.862       -2050.213          44.000  
G18  23911948.022   125658125.5671       3152.411          32.000    23911964.639    97915455.7571       2457.463          32.000  
E07                                                                  27230464.029                3      -2522.370          23.000  
> 2024 04 17 02 25 00.4970000  0 25                     
G11  22142663.469   116360504.577       -2525.425          42.000    22142658.040    90670554.759       -1967.844          39.000  
G12  20853581.819   109586312.317       -1622.649          49.000    20853577.518    85391917.836       -1264.144          44.000  
E19  26385827.073   138658495.886       -1044.036          31.000    26385831.437   106244791.688        -799.854          37.000  
G20  23700151.380   124545163.000         941.638          39.000                                                                  
G24  22269470.720   117026782.915       -4116.506          45.000    22269473.386    91189687.864       -3207.632          44.000  
R10  18892374.916   100707030.594         433.925          47.000                                                                  
R11  21706795.181   115994462.548        2658.658          35.000    21706780.785    90217934.798        2067.337          32.000  
R09  19838121.909   105934455.098       -2471.033          52.000    19838118.627    82393456.912       -1921.942          50.000  
R20  18483164.343    98837895.760        -877.386          41.000    18483163.031    76873973.064        -682.375          43.000  
G25  19939731.952   104784015.947         -44.537          48.000    19939729.709    81649902.629         -34.894          45.000  
G29  20042307.257   105323170.430         178.247          48.000    20042302.439    82070082.221         138.867          44.000  
S31  38002012.181   199701969.287        -688.019          44.000  
S33  38956042.904   204715460.071        -688.503          43.000  
R19  22140095.114   118434579.449       -4739.763          40.000    22140091.063    92115773.481       -3686.523          42.000  
R21  20527551.590   109847526.537        2996.824          52.000    20527549.619    85437042.682        2330.686          48.000  
G28  21830782.772   114721536.485        1992.891          46.000    21830778.663    89393389.108        1552.780          45.000  
E15  23335084.804   122626814.666         107.784          47.000    23335087.338    93960880.351          82.520          54.000  
E21  25579448.983   134420941.103        1093.823          43.000    25579449.980   102997891.183         838.133          47.000  
E13  25017457.261   131467955.436        2251.276          45.000    25017462.785   100735271.516        1724.925          49.000  
E27  23048967.893   121123176.348        -302.430          48.000    23048968.150    92808680.637        -231.689          50.000  
E30  24821908.271   130440010.390       -2007.569          45.000    24821910.602    99947548.558       -1538.296          51.000  
E34  25583333.352   134441346.701       -2515.326          46.000    25583335.633   103013523.762       -1927.444          49.000  
G32  23158058.252   121696389.257       -2640.964          47.000    23158059.920    94828344.054       -2057.845          45.000  
G18  23893946.274   125563528.806        3153.481          35.000    23893962.805    97841745.470        2457.339          35.000  
E07                                                                  27249242.082                3      -2523.623          23.000  
> 2024 04 17 02 25 30.4970000  0 25                     
G11  22157125.820   116436504.465       -2540.659          40.000    22157121.087    90729775.421       -1980.053          42.000  
G12  20862858.815   109635062.025       -1627.322          50.000    20862853.761    85429904.633       -1268.123          43.000  
E19  26391823.356   138689991.388       -1055.872          31.000    26391824.726   106268924.532        -808.795          35.000  
G20  23694799.799   124517045.583         932.959          38.000                                                                  
G24  22292988.754   117150373.417       -4122.924          44.000    22292992.226    91285991.929       -3212.651          45.000  
R10  18889967.877   100694195.777         421.697          47.000                                                                  
R11  21691865.211   115914696.705        2659.646          34.000    21691856.777    90155894.579        2068.848          36.000  
R09  19852042.237   106008787.436       -2484.448          51.000    19852039.821    82451270.923       -1932.294          51.000  
R20  18488158.298    98864600.549        -902.878          41.000    18488156.306    76894743.469        -702.214          42.000  
G25  19940000.622   104785426.596         -49.445          49.000    19939998.345    81651001.826         -38.611          45.000  
G29  20041324.587   105318007.652         165.906          48.000    20041320.826    82066059.333         129.248          45.000  
S31  38005935.555   199722588.217        -686.429          44.000  
S33  38959970.795   204736101.770        -687.673          43.000  
R19  22166694.534   118576868.071       -4746.370          39.000    22166691.071    92226442.410       -3691.545          43.000  
R21  20510787.018   109757821.093        2983.467          51.000    20510786.263    85367272.010        2320.579          48.000  
G28  21819435.501   114661907.204        1982.361          47.000    21819431.585    89346924.775        1544.946          44.000  
E15  23334506.807   122623781.737          94.565          46.000    23334510.154    93958556.461          72.524          54.000  
E21  25573198.622   134388102.645        1095.441          41.000    25573200.831   102972729.307         839.471          46.000  
E13  25004616.213   131400474.819        2247.463          46.000    25004621.396   100683565.834        1722.161          49.000  
E27  23050699.575   121132275.974        -304.080          48.000    23050699.711    92815653.094        -233.017          50.000  
E30  24833377.174   130500271.032       -2009.639          46.000    24833378.071    99993722.252       -1539.843          50.000  
E34  25597721.780   134516960.056       -2525.390          46.000    25597723.875   103071461.271       -1935.021          49.000  
G32  23173159.068   121775747.225       -2649.580          47.000    23173161.701    94890181.332       -2064.581          45.000  
G18  23875936.791   125468897.886        3155.178          37.000    23875952.581    97768008.586        2458.494          38.000  
E07                                                                  27267987.416                3      -2511.534          22.000  
> 2024 04 17 02 26 00.4970000  0 25                     
G11  22171674.658   116512966.313       -2556.241          38.000    22171671.490    90789356.153       -1992.151          42.000  
G12  20872161.843   109683949.651       -1631.956          50.000    20872156.578    85467998.907       -1271.736          43.000  
E19  26397882.026   138721829.236       -1066.924          31.000    26397882.965   106293319.769        -817.145          34.000  
G20  23689496.220   124489175.845         924.691          40.000                                                                  
G24  22316542.273   117274147.038       -4128.941          44.000    22316545.970    91382438.641       -3217.331          44.000  
R10  18887626.907   100681720.657         409.685          47.000                                                                  
R11  21676928.649   115834931.3021       2661.447          33.000    21676923.872    90093817.600        2069.441          38.000  
R09  19866034.938   106083512.712       -2497.437          52.000    19866032.553    82509390.542       -1942.499          50.000  
R20  18493293.961    98892060.010        -927.822          42.000    18493291.062    76916100.872        -721.827          43.000  
G25  19940295.461   104786976.646         -54.004          49.000    19940293.573    81652209.669         -42.291          45.000  
G29  20040411.349   105313206.533         154.041          49.000    20040407.906    82062318.249         119.885          45.000  
S31  38009851.509   199743164.894        -685.230          44.000  
S33  38963890.529   204756700.103        -685.772          43.000  
R19  22193327.527   118719337.474       -4752.006          39.000    22193324.504    92337251.934       -3695.898          44.000  
R21  20494098.255   109668511.449        2970.347          52.000    20494096.048    85297809.177        2310.151          48.000  
G28  21808146.013   114602583.222        1972.261          47.000    21808142.836    89300698.364        1536.868          45.000  
E15  23334004.670   122621137.982          81.627          48.000    23334006.911    93956530.780          62.536          54.000  
E21  25566937.522   134355204.538        1097.597          40.000    25566940.661   102947521.734         840.973          47.000  
E13  24991794.787   131333101.259        2244.000          46.000    24991800.194   100631942.184        1719.297          48.000  
E27  23052440.041   121141421.527        -305.632          48.000    23052440.009    92822660.734        -234.300          50.000  
E30  24844854.819   130560589.190       -2011.630          46.000    24844855.723   100039940.044       -1541.389          50.000  
E34  25612167.036   134592866.579       -2535.113          46.000    25612168.604   103129623.414       -1942.448          50.000  
G32  23188309.642   121855361.452       -2657.987          48.000    23188311.650    94952218.295       -2071.310          44.000  
G18  23857920.038   125374221.253        3156.436          42.000    23857933.544    97694236.035        2459.669          40.000  
E07                                                                  27286695.469                3      -2505.406          17.000  
> 2024 04 17 02 26 30.4970000  0 25                     
G11  22186311.630   116589886.709       -2571.454          38.000    22186310.609    90849294.081       -2003.966          44.000  
G12  20881490.857   109732974.191       -1636.267          49.000    20881485.974    85506199.827       -1275.135          43.000  
E19  26404005.493   138754007.283       -1077.451          30.000    26404005.766   106317975.717        -826.302          32.000  
G20  23684240.385   124461554.863         916.499          39.000                                                                  
G24  22340129.800   117398099.593       -4134.466          44.000    22340132.756    91479024.804       -3221.487          43.000  
R10  18885353.891   100669606.453         397.872          46.000                                                                  
R11  21661982.772   115755070.666        2663.115          38.000    21661979.347    90031703.838        2071.255          40.000  
R09  19880102.751   106158629.473       -2510.260          52.000    19880099.681    82567814.684       -1952.386          50.000  
R20  18498569.680    98920271.628        -952.763          42.000    18498566.922    76938043.273        -741.283          42.000  
G25  19940616.658   104788665.578         -58.655          49.000    19940614.819    81653525.717         -45.734          45.000  
G29  20039566.826   105308764.566         142.242          49.000    20039562.357    82058857.031         110.803          46.000  
S31  38013758.567   199763698.014        -683.573          44.000  
S33  38967801.691   204777254.486        -684.213          42.000  
R19  22219993.553   118861982.202       -4757.307          39.000    22219990.145    92448197.859       -3700.406          44.000  
R21  20477481.873   109579599.366        2957.185          51.000    20477480.327    85228655.524        2300.013          47.000  
G28  21796914.967   114543565.518        1962.284          46.000    21796911.982    89254710.587        1528.915          45.000  
E15  23333575.694   122618882.415          68.869          48.000    23333577.539    93954802.519          52.760          54.000  
E21  25560665.459   134322245.283        1099.788          40.000    25560668.665   102922267.310         842.744          47.000  
E13  24978994.227   131265835.042        2240.521          46.000    24978999.091   100580400.745        1716.742          48.000  
E27  23054188.507   121150611.984        -306.942          48.000    23054188.991    92829702.793        -235.236          50.000  
E30  24856344.254   130620963.778       -2013.368          46.000    24856344.724   100086201.055       -1542.655          50.000  
E34  25626667.010   134669063.116       -2544.651          47.000    25626668.333   103188007.783       -1949.768          50.000  
G32  23203507.303   121935227.477       -2666.188          47.000    23203508.907    95014451.425       -2077.734          43.000  
G18  23839893.957   125279499.928        3158.163          42.000    23839906.745    97620428.668        2460.627          41.000  
E07                                                                  27305376.120                3      -2491.221          20.000  
> 2024 04 17 02 27 00.4970000  0 25                     
G11  22201035.685   116667259.760       -2586.877          41.000    22201032.948    90909584.766       -2015.845          43.000  
G12  20890844.404   109782132.225       -1641.002          49.000    20890839.960    85544504.819       -1278.587          43.000  
E19  26410188.868                       -1089.416          28.000    26410193.015                        -834.307          31.000  
G20  23679031.429   124434181.635         907.925          41.000                                                                  
G24  22363750.001   117522224.598       -4140.389          44.000    22363753.207    91575745.352       -3226.252          43.000  
R10  18883148.707   100657851.333         385.730          46.000                                                                  
R11  21647027.848   115675161.047        2664.379          36.000    21647024.968    89969552.043        2072.435          40.000  
R09  19894242.135   106234133.832       -2523.370          52.000    19894239.746    82626540.256       -1962.671          51.000  
R20  18503984.371    98949230.261        -977.961          42.000    18503982.423    76960566.678        -760.508          42.000  
G25  19940964.042   104790490.459         -63.263          49.000    19940961.597    81654947.715         -49.377          45.000  
G29  20038788.328   105304676.987         130.292          49.000    20038783.781    82055671.964         101.569          45.000  
S31  38017656.533   199784182.133        -682.117          44.000  
S33  38971704.258   204797759.977        -682.644          43.000  
R19  22246691.028   119004794.210       -4763.387          37.000    22246686.568    92559273.830       -3704.570          44.000  
R21  20460941.010   109491083.953        2943.692          52.000    20460939.835    85159810.405        2289.615          48.000  
G28  21785742.672   114484852.621        1951.977          46.000    21785738.616    89208960.337        1520.837          45.000  
E15  23333218.242   122617011.538          55.750          47.000    23333221.457    93953369.042          42.774          54.000  
E21  25554380.723   134289221.070        1101.598          40.000    25554384.056   102896963.122         844.089          46.000  
E13  24966214.143   131198674.122        2236.823          46.000    24966218.955   100528939.980        1713.735          48.000  
E27  23055945.395   121159843.936        -308.520          48.000    23055945.884    92836776.647        -236.519          50.000  
E30  24867843.599   130681391.189       -2015.183          46.000    24867843.953   100132502.570       -1544.175          50.000  
E34  25641220.078   134745544.090       -2554.281          46.000    25641222.157   103246610.099       -1957.154          50.000  
G32  23218752.423   122015338.281       -2674.520          47.000    23218754.077    95076875.283       -2083.919          43.000  
G18  23821859.607   125184732.508        3159.488          42.000    23821871.135    97546585.367        2461.917          40.000  
E07                                                                  27324018.235                3      -2500.030          13.000  
> 2024 04 17 02 27 30.4970000  0 25                     
G11  22215849.375   116745094.530       -2602.498          42.000    22215843.366    90970235.208       -2027.882          42.000  
G12  20900226.553   109831435.296       -1646.301          49.000    20900221.939    85582922.794       -1282.774          43.000  
G20  23673872.263   124407069.992         898.835          39.000                                                                  
G24  22387404.656   117646530.560       -4146.972          44.000    22387408.675    91672606.880       -3231.468          44.000  
R10  18881013.339   100646469.417         372.817          46.000                                                                  
R11  21632067.372   115595215.717        2665.301          39.000    21632063.875    89907372.435        2072.732          42.000  
R09  19908456.641   106310037.166       -2537.189          52.000    19908454.074    82685576.171       -1973.443          51.000  
R20  18509541.207    98978945.689       -1003.677          41.000    18509538.982    76983678.727        -780.681          41.000  
G25  19941339.200   104792463.390         -68.658          49.000    19941337.075    81656485.078         -53.333          44.000  
G29  20038079.944   105300954.510         117.554          48.000    20038075.023    82052771.377          91.608          45.000  
S31  38021547.426   199804629.149        -681.252          44.000  
S33  38975599.069   204818229.601        -682.082          43.000  
R19  22273420.783   119147780.193       -4769.521          36.000    22273415.515    92670485.195       -3709.834          43.000  
R21  20444476.187   109402979.598        2929.503          52.000    20444475.629    85091285.005        2278.396          48.000  
G28  21774630.845   114426458.168        1940.766          46.000    21774625.495    89163458.209        1512.150          44.000  
E15  23332938.808   122615536.978          42.061          48.000    23332940.792    93952239.222          32.255          54.000  
E21  25548086.555   134256143.025        1103.244          41.000    25548089.301   102871617.689         845.258          46.000  
E13  24953455.018   131131631.393        2232.295          45.000    24953461.117   100477569.786        1710.494          49.000  
E27  23057712.933   121169129.025        -310.869          49.000    23057712.867    92843891.198        -238.043          51.000  
E30  24879353.741   130741883.014       -2017.875          45.000    24879355.166   100178853.423       -1546.124          50.000  
E34  25655831.292   134822319.027       -2564.455          48.000    25655831.898   103305437.641       -1964.934          50.000  
G32  23234045.062   122095702.019       -2683.437          47.000    23234046.865    95139496.225       -2090.956          42.000  
G18  23803819.513   125089932.704        3160.062          42.000    23803830.226    97472716.806        2462.479          40.000  
E07                                                                  27342617.949                3      -2493.617          13.000  
E19                                                                  26416445.919                        -844.284          30.000  
> 2024 04 17 02 28 00.4970000  0 25                     
G11  22230752.218   116823417.067       -2618.707          41.000    22230748.093    91031265.781       -2040.590          44.000  
G12  20909642.289   109880911.812       -1652.196          49.000    20909637.134    85621475.908       -1287.355          43.000  
G20  23668769.641   124380249.709         889.103          42.000                                                                  
G24  22411098.739   117771042.864       -4153.874          43.000    22411102.112    91769629.180       -3236.795          43.000  
R10  18878954.559   100635491.564         359.214          47.000                                                                  
R11  21617106.593   115515264.968        2665.397          43.000    21617102.313    89845188.609        2072.932          43.000  
R09  19922750.217   106386367.496       -2551.355          51.000    19922748.290    82744944.172       -1984.430          51.000  
R20  18515244.102    99009445.319       -1029.674          41.000    18515242.472    77007400.689        -800.785          41.000  
G25  19941748.720   104794613.405         -74.408          49.000    19941746.459    81658160.446         -58.063          45.000  
G29  20037446.141   105297624.175         104.443          48.000    20037441.629    82050176.358          81.488          45.000  
S31  38025436.764   199825067.850        -681.034          44.000  
S33  38979492.638   204838688.896        -681.995          42.000  
R19  22300187.366   119290965.015       -4776.264          35.000    22300181.651    92781851.128       -3714.667          44.000  
R21  20428094.923   109315318.152        2914.688          52.000    20428092.874    85023104.084        2267.046          48.000  
G28  21763585.047   114368412.612        1928.866          47.000    21763579.505    89118227.964        1503.208          44.000  
E15  23332738.950   122614487.171          27.981          48.000    23332740.776    93951434.871          21.384          54.000  
E21  25541787.763   134223039.233        1104.125          41.000    25541789.497   102846252.539         845.760          46.000  
E13  24940724.959   131064736.649        2227.380          45.000    24940731.417   100426313.016        1706.645          50.000  
E27  23059495.183   121178495.777        -313.578          49.000    23059495.234    92851068.343        -240.282          50.000  
E30  24890883.177   130802467.596       -2020.983          45.000    24890884.028   100225275.368       -1548.478          50.000  
E34  25670501.690   134899414.226       -2575.058          47.000    25670502.642   103364510.626       -1973.172          50.000  
G32  23249390.674   122176343.638       -2692.650          46.000    23249391.877    95202333.724       -2098.207          42.000  
G18  23785778.234   124995131.107        3160.007          42.000    23785788.614    97398846.861        2462.229          42.000  
E07                                                                  27361197.896                3      -2494.977          19.000  
E19                                                                  26422769.784   106393529.582        -853.464          30.000  
> 2024 04 17 02 28 30.4970000  0 25                     
G11  22245750.825   116902233.926       -2635.219          43.000    22245745.453    91092681.495       -2053.450          43.000  
G12  20919092.260   109930571.134       -1658.255          50.000    20919086.525    85660171.478       -1291.938          44.000  
E19  26429162.269                1      -1126.514          27.000    26429165.989                        -863.465          29.000  
G20  23663723.446   124353732.383         878.784          39.000                                                                  
G24  22434833.670   117895767.350       -4160.892          44.000    22434836.598    91866816.845       -3242.230          43.000  
R10  18876973.365   100624928.532         345.223          46.000                                                                  
R11  21602146.021   115435319.697        2664.776          41.000    21602141.362    89783009.091        2072.613          42.000  
R09  19937126.061   106463134.096       -2565.997          52.000    19937123.525    82804651.480       -1995.788          49.000  
R20  18521095.846    99040736.118       -1056.094          42.000    18521094.218    77031737.990        -821.467          41.000  
G25  19942193.273   104796949.966         -80.859          49.000    19942191.187    81659981.148         -62.982          45.000  
G29  20036887.927   105294693.641          91.229          48.000    20036884.369    82047892.871          71.106          45.000  
S31  38029325.775   199845505.256        -680.930          44.000  
S33  38983385.692   204859148.106        -681.892          43.000  
R19  22326992.038   119434353.416       -4782.973          36.000    22326986.989    92893375.457       -3720.097          44.000  
R21  20411797.909   109228111.409        2899.370          52.000    20411795.779    84955276.808        2255.015          48.000  
G28  21752607.412   114310726.918        1916.799          47.000    21752602.191    89073278.145        1493.805          44.000  
E15  23332621.694   122613871.063          13.323          48.000    23332623.524    93950962.827          10.339          54.000  
E21  25535484.530   134189918.316        1104.397          40.000    25535486.835   102820874.224         846.271          46.000  
E13  24928026.471   130998000.269        2221.955          46.000    24928031.870   100375177.567        1702.626          50.000  
E27  23061295.157   121187953.207        -316.657          49.000    23061294.859    92858314.951        -242.625          50.000  
E30  24902430.653   130863153.840       -2024.392          44.000    24902432.893   100271775.213       -1551.160          51.000  
E34  25685233.801   134976836.597       -2586.140          45.000    25685235.493   103423834.257       -1981.457          50.000  
G32  23264790.235   122257268.612       -2702.098          46.000    23264791.639    95265391.989       -2105.725          42.000  
G18  23767738.760   124900338.878        3159.486          42.000    23767748.777    97324984.159        2461.984          42.000  
E07                                                                  27379746.990                3      -2485.189          20.000  
> 2024 04 17 02 29 00.4970000  0 25                     
G11  22260840.659   116981532.025       -2650.807          43.000    22260837.002    91154472.205       -2065.622          45.000  
G12  20928575.015   109980402.465       -1663.652          49.000    20928569.061    85699001.106       -1296.384          43.000  
E19  26435629.764                       -1138.358          25.000    26435632.128                        -872.649          28.000  
G20  23658731.960   124327509.436         869.016          36.000                                                                  
G24  22458605.014   118020690.411       -4166.965          43.000    22458609.338    91964159.240       -3247.217          42.000  
R10  18875067.648   100614772.082         332.134          47.000                                                                  
R11  21587183.495   115355370.632        2665.393          43.000    21587180.400    89720826.623        2072.797          44.000  
R09  19951581.047   106540325.347       -2579.706          51.000    19951578.165    82864689.100       -2006.482          49.000  
R20  18527092.962    99072805.233       -1081.571          42.000    18527091.527    77056680.673        -841.291          41.000  
G25  19942671.492   104799463.053         -86.395          49.000    19942669.268    81661939.396         -67.297          45.000  
G29  20036404.326   105292151.409          78.674          48.000    20036400.576    82045911.968          61.188          46.000  
S31  38033212.556   199865930.191        -680.270          44.000  
S33  38987276.525   204879595.055        -680.911          43.000  
R19  22353830.840   119577929.490       -4788.991          36.000    22353827.398    93005045.768       -3724.517          44.000  
R21  20395584.553   109141351.315        2884.838          52.000    20395582.633    84887796.955        2243.669          49.000  
G28  21741696.872   114253392.601        1905.612          46.000    21741692.549    89028602.121        1484.917          45.000  
E15  23332584.061   122613678.064          -0.162          47.000    23332586.912    93950814.991          -0.160          54.000  
E21  25529176.877   134156769.284        1105.835          41.000    25529179.085   102795474.391         847.323          46.000  
E13  24915355.173   130931413.068        2217.328          47.000    24915360.290   100324156.436        1699.068          50.000  
E27  23063109.848   121197490.840        -318.888          49.000    23063109.748    92865623.019        -244.324          50.000  
E30  24913996.159   130923931.141       -2026.973          44.000    24913998.299   100318344.805       -1553.198          51.000  
E34  25700026.628   135054573.432       -2596.090          45.000    25700027.826   103483398.877       -1989.258          49.000  
G32  23280241.308   122338462.914       -2710.474          46.000    23280242.118    95328660.125       -2112.295          42.000  
G18  23749699.355   124805547.636        3160.135          43.000    23749709.330    97251122.250        2462.381          42.000  
E07                                                                  27398265.444                3      -2486.665          19.000  
> 2024 04 17 02 29 30.4970000  0 24                     
G11  22276016.841   117061287.363       -2666.551          44.000    22276013.596    91216619.265       -2077.564          45.000  
G12  20938086.070   110030384.783       -1668.598          49.000    20938080.370    85737948.351       -1300.186          44.000  
E19  26442158.527                3      -1149.932          24.000    26442164.389                        -881.159          29.000  
G20  23653791.610   124301561.876         859.722          37.000                                                                  
G24  22482410.513   118145787.556       -4172.913          43.000    22482414.268    92061637.223       -3251.682          42.000  
R10  18873234.672   100605002.442         319.155          46.000                                                                  
R11  21572217.002   115275398.023        2665.966          44.000    21572214.660    89658625.751        2073.724          46.000  
R09  19966112.397   106617919.138       -2593.329          52.000    19966109.941    82925039.792       -2017.120          50.000  
R20  18533231.025    99105628.865       -1106.859          42.000    18533229.430    77082210.152        -860.656          41.000  
G25  19943179.136   104802131.781         -91.809          49.000    19943177.070    81664018.948         -71.411          45.000  
G29  20035990.201   105289974.335          66.278          48.000    20035986.017    82044215.610          51.532          45.000  
S31  38037093.183   199886322.425        -679.460          44.000  
S33  38991161.036   204900008.535        -679.995          43.000  
R19  22380700.781   119721667.285       -4793.988          36.000    22380697.942    93116841.841       -3728.769          45.000  
R21  20379451.454   109055018.506        2870.393          52.000    20379448.425    84820649.374        2232.557          49.000  
G28  21730849.545   114196390.196        1894.209          45.000    21730845.507    88984184.695        1476.038          45.000  
E15  23332624.054   122613886.685         -13.927          47.000    23332626.760    93950974.867         -10.569          54.000  
E21  25522860.113   134123570.343        1107.234          42.000    25522861.981   102770036.300         848.323          46.000  
E13  24902708.813   130864954.899        2212.943          47.000    24902713.008   100273234.154        1695.635          49.000  
E27  23064936.214   121207087.260        -321.055          49.000    23064935.703    92872976.137        -245.989          50.000  
E30  24925574.995   130984777.903       -2029.445          44.000    24925577.184   100364967.644       -1555.059          51.000  
E34  25714874.921   135132601.155       -2605.902          44.000    25714876.381   103543186.392       -1996.738          49.000  
G32  23295738.818   122419901.549       -2718.967          46.000    23295740.263    95392118.645       -2118.616          43.000  
G18  23731656.570   124710738.127        3160.489          43.000    23731666.560    97177246.032        2462.668          43.000  
