     3.00           OBSERVATION DATA    M: Mixed            RINEX VERSION / TYPE
CONVBIN 2.4.3                           20240417 092942 UTC PGM / RUN BY / DATE 
format: u-blox UBX                                          COMMENT             
log: /home/regis/git/gnsspwv/obsdata/VERT00CHL/2024-04-17/VECOMMENT             
{self.marker}                                               MARKER NAME         
                                                            MARKER NUMBER       
GEODETIC                                                    MARKER TYPE         
{self.observer}     {self.institution}                      OBSERVER / AGENCY   
UNKNOWN             UBLOX-ZED-F9P                           REC # / TYPE / VERS 
UNKNOWN             TWIVSP6037L                             ANT # / TYPE        
  1713381.0000 -5047934.0000 -3490983.0000                  APPROX POSITION XYZ 
        0.0000        0.0000        0.0000                  ANTENNA: DELTA H/E/N
G    8 C1C L1C D1C S1C C2L L2L D2L S2L                      SYS / # / OBS TYPES 
R    8 C1C L1C D1C S1C C2C L2C D2C S2C                      SYS / # / OBS TYPES 
E    8 C1C L1C D1C S1C C7Q L7Q D7Q S7Q                      SYS / # / OBS TYPES 
S    4 C1C L1C D1C S1C                                      SYS / # / OBS TYPES 
  2024    04    17    09    15   00.0070000     GPS         TIME OF FIRST OBS   
  2024    04    17    09    29   30.0080000     GPS         TIME OF LAST OBS    
                                                            END OF HEADER       
> 2024 04 17 09 15 00.0070000  0 23                     
G08  23049313.285   121125002.6251       1371.167          48.000    23049311.459    94383138.8451       1068.329          46.000  
G16  24929482.043   131005368.2181      -3679.769          41.000                                                                  
G27  22377693.254   117595562.4351       -819.027          50.000    22377689.216    91632957.7551       -638.174          48.000  
G23  26191253.218   137636097.0731      -4005.865          41.000    26191247.579   107248872.8151      -3121.598          40.000  
R08  22067050.088   118168065.1891      -1463.079          51.000    22067043.482    91908532.6751      -1137.933          52.000  
R22  25116700.806   134074802.4111      -2896.087          49.000    25116696.100   104280228.5191      -2252.520          47.000  
R14  25046325.188   133511067.4481      -2253.898          46.000    25046326.675   103841859.9771      -1753.024          46.000  
R07  25146303.521   134610144.9421      -4410.135          46.000    25146297.273   104696815.8121      -3430.025          46.000  
G21  24974935.917   131244187.9851       1980.303          47.000                                                                  
S31  40986299.746   215384560.0431       -613.634          44.000  
S33  41940594.158   220399454.2711       -612.995          42.000  
G10  23247529.791   122166729.0361      -2972.013          49.000    23247526.806    95194787.5121      -2315.854          47.000  
E33  26623334.456   139906684.8301        176.095          46.000    26623333.399   107201208.8351        134.944          51.000  
R01  22807900.646   121921269.5701       2771.802          50.000    22807896.698    94827667.7681       2155.927          44.000  
R23  22511113.042   120419330.0931       -747.173          48.000                                                                  
R24  23637556.989   126400731.0751       1720.750          50.000    23637552.530    98311642.1141       1338.357          44.000  
G02  26074745.892   137023700.5231       2087.500          44.000                                                                  
G32  24219119.154   127272353.7961       1135.035          50.000    24219114.902    99173292.6831        884.621          44.000  
E13  30128641.370   158327039.0901      -2310.900          33.000    30128640.833   121315958.7101      -1771.053          36.000  
E31  27762854.275   145894722.0051       -900.338          46.000    27762855.064   111789547.1681       -689.937          50.000  
E07  27717895.315   145658543.5311       -260.657          45.000    27717894.607   111608510.0121       -199.571          51.000  
E26  26427101.034   138875618.2521      -1360.998          47.000    26427099.413   106411337.1331      -1042.791          52.000  
E14  28627821.141   150440284.6991      -1104.218          47.000    28627820.005   115272454.1321       -846.111          52.000  
> 2024 04 17 09 15 30.0070000  0 23                     
G08  23041524.980   121084073.594        1357.788          49.000    23041522.394    94351246.119        1057.983          46.000  
G16  24950509.285   131115865.990       -3686.543          42.000                                                                  
G27  22382419.584   117620401.567        -836.492          49.000    22382415.847    91652312.939        -651.843          48.000  
G23  26214125.139   137756295.556       -4007.460          41.000    26214121.029   107342533.932       -3122.369          42.000  
R08  22075324.487   118212371.975       -1490.556          51.000    22075317.808    91942993.525       -1159.318          52.000  
R22  25132995.525   134161785.707       -2902.651          49.000    25132992.130   104347882.244       -2257.531          48.000  
R14  25059063.391   133578970.841       -2272.672          47.000    25059065.248   103894673.727       -1767.409          46.000  
R07  25171053.154   134742635.784       -4422.310          44.000    25171048.531   104799864.261       -3439.640          47.000  
G21  24963633.514   131184795.689        1979.428          47.000                                                                  
S31  40989803.026   215402969.903        -613.482          44.000  
S33  41944094.181   220417848.877        -612.928          42.000  
G10  23264530.604   122256067.724       -2983.658          48.000    23264527.327    95264402.095       -2325.089          47.000  
E33  26622334.061   139901426.441         174.795          46.000    26622332.827   107197179.732         133.932          51.000  
R01  22792392.278   121838372.434        2754.706          49.000    22792389.473    94763192.258        2142.657          45.000  
R23  22515328.565   120441876.853        -755.818          48.000                                                                  
R24  23627908.010   126349134.247        1719.194          50.000    23627903.031    98271511.324        1337.284          44.000  
G02  26062831.270   136961088.866        2086.737          43.000                                                                  
G32  24212686.022   127238549.383        1118.787          50.000    24212682.096    99146951.619         871.959          44.000  
E13  30141841.830   158396399.020       -2312.130          35.000    30141839.276   121369104.551       -1771.336          36.000  
E31  27768033.736   145921942.571        -914.107          45.000    27768035.069   111810404.500        -700.440          50.000  
E07  27719419.672   145666565.740        -274.111          43.000    27719420.923   111614656.946        -210.035          50.000  
E26  26434874.956   138916471.071       -1362.381          48.000    26434873.807   106442639.971       -1043.918          52.000  
E14  28634114.103   150473354.133       -1100.205          47.000    28634112.690   115297793.066        -843.065          52.000  
> 2024 04 17 09 16 00.0070000  0 23                     
G08  23033812.685   121043543.828        1344.342          49.000    23033809.630    94319664.524        1047.308          46.000  
G16  24971577.231   131226577.538       -3694.062          43.000                                                                  
G27  22387246.093   117645764.029        -854.206          49.000    22387242.369    91672075.914        -665.559          48.000  
G23  26237004.299   137876529.683       -4008.043          39.000    26237000.555   107436222.869       -3123.660          42.000  
R08  22083750.570   118257499.098       -1517.973          51.000    22083744.824    91978092.423       -1180.593          52.000  
R22  25149327.010   134248965.230       -2909.350          49.000    25149324.230   104415688.524       -2262.868          49.000  
R14  25071908.040   133647431.706       -2291.484          49.000    25071907.515   103947921.114       -1782.312          45.000  
R07  25195870.368   134875489.946       -4434.439          43.000    25195867.394   104903195.270       -3448.999          47.000  
G21  24952336.761   131125434.645        1978.060          46.000                                                                  
S31  40993306.412   215421380.911        -613.656          44.000  
S33  41947595.077   220436245.359        -613.428          42.000  
G10  23281596.974   122345751.677       -2995.293          48.000    23281593.578    95334285.687       -2334.004          47.000  
E33  26621341.573   139896208.518         173.212          46.000    26621339.907   107193181.621         132.709          51.000  
R01  22776981.296   121755988.126        2737.536          50.000    22776977.119    94699115.608        2129.224          45.000  
R23  22519591.421   120464680.238        -764.527          49.000                                                                  
R24  23618267.091   126297585.045        1717.452          49.000    23618262.815    98231417.586        1335.751          46.000  
G02  26050921.420   136898497.220        2086.041          44.000                                                                  
G32  24206346.978   127205237.710        1102.099          50.000    24206343.482    99120994.495         858.745          45.000  
E13  30155039.791   158465761.352       -2312.421          32.000    30155038.298   121422252.299       -1772.102          35.000  
E31  27773292.038   145949577.626        -928.179          45.000    27773293.666   111831579.427        -711.265          49.000  
E07  27721025.363   145674998.902        -288.112          44.000    27721025.709   111621118.739        -220.751          50.000  
E26  26442658.009   138957369.384       -1364.160          48.000    26442656.304   106473977.669       -1045.328          52.000  
E14  28640385.993   150506309.910       -1096.780          47.000    28640384.131   115323044.918        -840.441          52.000  
> 2024 04 17 09 16 30.0070000  0 23                     
G08  23026177.574   121003422.099        1330.707          49.000    23026174.840    94288400.871        1036.865          45.000  
G16  24992685.632   131337505.769       -3700.981          43.000                                                                  
G27  22392173.258   117671656.908        -871.828          49.000    22392169.501    91692252.214        -679.305          48.000  
G23  26259891.359   137996803.854       -4009.796          36.000    26259887.951   107529942.981       -3124.254          42.000  
R08  22092332.600   118303451.171       -1545.387          51.000    22092326.329    92013832.940       -1201.934          52.000  
R22  25165697.222   134336347.763       -2916.036          50.000    25165694.296   104483652.746       -2267.977          49.000  
R14  25084856.334   133716453.284       -2309.927          48.000    25084853.488   104001604.540       -1796.685          42.000  
R07  25220756.949   135008709.643       -4446.847          43.000    25220753.944   105006810.577       -3458.524          48.000  
G21  24941047.765   131066111.683        1976.907          46.000                                                                  
S31  40996811.577   215439799.122        -613.991          44.000  
S33  41951097.043   220454648.846        -613.490          42.000  
G10  23298730.111   122435784.329       -3006.706          50.000    23298726.113    95404441.029       -2342.882          47.000  
E33  26620357.144   139891037.215         171.635          47.000    26620355.807   107189219.239         131.542          51.000  
R01  22761666.864   121674126.615        2720.073          50.000    22761663.933    94635445.577        2115.612          46.000  
R23  22523902.441   120487747.465        -773.176          47.000                                                                  
R24  23608638.111   126246091.240        1715.576          49.000    23608633.054    98191366.857        1334.482          46.000  
G02  26039016.053   136835931.929        2085.083          43.000                                                                  
G32  24200103.271   127172427.581        1085.412          50.000    24200099.593    99095428.206         845.508          45.000  
E31  27778630.888   145977632.941        -942.160          45.000    27778632.158   111853076.372        -721.809          49.000  
E07  27722707.618   145683849.776        -301.842          43.000    27722710.171   111627900.623        -231.281          51.000  
E26  26450450.407   138998319.625       -1365.747          49.000    26450448.764   106505355.163       -1046.565          52.000  
E14  28646636.235   150539158.787       -1093.085          47.000    28646635.154   115348214.853        -837.620          52.000  
E13                                                                  30168238.930   121475407.104       -1771.574          35.000  
> 2024 04 17 09 17 00.0070000  0 23                     
G08  23018618.626   120963700.793        1317.188          49.000    23018616.026    94257449.239        1026.373          46.000  
G16  25013833.724   131448637.662       -3708.076          44.000                                                                  
G27  22397199.614   117698070.973        -889.371          49.000    22397196.462    91712834.638        -692.959          48.000  
G23  26282782.652   138117105.902       -4010.754          36.000    26282780.829   107623684.857       -3125.229          41.000  
R08  22101065.393   118350216.400       -1572.733          51.000    22101059.515    92050205.925       -1223.169          52.000  
R22  25182102.822   134423923.545       -2922.724          50.000    25182099.362   104551767.253       -2273.179          48.000  
R14  25097905.156   133786022.064       -2328.333          47.000    25097904.439   104055713.541       -1810.836          43.000  
R07  25245709.427   135142280.566       -4458.376          44.000    25245705.968   105110699.084       -3467.492          47.000  
G21  24929764.809   131006817.381        1975.691          46.000                                                                  
S31  41000316.068   215458215.546        -614.344          44.000  
S33  41954598.468   220473050.359        -613.737          42.000  
G10  23315926.568   122526152.975       -3018.186          49.000    23315923.217    95474858.179       -2351.941          48.000  
E33  26619379.700   139885902.213         170.379          47.000    26619378.758   107185284.676         130.572          51.000  
R01  22746449.397   121592781.588        2702.672          50.000    22746446.655    94572177.269        2102.104          46.000  
R23  22528262.393   120511070.061        -781.997          47.000                                                                  
R24  23599017.593   126194643.783        1713.933          50.000    23599013.126    98151352.256        1333.069          47.000  
G02  26027112.722   136773383.187        2084.467          43.000                                                                  
G32  24193953.525   127140111.399        1068.612          50.000    24193949.662    99070246.765         832.789          44.000  
E31  27784047.252   146006097.886        -955.790          45.000    27784048.669   111874887.212        -732.393          48.000  
E07  27724471.324   145693108.806        -315.603          44.000    27724472.070   111634995.236        -241.707          51.000  
E26  26458250.619   139039311.920       -1367.337          48.000    26458249.250   106536764.865       -1047.664          52.000  
E14  28652865.114   150571891.118       -1089.348          47.000    28652863.788   115373295.484        -834.704          52.000  
E13                                                                  30181441.280   121528561.576       -1771.838          37.000  
> 2024 04 17 09 17 30.0070000  0 23                     
G08  23011138.282   120924390.321        1303.534          49.000    23011136.061    94226817.750        1015.680          46.000  
G16  25035021.568   131559977.708       -3714.688          44.000                                                                  
G27  22402327.024   117725014.955        -906.979          49.000    22402324.038    91733829.986        -706.641          48.000  
G23  26305682.537   138237441.904       -4012.317          35.000    26305680.131   107717453.112       -3125.963          42.000  
R08  22109950.274   118397801.585       -1599.727          50.000    22109945.294    92087216.650       -1244.151          52.000  
R22  25198546.487   134511700.962       -2929.167          50.000    25198543.148   104620038.606       -2278.203          48.000  
R14  25111059.151   133856142.376       -2346.474          49.000    25111059.849   104110251.584       -1824.931          44.000  
R07  25270728.007   135276206.532       -4469.940          43.000    25270724.023   105214863.746       -3476.766          47.000  
G21  24918488.871   130947559.749        1974.707          46.000                                                                  
S31  41003821.301   215476637.095        -613.992          44.000  
S33  41958101.083   220491456.200        -613.563          43.000  
G10  23333187.524   122616862.876       -3029.251          48.000    23333185.103    95545541.240       -2360.549          47.000  
E33  26618410.465   139880811.328         169.136          46.000    26618409.879   107181383.925         129.491          51.000  
R01  22731330.965   121511965.142        2685.125          49.000    22731328.337    94509320.032        2088.496          45.000  
R23  22532671.810   120534657.695        -790.687          46.000                                                                  
R24  23589407.265   126143252.432        1712.167          49.000    23589402.668    98111381.241        1331.759          47.000  
G02  26015214.157   136710859.565        2083.765          42.000                                                                  
G32  24187900.662   127108299.647        1052.085          51.000    24187896.644    99045458.399         819.930          45.000  
E13  30194642.132   158673890.8641      -2312.496          33.000    30194644.810   121581722.133       -1771.964          40.000  
E31  27789543.353   146034979.935        -969.482          45.000    27789544.590   111897017.644        -742.900          48.000  
E07  27726313.562   145702784.438        -329.409          45.000    27726313.108   111642409.065        -252.382          51.000  
E26  26466061.430   139080354.395       -1368.787          48.000    26466059.095   106568213.031       -1048.924          52.000  
E14  28659073.746   150604515.269       -1085.521          47.000    28659071.918   115398293.233        -831.734          52.000  
> 2024 04 17 09 18 00.0070000  0 23                     
G08  23003736.995   120885495.678        1289.459          49.000    23003734.910    94196510.278        1004.785          46.000  
G16  25056249.009   131671525.233       -3721.531          46.000                                                                  
G27  22407555.059   117752492.230        -924.852          48.000    22407552.797    91755240.895        -720.546          48.000  
G23  26328589.559   138357812.204       -4012.906          38.000    26328586.545   107811248.182       -3126.795          44.000  
R08  22118990.150   118446206.948       -1627.218          50.000    22118984.725    92124865.302       -1265.474          52.000  
R22  25215028.176   134599683.025       -2936.184          49.000    25215025.301   104688469.088       -2283.806          47.000  
R14  25124318.433   133926813.629       -2364.929          50.000    25124318.624   104165218.127       -1839.289          45.000  
R07  25295812.158   135410485.977       -4481.721          44.000    25295808.210   105319303.331       -3485.730          45.000  
G21  24907220.136   130888342.852        1973.315          46.000                                                                  
S31  41007328.263   215495066.065        -614.435          44.000  
S33  41961605.312   220509871.005        -613.893          43.000  
G10  23350513.807   122707913.831       -3040.637          48.000    23350511.665    95616490.073       -2369.411          48.000  
E33  26617450.034   139875766.990         167.383          46.000    26617449.860   107177518.830         128.266          51.000  
R01  22716312.258   121431683.454        2667.199          49.000    22716310.147    94446878.742        2074.518          45.000  
R23  22537131.500   120558514.571        -799.832          46.000                                                                  
R24  23579807.659   126091920.716        1710.128          50.000    23579802.980    98071456.613        1330.179          47.000  
G02  26003321.333   136648363.578        2082.782          43.000                                                                  
G32  24181943.383   127076997.287        1035.016          51.000    24181940.319    99021066.984         806.490          45.000  
E13  30207845.978   158743280.960       -2313.438          35.000    30207849.827   121634891.113       -1772.709          41.000  
E31  27795120.079   146064281.021        -983.671          46.000    27795120.704   111919469.167        -753.744          49.000  
E07  27728233.521   145712879.679        -343.444          44.000    27728234.187   111650144.415        -263.103          51.000  
E26  26473881.043   139121449.817       -1370.738          48.000    26473879.341   106599701.755       -1050.350          52.000  
E14  28665261.512   150637034.285       -1082.319          47.000    28665260.074   115423210.423        -829.179          52.000  
> 2024 04 17 09 18 30.0070000  0 23                     
G08  22996413.124   120847009.551        1276.019          48.000    22996411.076    94166521.143         994.360          46.000  
G16  25077512.465   131783267.052       -3727.761          45.000                                                                  
G27  22412884.080   117780493.812        -942.148          49.000    22412881.690    91777060.336        -734.083          49.000  
G23  26351498.399   138478205.223       -4013.764          37.000    26351496.682   107905060.898       -3127.280          44.000  
R08  22128181.944   118495421.517       -1653.947          50.000    22128174.875    92163143.322       -1286.387          51.000  
R22  25231547.032   134687860.278       -2942.611          49.000    25231543.612   104757051.384       -2288.506          46.000  
R14  25137675.751   133998022.583       -2382.541          48.000    25137677.174   104220602.882       -1853.073          46.000  
R07  25320959.835   135545105.188       -4492.927          44.000    25320956.172   105424007.203       -3494.292          44.000  
G21  24895956.888   130829157.340        1972.281          46.000                                                                  
S31  41010835.096   215513494.166        -614.284          44.000  
S33  41965108.629   220528282.668        -613.586          42.000  
G10  23367902.883   122799293.425       -3051.370          49.000    23367900.328    95687694.935       -2377.706          47.000  
E33  26616497.391   139870759.279         166.306          46.000    26616496.754   107173681.792         127.404          51.000  
R01  22701393.006   121351930.300        2649.572          50.000    22701390.729    94384848.532        2060.814          46.000  
R23  22541640.762   120582631.967        -808.228          47.000                                                                  
R24  23570217.456   126040640.192        1708.419          48.000    23570213.414    98031571.816        1328.774          47.000  
G02  25991432.291   136585886.036        2082.318          43.000                                                                  
G32  24176082.327   127046197.092        1018.281          50.000    24176079.792    98997066.863         793.521          46.000  
E13  30221054.599   158812672.719       -2313.104          38.000    30221054.698   121688061.390       -1772.555          40.000  
E31  27800773.508   146093990.859        -996.891          45.000    27800774.267   111942233.897        -763.932          49.000  
E07  27730233.297   145723385.286        -357.198          44.000    27730233.363   111658194.174        -273.498          51.000  
E26  26481710.032   139162588.625       -1371.900          48.000    26481708.081   106631223.727       -1051.227          53.000  
E14  28671427.530   150669438.820       -1078.168          47.000    28671426.675   115448039.904        -826.232          52.000  
> 2024 04 17 09 19 00.0070000  0 23                     
G08  22989166.991   120808932.000        1262.421          48.000    22989165.039    94136850.355         983.728          46.000  
G16  25098811.163   131895197.883       -3734.177          44.000                                                                  
G27  22418312.790   117809018.097        -959.423          50.000    22418309.113    91799287.050        -747.575          48.000  
G23  26374410.806   138598616.569       -4014.145          36.000    26374410.042   107998887.925       -3127.794          43.000  
R08  22137521.447   118545441.106       -1680.759          49.000    22137515.253    92202047.451       -1307.124          51.000  
R22  25248102.374   134776230.664       -2948.872          48.000    25248098.069   104825783.923       -2293.529          45.000  
R14  25151134.970   134069763.304       -2400.031          49.000    25151135.669   104276401.254       -1866.647          46.000  
R07  25346170.334   135680057.158       -4503.666          43.000    25346166.479   105528969.851       -3502.904          41.000  
G21  24884699.432   130770001.291        1971.259          45.000                                                                  
S31  41014340.762   215531917.413        -613.839          44.000  
S33  41968611.698   220546692.035        -613.535          42.000  
G10  23385353.870   122890996.602       -3062.342          49.000    23385350.267    95759151.947       -2386.072          47.000  
E33  26615551.508   139865785.680         165.452          47.000    26615550.093   107169870.891         126.626          50.000  
R01  22686573.059   121272706.928        2632.017          50.000    22686569.911    94323230.384        2047.056          45.000  
R23  22546197.693   120607009.222        -816.812          46.000                                                                  
R24  23560637.641   125989409.924        1706.964          49.000    23560633.392    97991726.138        1327.642          47.000  
G02  25979546.934   136523424.630        2081.726          44.000                                                                  
G32  24170317.032   127015899.088        1001.614          50.000    24170314.394    98973458.054         780.405          46.000  
E13  30234257.888   158882064.192       -2312.992          37.000    30234259.352   121741231.433       -1772.163          41.000  
E31  27806504.196   146124106.471       -1010.402          45.000    27806505.309   111965309.545        -774.258          49.000  
E07  27732308.354   145734299.278        -370.452          42.000    27732310.110   111666556.883        -283.797          51.000  
E26  26489546.244   139203768.697       -1373.245          48.000    26489544.494   106662777.297       -1052.198          53.000  
E14  28677571.673   150701726.995       -1074.174          46.000    28677570.809   115472780.197        -823.078          52.000  
> 2024 04 17 09 19 30.0070000  0 23                     
G08  22981997.435   120771256.662        1249.005          48.000    22981995.154    94107492.994         973.200          45.000  
G16  25120144.590   132007305.663       -3739.682          44.000                                                                  
G27  22423838.796   117838056.932        -976.547          50.000    22423834.770    91821914.728        -760.959          48.000  
G23  26397326.058   138719035.522       -4014.014          35.000    26397325.027   108092720.874       -3128.046          43.000  
R08  22147009.186   118596254.455       -1706.986          48.000    22147004.353    92241568.976       -1327.728          51.000  
R22  25264690.407   134864785.607       -2954.946          47.000    25264687.383   104894660.013       -2298.143          44.000  
R14  25164689.795   134142023.435       -2417.489          47.000    25164692.226   104332603.619       -1880.351          47.000  
R07  25371441.865   135815328.952       -4514.434          43.000    25371436.539   105634181.250       -3511.392          39.000  
G21  24873446.823   130710866.469        1970.690          46.000                                                                  
S31  41017843.963   215550327.823        -613.542          44.000  
S33  41972112.288   220565087.943        -613.087          42.000  
G10  23402864.273   122983011.764       -3072.355          50.000    23402860.255    95830852.097       -2393.997          48.000  
E33  26614609.823   139860837.252         164.469          48.000    26614608.438   107166079.279         125.982          50.000  
R01  22671850.328   121194008.628        2614.464          49.000    22671847.405    94262020.611        2033.291          45.000  
R23  22550801.328   120631638.683        -825.202          46.000                                                                  
R24  23551065.527   125938222.329        1705.525          49.000    23551060.097    97951913.657        1326.600          46.000  
G02  25967662.605   136460970.986        2081.671          43.000                                                                  
G32  24164644.686   126986096.855         985.098          50.000    24164642.155    98950235.573         767.636          45.000  
E13  30247460.324   158951447.083       -2312.538          37.000    30247461.289   121794394.933       -1772.359          40.000  
E31  27812309.881   146154618.445       -1023.643          44.000    27812311.364   111988688.905        -784.399          50.000  
E07  27734463.033   145745613.329        -383.961          44.000    27734462.953   111675226.124        -294.153          51.000  
E26  26497388.780   139244981.369       -1374.404          48.000    26497386.882   106694355.845       -1053.078          53.000  
E14  28683691.823   150733890.429       -1070.089          46.000    28683691.263   115497424.928        -819.939          52.000  
> 2024 04 17 09 20 00.0070000  0 23                     
G08  22974904.020   120733981.278        1235.791          48.000    22974901.707    94078447.291         962.775          45.000  
G16  25141510.168   132119582.704       -3745.354          43.000                                                                  
G27  22429461.141   117867606.430        -993.565          49.000    22429457.530    91844940.316        -774.142          48.000  
G23  26420240.668   138839300.4661      -4014.238          34.000    26420239.912   108186554.560       -3127.935          43.000  
R08  22156647.231   118647855.330       -1733.036          48.000    22156640.875    92281703.007       -1347.885          51.000  
R22  25281313.706   134953520.788       -2960.799          48.000    25281310.693   104963676.276       -2302.966          44.000  
R14  25178341.949   134214794.713       -2434.220          48.000    25178343.622   104389203.576       -1893.322          46.000  
R07  25396770.556   135950911.797       -4524.692          40.000    25396764.122   105739634.577       -3519.395          36.000  
G21  24862197.351   130651748.787        1970.322          46.000                                                                  
S31  41021344.270   215568720.466        -612.678          44.000  
S33  41975609.236   220583464.165        -612.388          42.000  
G10  23420432.106   123075331.621       -3082.269          50.000    23420428.316    95902789.680       -2401.873          47.000  
E33  26613671.575   139855909.206         163.900          47.000    26613670.609   107162303.280         125.562          50.000  
R01  22657226.750   121115833.852        2597.019          50.000    22657223.758    94201218.077        2019.865          45.000  
R23  22555451.916   120656517.289        -833.406          47.000                                                                  
R24  23541500.443   125887074.059        1704.305          48.000    23541493.974    97912131.719        1325.575          44.000  
G02  25955777.970   136398520.802        2081.616          44.000                                                                  
G32  24159067.231   126956788.188         968.535          49.000    24159064.725    98927397.653         754.810          45.000  
E13  30260660.869   159020817.098       -2312.098          37.000    30260660.387   121847548.525       -1771.404          37.000  
E31  27818191.536   146185521.508       -1036.576          45.000    27818192.220   112012367.938        -794.368          50.000  
E07  27736690.048   145757323.113        -396.965          43.000    27736690.976   111684198.614        -304.081          51.000  
E26  26505236.558   139286222.214       -1375.236          48.000    26505234.770   106725955.998       -1053.773          53.000  
E14  28689788.131   150765924.854       -1065.651          46.000    28689787.198   115521970.802        -816.523          52.000  
> 2024 04 17 09 20 30.0070000  0 23                     
G08  22967886.900   120697104.426        1222.119          48.000    22967883.802    94049712.104         952.338          45.000  
G16  25162906.485   132232021.421       -3751.072          43.000                                                                  
G27  22435180.849   117897663.327       -1010.766          49.000    22435176.991    91868361.281        -787.546          48.000  
G23  26443156.983   138959715.514       -4013.986          38.000    26443154.093   108280384.456       -3127.900          43.000  
R08  22166428.405   118700238.153       -1759.509          48.000    22166422.104    92322445.223       -1368.517          52.000  
R22  25297970.176   135042432.633       -2967.135          49.000    25297966.167   105032829.932       -2307.709          44.000  
R14  25192089.082   134288069.690       -2451.282          48.000    25192089.496   104446195.265       -1906.648          46.000  
R07  25422155.172   136086797.137       -4534.912          40.000    25422147.843   105845323.088       -3527.009          35.000  
G21  24850950.947   130592626.1131       1969.425          47.000                                                                  
S31  41024839.764   215587091.803        -612.489          44.000  
S33  41979102.129   220601820.748        -612.126          42.000  
G10  23438056.509   123167949.558       -3092.473          50.000    23438052.576    95974959.536       -2409.725          47.000  
E33  26612736.875   139850997.511         163.105          47.000    26612736.021   107158539.808         124.967          50.000  
R01  22642700.421   121038182.428        2579.208          49.000    22642697.261    94140822.528        2006.021          45.000  
R23  22560148.257   120681642.888        -842.056          45.000                                                                  
R24  23531942.085   125835962.472        1702.716          48.000    23531935.761    97872378.349        1324.331          45.000  
G02  25943893.814   136336070.643        2081.390          43.000                                                                  
G32  24153583.946   126927971.525         951.952          50.000    24153581.456    98904943.162         741.561          45.000  
E13  30273856.603   159090170.829       -2312.180          37.000    30273858.028   121900689.695       -1771.561          38.000  
E31  27824145.164   146216811.128       -1049.782          45.000    27824146.288   112036343.160        -804.510          50.000  
E07  27738994.429   145769425.245        -410.451          44.000    27738994.062   111693471.699        -314.368          51.000  
E26  26513088.902   139327487.599       -1376.225          48.000    26513087.156   106757574.952       -1054.555          53.000  
E14  28695859.044   150797826.895       -1061.542          46.000    28695858.000   115546415.235        -813.398          52.000  
> 2024 04 17 09 21 00.0070000  0 23                     
G08  22960945.743   120660627.170        1209.320          48.000    22960941.808    94021288.311         942.365          44.000  
G16  25184333.458   132344617.497       -3755.829          44.000                                                                  
G27  22440996.864   117928227.053       -1027.277          49.000    22440993.438    91892177.184        -800.328          48.000  
G23  26466070.585   139080122.491       -4013.475          38.000    26466066.749   108374208.093       -3127.361          44.000  
R08  22176356.274   118753399.238       -1784.905          47.000    22176350.269    92363792.733       -1388.200          51.000  
R22  25314659.398   135131520.120       -2972.421          49.000    25314656.717   105102120.155       -2311.856          45.000  
R14  25205928.839   134361843.445       -2467.327          48.000    25205928.826   104503574.876       -1919.143          46.000  
R07  25447595.851   136222979.865       -4544.193          40.000    25447589.652   105951243.011       -3533.979          33.000  
G21  24839706.310   130533535.402        1969.628          48.000                                                                  
S31  41028331.432   215605439.858        -611.271          44.000  
S33  41982591.237   220620153.646        -610.708          42.000  
G10  23455736.093   123260861.585       -3101.819          48.000    23455733.207    96047358.558       -2416.935          47.000  
E33  26611805.125   139846100.762         163.005          47.000    26611804.073   107154787.792         124.897          50.000  
R01  22628272.350   120961056.744        2562.147          50.000    22628269.711    94080835.904        1992.718          46.000  
R23  22564891.934   120707015.363        -849.804          47.000                                                                  
R24  23522391.215   125784887.871        1701.935          49.000    23522385.144    97832653.693        1323.601          46.000  
G02  25932009.245   136273619.476        2081.616          44.000                                                                  
G32  24148194.591   126899647.972         935.861          51.000    24148191.623    98882872.867         729.317          45.000  
E13  30287052.604   159159507.447       -2311.003          39.000    30287053.127   121953817.747       -1770.643          41.000  
E31  27830172.736   146248485.379       -1062.189          45.000    27830173.607   112060613.096        -813.860          50.000  
E07  27741371.168   145781918.772        -422.878          43.000    27741371.271   111703044.692        -324.042          50.000  
E26  26520945.822   139368776.436       -1376.627          48.000    26520944.128   106789211.880       -1054.904          53.000  
E14  28701904.175   150829595.643       -1056.698          46.000    28701903.376   115570757.547        -809.669          52.000  
> 2024 04 17 09 21 30.0070000  0 23                     
G08  22954082.048   120624558.279        1195.038          48.000    22954077.949    93993182.708         931.262          44.000  
G16  25205790.518   132457373.664       -3761.570          43.000                                                                  
G27  22446910.528   117959304.526       -1044.766          48.000    22446906.865    91916393.422        -814.158          48.000  
G23  26488983.754   139200525.875       -4013.781          34.000    26488978.194   108468028.839       -3127.472          44.000  
R08  22186428.833   118807343.109       -1811.447          47.000    22186423.428    92405749.097       -1408.945          51.000  
R22  25331382.278   135220790.087       -2978.874          49.000    25331379.250   105171552.382       -2316.969          45.000  
R14  25219863.056   134436118.655       -2484.512          48.000    25219863.375   104561344.503       -1932.363          47.000  
R07  25473092.467   136359462.299       -4554.822          37.000    25473087.329                       -3542.982          30.000  
G21  24828464.364   130474465.007        1968.167          47.000                                                                  
S31  41031819.543   215623771.889        -611.176          44.000  
S33  41986076.338   220638470.460        -610.769          42.000  
G10  23473472.828   123354071.320       -3112.188          48.000    23473470.835    96119989.515       -2425.090          48.000  
E33  26610877.578   139841225.204         161.847          47.000    26610876.349   107151052.015         124.004          50.000  
R01  22613944.257   120884467.015        2543.749          50.000    22613941.642    94021266.133        1978.330          46.000  
R23  22569682.613   120732642.804        -858.932          46.000                                                                  
R24  23512847.408   125733857.795        1699.838          49.000    23512843.104    97792963.690        1322.165          47.000  
G02  25920127.114   136211174.138        2081.055          44.000                                                                  
G32  24142900.202   126871826.164         918.643          51.000    24142897.350    98861193.548         715.799          45.000  
E13  30300243.808   159228833.729       -2310.851          38.000    30300245.581   122006937.843       -1770.859          41.000  
E31  27836273.690   146280549.919       -1075.601          44.000    27836275.286   112085182.089        -824.198          50.000  
E07  27743824.261   145794810.413        -436.758          43.000    27743824.612   111712922.710        -334.584          50.000  
E26  26528808.847   139410095.254       -1378.141          48.000    26528807.008   106820871.767       -1055.957          53.000  
E14  28707925.036   150861237.909       -1052.997          46.000    28707924.643   115595002.940        -806.788          52.000  
> 2024 04 17 09 22 00.0070000  0 23                     
G08  22947299.384   120588914.963        1180.682          48.000    22947295.461    93965408.755         919.995          44.000  
G16  25227279.848   132570302.230       -3767.223          43.000                                                                  
G27  22452924.690   117990911.263       -1062.841          48.000    22452921.655    91941022.049        -828.083          48.000  
G23  26511897.415   139320938.510       -4013.881          34.000    26511891.614   108561856.795       -3127.826          44.000  
R08  22196651.131   118862082.621       -1838.033          48.000    22196644.938    92448324.297       -1429.679          50.000  
R22  25348143.818   135310257.980       -2985.742          50.000    25348139.341   105241138.506       -2322.278          45.000  
R14  25233891.854   134510907.301       -2501.667          48.000    25233892.475   104619513.480       -1945.607          44.000  
R07  25498646.291   136496255.024       -4565.456          36.000    25498621.315                3      -3551.388          25.000  
G21  24817230.287   130415430.896        1967.040          46.000                                                                  
S31  41035307.710   215642101.643        -611.186          44.000  
S33  41989561.440   220656785.219        -610.589          43.000  
G10  23491269.588   123447590.951       -3122.695          48.000    23491266.602    96192861.950       -2433.125          48.000  
E33  26609957.047   139836385.507         160.542          48.000    26609955.032   107147343.726         123.024          50.000  
R01  22599720.159   120808431.826        2524.974          50.000    22599717.725    93962127.681        1963.960          46.000  
R23  22574523.816   120758541.950        -868.012          46.000                                                                  
R24  23503314.660   125682889.071        1697.719          47.000    23503311.592    97753321.403        1320.366          46.000  
G02  25908247.971   136148749.802        2080.280          45.000                                                                  
G32  24137704.696   126844523.268         901.260          50.000    24137701.704    98839918.576         702.382          45.000  
E13  30313437.897   159298164.998       -2311.439          39.000    30313439.682   122060061.769       -1770.921          43.000  
E31  27842452.807   146313018.926       -1089.323          45.000    27842453.941   112110060.987        -834.617          50.000  
E07  27746356.441   145808115.330        -450.529          44.000    27746356.525   111723117.402        -345.227          50.000  
E26  26536679.929   139451459.112       -1379.763          48.000    26536678.152   106852566.174       -1057.206          52.000  
E14  28713925.143   150892768.977       -1049.379          46.000    28713924.769   115619163.125        -804.066          52.000  
> 2024 04 17 09 22 30.0070000  0 23                     
G08  22940597.264   120553698.129        1166.681          47.000    22940594.024    93937967.120         909.131          45.000  
G16  25248801.319   132683398.077       -3772.515          43.000                                                                  
G27  22459039.531   118023046.286       -1080.089          48.000    22459036.961    91966062.365        -841.649          48.000  
G23  26534813.131   139441357.096       -4013.951          36.000    26534806.151   108655689.391       -3127.815          43.000  
R08  22207022.131   118917614.532       -1864.200          49.000    22207015.418    92491515.829       -1449.841          50.000  
R22  25364940.556   135399922.549       -2992.152          49.000    25364935.675   105310877.593       -2327.317          44.000  
R14  25248017.974   134586204.080       -2518.262          47.000    25248017.806   104678077.668       -1958.550          44.000  
R07  25524256.858   136633352.589       -4575.674          34.000                                                                  
G21  24806002.738   130356431.628        1966.185          45.000                                                                  
S31  41038795.511   215660428.633        -610.877          44.000  
S33  41993045.900   220675096.100        -610.171          43.000  
G10  23509124.588   123541416.232       -3132.474          49.000    23509121.605    96265972.570       -2440.833          49.000  
E33  26609042.752   139831580.103         159.631          48.000    26609040.586   107143661.720         122.324          50.000  
R01  22585600.240   120732953.266        2506.609          50.000    22585597.932    93903422.132        1949.639          46.000  
R23  22579417.103   120784712.662        -876.905          48.000                                                                  
R24  23493794.063   125631981.577        1695.929          49.000    23493791.113    97713726.736        1319.103          46.000  
G02  25896372.962   136086345.364        2079.932          45.000                                                                  
G32  24132608.569   126817740.080         884.093          52.000    24132603.938    98819048.594         689.159          44.000  
E13  30326632.252   159367500.248       -2311.105          39.000    30326633.572   122113188.801       -1770.980          43.000  
E31  27848707.927   146345890.192       -1102.375          45.000    27848709.161   112135248.126        -844.620          50.000  
E07  27748966.330   145821832.408        -463.984          43.000    27748966.911   111733627.922        -355.577          50.000  
E26  26544559.051   139492866.834       -1380.985          48.000    26544557.836   106884294.178       -1058.052          52.000  
E14  28719903.614   150924187.831       -1045.496          46.000    28719903.454   115643237.321        -800.989          52.000  
> 2024 04 17 09 23 00.0080000  0 23                     
G08  22933976.221   120518905.042        1152.294          47.000    22933973.043    93910855.682         897.918          44.000  
G16  25270353.665   132796657.375       -3778.129          43.000                                                                  
G27  22465254.879   118055707.366       -1097.732          48.000    22465252.121    91991512.583        -855.373          48.000  
G23  26557727.536   139561779.596       -4014.409          38.000    26557722.202   108749525.065       -3128.050          44.000  
R08  22217539.768   118973934.671       -1890.810          49.000    22217532.647    92535320.395       -1470.556          50.000  
R22  25381774.645   135489783.047       -2998.887          49.000    25381769.140   105380769.144       -2332.335          44.000  
R14  25262236.826   134662003.743       -2535.251          47.000    25262237.254   104737032.981       -1971.705          43.000  
R07  25549924.538   136770751.352       -4585.117          33.000    25549983.239                3      -3565.894          24.000  
G21  24794781.357   130297462.301        1964.773          45.000                                                                  
S31  41042281.626   215678748.973        -610.922          44.000  
S33  41996529.208   220693402.814        -610.432          43.000  
G10  23527036.367   123635543.616       -3143.004          48.000    23527033.561    96339318.617       -2449.014          48.000  
E33  26608134.345   139826804.745         158.362          49.000    26608131.943   107140002.730         121.289          50.000  
R01  22571584.128   120658028.534        2487.828          50.000    22571582.077    93845147.373        1935.021          46.000  
R23  22584359.525   120811153.472        -886.155          47.000                                                                  
R24  23484285.758   125581131.180        1693.599          49.000    23484281.642    97674176.483        1317.383          45.000  
G02  25884500.112   136023954.896        2079.034          46.000                                                                  
G32  24127610.321   126791474.047         866.483          51.000    24127605.569    98798581.587         675.061          43.000  
E13  30339826.815   159436838.188       -2311.569          39.000    30339828.559   122166317.863       -1771.174          44.000  
E31  27855038.811   146379160.146       -1115.884          45.000    27855040.375   112160740.774        -855.006          50.000  
E07  27751654.520   145835958.485        -478.166          44.000    27751655.027   111744451.817        -366.189          50.000  
E26  26552447.095   139534315.986       -1382.580          49.000    26552445.220   106916053.949       -1059.509          52.000  
E14  28725860.839   150955491.930       -1041.886          46.000    28725860.332   115667223.601        -798.300          52.000  
> 2024 04 17 09 23 30.0080000  0 23                     
G08  22927437.746   120484545.858        1137.964          48.000    22927434.702    93884082.344         886.712          45.000  
G16  25291936.793   132910075.821       -3783.355          44.000                                                                  
G27  22471570.674   118088898.376       -1115.273          48.000    22471567.912    92017375.717        -868.994          48.000  
G23  26580641.144   139682201.710       -4014.303          37.000    26580638.327   108843360.477       -3127.967          45.000  
R08  22228203.926   119031042.858       -1916.804          48.000    22228197.874    92579737.901       -1490.860          51.000  
R22  25398644.814   135579839.430       -3005.322          48.000    25398639.850   105450812.975       -2337.514          45.000  
R14  25276550.736   134738303.181       -2551.812          46.000    25276549.159   104796377.006       -1984.591          39.000  
R07  25575647.150                       -4594.497          32.000                                                                  
G21  24783567.556   130238532.726        1963.561          45.000                                                                  
S31  41045767.173   215697067.300        -610.735          44.000  
S33  42000012.096   220711704.895        -610.204          43.000  
G10  23545005.058   123729969.684       -3152.726          49.000    23545001.914    96412897.379       -2456.554          48.000  
E33  26607232.402   139822065.184         157.293          48.000    26607229.682   107136371.158         120.513          50.000  
R01  22557673.840   120583671.591        2469.000          49.000    22557671.802    93787314.227        1920.361          46.000  
R23  22589354.189   120837869.522        -895.245          48.000                                                                  
R24  23474790.603   125530348.203        1691.563          51.000    23474785.578    97634678.693        1315.669          47.000  
G02  25872631.691   135961588.307        2078.338          46.000                                                                  
G32  24122711.493   126765734.649         849.103          51.000    24122707.839    98778524.952         661.445          43.000  
E13  30353022.254   159506180.197       -2311.885          39.000    30353023.485   122219450.078       -1771.191          44.000  
E31  27861445.796   146412831.392       -1129.312          44.000    27861447.570   112186540.879        -865.177          50.000  
E07  27754420.336   145850498.411        -491.705          43.000    27754421.415   111755592.838        -376.727          49.000  
E26  26560343.101   139575809.621       -1383.895          49.000    26560341.139   106947847.792       -1060.466          52.000  
E14  28731796.848   150986685.160       -1038.056          46.000    28731796.236   115691124.915        -795.424          52.000  
> 2024 04 17 09 24 00.0080000  0 23                     
G08  22920985.958   120450642.009        1122.453          47.000    22920983.062    93857663.783         874.743          45.000  
G16  25313553.891   133023673.798       -3789.496          44.000                                                                  
G27  22477991.203   118122641.124       -1133.906          47.000    22477988.858    92043668.797        -883.645          48.000  
G23  26603560.916   139802645.870       -4014.978          38.000    26603558.158   108937213.027       -3128.641          45.000  
R08  22239018.442   119088958.904       -1943.968          47.000    22239013.540    92624783.758       -1511.885          51.000  
R22  25415556.279   135670115.601       -3012.875          48.000    25415552.165   105521027.758       -2343.330          45.000  
R14  25290963.102   134815121.940       -2569.135          45.000    25290960.073   104856124.864       -1998.314          39.000  
R07  25601424.331                       -4605.468          30.000                                                                  
G21  24772365.233   130179661.927        1961.433          45.000                                                                  
S31  41049256.431   215715403.497        -611.546          44.000  
S33  42003498.267   220730025.956        -610.984          43.000  
G10  23563034.063   123824715.066       -3163.465          49.000    23563031.242    96486724.967       -2464.930          49.000  
E33  26606340.041   139817381.370         155.351          48.000    26606338.404   107132782.294         118.969          50.000  
R01  22543875.298   120509904.092        2449.152          50.000    22543871.942    93729939.526        1904.976          45.000  
R23  22594404.056   120864884.017        -905.483          47.000                                                                  
R24  23465310.347   125479653.144        1688.354          49.000    23465305.923    97595249.261        1313.173          48.000  
G02  25860771.028   135899264.228        2076.795          46.000                                                                  
G32  24117917.603   126740543.473         830.645          50.000    24117914.354    98758895.508         646.925          44.000  
E13  30366222.075   159575549.173       -2312.394          37.000    30366224.272   122272602.928       -1772.016          45.000  
E31  27867932.409   146446924.513       -1143.516          43.000    27867935.523   112212664.223        -876.070          51.000  
E07  27757270.771   145865473.180        -506.491          44.000    27757270.790   111767067.035        -387.906          49.000  
E26  26568252.226   139617369.539       -1386.388          49.000    26568249.773   106979692.427       -1062.324          52.000  
E14  28737715.658   151017789.205       -1035.147          47.000    28737715.179   115714957.909        -793.270          52.000  
> 2024 04 17 09 24 30.0080000  0 23                     
G08  22914623.601   120417206.232        1106.689          48.000    22914620.572    93831609.976         862.204          45.000  
G16  25335206.101   133137458.327       -3795.581          43.000                                                                  
G27  22484520.022   118156946.537       -1152.901          49.000    22484517.351    92070400.296        -898.404          48.000  
G23  26626486.516   139923120.532       -4016.127          38.000    26626484.083   109031089.373       -3129.625          44.000  
R08  22249987.071   119147691.685       -1971.254          48.000    22249981.232    92670464.817       -1533.249          50.000  
R22  25432511.777   135760622.409       -3020.856          49.000    25432506.742   105591421.952       -2349.319          45.000  
R14  25305472.847   134892466.943       -2586.777          40.000    25305470.851   104916282.098       -2012.109          38.000  
R07  25627265.124                       -4616.194          29.000                                                                  
G21  24761175.671   130120860.819        1958.686          45.000                                                                  
S31  41052751.475   215733769.238        -612.775          44.000  
S33  42006990.045   220748375.899        -612.054          43.000  
G10  23581125.739   123919787.497       -3174.571          49.000    23581123.022    96560807.408       -2473.645          48.000  
E33  26605461.421   139812763.624         152.640          47.000    26605459.560   107129244.032         117.079          50.000  
R01  22530187.790   120436740.221        2428.622          49.000    22530184.974    93673034.318        1889.032          45.000  
R23  22599511.253   120892208.815        -916.062          46.000                                                                  
R24  23455847.999   125429058.106        1684.779          49.000    23455843.809    97555897.617        1310.481          47.000  
G02  25848921.485   135836993.834        2074.859          46.000                                                                  
G32  24113230.290   126715913.119         811.668          50.000    24113227.681    98739703.046         632.508          44.000  
E13  30379428.799   159644956.080       -2314.421          35.000    30379432.643   122325784.807       -1773.174          46.000  
E31  27874503.799   146481449.177       -1157.992          44.000    27874505.206   112239118.191        -887.209          50.000  
E07  27760204.941   145880893.456        -521.431          44.000    27760205.248   111778882.616        -399.557          49.000  
E26  26576175.061   139659006.383       -1389.294          49.000    26576172.865   107011596.015       -1064.412          52.000  
E14  28743619.054   151048814.920       -1032.878          46.000    28743619.304   115738730.876        -791.414          52.000  
> 2024 04 17 09 25 00.0080000  0 23                     
G08  22908349.830   120384236.954        1091.100          48.000    22908346.627    93805919.668         850.151          45.000  
G16  25356893.467   133251422.259       -3801.804          43.000                                                                  
G27  22491156.031   118191811.181       -1171.572          49.000    22491151.298    92097567.557        -912.874          47.000  
G23  26649417.215   140043619.974       -4016.832          38.000    26649414.439   109124985.018       -3130.232          44.000  
R08  22261106.325   119207234.623       -1998.353          48.000    22261100.513    92716776.001       -1554.229          51.000  
R22  25449509.006   135851356.066       -3028.375          49.000    25449505.307   105661992.630       -2355.464          47.000  
R14  25320080.630   134970330.545       -2604.224          38.000    25320078.245   104976842.707       -2025.517          35.000  
R07  25653169.885                       -4626.495          31.000                                                                  
G21  24749998.493   130062126.678        1956.486          45.000                                                                  
S31  41056250.731   215752159.507        -613.412          44.000  
S33  42010486.815   220766751.234        -613.024          42.000  
G10  23599279.029   124015180.336       -3184.878          50.000    23599275.984    96635139.491       -2481.857          48.000  
E33  26604594.570   139808207.887         150.688          47.000    26604592.684   107125753.327         115.481          50.000  
R01  22516614.076   120364179.401        2408.548          49.000    22516610.855    93616598.165        1873.243          45.000  
R23  22604677.460   120919841.778        -926.334          47.000                                                                  
R24  23446404.934   125378560.715        1681.452          49.000    23446400.278    97516621.957        1307.762          47.000  
G02  25837082.133   135774773.269        2073.137          47.000                                                                  
G32  24108650.416   126691841.884         792.888          50.000    24108648.150    98720946.262         617.940          45.000  
E13  30392643.940   159714397.376       -2315.037          35.000    30392646.344   122378993.060       -1774.185          45.000  
E31  27881155.243   146516400.643       -1172.180          45.000    27881155.979   112265899.232        -898.194          50.000  
E07  27763225.250   145896755.635        -536.174          45.000    27763224.165   111791036.768        -410.846          50.000  
E26  26584112.756   139700716.527       -1391.575          49.000    26584109.902   107043555.767       -1066.334          53.000  
E14  28749507.841   151079758.881       -1030.009          46.000    28749507.880   115762441.195        -789.348          52.000  
> 2024 04 17 09 25 30.0080000  0 23                     
G08  22902163.410   120351726.821        1076.055          48.000    22902160.080    93780587.143         838.631          44.000  
G16  25378611.399   133365552.620       -3807.120          43.000                                                                  
G27  22497895.257   118227225.835       -1189.906          49.000    22497890.538    92125163.428        -927.115          47.000  
G23  26672350.725   140164132.710       -4017.248          38.000    26672347.186   109218891.035       -3130.387          44.000  
R08  22272374.426   119267575.988       -2024.687          48.000    22272368.765    92763708.189       -1574.757          51.000  
R22  25466547.305   135942307.115       -3035.340          50.000    25466543.510   105732732.324       -2360.879          46.000  
R14  25334782.593   135048699.371       -2620.782          36.000    25334779.539   105037796.164       -2038.570          34.000  
R07  25679130.581                1      -4637.010          25.000    25679142.222                3      -3605.280          23.000  
G21  24738833.303   130003450.338        1954.789          46.000                                                                  
S31  41059753.266   215770564.826        -613.749          44.000  
S33  42013986.219   220785140.369        -613.370          42.000  
G10  23617490.609   124110881.265       -3195.040          49.000    23617486.978    96709711.635       -2489.783          48.000  
E33  26603737.537   139803704.482         149.285          47.000    26603735.778   107122302.705         114.380          50.000  
R01  22503151.870   120292215.520        2388.731          50.000    22503148.065    93560626.262        1857.896          44.000  
R23  22609899.933   120947774.557        -936.135          47.000                                                                  
R24  23436978.571   125328152.464        1678.603          49.000    23436973.203    97477415.643        1305.742          46.000  
G02  25825249.025   135712593.326        2071.829          45.000                                                                  
G32  24104175.042   126668322.241         774.858          50.000    24104172.553    98702619.307         603.803          45.000  
E13  30405861.069   159783863.861       -2315.942          33.000    30405865.857   122432220.637       -1774.656          44.000  
E31  27887885.657   146551768.512       -1185.983          45.000    27887885.868   112292999.335        -908.626          50.000  
E07  27766325.639   145913050.297        -550.290          44.000    27766325.315   111803522.307        -421.718          50.000  
E26  26592061.305   139742490.533       -1393.518          48.000    26592059.152   107075564.448       -1067.760          53.000  
E14  28755379.454   151110611.836       -1026.986          46.000    28755379.077   115786081.773        -786.899          52.000  
> 2024 04 17 09 26 00.0080000  0 22                     
G08  22896060.204   120319653.432        1061.964          48.000    22896056.203    93755594.922         827.583          45.000  
G16  25400355.074   133479821.037       -3811.088          42.000                                                                  
G27  22504733.236   118263166.220       -1206.863          49.000    22504729.434    92153168.932        -940.303          47.000  
G23  26695280.951   140284632.116       -4015.980          37.000    26695277.679   109312786.652       -3129.531          44.000  
R08  22283786.690   119328687.937       -2049.736          47.000    22283780.787    92811239.718       -1594.200          51.000  
R22  25483622.017   136033450.682       -3041.103          50.000    25483618.102   105803621.765       -2365.199          46.000  
R14  25349573.342                       -2635.052          32.000    25349569.461   105099119.998       -2050.493          33.000  
G21  24727673.966   129944808.078        1954.143          47.000                                                                  
S31  41063253.819   215788960.941        -612.952          44.000  
S33  42017484.013   220803521.903        -612.378          42.000  
G10  23635754.175   124206862.796       -3203.713          49.000    23635751.625    96784502.491       -2496.669          48.000  
E33  26602886.075   139799228.564         148.736          47.000    26602884.171   107118873.143         113.966          51.000  
R01  22489797.629   120220826.574        2370.175          51.000    22489793.927    93505101.539        1843.489          45.000  
R23  22615173.862   120975983.013        -944.768          48.000                                                                  
R24  23427562.881   125277809.870        1677.096          49.000    23427559.154    97438260.375        1304.324          48.000  
G02  25813419.719   135650429.593        2071.968          45.000                                                                  
G32  24099799.526   126645331.606         757.627          50.000    24099796.468    98684704.524         590.432          45.000  
E13  30419080.462   159853331.249       -2315.698          31.000    30419085.131   122485448.958       -1774.333          44.000  
E31  27894689.765   146587527.234       -1198.349          45.000    27894690.712   112320398.940        -918.348          50.000  
E07  27769502.839   145929752.907        -563.512          44.000    27769503.211   111816320.425        -431.700          50.000  
E26  26600018.488   139784303.967       -1394.406          48.000    26600016.031   107107603.331       -1068.410          53.000  
E14  28761228.612   151141349.427       -1022.550          47.000    28761228.150   115809633.964        -783.559          52.000  
> 2024 04 17 09 26 30.0080000  0 23                     
G08  22890038.953   120288010.311        1047.736          49.000    22890034.931    93730937.972         816.462          45.000  
G16  25422123.613   133594216.372       -3815.076          43.000                                                                  
G27  22511670.731   118299623.968       -1223.805          49.000    22511667.132    92181577.580        -953.634          47.000  
G23  26718206.733   140405107.616       -4015.567          38.000    26718202.643   109406663.617       -3128.634          43.000  
R08  22295340.430   119390558.942       -2074.856          48.000    22295334.581    92859361.636       -1613.816          50.000  
R22  25500729.934   136124778.056       -3047.225          49.000    25500726.918   105874654.154       -2369.932          47.000  
R14  25364451.523                       -2650.844          28.000    25364449.044   105160804.306       -2062.736          33.000  
R07  25731203.185                3      -4653.944          25.000                                                                  
G21  24716519.109   129886191.450        1953.641          46.000                                                                  
S31  41066750.932   215807339.130        -611.981          44.000  
S33  42020978.356   220821884.006        -611.687          43.000  
G10  23654070.786   124303113.507       -3212.618          50.000    23654067.104    96859503.019       -2503.496          48.000  
E33  26602037.448   139794771.230         148.268          47.000    26602036.301   107115457.817         113.772          51.000  
R01  22476548.579   120150006.983        2351.219          50.000    22476545.711    93450019.647        1828.753          45.000  
R23  22620496.557   121004460.398        -953.508          47.000                                                                  
R24  23418158.816   125227525.573        1675.220          49.000    23418156.372    97399150.442        1303.034          48.000  
G02  25801591.599   135588273.970        2071.967          45.000                                                                  
G32  24095523.607   126622863.237         740.314          50.000    24095521.391    98667196.730         576.937          45.000  
E13  30432297.724   159922791.283       -2314.643          33.000    30432303.549   122538671.548       -1773.899          44.000  
E31  27901565.846   146623667.232       -1210.915          44.000    27901567.864   112348090.650        -927.719          50.000  
E07  27772756.937   145946854.893        -576.464          43.000    27772757.653   111829424.571        -441.758          50.000  
E26  26607980.994   139826148.277       -1395.065          48.000    26607978.759   107139665.875       -1068.989          53.000  
E14  28767054.280   151171963.339       -1018.176          47.000    28767053.837   115833091.391        -780.306          52.000  
> 2024 04 17 09 27 00.0080000  0 22                     
G08  22884098.327   120256794.015        1033.001          49.000    22884095.033    93706613.644         804.912          45.000  
G16  25443915.281   133708729.497       -3819.423          42.000                                                                  
G27  22518706.264   118336593.764       -1241.424          49.000    22518702.544    92210385.223        -967.270          48.000  
G23  26741126.689   140525551.638       -4014.174          38.000    26741121.754   109500516.101       -3128.110          40.000  
R08  22307034.493   119453181.001       -2100.329          48.000    22307028.327    92908067.735       -1633.613          50.000  
R22  25517871.862   136216283.691       -3053.634          49.000    25517868.411   105945825.205       -2374.908          45.000  
R14  25379413.785   135286614.603       -2666.764          32.000    25379413.752   105222841.360       -2074.651          32.000  
G21  24705367.804   129827595.314        1952.353          45.000                                                                  
S31  41070243.571   215825693.350        -611.822          44.000  
S33  42024467.985   220840222.009        -611.479          42.000  
G10  23672436.605   124399624.933       -3221.794          50.000    23672432.389    96934706.730       -2510.453          48.000  
E33  26601191.614   139790326.753         147.536          47.000    26601190.491   107112052.352         113.054          51.000  
R01  22463406.036   120079754.381        2331.881          50.000    22463403.230    93395378.759        1813.578          45.000  
R23  22625870.146   121033202.034        -962.875          49.000                                                                  
R24  23408766.500   125177295.137        1672.982          51.000    23408762.894    97360082.416        1301.088          48.000  
G02  25789764.299   135526120.824        2071.189          45.000                                                                  
G32  24091347.260   126600913.585         722.499          51.000    24091343.142    98650093.160         562.957          44.000  
E13  30445519.615   159992238.625       -2314.998          34.000    30445518.190   122591884.409       -1774.057          42.000  
E31  27908514.718   146660181.968       -1223.926          44.000    27908516.727   112376069.509        -937.757          51.000  
E07  27776085.966   145964350.807        -590.264          43.000    27776086.947   111842830.534        -452.241          50.000  
E26  26615948.383   139868018.034       -1396.695          48.000    26615946.294   107171747.908       -1070.041          53.000  
E14  28772855.370   151202448.316       -1014.344          47.000    28772854.975   115856450.018        -777.199          52.000  
> 2024 04 17 09 27 30.0080000  0 23                     
G08  22878240.726   120226012.892        1018.602          49.000    22878238.010    93682628.380         793.688          46.000  
G16  25465729.224   133823363.119       -3823.316          42.000                                                                  
G27  22525840.435   118374082.019       -1258.444          49.000    22525836.459    92239596.870        -980.705          48.000  
G23  26764042.648   140645968.548       -4013.216          38.000    26764035.149   109594347.395       -3127.058          38.000  
R08  22318870.442   119516557.323       -2125.416          48.000    22318864.082    92957360.457       -1653.107          51.000  
R22  25535048.400   136307973.977       -3059.808          48.000    25535044.592   106017139.866       -2379.964          43.000  
R14  25394475.493                1      -2682.027          26.000    25394470.019                3      -2086.447          23.000  
G21  24694222.577   129769026.610        1951.477          46.000                                                                  
S31  41073733.059   215844028.945        -610.969          44.000  
S33  42027954.068   220858542.130        -610.692          42.000  
G10  23690852.072   124496400.528       -3230.660          50.000    23690847.877    97010116.326       -2517.520          47.000  
E33  26600349.339   139785901.106         147.002          46.000    26600348.098   107108661.314         112.630          51.000  
R01  22450371.417   120010078.685        2312.678          49.000    22450368.446    93341186.568        1798.694          44.000  
R23  22631294.616   121062215.522        -971.847          49.000    22631765.632                3       -849.848          10.000  
R24  23399384.789   125127126.707        1670.937          50.000    23399380.629    97321062.620        1299.599          48.000  
G02  25777938.725   135463976.677        2071.072          45.000                                                                  
G32  24087270.454   126579490.770         705.027          50.000    24087265.903    98633400.077         549.287          44.000  
E13  30458732.050   160061679.773       -2314.676          36.000    30458731.673   122645092.517       -1773.684          41.000  
E31  27915536.322   146697076.660       -1236.335          45.000    27915537.812   112404339.493        -947.424          51.000  
E07  27779489.890   145982246.786        -603.504          42.000    27779492.178   111856543.081        -462.407          50.000  
E26  26623921.061   139909919.511       -1397.442          47.000    26623920.051   107203854.265       -1070.833          53.000  
E14  28778632.898   151232810.848       -1010.198          47.000    28778632.920   115879714.836        -774.104          53.000  
R07                                                                  25783034.778                3      -4154.840          11.000  
> 2024 04 17 09 28 00.0080000  0 22                     
G08  22872467.513   120195674.345        1003.445          49.000    22872464.702    93658987.971         781.930          46.000  
G16  25487567.034   133938119.004       -3827.452          43.000                                                                  
G27  22533073.433   118412094.206       -1276.211          49.000    22533069.745    92269216.773        -994.484          48.000  
G23  26786952.668   140766361.557       -4013.489          36.000    26786946.079   109688160.145       -3127.135          37.000  
R08  22330846.524   119580691.399       -2150.730          48.000    22330840.803    93007242.554       -1672.780          51.000  
R22  25552261.198   136399854.390       -3066.069          49.000    25552257.382   106088602.360       -2384.698          43.000  
R14  25409597.143                1      -2696.612          27.000    25409603.245                3      -2098.310          25.000  
G21  24683085.046   129710491.459        1950.155          47.000                                                                  
S31  41077219.707   215862351.903        -610.780          44.000  
S33  42031438.093   220876850.597        -610.404          42.000  
G10  23709318.764   124593442.667       -3239.474          51.000    23709314.575    97085733.573       -2524.274          47.000  
E33  26599512.448   139781499.353         146.231          47.000    26599510.295   107105288.593         112.047          51.000  
R01  22437447.506   119940988.194        2292.935          50.000    22437443.838    93287449.542        1783.521          45.000  
R23  22636769.840   121091507.711        -981.336          49.000                                                                  
R24  23390015.677   125077026.766        1668.552          50.000    23390010.732    97282096.052        1297.733          47.000  
G02  25766115.492   135401847.153        2070.453          44.000                                                                  
G32  24083295.832   126558601.930         687.001          49.000    24083291.148    98617123.062         535.521          43.000  
E13  30471945.828   160131120.290       -2314.867          38.000    30471945.967   122698300.150       -1773.613          41.000  
E31  27922630.156   146734355.552       -1249.270          44.000    27922631.355   112432903.864        -957.188          51.000  
E07  27782973.435   146000548.170        -616.890          43.000    27782975.059   111870566.246        -472.697          50.000  
E26  26631901.790   139951858.130       -1398.656          47.000    26631900.609   107235989.066       -1071.781          52.000  
E14  28784388.531   151263056.464       -1006.360          47.000    28784388.536   115902890.058        -771.148          53.000  
> 2024 04 17 09 28 30.0080000  0 23                     
G08  22866778.731   120165780.424         989.007          49.000    22866776.267    93635694.024         770.684          46.000  
G16  25509426.912   134052993.549       -3831.141          43.000                                                                  
G27  22540406.436   118450630.452       -1293.331          49.000    22540402.787    92299245.026       -1007.808          48.000  
G23  26809857.578   140886728.695       -4011.745          35.000    26809851.313   109781952.706       -3126.111          37.000  
R08  22342962.047   119645580.273       -2175.678          45.000    22342957.617    93057711.693       -1692.137          51.000  
R22  25569509.122   136491924.911       -3072.273          49.000    25569505.486   106160212.788       -2389.683          44.000  
R14  25424810.189                3      -2711.782          22.000    25424803.757                3      -2117.276          20.000  
G21  24671952.281   129651990.373        1949.296          47.000                                                                  
S31  41080703.776   215880662.323        -610.150          44.000  
S33  42034919.036   220895145.063        -609.760          42.000  
G10  23727835.104   124690748.509       -3247.985          50.000    23727831.498    97161556.337       -2530.934          47.000  
E33  26598678.671   139777121.246         145.254          46.000    26598676.867   107101933.993         111.298          51.000  
R01  22424632.591   119872486.105        2273.415          51.000    22424629.007    93234170.172        1768.245          45.000  
R23  22642298.057   121121079.877        -990.579          49.000                                                                  
R24  23380659.621   125026997.041        1666.290          50.000    23380654.539    97243184.111        1295.959          47.000  
G02  25754295.543   135339732.454        2070.103          45.000                                                                  
G32  24079422.339   126538248.950         669.330          49.000    24079418.058    98601263.642         521.418          43.000  
E13  30485159.630   160200560.434       -2314.554          38.000    30485159.869   122751507.470       -1773.670          41.000  
E31  27929796.570   146772017.597       -1261.830          43.000    27929798.151   112461761.829        -966.925          51.000  
E07  27786533.953   146019254.964        -630.350          43.000    27786535.020   111884900.031        -483.046          50.000  
E26  26639888.856   139993833.999       -1399.923          47.000    26639888.159   107268152.413       -1072.658          52.000  
E14  28790122.394   151293185.427       -1002.468          47.000    28790121.775   115925975.891        -768.183          52.000  
R07                                                                  25836397.278                3      -3638.586          15.000  
> 2024 04 17 09 29 00.0080000  0 22                     
G08  22861175.065   120136330.155         973.820          49.000    22861172.433    93612745.793         758.615          47.000  
G16  25531308.614   134167980.643       -3835.419          43.000                                                                  
G27  22547838.923   118489687.862       -1311.256          49.000    22547835.967    92329679.373       -1021.616          49.000  
G23  26832756.376   141007064.969       -4010.577          35.000    26832751.637   109875721.219       -3125.546          37.000  
R08  22355219.231   119711218.171       -2200.838          46.000    22355215.208    93108763.403       -1711.824          51.000  
R22  25586792.072   136584182.418       -3078.781          48.000    25586787.816   106231968.611       -2394.618          45.000  
R14  25440120.398                3      -2725.190          20.000    25440119.526                3      -2120.148          25.000  
G21  24660825.850   129593520.368        1947.974          48.000                                                                  
S31  41084185.088   215898955.683        -609.774          44.000  
S33  42038397.276   220913422.730        -609.396          42.000  
G10  23746400.801   124788312.130       -3256.911          51.000    23746396.990    97237579.943       -2537.847          47.000  
E33  26597849.734   139772763.474         144.479          46.000    26597847.470   107098594.979         110.630          51.000  
R01  22411927.887   119804572.458        2253.411          50.000    22411924.089    93181348.463        1752.631          45.000  
R23  22647878.644   121150930.524       -1000.156          50.000                                                                  
R24  23371317.248   124977035.732        1663.715          51.000    23371311.514    97204325.372        1293.994          47.000  
G02  25742477.482   135277629.835        2069.362          45.000                                                                  
G32  24075651.021   126518430.536         651.167          49.000    24075647.278    98585820.709         507.465          44.000  
E13  30498372.596   160269997.379       -2314.863          39.000    30498372.689   122804712.366       -1773.737          39.000  
E31  27937035.564   146810058.696       -1274.925          44.000    27937036.539   112490910.226        -976.762          50.000  
E07  27790170.363   146038364.038        -644.284          43.000    27790171.195   111899542.076        -493.580          51.000  
E26  26647883.385   140035844.158       -1401.349          47.000    26647882.542   107300342.041       -1073.810          52.000  
E14  28795832.628   151323194.932        -998.856          47.000    28795832.223   115948970.198        -765.305          52.000  
> 2024 04 17 09 29 30.0080000  0 22                     
G08  22855658.200   120107336.977         958.544          49.000    22855654.838    93590153.713         746.879          46.000  
G16  25553212.717   134283088.168       -3839.099          42.000                                                                  
G27  22555373.373   118529277.841       -1328.749          48.000    22555369.822    92360528.721       -1035.464          49.000  
G23  26855652.127   141127379.833       -4010.033          35.000    26855647.757   109969473.070       -3125.198          37.000  
R08  22367619.696   119777613.306       -2226.039          47.000    22367614.148    93160404.061       -1731.406          51.000  
R22  25604112.077   136676638.503       -3085.419          47.000    25604108.423   106303878.876       -2399.737          45.000  
R14  25455552.647                3      -2746.860          19.000    25455506.996                3      -2142.297          20.000  
G21  24649707.645   129535094.336        1946.530          47.000                                                                  
S31  41087664.938   215917243.924        -609.614          43.000  
S33  42041874.469   220931695.773        -609.079          42.000  
G10  23765017.946   124886142.035       -3265.632          51.000    23765012.822    97313811.040       -2544.579          47.000  
E33  26597026.531   139768437.200         143.488          47.000    26597024.276   107095280.088         109.935          51.000  
R01  22399336.096   119737261.895        2233.379          50.000    22399332.545    93128995.826        1737.181          45.000  
R23  22653513.009   121181072.215       -1009.778          49.000                                                                  
R24  23361989.176   124927155.693        1661.047          52.000    23361984.113    97165529.877        1291.919          47.000  
G02  25730663.889   135215550.851        2068.751          45.000                                                                  
G32  24071983.699   126499159.883         633.015          49.000    24071980.898    98570804.635         493.093          45.000  
E13  30511587.111   160339442.805       -2315.015          39.000    30511588.228   122857923.705       -1774.138          40.000  
E31  27944349.021   146848489.092       -1287.742          44.000    27944349.644   112520356.937        -986.654          50.000  
E07  27793885.022   146057886.703        -657.948          43.000    27793886.249   111914501.032        -504.096          50.000  
E26  26655886.371   140077900.063       -1402.849          47.000    26655885.541   107332566.723       -1074.974          52.000  
E14  28801522.845   151353096.589        -995.242          47.000    28801522.329   115971881.866        -762.533          52.000  
