     3.00           OBSERVATION DATA    M: Mixed            RINEX VERSION / TYPE
CONVBIN 2.4.3                           20240417 002942 UTC PGM / RUN BY / DATE 
format: u-blox UBX                                          COMMENT             
log: /home/regis/git/gnsspwv/obsdata/VERT00CHL/2024-04-17/VECOMMENT             
{self.marker}                                               MARKER NAME         
                                                            MARKER NUMBER       
GEODETIC                                                    MARKER TYPE         
{self.observer}     {self.institution}                      OBSERVER / AGENCY   
UNKNOWN             UBLOX-ZED-F9P                           REC # / TYPE / VERS 
UNKNOWN             TWIVSP6037L                             ANT # / TYPE        
  1713381.0000 -5047934.0000 -3490983.0000                  APPROX POSITION XYZ 
        0.0000        0.0000        0.0000                  ANTENNA: DELTA H/E/N
G    8 C1C L1C D1C S1C C2L L2L D2L S2L                      SYS / # / OBS TYPES 
R    8 C1C L1C D1C S1C C2C L2C D2C S2C                      SYS / # / OBS TYPES 
E    8 C1C L1C D1C S1C C7Q L7Q D7Q S7Q                      SYS / # / OBS TYPES 
S    4 C1C L1C D1C S1C                                      SYS / # / OBS TYPES 
  2024    04    17    00    15   00.4900000     GPS         TIME OF FIRST OBS   
  2024    04    17    00    29   30.4910000     GPS         TIME OF LAST OBS    
                                                            END OF HEADER       
> 2024 04 17 00 15 00.4900000  0 29                     
G15  20138947.088   105830751.3281      -3845.567          46.000    20138957.814    82465521.0051      -2996.412          42.000  
G19  20554011.393   108012563.0761      -3987.314          39.000                                                                  
G24  17592666.273    92450286.3021       -548.757          50.000    17592663.756    72039294.6921       -427.472          45.000  
R09  17427962.487    93064438.6091         48.888          52.000    17427959.905    72383758.0181         37.975          51.000  
R08  19737513.714   105693406.5071        490.740          36.000    19737516.636    82206134.4501        381.768          40.000  
R16  18724140.706   100021006.4321      -2334.912          45.000    18724139.346    77794646.7771      -1816.184          48.000  
R06  20291838.673   108281133.5721      -4691.802          35.000                                                                  
R10  19769741.225   105383887.2341       1510.890          41.000                                                                  
G12  18369487.747    96532560.6691       -385.887          49.000    18369485.230    75220489.7531       -300.629          47.000  
E08  24167630.525   127001608.6311      -3833.712          45.000    24167654.580    97312905.9061      -2937.455          45.000  
S31  35940437.113   188868276.8491       -758.938          45.000  
S33  36893429.451   193876261.4701       -759.835          43.000  
G11  20800942.693   109310097.9711       1615.161          46.000    20800945.286    85176914.5471       1258.539          46.000  
E36  24885907.450   130776380.7941      -1319.403          37.000    24885911.678   100205295.7151      -1011.343          46.000  
R19  17670286.811    94524578.1181        836.777          42.000    17670285.088    73519317.8571        650.883          49.000  
R07  18582926.794    99475853.6551      -2727.634          52.000    18582926.860    77370127.2341      -2121.486          50.000  
R18  18634168.465    99470583.1231      -2511.566          48.000    18634168.392    77366200.0571      -1953.498          47.000  
R20  20416103.218   109174119.2071       3646.022          34.000    20416133.409    84913315.9731       2835.721          32.000  
E07  21512693.405   113050123.4351      -2385.812          48.000    21512699.560    86622863.3641      -1828.088          51.000  
E27  21974135.364   115475274.6011        204.702          45.000    21974139.721    88481276.8101        156.889          50.000  
E34  23406871.740   123004249.3281        868.431          43.000    23406878.212    94250075.6341        665.544          46.000  
G25  19633792.764   103176517.6041        881.216          47.000    19633793.303    80397358.7841        686.492          43.000  
E30  21225611.935   111541822.1071      -1574.340          50.000    21225613.720    85467383.6761      -1206.359          52.000  
G06  20482242.903   107635110.6301        111.412          37.000    20482243.796    83871609.5521         87.030          38.000  
E02  24415555.517   128304597.1451      -2640.213          38.000    24415559.416    98311745.1111      -2023.071          43.000  
G29  21691779.876   113991309.8551       2937.164          39.000    21691808.853    88824189.0771       2288.352          32.000  
E15  24459216.104   128534260.2241       2034.961          43.000    24459243.504    98487459.0971       1559.063          47.000  
E18  24497861.381   128737606.9331      -5531.893          39.000                                                                  
G32                                                                  21206187.733                        1212.246          27.000  
> 2024 04 17 00 15 30.4910000  0 29                     
G15  20160913.050   105946176.062       -3849.724          46.000    20160922.069    82555461.726       -2999.875          42.000  
G19  20576791.880   108132277.896       -3993.936          39.000                                                                  
G24  17595837.412    92466952.322        -562.794          49.000    17595834.841    72052281.202        -438.520          45.000  
R09  17427698.281    93063034.263          44.256          51.000    17427697.062    72382665.753          34.441          51.000  
R08  19734840.115   105679041.654         465.684          35.000    19734835.568    82194961.714         362.588          39.000  
R16  18737261.455   100091114.838       -2339.312          44.000    18737263.674    77849175.487       -1819.398          48.000  
R06  20318218.833   108421902.127       -4693.330          35.000                                                                  
R10  19761234.481   105338543.068        1511.380          42.000                                                                  
G12  18371706.554    96544220.145        -391.886          49.000    18371704.284    75229575.134        -305.441          47.000  
E08  24189518.547   127116625.222       -3834.376          45.000    24189542.016    97401034.581       -2937.940          44.000  
S31  35944768.085   188891036.605        -758.860          45.000  
S33  36897764.340   193899042.904        -759.445          43.000  
G11  20791741.224   109261747.463        1607.635          46.000    20791743.904    85139239.209        1252.642          45.000  
E36  24893480.341   130816172.459       -1333.252          39.000    24893483.520   100235785.484       -1021.674          46.000  
R19  17665661.881    94499835.706         812.066          42.000    17665659.679    73500073.897         631.541          49.000  
R07  18598271.062    99557989.825       -2748.427          52.000    18598270.763    77434010.789       -2137.584          50.000  
R18  18648350.284    99546289.583       -2535.895          48.000    18648351.369    77425082.914       -1972.345          47.000  
R20  20395646.906   109064732.591        3645.475          35.000    20395677.160                        2835.186          31.000  
E07  21526346.213   113121863.829       -2397.182          48.000    21526351.328    86677833.249       -1836.826          52.000  
E27  21972973.489   115469169.111         201.761          46.000    21972977.830    88476598.678         154.595          50.000  
E34  23401940.768   122978333.617         858.525          44.000    23401946.756    94230218.286         657.798          47.000  
G25  19628770.446   103150129.365         877.501          46.000    19628771.969    80376796.694         683.608          43.000  
E30  21234604.189   111589075.853       -1576.285          49.000    21234605.579    85503591.118       -1207.761          52.000  
G06  20481651.158   107632001.003          94.888          39.000    20481651.824    83869186.555          74.141          39.000  
E02  24430623.938   128383778.289       -2639.032          38.000    24430626.578    98372416.428       -2021.893          42.000  
G29  21675018.886   113903237.407        2933.224          38.000    21675044.852    88755562.263        2285.948          34.000  
E15  24447591.975   128473186.270        2036.188          42.000    24447619.687    98440664.007        1559.982          46.000  
E18  24529424.572   128903470.561       -5525.679          40.000                                                                  
G32                                                                  21197354.291                1       1201.868          31.000  
> 2024 04 17 00 16 00.4910000  0 29                     
G15  20182902.368   106061730.928       -3854.308          46.000    20182912.820    82645503.819       -3003.250          42.000  
G19  20599611.981   108252202.459       -4001.005          40.000                                                                  
G24  17599089.502    92484043.763        -577.012          49.000    17599087.466    72065599.217        -449.568          45.000  
G32  21188601.777                1       1527.057          30.000    21188589.096    86763671.6411       1189.526          34.000  
R09  17427461.858    93061772.370          39.554          51.000    17427459.899    72381684.346          30.636          51.000  
R08  19732292.225   105665409.977         441.677          38.000    19732287.425    82184359.237         343.628          35.000  
R16  18750411.705   100161355.112       -2343.897          45.000    18750412.390    77903806.778       -1823.068          47.000  
R06  20344606.766   108562708.189       -4694.180          36.000                                                                  
R10  19752726.599   105293191.038        1511.713          43.000                                                                  
G12  18373960.214    96556062.629        -397.864          49.000    18373957.569    75238803.117        -310.149          47.000  
E08  24211410.077   127231660.390       -3835.003          45.000    24211433.238    97489177.524       -2938.592          44.000  
S31  35949098.360   188913792.501        -758.658          44.000  
S33  36902098.385   193921820.046        -759.197          44.000  
G11  20782583.934   109213628.421        1599.864          46.000    20782587.672    85101744.211        1246.629          46.000  
E36  24901130.332   130856372.962       -1347.223          38.000    24901133.221   100266588.523       -1032.221          45.000  
R19  17661176.605    94475845.195         786.790          43.000    17661174.692    73481414.755         612.015          49.000  
R07  18613730.690    99640746.491       -2769.032          51.000    18613730.967    77498376.928       -2153.699          50.000  
R18  18662669.582    99622726.556       -2560.241          48.000    18662669.615    77484533.944       -1991.231          47.000  
R20  20375195.759   108955377.919        3643.891          33.000    20375225.814                        2834.408          26.000  
E07  21540062.808   113193945.481       -2408.760          48.000    21540068.174    86733064.596       -1845.550          52.000  
E27  21971830.375   115463157.625         198.637          46.000    21971834.020    88471992.577         152.078          51.000  
E34  23397067.347   122952722.288         848.372          44.000    23397072.994    94210594.164         650.085          47.000  
G25  19623770.898   103123857.020         873.609          46.000    19623772.869    80356324.880         680.718          44.000  
E30  21243606.433   111636384.425       -1578.147          49.000    21243607.963    85539840.586       -1209.206          52.000  
G06  20481152.695   107629383.357          78.979          42.000    20481154.291    83867146.974          61.387          39.000  
E02  24445684.492   128462916.625       -2637.415          38.000    24445686.232    98433054.887       -2020.794          42.000  
G29  21658280.456   113815284.203        2929.594          37.000    21658305.871    88687028.569        2283.273          33.000  
E15  24435962.601   128412081.514        2037.124          42.000    24435989.733    98393845.304        1560.851          46.000  
E18  24560950.863   129069144.388       -5519.801          38.000                                                                  
> 2024 04 17 00 16 30.4910000  0 29                     
G15  20204916.910   106177416.773       -3858.121          46.000    20204927.978    82735647.923       -3006.204          43.000  
G19  20622474.502   108372337.877       -4007.899          42.000                                                                  
G24  17602422.256    92501562.278        -590.951          49.000    17602420.910    72079250.032        -460.514          45.000  
R09  17427252.182    93060652.982          35.076          52.000    17427249.557    72380813.784          27.107          51.000  
R08  19729879.119                         418.470          28.000    19729876.069    82174327.235         325.153          34.000  
R16  18763586.854   100231730.012       -2347.977          46.000    18763587.055    77958542.819       -1826.353          48.000  
R06  20371001.323   108703552.163       -4695.592          35.000                                                                  
R10  19744216.794   105247829.326        1512.154          42.000                                                                  
G12  18376248.690    96568086.453        -403.789          49.000    18376245.072    75248172.373        -314.419          46.000  
E08  24233304.177   127346715.885       -3835.228          43.000    24233328.535    97577336.018       -2938.711          43.000  
S31  35953427.931   188936544.852        -758.250          44.000  
S33  36906432.112   193944593.660        -758.799          43.000  
G11  20773471.043   109165742.075        1592.313          46.000    20773475.345    85064430.601        1240.819          47.000  
E36  24908857.832   130896983.078       -1360.447          38.000    24908860.912   100297705.409       -1042.405          44.000  
R19  17656833.002    94452607.806         762.142          43.000    17656831.128    73463341.360         592.708          48.000  
R07  18629304.630    99724122.918       -2789.383          50.000    18629306.196    77563225.118       -2169.549          49.000  
R18  18677127.333    99699893.954       -2584.280          49.000    18677125.266    77544553.067       -2009.987          46.000  
R20  20354750.682   108846055.003        3643.050          33.000    20354778.220    84658160.841        2833.050          32.000  
E07  21553844.292   113266369.180       -2419.696          47.000    21553849.894    86788558.023       -1854.056          52.000  
E27  21970704.015   115457239.158         195.900          47.000    21970708.003    88467457.725         150.060          51.000  
E34  23392251.723   122927415.995         838.634          46.000    23392256.775    94191203.792         642.616          46.000  
G25  19618793.335   103097699.024         870.125          47.000    19618795.375    80335942.169         677.945          44.000  
E30  21252619.486   111683748.736       -1579.650          49.000    21252621.207    85576132.739       -1210.317          52.000  
G06  20480748.144   107627259.186          62.630          41.000    20480750.078    83865491.849          48.660          40.000  
E02  24460736.227   128542014.573       -2635.775          38.000    24460737.491    98493662.434       -2019.695          41.000  
G29  21641564.237   113727449.150        2925.947          37.000    21641595.879    88618587.154        2279.626          34.000  
E15  24424328.435   128350945.761        2038.526          43.000    24424353.956    98347002.759        1561.903          45.000  
E18  24592441.953   129234631.868       -5513.162          37.000                                                                  
G32                                                                  21179914.767    86728145.934        1178.259          35.000  
> 2024 04 17 00 17 00.4910000  0 29                     
G15  20226953.337   106293219.250       -3862.353          44.000    20226965.332    82825882.937       -3009.436          44.000  
G19  20645373.181   108492669.516       -4014.489          42.000                                                                  
G24  17605835.519    92519497.665        -604.974          49.000    17605834.607    72093225.649        -471.349          46.000  
R09  17427067.942    93059665.548          30.542          52.000    17427065.851    72380045.809          23.686          52.000  
R08  19727594.377                1        393.673          31.000    19727604.386    82164857.627         306.142          39.000  
R16  18776784.904   100302228.548       -2352.316          47.000    18776784.793    78013374.995       -1829.491          49.000  
R06  20397400.673   108844417.834       -4696.256          35.000                                                                  
R10  19735704.641   105202446.708        1512.857          43.000                                                                  
G12  18378569.322    96580280.331        -409.484          49.000    18378565.233    75257674.177        -319.089          46.000  
E08  24255201.300   127461778.394       -3835.543          43.000    24255224.908    97665499.856       -2939.097          43.000  
S31  35957754.481   188959282.035        -757.842          45.000  
S33  36910762.649   193967352.928        -758.548          43.000  
G11  20764401.196   109118080.069        1584.746          47.000    20764404.977    85027291.809        1234.826          46.000  
E36  24916660.468   130937991.009       -1373.896          38.000    24916665.060   100329127.126       -1052.662          44.000  
R19  17652628.514    94430114.524         737.007          44.000    17652625.480    73445846.711         573.451          49.000  
R07  18644992.412    99808103.452       -2809.604          50.000    18644994.526    77628543.162       -2185.229          49.000  
R18  18691717.454    99777777.646       -2608.187          50.000    18691716.239    77605129.293       -2028.741          47.000  
R20  20334309.187   108736755.767        3643.108          35.000    20334339.329    84573152.503        2833.152          36.000  
E07  21567688.820   113339121.997       -2430.818          47.000    21567694.480    86844303.627       -1862.438          52.000  
E27  21969593.490   115451401.624         193.085          47.000    21969596.798    88462984.917         147.936          51.000  
E34  23387493.170   122902405.010         828.434          46.000    23387497.128    94172039.677         634.815          46.000  
G25  19613835.022   103071643.408         866.521          46.000    19613837.379    80315639.230         675.110          45.000  
E30  21261641.419   111731156.777       -1581.249          49.000    21261642.446    85612458.411       -1211.497          52.000  
G06  20480435.894   107625618.679          46.466          40.000    20480437.955    83864213.591          36.194          39.000  
E02  24475779.596   128621060.619       -2634.031          39.000    24475778.899    98554230.183       -2018.510          39.000  
G29  21624869.482   113639723.007        2922.509          38.000    21624894.039    88550230.738        2276.476          33.000  
E15  24412686.046   128289769.455        2039.695          44.000    24412710.776    98300129.113        1562.815          45.000  
E18  24623894.244   129399919.539       -5506.542          38.000                                                                  
G32                                                                  21171320.023    86692956.582        1167.340          34.000  
> 2024 04 17 00 17 30.4910000  0 29                     
G15  20249013.348   106409144.973       -3866.197          44.000    20249026.153    82916213.970       -3012.729          44.000  
G19  20668310.892   108613204.585       -4021.365          43.000                                                                  
G24  17609329.559    92537860.688        -619.345          48.000    17609328.912    72107534.484        -482.556          46.000  
R09  17426910.042    93058820.103          25.700          52.000    17426907.788    72379388.278          20.037          51.000  
R08  19725464.492                         369.076          31.000    19725466.853    82155958.705         287.172          37.000  
R16  18790006.818   100372861.203       -2356.716          46.000    18790007.245    78068311.438       -1833.101          48.000  
R06  20423803.670   108985310.750       -4696.511          34.000                                                                  
R10  19727189.328   105157052.504        1513.309          44.000                                                                  
G12  18380923.450    96592652.841        -415.427          49.000    18380919.963    75267315.143        -323.805          46.000  
E08  24277098.967   127576855.534       -3836.070          42.000    24277124.073    97753674.900       -2939.333          42.000  
S31  35962080.012   188982014.419        -757.756          44.000  
S33  36915092.555   193990106.032        -758.614          44.000  
G11  20755376.591   109070655.002        1576.714          47.000    20755379.434    84990337.605        1228.768          45.000  
E36  24924542.554   130979405.910       -1387.569          38.000    24924545.603   100360860.664       -1063.116          42.000  
R19  17648564.526    94408378.024         711.845          44.000    17648562.324    73428940.688         553.611          49.000  
R07  18660796.069    99892694.305       -2829.937          50.000    18660796.201    77694335.895       -2200.984          48.000  
R18  18706443.670    99856385.051       -2632.457          49.000    18706441.334    77666268.442       -2047.384          47.000  
R20  20313875.602   108627494.413        3641.376          35.000    20313905.772    84488173.614        2831.978          36.000  
E07  21581597.735   113412212.032       -2442.133          47.000    21581603.003    86900307.622       -1871.179          52.000  
E27  21968500.395   115445654.015         190.019          48.000    21968502.664    88458581.000         145.547          51.000  
E34  23382791.031   122877700.476         818.367          46.000    23382795.773    94153110.387         626.892          47.000  
G25  19608898.199   103045699.266         862.829          47.000    19608899.882    80295423.139         672.404          44.000  
E30  21270672.042   111778617.593       -1582.999          48.000    21270674.258    85648824.512       -1213.011          52.000  
G06  20480218.142   107624473.039          29.857          42.000    20480218.959    83863320.989          23.161          38.000  
E02  24490811.973   128700064.362       -2632.895          38.000    24490813.303    98614765.516       -2017.311          39.000  
G29  21608197.742   113552117.456        2917.972          38.000    21608224.307    88481968.448        2274.583          34.000  
E15  24401038.037   128228564.153        2040.476          44.000    24401062.240    98253233.176        1563.450          45.000  
E18  24655310.369   129565015.074       -5500.139          38.000                                                                  
G32                                                                  21162807.588                        1155.908          31.000  
> 2024 04 17 00 18 00.4910000  0 29                     
G15  20271095.525   106525184.825       -3870.389          45.000    20271108.029    83006633.927       -3015.702          43.000  
G19  20691284.723   108733934.290       -4027.715          42.000                                                                  
G24  17612904.056    92556646.758        -633.622          49.000    17612903.497    72122172.987        -493.722          46.000  
G32  21154378.597   111166928.9403       1467.847          31.000    21154380.732                        1144.489          28.000  
R09  17426777.430    93058111.634          20.943          52.000    17426774.879    72378837.287          16.305          51.000  
R08  19723487.485                1        343.674          33.000    19723466.247    82147626.688         268.208          37.000  
R16  18803255.785   100443622.297       -2361.180          48.000    18803254.417    78123347.828       -1836.586          49.000  
R06  20450210.745   109126220.338       -4697.209          34.000                                                                  
R10  19718669.315   105111640.570        1513.521          43.000                                                                  
G12  18383309.221    96605196.530        -421.348          48.000    18383306.829    75277089.516        -328.359          46.000  
E08  24298999.766   127691939.563       -3836.565          42.000    24299024.464    97841855.223       -2939.594          42.000  
S31  35966403.480   189004734.299        -757.586          44.000  
S33  36919419.936   194012847.423        -758.415          43.000  
G11  20746396.110   109023463.941        1568.859          46.000    20746398.516    84953565.726        1222.312          45.000  
E36  24932500.034   131021221.511       -1400.464          38.000    24932502.726   100392901.253       -1073.304          41.000  
R19  17644641.357    94387394.701         686.500          43.000    17644639.996    73412620.454         533.937          50.000  
R07  18676711.193    99977885.403       -2850.021          51.000    18676711.372    77760595.502       -2216.828          49.000  
R18  18721301.750    99935707.467       -2656.349          49.000    18721302.227    77727963.678       -2066.073          49.000  
R20  20293449.052   108518268.961        3639.771          34.000    20293477.538    84403222.702        2830.715          36.000  
E07  21595568.530   113485631.969       -2452.992          46.000    21595574.182    86956564.413       -1879.606          51.000  
E27  21967421.897   115439989.825         187.216          48.000    21967424.205    88454241.009         143.418          50.000  
E34  23378147.601   122853298.279         808.041          46.000    23378152.274    94134412.731         619.136          47.000  
G25  19603980.878   103019860.253         859.226          46.000    19603982.251    80275288.997         669.629          44.000  
E30  21279711.227   111826124.793       -1584.688          48.000    21279714.671    85685226.154       -1214.191          53.000  
G06  20480091.963   107623818.100          13.365          40.000    20480094.174    83862810.777          10.398          39.000  
E02  24505833.994   128779019.864       -2631.221          36.000    24505837.772    98675263.870       -2016.011          38.000  
G29  21591548.589   113464628.884        2914.012          40.000    21591571.448                        2269.386          32.000  
E15  24389383.235   128167325.994        2041.601          43.000    24389407.393    98206312.048        1564.057          45.000  
E18  24686688.011   129729910.705       -5493.061          37.000                                                                  
> 2024 04 17 00 18 30.4910000  0 29                     
G15  20293199.467   106641338.899       -3873.531          46.000    20293212.070    83097142.890       -3018.412          43.000  
G19  20714296.161   108854859.035       -4034.071          41.000                                                                  
G24  17616560.322    92575860.264        -647.603          49.000    17616560.326    72137144.564        -504.753          47.000  
G32  21146038.012   111123177.910        1453.235          29.000    21146038.192    86589456.741        1132.611          32.000  
R09  17426670.552    93057543.861          16.640          52.000    17426668.200    72378395.740          12.927          50.000  
R08  19721678.725                1        320.653          27.000    19721602.804    82139864.864         249.291          36.000  
R16  18816526.352   100514515.985       -2365.241          48.000    18816525.598    78178487.348       -1839.761          49.000  
R06  20476622.192   109267145.858       -4697.781          34.000                                                                  
R10  19710146.714   105066214.425        1514.518          43.000                                                                  
G12  18385729.407    96617914.418        -426.725          49.000    18385726.551    75286999.627        -332.585          46.000  
E08  24320902.269   127807031.777       -3836.506          43.000    24320927.248    97930041.820       -2939.499          42.000  
S31  35970725.742   189027446.397        -756.951          45.000  
S33  36923745.636   194035580.214        -757.506          44.000  
G11  20737460.895   108976513.114        1561.005          45.000    20737462.917    84916981.045        1216.382          44.000  
E36  24940534.351   131063440.667       -1414.015          37.000    24940536.388   100425251.062       -1083.472          40.000  
R19  17640859.325    94367170.201         661.604          43.000    17640859.089    73396890.441         514.588          49.000  
R07  18692738.381   100063676.421       -2869.561          51.000    18692738.483    77827321.703       -2231.918          49.000  
R18  18736296.218   100015745.607       -2679.758          49.000    18736295.193    77790215.671       -2084.285          47.000  
R20  20273029.090   108409086.629        3638.677          34.000    20273057.459    84318305.356        2830.047          37.000  
E07  21609602.734   113559383.550       -2463.932          46.000    21609608.529    87013075.302       -1887.906          51.000  
E27  21966359.467   115434411.660         184.469          47.000    21966362.688    88449966.916         141.326          50.000  
E34  23373561.716   122829203.285         798.101          46.000    23373567.615    94115950.473         611.429          48.000  
G25  19599084.393   102994129.113         856.022          46.000    19599085.612    80255238.938         666.890          44.000  
E30  21288761.937   111873681.104       -1586.046          48.000    21288764.087    85721665.414       -1215.263          53.000  
G06  20480062.815   107623658.746          -2.756          40.000    20480062.409    83862686.664          -2.139          38.000  
E02  24520851.422   128857930.400       -2629.298          37.000    24520854.473    98735727.831       -2015.178          39.000  
G29  21574922.517   113377262.487        2910.093          41.000    21574947.277    88345721.799        2267.245          33.000  
E15  24377722.881   128106060.178        2042.429          42.000    24377747.411    98159369.670        1565.012          45.000  
E18  24718030.136   129894607.847       -5486.575          38.000                                                                  
> 2024 04 17 00 19 00.4910000  0 29                     
G15  20315324.295   106757602.584       -3877.416          46.000    20315336.447    83187737.242       -3021.325          42.000  
G19  20737345.064   108975974.214       -4040.288          44.000                                                                  
G24  17620298.749    92595500.659        -661.892          49.000    17620297.629    72152448.755        -515.706          47.000  
G32  21137786.113   111079790.790        1438.342          32.000    21137784.317    86555648.718        1120.990          34.000  
R09  17426589.797    93057115.307          11.840          51.000    17426587.778    72378062.463           9.227          50.000  
R08  19719879.773   105599068.3021        296.765          32.000    19719873.216    82132672.416         230.415          38.000  
R16  18829821.652   100585540.915       -2369.854          48.000    18829821.891    78233728.905       -1843.106          49.000  
R06  20503035.342   109408081.109       -4698.547          35.000                                                                  
R10  19701622.218   105020772.420        1514.744          44.000                                                                  
G12  18388183.101    96630804.416        -432.689          49.000    18388179.723    75297043.796        -336.958          46.000  
E08  24342805.940   127922128.517       -3836.826          43.000    24342830.545    98018231.886       -2939.910          42.000  
S31  35975045.502   189050147.637        -756.625          44.000  
S33  36928069.572   194058303.859        -757.350          43.000  
G11  20728570.549   108929803.646        1552.917          45.000    20728575.214    84880584.516        1209.929          45.000  
E36  24948646.180   131106061.256       -1427.492          36.000    24948646.430   100457908.385       -1093.505          39.000  
R19  17637221.162    94347705.171         636.106          43.000    17637220.590    73381751.111         494.661          50.000  
R07  18708875.273   100150061.618       -2889.524          52.000    18708875.809    77894509.997       -2247.255          49.000  
R18  18751423.560   100096495.302       -2703.553          50.000    18751422.876    77853021.010       -2102.777          49.000  
R20  20252617.243   108299950.443        3637.299          34.000    20252644.714    84233423.936        2828.640          39.000  
E07  21623699.613   113633463.473       -2474.797          47.000    21623705.755    87069837.776       -1896.162          51.000  
E27  21965313.967   115428917.163         181.644          47.000    21965317.479    88445756.937         139.242          51.000  
E34  23369035.501   122805415.393         787.689          46.000    23369040.975    94097723.519         603.559          48.000  
G25  19594208.093   102968503.579         852.250          47.000    19594209.060    80235271.162         664.112          44.000  
E30  21297820.495   111921284.234       -1587.676          48.000    21297822.772    85758140.545       -1216.422          52.000  
G06  20480124.926   107623994.797         -19.620          39.000    20480126.905    83862948.598         -15.362          39.000  
E02  24535858.345   128936794.253       -2628.292          36.000    24535862.093    98796155.961       -2013.844          39.000  
G29  21558317.993   113290018.327        2905.844          42.000    21558339.481    88277741.302        2264.715          33.000  
E15  24366058.134   128044766.918        2043.414          42.000    24366082.238    98112406.263        1565.738          45.000  
E18  24749333.229   130059102.679       -5479.816          39.000                                                                  
> 2024 04 17 00 19 30.4910000  0 29                     
G15  20337469.070   106873973.591       -3881.373          45.000    20337481.259    83278415.210       -3024.586          42.000  
G19  20760427.581   109097277.635       -4047.152          44.000                                                                  
G24  17624117.687    92615569.642        -676.683          49.000    17624116.597    72168086.935        -527.218          47.000  
G32  21129611.285                        1423.303          24.000    21129614.180    86522189.318        1109.259          33.000  
R09  17426535.318    93056827.601           6.637          50.000    17426534.504    72377838.749           5.116          50.000  
R08  19718287.651                         271.479          32.000    19718286.038    82126050.477         210.764          40.000  
R16  18843141.731   100656698.320       -2374.636          47.000    18843142.238    78289073.547       -1846.912          49.000  
R06  20529449.569   109549022.152       -4698.898          33.000                                                                  
R10  19693093.671   104975314.546        1515.024          43.000                                                                  
G12  18390669.073    96643865.494        -438.742          50.000    18390664.967    75307221.300        -341.867          46.000  
E08  24364709.101   128037228.398       -3837.225          42.000    24364734.650    98106424.376       -2940.229          43.000  
S31  35979363.384   189072839.274        -756.955          44.000  
S33  36932391.236   194081016.088        -757.674          43.000  
G11  20719728.644   108883339.266        1544.077          45.000    20719732.696    84844378.937        1203.313          44.000  
E36  24956831.933   131149083.199       -1441.107          34.000    24956833.360   100490873.334       -1104.408          39.000  
R19  17633724.778    94329002.223         610.325          43.000    17633723.224    73367204.509         474.543          49.000  
R07  18725123.773   100237037.964       -2909.545          51.000    18725123.198    77962158.174       -2263.103          47.000  
R18  18766683.277   100177954.504       -2727.622          49.000    18766681.704    77916378.185       -2121.509          47.000  
R20  20232215.600   108190864.235        3634.283          34.000    20232241.483    84148581.364        2827.043          39.000  
E07  21637859.559   113707870.816       -2486.198          48.000    21637864.985    87126851.138       -1904.990          51.000  
E27  21964284.091   115423506.223         178.621          47.000    21964288.120    88441610.986         136.786          51.000  
E34  23364567.254   122781936.744         776.935          46.000    23364573.071    94079733.556         595.331          48.000  
G25  19589351.010   102942983.709         848.385          47.000    19589353.453    80215385.711         660.976          44.000  
E30  21306888.056   111968934.228       -1589.680          48.000    21306890.121    85794651.587       -1218.010          52.000  
G06  20480284.796   107624828.325         -36.588          40.000    20480284.893    83863598.177         -28.433          39.000  
E02  24550858.441   129015611.939       -2627.536          35.000    24550861.046    98856548.730       -2012.985          40.000  
G29  21541737.780   113202899.220        2901.478          42.000    21541765.060    88209858.368        2260.489          35.000  
E15  24354388.848   127983448.732        2043.790          42.000    24354412.436    98065423.709        1566.049          45.000  
E18  24780597.105   130223393.935       -5473.797          40.000                                                                  
> 2024 04 17 00 20 00.4910000  0 29                     
G15  20359638.079   106990469.165       -3885.680          45.000    20359651.348    83369190.185       -3027.526          42.000  
G19  20783549.818   109218786.622       -4053.999          43.000                                                                  
G24  17628022.570    92636088.593        -691.683          49.000    17628021.288    72184075.722        -539.066          47.000  
G32  21121532.183   110994381.442        1408.063          34.000    21121530.862                        1096.472          31.000  
R09  17426512.620    93056701.977           1.305          52.000    17426510.541    72377741.079           1.006          51.000  
R08  19716841.540   105582796.023         245.994          42.000    19716837.914    82120016.115         191.240          39.000  
R16  18856491.741   100728009.200       -2379.767          48.000    18856491.652    78344537.523       -1850.932          48.000  
R06  20555867.032   109689985.632       -4699.056          32.000                                                                  
R10  19684566.754   104929861.476        1514.941          44.000                                                                  
G12  18393190.676    96657117.176        -445.122          50.000    18393186.454    75317547.338        -346.895          46.000  
E08  24386616.243   128152349.790       -3837.904          41.000    24386642.547    98194633.331       -2940.606          42.000  
S31  35983683.476   189095541.860        -756.989          44.000  
S33  36936715.672   194103740.085        -757.757          43.000  
G11  20710938.863   108837143.142        1535.358          46.000    20710941.175    84808382.347        1196.369          45.000  
E36  24965098.910   131192526.393       -1455.329          34.000    24965100.642   100524161.012       -1115.021          39.000  
R19  17630375.825    94311085.190         584.014          43.000    17630374.336    73353269.147         454.202          49.000  
R07  18741484.268   100324621.615       -2929.727          51.000    18741484.651    78030278.650       -2278.642          47.000  
R18  18782080.522   100260140.963       -2751.838          50.000    18782078.448    77980301.054       -2140.156          47.000  
R20  20211827.771   108081853.330        3632.093          35.000    20211853.046    84063797.430        2824.775          39.000  
E07  21652085.269   113782624.308       -2497.569          48.000    21652090.192    87184129.721       -1913.794          51.000  
E27  21963274.296   115418198.511         175.172          48.000    21963278.107    88437544.128         134.132          51.000  
E34  23360162.186   122758789.259         765.878          45.000    23360167.950    94061997.317         586.885          49.000  
G25  19584518.763   102917589.273         844.330          46.000    19584520.888    80195597.969         657.899          44.000  
E30  21315969.019   112016650.803       -1591.806          48.000    21315970.098    85831213.659       -1219.729          52.000  
G06  20480542.767   107626181.132         -53.796          40.000    20480543.339    83864652.466         -42.254          40.000  
E02  24565849.064   129094403.563       -2626.332          32.000    24565854.583    98916921.594       -2012.383          41.000  
G29  21525186.391   113115927.558        2896.401          42.000    21525213.584    88142090.360        2256.803          37.000  
E15  24342719.391   127922127.895        2043.857          42.000    24342742.098    98018439.111        1566.029          45.000  
E18  24811825.600   130387499.934       -5466.933          41.000                                                                  
> 2024 04 17 00 20 30.4910000  0 29                     
G15  20381832.282   107107095.836       -3889.728          45.000    20381845.429    83460067.374       -3030.997          42.000  
G19  20806711.841   109340508.256       -4060.987          43.000                                                                  
G24  17632014.919    92657068.318        -707.113          49.000    17632013.616    72200423.558        -550.915          47.000  
G32  21113541.285   110952392.787        1390.747          31.000    21113540.493                        1084.760          29.000  
R09  17426521.798    93056748.665          -4.406          51.000    17426519.468    72377777.419          -3.523          51.000  
R08  19715534.867   105575802.923         220.296          38.000    19715531.169    82114577.065         171.232          38.000  
R16  18869871.860   100799484.478       -2385.420          47.000    18869872.275    78400129.347       -1855.372          48.000  
R06  20582290.827   109830976.729       -4700.950          33.000                                                                  
R10  19676043.529   104884423.027        1514.352          44.000                                                                  
G12  18395749.760    96670568.553        -451.696          50.000    18395746.696    75328028.974        -351.988          46.000  
E08  24408529.357   128267500.437       -3838.882          41.000    24408556.186    98282864.708       -2941.418          43.000  
S31  35988007.096   189118263.637        -758.041          44.000  
S33  36941043.408   194126483.111        -758.646          43.000  
G11  20702201.245   108791227.875        1525.708          46.000    20702203.180    84772604.584        1188.811          44.000  
E36  24973441.702   131236399.976       -1469.632          34.000    24973448.753   100557778.449       -1126.058          36.000  
R19  17627174.864    94293965.697         557.098          44.000    17627173.992    73339954.135         433.458          49.000  
R07  18757960.852   100412819.260       -2950.119          51.000    18757960.897    78098876.655       -2294.460          48.000  
R18  18797613.320   100343061.841       -2776.255          50.000    18797611.818    78044795.097       -2159.325          46.000  
R20  20191458.163   107972931.461        3629.158          38.000    20191481.496    83979082.627        2822.318          39.000  
E07  21666377.990   113857732.030       -2509.546          48.000    21666382.985    87241679.727       -1922.885          52.000  
E27  21962286.073   115413003.035         171.306          49.000    21962289.289    88433563.264         131.196          51.000  
E34  23355820.586   122735984.140         754.196          43.000    23355827.536    94044523.380         578.092          48.000  
G25  19579712.112   102892329.439         839.580          46.000    19579714.018    80175915.119         654.549          44.000  
E30  21325063.947   112064443.088       -1594.406          49.000    21325064.569    85867833.738       -1221.674          52.000  
G06  20480900.941   107628064.420         -71.438          41.000    20480901.781    83866120.048         -55.731          41.000  
E02  24580842.220   129173178.979       -2626.077          35.000    24580844.236    98977281.977       -2011.824          40.000  
G29  21508664.729   113029115.185        2891.046          43.000    21508691.962    88074446.540        2252.348          38.000  
E15  24331051.863   127860815.972        2043.590          43.000    24331072.733    97971461.264        1565.820          45.000  
E18  24843019.948   130551428.529       -5461.506          40.000                                                                  
> 2024 04 17 00 21 00.4910000  0 29                     
G15  20404047.421   107223835.130       -3892.972          44.000    20404061.359    83551032.263       -3033.389          43.000  
G19  20829911.675   109462424.583       -4067.066          43.000                                                                  
G24  17636092.544    92678494.680        -721.677          50.000    17636091.061    72217119.414        -562.319          47.000  
G32  21105640.252                        1376.630          26.000    21105631.727                1       1072.736          26.000  
R09  17426560.292    93056952.971          -9.407          52.000    17426557.410    72377936.337          -7.240          50.000  
R08  19714365.307   105569560.827         195.481          40.000    19714364.854    82109722.092         152.384          38.000  
R16  18883280.559   100871108.992       -2390.122          48.000    18883279.434    78455837.284       -1858.862          47.000  
R06  20608714.503   109971975.891       -4700.109          34.000                                                                  
R10  19667519.634   104838984.162        1514.651          44.000                                                                  
G12  18398344.219    96684203.619        -457.535          49.000    18398341.246    75338653.742        -356.344          46.000  
E08  24430444.569   128382663.125       -3838.875          40.000    24430472.414    98371105.277       -2941.241          43.000  
S31  35992331.797   189140990.697        -757.500          44.000  
S33  36945372.125   194149231.031        -758.350          43.000  
G11  20693515.180   108745581.139        1517.157          44.000    20693517.286    84737036.052        1182.066          45.000  
E36  24981875.194   131280688.187       -1483.126          36.000    24981876.142   100591713.579       -1136.603          35.000  
R19  17624120.970    94277630.555         531.332          44.000    17624119.238    73327249.147         413.332          48.000  
R07  18774548.250   100501611.117       -2969.548          52.000    18774548.352    78167936.808       -2309.668          48.000  
R18  18813281.599   100426698.836       -2799.757          49.000    18813280.169    78109846.159       -2177.545          47.000  
R20  20171102.314   107864086.666        3626.777          39.000    20171125.212    83894427.736        2820.726          41.000  
E07  21680734.441   113933177.177       -2520.403          47.000    21680739.598    87299488.274       -1931.123          51.000  
E27  21961314.833   115407903.894         168.394          48.000    21961318.831    88429656.213         129.128          51.000  
E34  23351544.503   122713507.701         743.892          44.000    23351550.624    94027301.317         569.998          48.000  
G25  19574927.335   102867188.436         836.235          44.000    19574929.926    80156324.861         651.566          45.000  
E30  21334169.598   112112295.305       -1595.955          49.000    21334170.564    85904499.757       -1222.925          52.000  
G06  20481357.865   107630464.408         -88.621          40.000    20481357.905    83867990.281         -69.240          40.000  
E02  24595825.480   129251922.782       -2624.142          34.000    24595829.191    99037618.169       -2010.693          40.000  
G29  21492170.919   112942448.715        2886.672          43.000    21492197.518    88006916.380        2249.397          37.000  
E15  24319382.999   127799499.759        2043.934          43.000    24319403.419    97924480.129        1566.300          45.000  
E18  24874176.205   130715162.550       -5454.432          39.000                                                                  
> 2024 04 17 00 21 30.4910000  0 29                     
G15  20426282.934   107340683.098       -3897.029          43.000    20426297.502    83642081.820       -3036.534          43.000  
G19  20853148.019   109584531.590       -4073.583          44.000                                                                  
G24  17640254.879    92700367.907        -736.878          49.000    17640253.824    72234163.483        -574.239          48.000  
R09  17426627.203    93057314.616         -15.097          51.000    17426624.357    72378217.686         -11.752          50.000  
R08  19713340.313   105564069.533         170.022          43.000    19713339.498    82105451.125         132.232          37.000  
R16  18896717.301   100942882.258       -2395.379          48.000    18896715.678    78511660.922       -1863.088          48.000  
R06  20635138.445   110112977.883       -4700.882          34.000                                                                  
R10  19658994.158   104793543.401        1514.283          43.000                                                                  
G12  18400973.511    96698020.341        -464.038          50.000    18400969.554    75349420.073        -361.452          45.000  
E08  24452361.244   128497835.107       -3839.708          41.000    24452390.631    98459352.982       -2942.037          44.000  
S31  35996657.204   189163720.463        -757.988          44.000  
S33  36949701.553   194171982.754        -758.989          43.000  
G11  20684878.016   108700204.965        1507.552          43.000    20684882.160    84701678.379        1174.759          45.000  
E36  24990381.223   131325389.618       -1497.489          36.000    24990382.926   100625965.317       -1147.248          37.000  
R19  17621215.066    94262081.082         504.974          44.000    17621212.887    73315155.258         392.698          49.000  
R07  18791245.244   100590992.397       -2989.514          51.000    18791246.175    78237455.426       -2325.242          49.000  
R18  18829083.418   100511048.468       -2823.854          50.000    18829080.618    78175451.458       -2196.392          45.000  
R20  20150760.737   107755322.330        3623.073          37.000    20150783.762    83809835.429        2818.434          42.000  
E07  21695155.553   114008957.333       -2532.009          47.000    21695160.325    87357553.510       -1940.027          52.000  
E27  21960362.450   115402899.599         164.905          48.000    21960366.316    88425821.831         126.354          51.000  
E34  23347331.020   122691360.710         732.419          45.000    23347336.382    94010331.679         561.182          49.000  
G25  19570165.800   102842164.877         831.831          45.000    19570167.599    80136826.129         648.288          44.000  
E30  21343286.899   112160206.090       -1598.393          49.000    21343287.805    85941210.633       -1224.707          52.000  
G06  20481911.714   107633381.617        -106.105          39.000    20481913.155    83870263.535         -82.852          41.000  
E02  24610806.279   129330634.208       -2623.646          36.000    24610806.927    99097929.514       -2010.238          39.000  
G29  21475706.026   112855929.413        2881.187          43.000    21475730.696    87939500.977        2244.737          37.000  
E15  24307713.653   127738180.307        2043.721          44.000    24307733.330    97877496.543        1565.776          45.000  
E18  24905295.811   130878699.305       -5448.167          39.000                                                                  
G32                                                                  21097804.005                1       1060.028          25.000  
> 2024 04 17 00 22 00.4910000  0 29                     
G15  20448539.856   107457644.417       -3900.690          43.000    20448555.208    83733219.697       -3039.353          42.000  
G19  20876421.853   109706834.111       -4080.146          45.000                                                                  
G24  17644503.424    92722696.449        -752.141          49.000    17644502.981    72251562.347        -585.913          48.000  
G32  21090105.998   110829322.3051       1344.305          30.000    21090105.841                        1047.607          28.000  
R09  17426726.025    93057841.603         -20.410          52.000    17426722.301    72378627.612         -15.943          49.000  
R08  19712457.197   105559336.547         144.868          44.000    19712455.627    82101769.834         112.770          40.000  
R16  18910182.911   101014812.776       -2400.363          48.000    18910181.435    78567606.887       -1866.937          47.000  
R06  20661563.666   110253985.870       -4700.654          34.000                                                                  
R10  19650469.750   104748108.555        1514.509          41.000                                                                  
G12  18403639.077    96712026.000        -470.075          50.000    18403634.656    75360333.634        -366.318          45.000  
E08  24474281.416   128613021.737       -3840.117          41.000    24474310.229    98547611.922       -2942.197          43.000  
S31  36000984.681   189186461.202        -758.251          44.000  
S33  36954032.703   194194744.023        -758.899          43.000  
G11  20676295.279   108655109.702        1498.151          43.000    20676300.388    84666539.605        1167.579          44.000  
E36  24998966.726   131370511.074       -1511.052          36.000    24998969.419   100660538.914       -1157.696          38.000  
R19  17618456.920    94247327.037         478.235          44.000    17618454.611    73303680.033         371.944          48.000  
R07  18808052.855   100680966.524       -3009.041          51.000    18808054.068    78307435.138       -2340.409          49.000  
R18  18845019.053   100596115.227       -2847.563          49.000    18845018.296    78241614.515       -2214.760          48.000  
R20  20130436.594   107646650.646        3620.956          37.000    20130460.073    83725315.192        2815.957          41.000  
E07  21709638.837   114085078.214       -2543.171          45.000    21709646.073    87415879.820       -1948.681          52.000  
E27  21959429.971   115397996.835         161.620          49.000    21959433.370    88422065.241         123.904          51.000  
E34  23343181.261   122669551.991         721.184          45.000    23343185.571    93993621.282         552.622          48.000  
G25  19565427.665   102817265.583         827.742          45.000    19565429.276    80117424.218         645.007          45.000  
E30  21352416.031   112208182.297       -1600.302          49.000    21352417.356    85977971.653       -1226.276          52.000  
G06  20482567.201   107636824.854        -123.790          41.000    20482567.284    83872946.653         -96.345          39.000  
E02  24625781.638   129409320.446       -2622.346          36.000    24625779.749    99158221.641       -2009.541          38.000  
G29  21459270.181   112769567.012        2875.887          43.000    21459293.730    87872207.794        2240.902          39.000  
E15  24296045.409   127676866.910        2043.659          45.000    24296064.898    97830517.486        1565.719          45.000  
E18  24936379.334   131042044.196       -5441.505          40.000                                                                  
> 2024 04 17 00 22 30.4910000  0 29                     
G15  20470817.067   107574708.633       -3904.079          44.000    20470832.079    83824437.699       -3042.203          42.000  
G19  20899730.486   109829321.978       -4086.391          45.000                                                                  
G24  17648837.379    92745473.714        -767.072          49.000    17648836.716    72269310.889        -597.778          48.000  
G32  21082483.140   110789220.724        1328.894          33.000    21082469.632                        1035.284          28.000  
R09  17426854.529    93058527.254         -25.784          52.000    17426850.496    72379160.933         -20.046          49.000  
R08  19711714.578   105555355.363         120.048          44.000    19711712.727    82098673.354          93.389          41.000  
R16  18923677.314   101086892.791       -2405.482          50.000    18923675.644    78623669.101       -1870.885          47.000  
R06  20687988.315   110394987.814       -4700.376          32.000                                                                  
R10  19641945.088   104702671.279        1514.373          41.000                                                                  
G12  18406338.434    96726211.879        -476.160          50.000    18406334.502    75371387.609        -371.013          45.000  
E08  24496202.912   128728213.480       -3840.157          41.000    24496231.224    98635874.826       -2942.526          42.000  
S31  36005312.346   189209204.888        -758.431          44.000  
S33  36958364.649   194217508.925        -758.916          43.000  
G11  20667768.257   108610290.751        1489.033          44.000    20667770.906    84631616.037        1160.375          45.000  
E36  25007631.985   131416044.418       -1524.704          36.000    25007634.371   100695428.130       -1168.502          38.000  
R19  17615846.420    94233362.105         452.098          44.000    17615843.907    73292818.539         351.509          49.000  
R07  18824969.375   100771521.591       -3028.336          50.000    18824971.165    78377866.762       -2355.463          48.000  
R18  18861086.589   100681888.611       -2871.205          49.000    18861086.425    78308327.149       -2233.054          46.000  
R20  20110127.997   107538067.774        3617.702          37.000    20110151.805    83640863.922        2813.716          42.000  
E07  21724187.768   114161530.639       -2554.108          45.000    21724194.415    87474460.164       -1957.056          52.000  
E27  21958514.450   115393187.377         158.570          49.000    21958518.026    88418380.169         121.441          51.000  
E34  23339093.993   122648075.539         710.185          44.000    23339098.131    93977165.467         544.117          47.000  
G25  19560711.001   102792482.472         823.779          45.000    19560712.729    80098112.845         642.030          44.000  
E30  21361556.510   112256215.801       -1602.338          49.000    21361557.813    86014776.561       -1227.769          52.000  
G06  20483322.172   107640787.985        -141.052          40.000    20483321.421    83876034.948        -109.927          39.000  
E02  24640746.430   129487974.028       -2621.139          33.000    24640747.333    99218488.668       -2008.551          37.000  
G29  21442862.715   112683355.776        2871.145          42.000    21442885.811    87805032.398        2237.141          39.000  
E15  24284376.176   127615553.931        2043.476          44.000    24284396.539    97783538.723        1565.701          45.000  
E18  24967423.524   131205187.862       -5434.703          40.000                                                                  
> 2024 04 17 00 23 00.4910000  0 29                     
G15  20493115.336   107691876.866       -3907.472          45.000    20493128.850    83915736.705       -3044.776          40.000  
G19  20923074.938   109951996.757       -4092.426          47.000                                                                  
G24  17653258.833    92768705.202        -782.094          50.000    17653257.532    72287413.347        -609.443          48.000  
G32  21074941.662   110749597.683        1312.128          32.000    21074921.182                        1022.717          25.000  
R09  17427012.766    93059376.374         -31.307          51.000    17427009.999    72379821.397         -24.380          50.000  
R08  19711111.253   105552131.058          94.923          44.000    19711110.382    82096165.560          73.584          41.000  
R16  18937200.242   101159127.643       -2410.653          50.000    18937196.445    78679851.755       -1875.034          45.000  
R06  20714408.893                1      -4699.529          30.000                                                                  
R10  19633421.785   104657236.717        1514.261          41.000                                                                  
G12  18409072.848    96740581.047        -482.301          50.000    18409068.414    75382584.399        -375.848          45.000  
E08  24518125.701   128843412.885       -3840.278          41.000    24518153.563    98724143.572       -2942.802          42.000  
S31  36009641.872   189231955.803        -758.694          44.000  
S33  36962697.962   194240280.676        -759.327          43.000  
G11  20659294.179   108565755.335        1479.520          46.000    20659296.099    84596913.398        1152.853          46.000  
E36  25016376.568   131461993.427       -1538.589          38.000    25016378.230   100730635.885       -1179.175          38.000  
R19  17613383.661    94220193.694         425.297          43.000    17613382.335    73282576.599         330.917          49.000  
R07  18841994.742   100862658.214       -3047.772          51.000    18841996.868    78448750.634       -2370.417          48.000  
R18  18877286.202   100768370.135       -2894.634          46.000    18877286.966    78375590.591       -2251.552          46.000  
R20  20089839.517   107429582.357        3614.525          37.000    20089862.066    83556488.444        2810.930          41.000  
E07  21738799.928   114238317.392       -2565.268          46.000    21738806.329    87533296.713       -1965.628          51.000  
E27  21957617.651   115388475.020         155.238          49.000    21957621.249    88414769.474         118.918          51.000  
E34  23335071.226   122626937.347         698.817          44.000    23335075.509    93960968.829         535.334          47.000  
G25  19556017.548   102767819.430         819.945          46.000    19556019.002    80078895.050         638.928          44.000  
E30  21370708.739   112304310.494       -1604.501          49.000    21370709.849    86051628.356       -1229.218          52.000  
G06  20484175.736   107645276.712        -158.833          40.000    20484174.687    83879532.726        -123.767          39.000  
E02  24655707.546   129566599.171       -2620.515          34.000    24655710.154    99278734.015       -2008.181          38.000  
G29  21426485.926   112597302.339        2865.534          41.000    21426508.119    87737979.931        2232.678          39.000  
E15  24272708.911   127554247.728        2043.295          43.000    24272729.105    97736565.108        1565.537          45.000  
E18  24998431.143   131368132.935       -5428.203          39.000                                                                  
> 2024 04 17 00 23 30.4910000  0 29                     
G15  20515429.600   107809135.096       -3910.297          46.000    20515442.538    84007105.865       -3046.798          40.000  
G19  20946451.794   110074844.694       -4098.141          46.000                                                                  
G24  17657764.494    92792381.216        -796.928          50.000    17657762.740    72305862.189        -621.007          47.000  
G32  21067486.272   110710444.341        1297.308          32.000    21067463.566                3       1015.344          25.000  
R09  17427200.113    93060378.923         -36.264          50.000    17427198.204    72380601.183         -28.119          50.000  
R08  19710648.003   105549652.694          70.012          45.000    19710646.534    82094237.910          54.571          40.000  
R16  18950747.976   101231507.170       -2415.309          48.000    18950747.163    78736146.954       -1878.647          46.000  
R06  20740830.353                       -4698.821          29.000                                                                  
R10  19624898.554   104611793.878        1514.592          41.000                                                                  
G12  18411839.688    96755121.987        -487.890          49.000    18411835.674    75393915.049        -380.296          45.000  
E08  24540047.049   128958607.246       -3839.667          40.000    24540075.446    98812408.479       -2942.312          42.000  
S31  36013970.494   189254703.083        -758.480          44.000  
S33  36967030.520   194263048.820        -759.389          43.000  
G11  20650871.617   108521495.697        1470.377          46.000    20650874.967    84562425.688        1145.787          47.000  
E36  25025197.160   131508346.861       -1551.792          38.000    25025198.594   100766153.458       -1189.369          37.000  
R19  17611069.673    94207812.548         399.207          44.000    17611067.077    73272946.939         310.623          48.000  
R07  18859125.182   100954361.205       -3066.489          50.000    18859126.786    78520075.019       -2384.849          48.000  
R18  18893618.643   100855546.048       -2917.667          48.000    18893619.289    78443394.075       -2269.262          44.000  
R20  20069568.260   107321187.429        3611.160          37.000    20069588.145    83472183.327        2808.878          40.000  
E07  21753473.305   114315426.141       -2575.855          47.000    21753479.650    87592379.977       -1973.629          51.000  
E27  21956737.389   115383848.404         152.531          49.000    21956740.660    88411224.470         116.884          51.000  
E34  23331110.422   122606128.152         687.836          44.000    23331115.762    93945024.270         527.094          48.000  
G25  19551345.094   102743265.235         816.492          46.000    19551346.736    80059762.067         636.198          44.000  
E30  21379869.521   112352455.132       -1606.004          48.000    21379871.593    86088518.433       -1230.468          52.000  
G06  20485127.092   107650281.620        -175.449          41.000    20485127.612    83883432.839        -137.097          41.000  
E02  24670663.368   129645185.268       -2618.827          37.000    24670662.699    99338949.359       -2006.929          36.000  
G29  21410136.479   112511397.413        2860.673          38.000    21410158.856    87671043.115        2228.997          39.000  
E15  24261041.328   127492939.604        2043.217          43.000    24261061.556    97689589.979        1565.763          45.000  
E18  25029400.306   131530866.806       -5421.394          41.000                                                                  
> 2024 04 17 00 24 00.4910000  0 29                     
G15  20537761.735   107926484.636       -3912.955          47.000    20537774.686    84098546.129       -3049.112          40.000  
G19  20969861.829   110197867.101       -4103.565          46.000                                                                  
G24  17662354.949    92816506.790        -811.597          49.000    17662354.037    72324661.346        -632.528          48.000  
G32  21060126.394   110671766.563        1281.378          34.000    21060122.070                3        999.001          26.000  
R09  17427417.578    93061539.563         -41.240          50.000    17427416.078    72381503.928         -32.149          50.000  
R08  19710326.245   105547925.266          45.218          45.000    19710324.211    82092894.335          35.226          43.000  
R16  18964326.213   101304036.027       -2419.958          48.000    18964324.835    78792558.272       -1882.225          45.000  
R06  20767246.755                       -4697.961          27.000                                                                  
R10  19616372.143   104566346.903        1515.095          41.000                                                                  
G12  18414640.123    96769838.142        -493.299          50.000    18414636.150    75405382.214        -384.609          45.000  
E08  24561967.034   129073798.770       -3839.644          39.000    24561996.222    98900671.165       -2942.114          42.000  
S31  36018299.037   189277450.905        -758.241          44.000  
S33  36971363.351   194285818.048        -759.234          43.000  
G11  20642502.674   108477518.807        1461.280          47.000    20642504.880    84528158.336        1138.617          46.000  
E36  25034094.295   131555108.095       -1565.570          37.000    25034097.707   100801983.537       -1199.770          38.000  
R19  17608902.546    94196224.803         373.013          43.000    17608901.492    73263934.419         290.004          49.000  
R07  18876362.188   101046630.939       -3084.977          51.000    18876363.366    78591840.239       -2399.427          48.000  
R18  18910079.175   100943417.534       -2940.516          47.000    18910079.424    78511738.601       -2287.114          44.000  
R20  20049314.916   107212891.502        3608.716          38.000    20049333.167    83387955.200        2806.360          39.000  
E07  21768208.343   114392859.310       -2586.385          47.000    21768214.665    87651711.837       -1981.814          51.000  
E27  21955874.157   115379310.939         149.742          49.000    21955877.116    88407747.771         114.718          51.000  
E34  23327213.780   122585653.495         676.907          44.000    23327219.578    93929336.078         518.718          48.000  
G25  19546694.058   102718823.456         812.810          46.000    19546695.593    80040716.645         633.234          43.000  
E30  21389041.528   112400653.293       -1607.491          47.000    21389043.239    86125449.513       -1231.708          52.000  
G06  20486178.371   107655808.306        -192.977          41.000    20486180.221    83887739.420        -150.186          42.000  
E02  24685610.062   129723736.452       -2617.824          37.000    24685609.337    99399138.011       -2005.974          34.000  
G29  21393813.592   112425647.287        2855.759          34.000    21393838.950    87604226.922        2225.379          39.000  
E15  24249375.268   127431635.588        2043.727          44.000    24249394.208    97642618.010        1565.687          45.000  
E18  25060327.389   131693391.688       -5414.042          41.000                                                                  
> 2024 04 17 00 24 30.4910000  0 29                     
G15  20560109.947   108043922.784       -3915.996          46.000    20560123.353    84190055.458       -3051.350          40.000  
G19  20993305.051   110321061.698       -4109.320          46.000                                                                  
G24  17667031.401    92841083.319        -826.747          49.000    17667031.241    72343811.892        -644.189          48.000  
G32  21052853.440   110633566.425        1265.125          33.000    21052867.069                         986.340          29.000  
R09  17427665.520    93062859.498         -46.728          51.000    17427663.037    72382530.566         -36.434          51.000  
R08  19710145.455   105546949.508          20.093          45.000    19710141.238    82092135.389          15.635          44.000  
R16  18977933.180   101376715.045       -2425.192          49.000    18977931.021    78849086.364       -1886.207          46.000  
R06  20793648.596                3      -4699.884          22.000                                                                  
R10  19607844.695   104520896.146        1515.145          42.000                                                                  
G12  18417473.698    96784729.171        -499.306          49.000    18417469.976    75416985.652        -389.069          45.000  
E08  24583886.777   129188985.827       -3839.726          39.000    24583916.240    98988930.405       -2942.014          42.000  
S31  36022627.510   189300199.308        -758.486          44.000  
S33  36975695.909   194308587.430        -758.926          43.000  
G11  20634188.888   108433827.937        1451.532          47.000    20634190.703    84494113.794        1130.942          47.000  
E36  25043071.421   131602276.864       -1579.254          38.000    25043073.999   100838125.847       -1209.790          40.000  
R19  17606885.657    94185432.630         346.547          43.000    17606883.736    73255540.623         269.464          49.000  
R07  18893703.906   101139463.243       -3103.731          51.000    18893705.979    78664042.970       -2414.040          48.000  
R18  18926670.344   101031981.825       -2963.622          47.000    18926671.926    78580621.994       -2305.158          46.000  
R20  20029080.705   107104699.031        3604.755          38.000    20029099.381    83303807.424        2803.709          40.000  
E07  21783004.731   114470615.601       -2597.289          46.000    21783011.340    87711291.269       -1990.047          51.000  
E27  21955027.057   115374862.291         146.812          48.000    21955030.482    88404339.133         112.457          51.000  
E34  23323383.133   122565515.205         665.653          45.000    23323387.505    93913905.623         510.010          48.000  
G25  19542064.544   102694493.876         809.057          46.000    19542065.279    80021758.653         630.642          43.000  
E30  21398223.066   112448904.818       -1609.311          48.000    21398225.178    86162421.472       -1233.101          52.000  
G06  20487329.907   107661858.252        -210.625          42.000    20487331.559    83892453.756        -163.960          42.000  
E02  24700551.635   129802252.954       -2616.744          38.000    24700552.232    99459300.022       -2005.183          37.000  
G29  21377525.023   112340054.899        2850.716          36.000    21377549.333    87537533.570        2220.836          39.000  
E15  24237709.919   127370338.041        2043.182          44.000    24237728.905    97595650.975        1565.456          46.000  
E18  25091215.445   131855706.185       -5406.805          42.000                                                                  
> 2024 04 17 00 25 00.4910000  0 29                     
G15  20582473.289   108161440.583       -3918.752          45.000    20582487.072    84281626.813       -3053.699          40.000  
G19  21016779.396   110444419.569       -4114.886          47.000                                                                  
G24  17671792.895    92866105.799        -841.628          49.000    17671792.531    72363309.941        -655.831          48.000  
G32  21045671.424                        1250.128          30.000    21045671.158                1        974.280          29.000  
R09  17427941.818    93064333.751         -51.968          52.000    17427938.823    72383677.215         -40.364          51.000  
R08  19710101.770   105546719.654          -4.965          41.000    19710098.244    82091956.597          -3.893          44.000  
R16  18991565.223   101449538.854       -2430.122          48.000    18991564.004    78905727.089       -1890.114          45.000  
R06  20820064.257                3      -4698.204          21.000                                                                  
R10  19599317.241   104475435.523        1515.220          43.000                                                                  
G12  18420339.415    96799788.314        -504.931          49.000    18420335.384    75428720.075        -393.350          45.000  
E08  24605804.484   129304160.427       -3838.965          39.000    24605833.700    99077180.154       -2941.650          42.000  
S31  36026955.586   189322941.948        -758.062          44.000  
S33  36980027.294   194331351.116        -758.844          43.000  
G11  20625928.008   108390419.985        1442.083          46.000    20625929.908    84460289.718        1123.562          46.000  
E36  25052123.534   131649846.567       -1592.066          37.000    25052126.221   100874575.410       -1220.149          39.000  
R19  17605015.815    94175432.180         320.029          43.000    17605014.661    73247762.630         248.868          50.000  
R07  18911149.924   101232848.263       -3122.229          51.000    18911151.580    78736675.582       -2428.421          48.000  
R18  18943390.869   101121230.086       -2986.503          48.000    18943390.549    78650037.340       -2322.990          46.000  
R20  20008866.188   106996608.507        3601.446          38.000    20008885.372    83219738.942        2800.970          42.000  
E07  21797861.835   114548687.365       -2607.730          46.000    21797867.971    87771112.440       -1998.143          51.000  
E27  21954196.371   115370495.884         143.977          48.000    21954199.584    88400993.518         110.299          51.000  
E34  23319613.063   122545708.842         654.477          45.000    23319618.370    93898729.505         501.375          48.000  
G25  19537455.191   102670270.045         805.369          46.000    19537455.777    80002883.074         627.556          44.000  
E30  21407414.377   112497203.239       -1610.993          48.000    21407416.341    86199429.365       -1234.379          52.000  
G06  20488580.049   107668426.824        -227.762          43.000    20488580.408    83897572.207        -177.573          41.000  
E02  24715485.947   129880728.816       -2615.468          39.000    24715486.151    99519430.904       -2003.900          37.000  
G29  21361266.544   112254615.938        2845.098          36.000    21361289.295    87470959.709        2217.127          39.000  
E15  24226044.959   127309042.920        2042.889          44.000    24226064.191    97548685.778        1565.323          47.000  
E18  25122062.334   132017802.503       -5399.812          43.000                                                                  
> 2024 04 17 00 25 30.4910000  0 29                     
G15  20604850.193   108279031.077       -3921.097          45.000    20604864.726    84373254.829       -3055.162          40.000  
G19  21040283.075   110567934.299       -4119.971          47.000                                                                  
G24  17676638.823    92891571.367        -856.498          49.000    17676638.352    72383153.236        -667.267          48.000  
G32  21038581.156   110558583.930        1234.540          31.000    21038593.864    86149434.9611        960.468          33.000  
R09  17428246.315    93065958.792         -56.955          51.000    17428243.085    72384941.200         -44.215          51.000  
R08  19710197.158   105547232.031         -29.617          42.000    19710194.480    82092355.136         -22.926          45.000  
R16  19005224.404   101522504.028       -2434.780          48.000    19005224.208    78962477.746       -1893.492          45.000  
R06  20846452.271                3      -4695.499          20.000                                                                  
R10  19590785.558   104429961.293        1515.848          40.000                                                                  
G12  18423235.995    96815011.068        -510.401          48.000    18423232.561    75440581.992        -397.630          45.000  
E08  24627718.980   129419316.870       -3838.530          39.000    24627747.789    99165415.957       -2941.022          42.000  
S31  36031281.385   189345675.011        -757.707          44.000  
S33  36984357.259   194354105.044        -758.628          43.000  
G11  20617720.629   108347293.967        1432.633          46.000    20617722.563    84426685.309        1116.170          45.000  
E36  25061250.569   131697812.725       -1605.752          36.000    25061253.103   100911328.760       -1230.304          35.000  
R19  17603293.702    94166221.039         293.648          43.000    17603292.174    73240598.523         228.390          49.000  
R07  18928696.093   101326777.664       -3140.305          51.000    18928698.489    78809731.621       -2442.307          48.000  
R18  18960237.041   101211155.277       -3008.958          46.000    18960237.307    78719979.145       -2340.228          47.000  
R20  19988671.639   106888619.758        3597.583          39.000    19988689.500    83135749.567        2798.199          43.000  
E07  21812777.387   114627069.086       -2618.071          46.000    21812783.824    87831171.092       -2005.979          51.000  
E27  21953380.331   115366207.187         141.557          49.000    21953383.291    88397707.453         108.338          51.000  
E34  23315905.933   122526231.960         643.438          45.000    23315911.812    93883805.840         493.096          48.000  
G25  19532865.217   102646147.579         802.225          47.000    19532866.303    79984086.470         624.933          44.000  
E30  21416613.742   112545544.229       -1612.254          48.000    21416615.123    86236469.857       -1235.312          52.000  
G06  20489928.062   107675511.466        -244.949          43.000    20489930.054    83903092.790        -190.822          43.000  
E02  24730411.343   129959160.177       -2613.714          38.000    24730411.739    99579527.724       -2002.846          39.000  
G29  21345036.548   112169328.512        2840.257          38.000    21345057.578    87404503.953        2213.353          38.000  
E15  24214379.555   127247748.319        2042.939          43.000    24214399.405    97501720.970        1565.290          47.000  
E18  25152865.137   132179675.018       -5392.301          43.000                                                                  
> 2024 04 17 00 26 00.4910000  0 29                     
G15  20627240.679   108396689.387       -3923.368          45.000    20627255.912    84464935.672       -3057.226          41.000  
G19  21063816.194   110691601.162       -4125.128          47.000                                                                  
G24  17681568.451    92917478.867        -871.257          49.000    17681568.235    72403340.908        -678.948          48.000  
G32  21031577.003   110521799.215        1218.134          32.000    21031585.737                         948.486          32.000  
R09  17428578.652    93067733.052         -62.023          51.000    17428575.354    72386321.200         -48.209          51.000  
R08  19710430.623   105548485.172         -54.415          39.000    19710428.706    82093329.811         -42.343          45.000  
R16  19018909.939   101595608.912       -2439.524          49.000    19018909.056    79019337.077       -1897.536          44.000  
R06  20872842.884                1      -4692.596          28.000                                                                  
R10  19582250.534   104384471.659        1516.476          40.000                                                                  
G12  18426163.218    96830394.032        -515.812          49.000    18426159.898    75452568.766        -402.101          45.000  
E08  24649628.870   129534451.144       -3837.698          40.000    24649657.962    99253634.824       -2940.667          42.000  
S31  36035604.958   189368396.339        -757.773          44.000  
S33  36988684.857   194376846.336        -758.143          43.000  
G11  20609568.710   108304450.758        1422.912          47.000    20609568.885    84393301.228        1108.810          44.000  
E36  25070454.574   131746172.548       -1618.616          37.000    25070456.142   100948383.721       -1240.262          38.000  
R19  17601719.163    94157798.569         267.094          43.000    17601718.062    73234047.823         207.851          50.000  
R07  18946343.257   101421245.329       -3158.256          50.000    18946345.326    78883206.332       -2456.405          49.000  
R18  18977208.687   101301752.146       -3031.268          47.000    18977206.768    78790443.425       -2357.719          45.000  
R20  19968494.688   106780734.401        3594.289          38.000    19968512.957    83051840.595        2795.095          43.000  
E07  21827751.064   114705757.033       -2628.438          46.000    21827757.616    87891464.390       -2013.946          51.000  
E27  21952579.035   115361993.564         138.969          48.000    21952581.366    88394478.897         106.436          51.000  
E34  23312262.943   122507083.977         632.434          47.000    23312268.377    93869134.179         484.616          49.000  
G25  19528292.544   102622123.903         798.996          46.000    19528294.383    79965366.865         622.353          44.000  
E30  21425820.283   112593925.213       -1613.616          48.000    21425821.854    86273541.025       -1236.456          52.000  
G06  20491373.778   107683111.312        -262.447          43.000    20491375.789    83909014.860        -204.315          42.000  
E02  24745326.328   130037545.027       -2612.258          36.000    24745327.867    99639588.872       -2001.587          39.000  
G29  21328834.201   112084192.853        2834.931          39.000    21328854.802    87338166.376        2208.849          38.000  
E15  24202714.298   127186454.140        2042.760          42.000    24202734.388    97454756.440        1565.298          47.000  
E18  25183625.427   132341319.907       -5384.711          43.000                                                                  
> 2024 04 17 00 26 30.4910000  0 29                     
G15  20649644.017   108514411.762       -3925.173          46.000    20649658.913    84556666.402       -3058.565          43.000  
G19  21087377.084   110815416.950       -4129.724          46.000                                                                  
G24  17686582.945    92943828.815        -885.651          49.000    17686582.114    72423873.333        -690.132          48.000  
G32  21024671.015   110485486.681        1202.252          34.000    21024675.525                         936.969          32.000  
R09  17428938.404    93069657.188         -66.802          51.000    17428935.732    72387817.775         -51.852          51.000  
R08  19710803.000   105550478.691         -78.819          42.000    19710800.029    82094880.322         -61.346          44.000  
R16  19032622.303   101668853.986       -2443.888          48.000    19032619.006    79076305.446       -1900.777          41.000  
R06  20899214.527                       -4690.203          28.000                                                                  
R10  19573714.205   104338965.506        1516.877          40.000                                                                  
G12  18429121.037    96845936.389        -520.773          49.000    18429117.321    75464679.710        -405.645          45.000  
E08  24671535.211   129649560.955       -3836.454          41.000    24671563.053    99341834.919       -2939.779          42.000  
S31  36039926.231   189391105.275        -756.669          44.000  
S33  36993009.948   194399576.376        -757.492          43.000  
G11  20601469.323   108261892.695        1413.766          47.000    20601469.759    84360139.379        1101.701          44.000  
E36  25079730.414   131794924.974       -1631.823          36.000    25079733.342   100985739.511       -1250.450          36.000  
R19  17600292.603    94150166.913         241.096          43.000    17600291.101    73228112.208         187.544          50.000  
R07  18964090.847   101516246.479       -3175.560          51.000    18964092.633    78957095.957       -2469.982          49.000  
R18  18994304.769   101393017.167       -3053.195          46.000    18994304.905    78861427.360       -2374.859          48.000  
R20  19948338.823   106672957.023        3590.855          37.000    19948356.226    82968015.491        2792.594          42.000  
E07  21842782.998   114784749.057       -2638.231          46.000    21842789.040    87951990.669       -2021.381          51.000  
E27  21951790.871   115357853.880         136.766          48.000    21951793.621    88391307.015         104.847          51.000  
E34  23308682.222   122488265.927         621.857          47.000    23308686.861    93854715.297         476.508          48.000  
G25  19523738.603   102598198.092         795.709          45.000    19523740.621    79946723.517         620.156          43.000  
E30  21435033.861   112642345.277       -1614.613          48.000    21435035.587    86310642.127       -1237.133          51.000  
G06  20492918.076   107691227.138        -279.090          41.000    20492919.863    83915338.924        -217.386          43.000  
E02  24760232.821   130115882.868       -2610.170          36.000    24760236.000    99699614.045       -2000.123          40.000  
G29  21312662.753   111999210.518        2830.228          40.000    21312682.152    87271948.228        2205.195          39.000  
E15  24191049.576   127125161.957        2043.082          42.000    24191069.499    97407793.457        1565.461          47.000  
E18  25214341.644   132502734.946       -5376.652          43.000                                                                  
> 2024 04 17 00 27 00.4910000  0 29                     
G15  20672057.475   108632191.291       -3927.256          46.000    20672073.395    84648441.646       -3060.072          42.000  
G19  21110965.808   110939374.464       -4134.454          46.000                                                                  
G24  17691681.441    92970617.966        -900.386          50.000    17691680.658    72444748.002        -701.637          48.000  
G32  21017851.817   110449643.895        1186.731          37.000    21017851.554                         924.634          32.000  
R09  17429326.349    93071727.726         -71.546          52.000    17429323.745    72389428.236         -55.758          51.000  
R08  19711313.339   105553208.629        -103.391          43.000    19711309.643    82097003.551         -80.505          43.000  
R16  19046357.231   101742235.647       -2448.275          46.000    19046356.713    79133380.076       -1904.388          43.000  
R06  20925556.565                1      -4688.361          26.000                                                                  
R10  19565174.293   104293439.381        1517.755          41.000                                                                  
G12  18432108.374    96861632.825        -525.972          49.000    18432104.117    75476910.722        -409.770          44.000  
E08  24693435.545   129764640.106       -3835.741          40.000    24693462.868    99430011.586       -2938.801          42.000  
S31  36044244.454   189413797.367        -756.542          44.000  
S33  36997332.316   194422289.216        -756.808          43.000  
G11  20593425.122   108219618.596        1404.146          47.000    20593425.553    84327198.772        1094.043          45.000  
E36  25089080.140   131844064.997       -1643.843          34.000    25089084.357   101023392.364       -1260.043          37.000  
R19  17599012.963    94143323.373         214.634          42.000    17599011.436    73222789.557         166.994          49.000  
R07  18981936.327   101611772.711       -3193.098          51.000    18981937.282    79031393.983       -2483.542          49.000  
R18  19011524.648   101484942.895       -3075.394          44.000    19011525.934    78932925.179       -2391.995          47.000  
R20  19928202.211   106565287.192        3587.122          36.000    19928219.519    82884274.053        2789.922          43.000  
E07  21857870.641   114864039.292       -2648.086          45.000    21857877.151    88012745.474       -2029.075          50.000  
E27  21951015.848   115353783.381         134.403          48.000    21951018.835    88388188.137         102.924          51.000  
E34  23305163.216   122469775.080         610.664          46.000    23305167.991    93840547.113         467.914          49.000  
G25  19519203.733   102574365.516         792.707          45.000    19519204.702    79928152.770         617.982          43.000  
E30  21444254.512   112690799.773       -1615.833          48.000    21444255.741    86347769.623       -1238.053          51.000  
G06  20494560.303   107699856.036        -296.415          42.000    20494563.317    83922062.806        -230.823          43.000  
E02  24775130.061   130194169.620       -2608.914          35.000    24775132.675    99759600.013       -1999.009          38.000  
G29  21296518.218   111914379.370        2825.092          40.000    21296537.456    87205847.886        2201.409          38.000  
E15  24179385.931   127063869.587        2042.914          43.000    24179404.802    97360830.280        1565.287          47.000  
E18  25245013.232   132663914.231       -5368.825          43.000                                                                  
> 2024 04 17 00 27 30.4910000  0 29                     
G15  20694481.335   108750029.367       -3929.018          45.000    20694498.440    84740262.528       -3061.358          42.000  
G19  21134581.497   111063475.683       -4139.105          46.000                                                                  
G24  17696864.384    92997851.805        -915.247          50.000    17696863.255    72465969.171        -713.258          49.000  
G32  21011122.261   110414276.977        1170.801          38.000    21011118.354                         912.018          31.000  
R09  17429742.991    93073949.636         -76.755          52.000    17429740.087    72391156.426         -59.589          52.000  
R08  19711960.768   105556679.521        -128.176          43.000    19711958.315    82099703.076         -99.535          43.000  
R16  19060121.364   101815758.620       -2453.176          47.000    19060121.070    79190564.618       -1908.193          42.000  
R06  20951916.566                3      -4694.159          24.000                                                                  
R10  19556631.074   104247897.841        1518.140          41.000                                                                  
G12  18435125.321    96877487.442        -531.149          49.000    18435120.631    75489264.993        -413.774          44.000  
E08  24715328.498   129879691.264       -3834.543          39.000    24715357.265    99518166.802       -2938.265          43.000  
S31  36048560.341   189436476.815        -755.966          44.000  
S33  37001651.823   194444990.290        -756.752          42.000  
G11  20585436.246   108177635.852        1394.344          46.000    20585436.585    84294485.205        1086.417          45.000  
E36  25098506.873   131893596.706       -1657.832          34.000    25098509.952   101061345.234       -1269.875          37.000  
R19  17597881.706    94137274.072         188.377          42.000    17597879.783    73218084.645         146.452          48.000  
R07  18999880.134   101707824.429       -3210.525          51.000    18999880.745    79106100.691       -2497.097          49.000  
R18  19028868.554   101577530.902       -3097.391          46.000    19028869.602    79004938.092       -2409.144          47.000  
R20  19908088.355   106457733.629        3583.196          38.000    19908104.363    82800622.975        2786.798          43.000  
E07  21873016.413   114943630.580       -2657.981          45.000    21873023.157    88073730.937       -2036.690          50.000  
E27  21950254.918   115349785.965         131.862          48.000    21950258.023    88385125.244         101.091          51.000  
E34  23301707.814   122451617.373         599.693          46.000    23301713.124    93826634.234         459.433          49.000  
G25  19514687.342   102550630.153         789.436          45.000    19514687.746    79909657.799         615.121          42.000  
E30  21453481.752   112739292.769       -1617.030          47.000    21453483.723    86384926.620       -1239.173          51.000  
G06  20496300.967   107709003.579        -313.739          42.000    20496302.264    83929190.891        -244.492          42.000  
E02  24790017.611   130272409.783       -2607.317          34.000    24790021.103    99819550.339       -1997.855          38.000  
G29  21280404.741   111829705.794        2819.641          40.000    21280422.315    87139870.253        2196.857          37.000  
E15  24167722.998   127002583.591        2042.677          43.000    24167741.422    97313871.997        1565.160          46.000  
E18  25275639.459   132824860.577       -5361.070          43.000                                                                  
> 2024 04 17 00 28 00.4910000  0 29                     
G15  20716917.423   108867927.915       -3930.876          45.000    20716935.129    84832130.506       -3063.061          42.000  
G19  21158225.199   111187722.295       -4144.055          46.000                                                                  
G24  17702132.112    93025536.177        -930.476          50.000    17702131.303    72487541.418        -724.964          49.000  
G32  21004481.941   110379392.578        1154.559          38.000    21004480.614    86009805.644         899.689          32.000  
R09  17430188.133    93076329.356         -82.087          51.000    17430185.487    72393007.342         -63.731          51.000  
R08  19712748.321   105560896.920        -153.204          43.000    19712745.796    82102983.242        -119.090          43.000  
R16  19073913.710   101889429.134       -2458.390          49.000    19073911.969    79247863.853       -1912.111          42.000  
R06  20978258.375                3      -4684.418          21.000                                                                  
R10  19548085.143   104202346.035        1518.502          41.000                                                                  
G12  18438172.994    96893504.217        -536.673          48.000    18438168.186    75501745.637        -418.012          44.000  
E08  24737216.575   129994717.501       -3833.867          39.000    24737246.905    99606302.960       -2937.619          43.000  
S31  36052874.548   189459149.361        -755.676          43.000  
S33  37005970.246   194467682.657        -756.565          43.000  
G11  20577502.611   108135952.266        1384.256          44.000    20577504.392    84262004.763        1078.549          46.000  
E36  25108006.888   131943524.140       -1670.698          31.000    25108011.026   101099601.374       -1280.203          37.000  
R19  17596900.642    94132025.435         161.404          43.000    17596897.936    73214002.477         125.596          47.000  
R07  19017921.176   101804402.631       -3228.187          50.000    19017923.422    79181216.856       -2510.692          49.000  
R18  19046338.142   101670783.104       -3119.480          47.000    19046340.278    79077467.600       -2426.274          49.000  
R20  19887997.197   106350305.588        3578.800          37.000    19888012.427    82717069.440        2783.598          42.000  
E07  21888221.346   115023526.239       -2668.412          47.000    21888227.057    88134949.610       -2044.510          51.000  
E27  21949508.571   115345866.012         129.314          48.000    21949511.855    88382121.697          99.039          51.000  
E34  23298317.738   122433799.295         588.156          47.000    23298321.455    93812981.564         450.597          48.000  
G25  19510189.543   102526996.520         786.134          45.000    19510190.663    79891242.073         612.698          43.000  
E30  21462718.565   112787828.851       -1618.704          48.000    21462719.948    86422116.618       -1240.310          51.000  
G06  20498141.971   107718676.013        -331.137          44.000    20498141.840    83936727.913        -258.432          41.000  
E02  24804900.137   130350608.436       -2606.103          36.000    24804902.666    99879468.855       -1997.231          37.000  
G29  21264321.592   111745197.071        2813.977          39.000    21264338.902    87074020.993        2192.908          36.000  
E15  24156062.618   126941310.919        2041.941          44.000    24156080.323    97266923.896        1564.697          47.000  
E18  25306223.067   132985577.284       -5353.449          44.000                                                                  
> 2024 04 17 00 28 30.4910000  0 29                     
G15  20739366.849   108985896.404       -3933.434          45.000    20739384.531    84924052.996       -3065.064          41.000  
G19  21181897.950   111312124.977       -4149.701          45.000                                                                  
G24  17707488.069    93053684.290        -946.322          50.000    17707487.816    72509474.997        -737.355          49.000  
G32  20997939.243   110345004.682        1137.781          40.000    20997939.906    85983009.877         887.085          34.000  
R09  17430664.462    93078879.731         -88.162          50.000    17430662.949    72394991.021         -68.569          51.000  
R08  19713676.527   105565873.116        -178.784          44.000    19713674.292    82106853.585        -138.952          43.000  
R16  19087733.779   101963260.083       -2463.950          48.000    19087732.110    79305287.880       -1916.355          40.000  
R06  21004604.453                3      -4677.966          19.000                                                                  
R10  19539540.993   104156796.895        1518.249          43.000                                                                  
G12  18441253.383    96909694.715        -542.857          48.000    18441249.171    75514361.672        -423.097          44.000  
E08  24759103.257   130109729.153       -3833.827          38.000    24759134.303    99694427.882       -2937.465          45.000  
S31  36057189.801   189481826.417        -756.530          44.000  
S33  37010289.144   194490380.123        -756.866          43.000  
G11  20569630.311   108094583.027        1373.571          45.000    20569631.653    84229769.250        1070.231          45.000  
E36  25117584.266   131993859.006       -1684.562          34.000    25117588.682   101138169.642       -1290.921          35.000  
R19  17596072.257    94127592.148         133.957          43.000    17596069.325    73210554.459         104.097          47.000  
R07  19036063.190   101901515.269       -3246.237          50.000    19036065.813    79256748.710       -2524.752          49.000  
R18  19063935.728   101764708.711       -3142.333          48.000    19063934.544    79150520.925       -2444.038          48.000  
R20  19867932.785   106243020.636        3573.197          35.000    19867946.709    82633627.158        2779.636          40.000  
E07  21903485.071   115103736.804       -2679.072          47.000    21903490.819    88196409.568       -2052.778          51.000  
E27  21948779.691   115342035.135         126.097          48.000    21948782.882    88379186.416          96.501          51.000  
E34  23294993.055   122416334.512         576.074          46.000    23294997.526    93799599.585         441.422          47.000  
G25  19505712.971   102503476.457         781.770          45.000    19505715.354    79872914.825         609.264          43.000  
E30  21471965.172   112836419.820       -1620.795          48.000    21471966.554    86459348.678       -1241.877          51.000  
G06  20500085.461   107728886.738        -349.557          43.000    20500085.535    83944684.370        -272.218          42.000  
E02  24819775.864   130428777.809       -2604.936          35.000    24819777.874    99939364.860       -1996.058          37.000  
G29  21248273.030   111660867.289        2807.880          42.000    21248290.098    87008311.183        2187.567          35.000  
E15  24144407.384   126880065.842        2040.819          44.000    24144424.870    97219996.948        1563.692          47.000  
E18  25336764.622   133146074.900       -5346.495          44.000                                                                  
> 2024 04 17 00 29 00.4910000  0 29                     
G15  20761829.832   109103935.753       -3935.694          46.000    20761846.556    85016030.712       -3066.878          40.000  
G19  21205601.202   111436684.335       -4154.395          45.000                                                                  
G24  17712934.270    93082300.805        -961.560          50.000    17712933.005    72531773.566        -749.237          48.000  
G32  20991490.829   110311118.648        1121.259          40.000    20991493.384    85956605.245         873.102          35.000  
R09  17431174.624    93081605.582         -93.702          49.000    17431173.039    72397111.143         -72.909          51.000  
R08  19714750.343   105571612.028        -204.006          46.000    19714745.462    82111317.214        -158.617          44.000  
R16  19101586.747   102037255.642       -2469.157          47.000    19101585.955    79362839.908       -1920.483          40.000  
R06  21030920.525                3      -4666.038          15.000                                                                  
R10  19530996.585   104111254.058        1518.173          42.000                                                                  
G12  18444367.857    96926062.171        -548.558          48.000    18444364.831    75527115.552        -427.224          45.000  
E08  24780988.086   130224728.233       -3833.185          39.000    24781019.047    99782543.299       -2937.134          46.000  
S31  36061506.400   189504511.700        -756.274          44.000  
S33  37014609.962   194513086.291        -756.974          43.000  
G11  20561818.196   108053534.759        1363.092          45.000    20561819.576    84197783.817        1061.991          45.000  
E36  25127242.752   132044604.231       -1698.019          35.000    25127244.898   101177052.430       -1301.407          34.000  
R19  17595396.841    94123979.095         106.846          43.000    17595393.482    73207744.410          82.892          47.000  
R07  19054304.760   101999161.749       -3263.739          52.000    19054306.145    79332695.796       -2538.365          48.000  
R18  19081658.390   101859308.453       -3164.529          50.000    19081657.276    79224098.543       -2461.245          50.000  
R20  19847897.467   106135886.063        3567.807          36.000    19847910.862    82550301.874        2775.765          40.000  
E07  21918809.263   115184264.370       -2689.389          48.000    21918814.602    88258112.434       -2060.726          50.000  
E27  21948068.573   115338296.571         123.037          48.000    21948071.401    88376321.853          94.379          51.000  
E34  23291738.197   122399228.234         564.315          45.000    23291742.372    93786492.284         432.499          47.000  
G25  19501260.086   102480073.271         778.145          45.000    19501261.897    79854678.625         606.309          44.000  
E30  21481222.933   112885069.003       -1622.555          48.000    21481224.557    86496625.328       -1243.214          52.000  
G06  20502131.912   107739640.630        -367.460          44.000    20502131.963    83953064.128        -286.385          41.000  
E02  24834646.300   130506921.847       -2604.217          35.000    24834646.524    99999241.518       -1995.758          34.000  
G29  21232259.395   111576722.178        2801.886          41.000    21232275.666    86942745.127        2183.270          35.000  
E15  24132758.366   126818854.114        2039.918          44.000    24132775.427    97173095.519        1562.988          47.000  
E18  25367264.843   133306355.562       -5339.054          44.000                                                                  
> 2024 04 17 00 29 30.4910000  0 29                     
G15  20784303.636   109222031.078       -3937.346          45.000    20784320.798    85108052.035       -3068.165          39.000  
G19  21229330.775   111561386.018       -4159.326          44.000                                                                  
G24  17718467.128    93111374.951        -976.925          50.000    17718465.802    72554428.744        -761.374          48.000  
G32  20985136.336   110277724.542        1104.764          40.000    20985137.735    85930583.846         860.765          34.000  
R09  17431715.956    93084496.040         -99.178          50.000    17431715.025    72399359.292         -77.207          51.000  
R08  19715962.489   105578102.368        -228.798          44.000    19715959.439    82116365.262        -177.918          44.000  
R16  19115467.116   102111405.041       -2474.302          47.000    19115464.124    79420511.635       -1924.316          38.000  
R06  21057223.953                3      -4682.284          19.000                                                                  
R10  19522451.490   104065705.751        1518.337          43.000                                                                  
G12  18447513.386    96942594.272        -553.887          47.000    18447510.882    75539997.740        -431.564          45.000  
E08  24802867.378   130339701.067       -3831.912          39.000    24802898.659    99870638.648       -2936.243          46.000  
S31  36065822.727   189527194.130        -756.034          44.000  
S33  37018929.857   194535788.732        -756.932          43.000  
G11  20554066.619   108012798.764        1352.555          46.000    20554067.483    84166041.730        1053.874          44.000  
E36  25136974.721   132095747.593       -1711.652          35.000    25136978.070   101216240.208       -1311.378          35.000  
R19  17594872.830    94121176.271          79.812          43.000    17594870.087    73205564.561          62.182          48.000  
R07  19072642.613   102097326.416       -3280.787          51.000    19072643.347    79409045.912       -2551.736          48.000  
R18  19099503.595   101954567.221       -3186.365          51.000    19099502.216    79298188.738       -2478.320          49.000  
R20  19827888.305   106028893.794        3563.791          36.000    19827901.804    82467087.223        2772.059          41.000  
E07  21934191.326   115265095.584       -2699.460          48.000    21934196.263    88320047.979       -2068.455          50.000  
E27  21947372.277   115334638.077         120.561          48.000    21947375.176    88373518.662          92.374          51.000  
E34  23288548.787   122382470.265         552.671          45.000    23288553.448    93773651.881         423.522          47.000  
G25  19496827.698   102456774.833         774.768          46.000    19496828.252    79836524.086         603.546          43.000  
E30  21490489.333   112933764.378       -1624.055          48.000    21490490.936    86533937.398       -1244.369          52.000  
G06  20504280.138   107750927.199        -385.240          44.000    20504280.352    83961858.903        -300.087          42.000  
E02  24849508.301   130585028.892       -2602.872          33.000    24849511.400   100059089.841       -1994.562          34.000  
G29  21216278.905   111492752.556        2795.990          39.000    21216295.500    86877315.768        2178.778          34.000  
E15  24121114.401   126757666.171        2039.176          44.000    24121130.882    97126212.306        1562.360          48.000  
E18  25397721.175   133466405.983       -5331.136          43.000                                                                  
