     3.00           OBSERVATION DATA    M: Mixed            RINEX VERSION / TYPE
CONVBIN 2.4.3                           20240417 005942 UTC PGM / RUN BY / DATE 
format: u-blox UBX                                          COMMENT             
log: /home/regis/git/gnsspwv/obsdata/VERT00CHL/2024-04-17/VECOMMENT             
{self.marker}                                               MARKER NAME         
                                                            MARKER NUMBER       
GEODETIC                                                    MARKER TYPE         
{self.observer}     {self.institution}                      OBSERVER / AGENCY   
UNKNOWN             UBLOX-ZED-F9P                           REC # / TYPE / VERS 
UNKNOWN             TWIVSP6037L                             ANT # / TYPE        
  1713381.0000 -5047934.0000 -3490983.0000                  APPROX POSITION XYZ 
        0.0000        0.0000        0.0000                  ANTENNA: DELTA H/E/N
G    8 C1C L1C D1C S1C C2L L2L D2L S2L                      SYS / # / OBS TYPES 
R    8 C1C L1C D1C S1C C2C L2C D2C S2C                      SYS / # / OBS TYPES 
E    8 C1C L1C D1C S1C C7Q L7Q D7Q S7Q                      SYS / # / OBS TYPES 
S    4 C1C L1C D1C S1C                                      SYS / # / OBS TYPES 
  2024    04    17    00    45   00.4910000     GPS         TIME OF FIRST OBS   
  2024    04    17    00    59   30.4950000     GPS         TIME OF LAST OBS    
                                                            END OF HEADER       
> 2024 04 17 00 45 00.4910000  0 27                     
G15  21482892.014   112893027.0561      -3914.155          38.000    21482918.147    87968540.4851      -3049.941          37.000  
G19  21975319.954   115481130.3621      -4229.527          43.000                                                                  
G24  17933598.651    94241903.0871      -1429.664          48.000    17933599.065    73435359.4811      -1113.990          47.000  
G32  20835741.594   109492658.6201        604.465          46.000    20835742.779    85318845.0111        471.228          41.000  
R09  17464367.655    93258849.3971       -252.539          52.000    17464364.692    72534968.1431       -196.399          51.000  
R08  19822436.110   106148264.4681       -964.961          47.000    19822433.546    82559823.3221       -750.581          45.000  
R16  19560340.216   104487831.0301      -2611.186          45.000    19560338.414    81268841.9581      -2030.234          37.000  
R10  19257018.642   102650806.1191       1550.877          41.000                                                                  
G12  18559475.130    97530956.3071       -679.910          49.000    18559470.389    75998462.7111       -529.686          45.000  
S31  36198834.618   190226188.5831       -718.569          44.000  
S33  37152059.501   195235405.6001       -718.995          43.000  
G11  20345776.779   106918257.3901       1014.897          46.000    20345776.295    83313159.2331        790.791          45.000  
R19  17654547.700    94440415.8121       -741.870          41.000    17654545.400    73453864.6401       -576.820          48.000  
R07  19684287.216   105371476.2011      -3707.675          50.000    19684288.473    81955598.8761      -2883.506          42.000  
R18  19710072.020   105213832.9681      -3775.083          51.000    19710071.417    81833173.7191      -2936.183          46.000  
R20  19224936.761   102804773.4921       3374.978          39.000    19224943.443    79959469.7031       2624.949          41.000  
E07  22437489.872   117909948.4871      -2950.602          45.000    22437497.310    90346621.2681      -2260.757          50.000  
E27  21932407.975   115256007.8431         79.520          48.000    21932410.307    88313271.8511         60.991          52.000  
E34  23223591.993   122041126.3611        202.818          45.000    23223594.316    93512106.2811        155.499          49.000  
G25  19368477.633   101782305.6671        705.947          47.000    19368478.089    79310966.9171        549.851          44.000  
E30  21781377.387   114462388.8571      -1633.426          48.000    21781378.401    87705221.3691      -1251.676          53.000  
G06  20621714.944   108368069.1451       -917.244          42.000    20621717.645    84442751.6291       -715.202          40.000  
E02  25306529.705                       -2533.959          28.000    25306531.675   101898914.6331      -1942.624          36.000  
G29  20739190.835   108985778.7321       2612.852          46.000    20739197.082    84923864.8091       2036.065          41.000  
E15  23764154.842   124881927.2311       2011.823          43.000    23764167.430    95688981.0661       1541.602          49.000  
E18  26318176.405   138302896.9661      -5034.796          38.000                                                                  
E36                                                                  25475027.937                3      -1590.884          25.000  
> 2024 04 17 00 45 30.4910000  0 26                     
G15  21505211.482   113010316.809       -3906.775          36.000    21505237.591    88059934.685       -3043.520          34.000  
G19  21999452.007   115607947.658       -4225.142          43.000                                                                  
G24  17941785.983    94284925.917       -1439.071          48.000    17941785.473    73468883.745       -1121.234          46.000  
G32  20832322.452   109474685.428         593.328          46.000    20832323.217    85304839.961         462.224          42.000  
R09  17465785.749    93266420.795        -252.453          52.000    17465782.190    72540857.015        -196.319          50.000  
R08  19827892.234   106177476.360        -982.487          46.000    19827888.689    82582543.629        -764.436          46.000  
R16  19575001.542   104566147.251       -2610.387          46.000    19575000.182    81329754.692       -2030.515          38.000  
R10  19248270.836   102604179.050        1557.222          41.000                                                                  
G12  18563350.307    97551320.078        -678.038          49.000    18563346.040    76014330.623        -528.241          46.000  
S31  36202915.825   190247636.100        -711.620          44.000  
S33  37156144.353   195256873.281        -712.406          43.000  
G11  20340001.957   106887908.430        1008.023          47.000    20340000.746    83289510.895         785.446          45.000  
R19  17658766.802    94462979.374        -762.870          43.000    17658763.815    73471414.177        -593.305          49.000  
R07  19705082.129   105482788.584       -3713.432          51.000    19705083.014    82042174.813       -2888.199          42.000  
R18  19731318.973   105327249.790       -3786.467          51.000    19731318.439    81921386.773       -2944.930          47.000  
R20  19206008.980   102703559.733        3372.278          40.000    19206016.076    79880748.603        2622.791          42.000  
E07  22454338.112   117998482.486       -2952.076          46.000    22454344.542    90414458.900       -2261.828          50.000  
E27  21931940.086   115253550.758          84.007          48.000    21931942.738    88311389.203          64.337          52.000  
E34  23222450.612   122035130.823         196.470          45.000    23222453.503    93507512.424         150.509          49.000  
G25  19364436.664   101761072.434         709.404          47.000    19364437.552    79294421.614         552.904          44.000  
E30  21790686.103   114511310.972       -1628.185          48.000    21790688.124    87742707.163       -1247.597          53.000  
G06  20626986.863   108395772.319        -929.598          43.000    20626987.206    84464338.542        -724.088          39.000  
E02  25320978.270                       -2526.616          25.000    25320979.018   101957082.756       -1936.177          37.000  
G29  20724276.313   108907406.300        2611.627          47.000    20724283.043    84862796.149        2034.844          42.000  
E15  23752658.365   124821514.209        2015.383          44.000    23752670.772    95642691.059        1544.290          49.000  
E18  26346874.705   138453708.205       -5019.555          38.000                                                                  
> 2024 04 17 00 48 34.9950000  0 24                     
G06  21646525.669   113753251.6041      -1005.674          43.000    21646526.411    88638903.9111       -783.698          41.000  
G11  21290974.203   111884813.0911        961.988          45.000    21290976.246    87182990.3251        749.643          48.000  
G12  19572568.845   102854535.6511       -669.238          50.000    19572564.091    80146375.3011       -521.466          46.000  
G19  23132883.822   121564120.0541      -4197.958          38.000                                                                  
G24  18978929.743    99734939.0481      -1499.256          49.000    18978928.553    77715538.2401      -1168.103          45.000  
R10  20179305.532   107567051.5451       1593.552          43.000                                                                  
R18  20848976.937   111293257.5151      -3856.275          43.000    20848975.852    86561415.2161      -2999.369          49.000  
R09  18460119.396    98576006.2271       -255.448          50.000    18460117.817    76670219.4801       -198.641          51.000  
R16  20650681.500   110312233.9951      -2608.051          45.000    20650684.058    85798414.3341      -2028.448          44.000  
R20  20075604.669   107353278.9991       3349.274          40.000    20075610.763    83497019.9161       2604.850          43.000  
G25  20324760.885   106807328.0891        728.601          47.000    20324761.727    83226500.9011        567.543          44.000  
G29  21618363.464   113605258.1251       2598.863          46.000    21618371.278    88523619.4911       2025.272          42.000  
S31  37212778.098   195554461.4621       -672.447          45.000  
S33  38166028.711   200563828.1561       -673.027          43.000  
E07  23543747.608   123723225.6891      -2962.904          46.000    23543754.452    94800942.0751      -2270.375          49.000  
R19  18672930.444    99887584.5171       -895.164          44.000    18672926.847    77690331.1081       -696.328          49.000  
R07  20819245.704   111447051.4891      -3747.748          50.000    20819250.887    86681061.4171      -2915.087          48.000  
R08  20849217.917   111646613.4531      -1092.901          47.000    20849217.999    86836254.9541       -850.041          46.000  
E15  24667147.786   129626735.3101       2033.274          46.000    24667158.372    99324424.1881       1557.675          50.000  
E27  22914116.425   120414495.4291        109.386          48.000    22914117.971    92265658.3741         83.707          52.000  
E30  22832881.951   119987602.0711      -1597.571          47.000    22832883.628    91938560.4011      -1224.137          52.000  
E34  24201860.122   127181632.0181        153.720          45.000    24201864.137    97450878.3211        118.046          49.000  
G32  21798324.870   114550959.4991        520.861          45.000    21798326.793    89260504.3061        405.988          43.000  
E02  26394481.096                3      -2480.342          25.000    26394478.618   106279647.5721      -1901.799          29.000  
> 2024 04 17 00 49 00.4950000  0 24                     
G06  21651443.655   113779083.787       -1022.294          43.000    21651443.454    88659032.967        -796.473          42.000  
G11  21286332.905   111860418.453         949.459          45.000    21286333.661    87163981.718         739.683          47.000  
G12  19575822.516   102871633.586        -673.923          50.000    19575817.972    80159698.393        -525.075          46.000  
G19  23153254.606   121671159.660       -4199.696          36.000                                                                  
G24  18986235.817    99773326.750       -1513.749          49.000    18986234.168    77745450.732       -1179.470          45.000  
R10  20171680.770   107526402.393        1592.419          44.000                                                                  
R18  20867428.887   111391759.653       -3871.470          42.000    20867428.918    86638027.968       -3011.161          48.000  
R09  18461349.504    98582573.748        -262.050          51.000    18461347.638    76675327.593        -203.755          51.000  
R16  20663139.254   110378785.022       -2613.840          44.000    20663141.129    85850176.195       -2032.994          42.000  
R20  20059652.180   107267972.995        3339.545          40.000    20059657.701    83430671.295        2597.163          43.000  
G25  20321229.621   106788765.805         725.157          48.000    20321229.769    83212036.846         565.086          45.000  
G29  21605766.668   113539059.976        2590.992          46.000    21605773.304    88472037.067        2018.886          42.000  
S31  37216038.401   195571587.993        -673.015          44.000  
S33  38169291.975   200580971.102        -673.334          43.000  
E07  23558137.921   123798846.509       -2970.189          46.000    23558144.530    94858885.222       -2275.745          49.000  
R19  18677251.235    99910699.427        -919.935          45.000    18677248.022    77708309.442        -715.189          49.000  
R07  20837117.659   111542724.772       -3758.106          49.000    20837123.649    86755473.649       -2922.958          47.000  
R08  20854468.556   111674723.750       -1114.062          47.000    20854466.630    86858118.472        -866.593          46.000  
E15  24657287.162   129574913.532        2029.251          46.000    24657296.506    99284716.969        1555.027          50.000  
E27  22913587.080   120411713.071         106.880          48.000    22913588.424    92263526.496          81.890          52.000  
E30  22840633.600   120028337.110       -1599.392          48.000    22840635.158    91969772.970       -1225.322          52.000  
E34  24201137.906   127177832.473         142.051          45.000    24201140.762    97447967.070         108.830          48.000  
G32  21795833.363   114537855.634         504.873          46.000    21795833.660    89250293.530         393.611          43.000  
E02                                                                  26406519.304                       -1901.881          32.000  
> 2024 04 17 00 49 30.4950000  0 24                     
G06  21657344.679   113810095.124       -1044.911          41.000    21657345.002    88683197.729        -814.477          43.000  
G11  21280966.167   111832212.301         931.100          46.000    21280965.485    87142003.063         725.712          46.000  
G12  19579694.506   102891982.799        -682.666          49.000    19579691.104    80175554.962        -531.993          46.000  
G19  23177244.752   121797232.539       -4205.446          35.000                                                                  
G24  18994934.041    99819037.861       -1533.730          49.000    18994932.635    77781069.784       -1194.971          45.000  
R10  20162729.829   107478698.466        1587.877          42.000                                                                  
R18  20889246.346   111508225.331       -3892.782          41.000    20889246.840    86728612.314       -3027.732          49.000  
R09  18462852.103    98590597.747        -272.998          51.000    18462849.927    76681568.514        -212.404          51.000  
R16  20677847.593   110457352.633       -2624.192          45.000    20677847.776    85911284.358       -2040.982          43.000  
R20  20040958.845   107168014.049        3324.490          40.000    20040964.868    83352926.018        2585.824          43.000  
G25  20317110.449   106767116.135         718.166          49.000    20317110.085    83195167.038         559.733          45.000  
G29  21591011.510   113461519.591        2578.427          45.000    21591017.210    88411616.581        2009.390          41.000  
S31  37219891.079   195591835.331        -676.938          45.000  
S33  38173148.689   200601236.596        -677.486          43.000  
E07  23575128.388   123888129.904       -2981.961          47.000    23575135.428    94927297.068       -2284.894          50.000  
R19  18682498.752    99938771.330        -951.833          44.000    18682495.932    77730143.204        -740.171          50.000  
R07  20858223.793   111655700.287       -3773.494          50.000    20858229.035    86843343.124       -2935.016          48.000  
R08  20860789.603   111708566.970       -1142.167          48.000    20860786.686    86884440.932        -888.320          46.000  
E15  24645723.563   129514150.593        2021.539          46.000    24645733.322    99238158.793        1548.982          50.000  
E27  22912993.744   120408599.758         100.711          48.000    22912995.868    92261141.030          77.209          52.000  
E30  22849778.794   120076397.954       -1604.648          47.000    22849780.694    92006598.822       -1229.485          52.000  
E34  24200376.249   127173833.980         124.662          45.000    24200380.145    97444903.398          95.510          49.000  
G32  21793014.557   114523045.349         482.469          45.000    21793015.489    89238753.080         376.059          44.000  
E02                                                                  26420698.190                       -1905.044          30.000  
> 2024 04 17 00 50 00.4950000  0 24                     
G06  21663371.633   113841766.925       -1066.497          40.000    21663372.022    88707877.114        -830.998          43.000  
G11  21275698.342   111804531.296         914.189          47.000    21275697.696    87120433.627         712.376          46.000  
G12  19583612.954   102912574.150        -690.262          49.000    19583609.582    80191600.174        -537.700          46.000  
G19  23201262.361   121923448.094       -4209.979          34.000                                                                  
G24  19003743.507    99865332.331       -1552.568          48.000    19003742.231    77817143.413       -1209.790          45.000  
R10  20153802.968   107431112.645        1584.622          43.000                                                                  
R18  20911178.862   111625304.300       -3912.558          41.000    20911179.523    86819673.727       -3043.095          48.000  
R09  18464413.172    98598934.100        -282.857          51.000    18464410.829    76688052.331        -219.955          52.000  
R16  20692609.940   110536205.036       -2632.871          46.000    20692611.399    85972613.983       -2047.838          44.000  
R20  20022345.480   107068482.267        3310.937          40.000    20022350.916    83275512.953        2575.278          42.000  
G25  20313026.494   106745659.318         712.191          49.000    20313027.151    83178447.508         554.968          45.000  
G29  21576323.416   113384338.002        2566.838          44.000    21576328.949    88351475.722        2000.354          40.000  
S31  37223762.403   195612177.907        -679.350          45.000  
S33  38177023.113   200621598.913        -680.123          43.000  
E07  23592181.744   123977744.408       -2992.421          47.000    23592188.519    94995962.605       -2292.865          50.000  
R19  18687921.950    99967781.208        -982.324          45.000    18687918.882    77752706.533        -764.025          50.000  
R07  20879410.735   111769113.680       -3787.561          48.000    20879415.593    86931553.141       -2945.821          47.000  
R08  20867261.592   111743232.825       -1168.993          48.000    20867260.190    86911403.241        -909.128          46.000  
E15  24634200.438   129453599.519        2015.040          46.000    24634210.735    99191762.953        1544.047          50.000  
E27  22912431.878   120405648.634          95.875          47.000    22912434.007    92258879.834          73.483          51.000  
E30  22858951.159   120124596.563       -1608.708          48.000    22858952.640    92043530.233       -1232.654          52.000  
E34  24199709.395   127170335.701         108.630          44.000    24199714.608    97442223.022          83.156          49.000  
G32  21790318.344   114508880.510         461.635          44.000    21790319.995    89227715.578         359.855          43.000  
E02                                                                  26434892.235                       -1905.921          28.000  
> 2024 04 17 00 50 30.4950000  0 24                     
G06  21669521.932   113874090.305       -1088.671          42.000    21669522.200    88733064.235        -847.996          43.000  
G11  21270530.217   111777369.018         896.548          48.000    21270529.057    87099268.387         698.740          47.000  
G12  19587576.134   102933398.168        -698.187          49.000    19587571.661    80207826.710        -543.973          46.000  
G19  23225305.383   122049794.899       -4213.842          33.000                                                                  
G24  19012661.950    99912201.397       -1572.133          49.000    19012661.533    77853664.766       -1224.890          45.000  
R10  20144896.550   107383636.451        1580.741          42.000                                                                  
R18  20933224.559   111742983.362       -3932.584          44.000    20933224.643    86911201.894       -3058.738          49.000  
R09  18466032.041    98607574.771        -293.244          52.000    18466028.668    76694772.889        -228.013          51.000  
R16  20707424.411   110615333.442       -2642.201          48.000    20707423.189    86034158.230       -2055.135          40.000  
R20  20003810.927   106969373.503        3296.539          39.000    20003816.650    83198428.899        2563.931          43.000  
G25  20308978.237   106724386.169         705.851          49.000    20308979.051    83161871.111         549.965          45.000  
G29  21561702.564   113307507.620        2555.150          44.000    21561707.229    88291608.480        1990.811          40.000  
S31  37227650.131   195632607.671        -682.472          45.000  
S33  38180914.338   200642047.710        -683.067          43.000  
E07  23609296.154   124067679.109       -3003.269          48.000    23609302.320    95064873.505       -2301.130          49.000  
R19  18693518.389    99997719.337       -1013.518          44.000    18693514.775    77775991.793        -788.306          49.000  
R07  20900676.428   111882950.621       -3801.669          49.000    20900681.556    87020092.579       -2956.866          47.000  
R08  20873886.913   111778710.868       -1196.172          48.000    20873884.125    86938997.221        -930.321          45.000  
E15  24622716.399   129393253.460        2008.084          45.000    24622726.687    99145524.212        1538.658          50.000  
E27  22911899.866   120402850.293          90.629          47.000    22911901.204    92256735.699          69.470          51.000  
E30  22868147.943   120172923.843       -1613.194          48.000    22868149.050    92080560.220       -1236.013          52.000  
E34  24199137.648   127167329.654          91.889          44.000    24199142.002    97439919.795          70.433          48.000  
G32  21787745.079   114495352.963         440.317          43.000    21787745.758    89217174.644         342.925          43.000  
E02                                                                  26449097.999                       -1907.453          30.000  
> 2024 04 17 00 51 00.4950000  0 24                     
G06  21675798.335   113907072.591       -1110.514          41.000    21675798.046    88758764.797        -865.544          42.000  
G11  21265461.337   111750735.009         878.944          47.000    21265460.720    87078514.817         684.857          47.000  
G12  19591584.313   102954461.484        -706.189          49.000    19591579.436    80224239.739        -550.354          45.000  
G19  23249374.736   122176278.091       -4217.748          32.000                                                                  
G24  19021692.056    99959652.436       -1591.418          49.000    19021691.378    77890639.594       -1240.218          46.000  
R10  20136011.154   107336278.410        1576.557          44.000                                                                  
R18  20955383.118   111861266.134       -3952.883          43.000    20955382.678    87003199.569       -3074.513          48.000  
R09  18467708.276    98616528.421        -303.729          51.000    18467705.460    76701736.870        -236.161          51.000  
R16  20722289.523   110694745.794       -2651.913          46.000    20722287.632    86095923.364       -2062.628          39.000  
R20  19985357.523   106870698.522        3281.980          40.000    19985363.227    83121682.236        2552.521          42.000  
G25  20304966.840   106703303.642         699.549          49.000    20304966.942    83145443.251         545.154          45.000  
G29  21547150.412   113231037.403        2543.027          44.000    21547155.520    88232021.902        1981.446          41.000  
S31  37231555.223   195653131.068        -685.602          45.000  
S33  38184823.054   200662590.012        -686.378          43.000  
E07  23626472.164   124157939.287       -3014.212          47.000    23626478.220    95134033.804       -2309.573          49.000  
R19  18699289.584   100028592.740       -1044.791          44.000    18699286.475    77800004.506        -812.598          49.000  
R07  20922022.610   111997214.350       -3815.885          49.000    20922026.777    87108963.971       -2968.029          46.000  
R08  20880665.190   111815006.556       -1223.476          48.000    20880662.235    86967227.191        -951.660          45.000  
E15  24611273.773   129333121.761        2000.681          45.000    24611283.058    99099449.703        1532.963          49.000  
E27  22911397.218   120400211.538          85.163          47.000    22911399.044    92254713.848          65.237          51.000  
E30  22877369.997   120221386.831       -1617.820          48.000    22877371.189    92117694.221       -1239.631          52.000  
E34  24198661.214   127164823.907          75.123          44.000    24198664.771    97437999.919          57.566          48.000  
G32  21785292.704   114482470.611         418.649          42.000    21785293.352    89207136.508         326.071          42.000  
E02                                                                  26463315.819   106556836.492       -1909.883          28.000  
> 2024 04 17 00 51 30.4950000  0 24                     
G06  21682197.411   113940701.298       -1132.018          42.000    21682197.246    88784969.055        -881.952          42.000  
G11  21260491.630   111724619.233         861.838          48.000    21260490.840    87058165.049         671.414          47.000  
G12  19595635.286   102975751.020        -713.602          49.000    19595630.580    80240829.046        -556.015          46.000  
G19  23273467.613   122302882.772       -4222.101          32.000                                                                  
G24  19030830.025   100007673.175       -1610.303          49.000    19030830.002    77928058.345       -1254.810          46.000  
R10  20127147.686   107289026.715        1572.930          43.000                                                                  
R18  20977652.036   111980135.717       -3972.163          46.000    20977651.147    87095653.686       -3089.452          48.000  
R09  18469440.891    98625783.303        -313.728          51.000    18469438.787    76708935.166        -243.970          51.000  
R16  20737206.822   110774429.924       -2660.699          48.000    20737205.451    86157899.885       -2069.799          40.000  
R20  19966984.850   106772450.030        3267.575          40.000    19966989.513    83045267.236        2541.334          43.000  
G25  20300988.900   106682399.010         693.723          49.000    20300988.642    83129154.004         540.359          45.000  
G29  21532664.906   113154917.043        2531.364          44.000    21532668.750    88172707.943        1972.620          39.000  
S31  37235476.276   195673735.959        -688.219          44.000  
S33  38188747.427   200683212.524        -688.709          43.000  
E07  23643706.755   124248510.457       -3024.321          47.000    23643713.734    95203432.395       -2317.317          50.000  
R19  18705233.106   100060387.773       -1075.282          44.000    18705230.116    77824734.041        -836.315          50.000  
R07  20943445.037   112111887.484       -3829.247          50.000    20943449.407    87198153.754       -2978.436          47.000  
R08  20887593.887   111852105.634       -1250.224          49.000    20887591.547    86996082.023        -972.305          46.000  
E15  24599870.251   129273194.046        1994.083          45.000    24599878.692    99053531.495        1527.886          49.000  
E27  22910922.435   120397719.473          80.493          46.000    22910924.726    92252804.414          61.695          51.000  
E30  22886614.597   120269972.940       -1621.758          48.000    22886616.904    92154922.553       -1242.585          52.000  
E34  24198277.696   127162806.969          58.885          44.000    24198280.910    97436454.569          45.121          48.000  
G32  21782960.682   114470221.793         397.746          42.000    21782962.089    89197592.044         309.459          41.000  
E02                                                                  26477550.009   106614137.289       -1910.797          32.000  
> 2024 04 17 00 52 00.4950000  0 24                     
G06  21688721.508   113974985.613       -1154.538          41.000    21688720.350    88811684.156        -899.598          40.000  
G11  21255622.836   111699033.287         843.297          48.000    21255621.672    87038228.124         657.135          47.000  
G12  19599731.307   102997275.770        -722.090          49.000    19599726.475    80257601.606        -562.571          45.000  
G19  23297585.021   122429615.301       -4227.615          31.000                                                                  
G24  19040078.571   100056272.860       -1630.410          50.000    19040077.976    77965928.213       -1270.455          46.000  
R10  20118304.559   107241891.455        1568.530          43.000                                                                  
R18  21000031.503   112099597.459       -3992.558          47.000    21000030.895    87188568.374       -3105.300          48.000  
R09  18471232.737    98635350.044        -324.807          51.000    18471230.145    76716375.973        -252.640          51.000  
R16  20752176.684   110854395.795       -2670.995          48.000    20752176.672    86220095.379       -2077.248          41.000  
R20  19948694.195   106674640.700        3252.520          41.000    19948698.740    82969193.817        2529.393          42.000  
G25  20297045.853   106661681.190         686.768          48.000    20297045.827    83113010.328         535.146          45.000  
G29  21518248.327   113079157.338        2518.645          45.000    21518251.895    88113674.958        1962.809          39.000  
S31  37239414.081   195694430.951        -691.988          44.000  
S33  38192689.147   200703926.798        -692.663          43.000  
E07  23661002.162   124339399.836       -3035.591          46.000    23661009.536    95273074.801       -2325.966          49.000  
R19  18711350.720   100093113.634       -1106.859          44.000    18711348.132    77850187.532        -861.057          50.000  
R07  20964944.651   112226974.446       -3843.728          50.000    20964949.039    87287665.456       -2989.692          47.000  
R08  20894672.912   111890015.510       -1277.856          48.000    20894670.766    87025567.467        -993.845          47.000  
E15  24588506.861   129213481.596        1986.128          45.000    24588515.394    99007778.212        1521.804          49.000  
E27  22910478.268   120395382.845          74.637          46.000    22910479.964    92251014.080          57.228          51.000  
E30  22895885.953   120318691.218       -1626.780          48.000    22895887.453    92192252.149       -1246.526          52.000  
E34  24197990.268   127161288.866          41.662          45.000    24197991.996    97435291.463          31.850          48.000  
G32  21780752.824   114458616.457         375.490          43.000    21780752.753    89188548.918         292.717          40.000  
E02                                                                  26491793.735   106671490.501       -1913.428          31.000  
> 2024 04 17 00 52 30.4950000  0 24                     
G06  21695372.453   114009940.646       -1175.994          38.000    21695372.082    88838921.959        -916.781          39.000  
G11  21250858.349   111673994.651         825.628          47.000    21250856.790    87018717.690         643.258          47.000  
G12  19603875.152   103019050.420        -729.857          49.000    19603870.140    80274568.914        -568.719          45.000  
G19  23321728.950                       -4231.402          31.000                                                                  
G24  19049439.988   100105466.756       -1649.614          49.000    19049439.290    78004261.104       -1285.449          46.000  
R10  20109487.391   107194888.572        1564.721          44.000                                                                  
R18  21022523.490   112219662.728       -4012.110          48.000    21022523.481    87281952.454       -3120.511          50.000  
R09  18473086.314    98645245.734        -335.293          51.000    18473083.510    76724072.677        -260.783          51.000  
R16  20767201.069   110934659.428       -2680.305          46.000    20767202.774    86282522.622       -2084.496          41.000  
R20  19930488.256   106577291.060        3237.053          39.000    19930492.827    82893477.903        2517.675          41.000  
G25  20293141.266   106641165.110         680.548          48.000    20293141.828    83097023.856         530.207          45.000  
G29  21503904.142   113003775.192        2506.300          43.000    21503906.875    88054936.170        1953.052          40.000  
S31  37243372.217   195715231.283        -694.894          45.000  
S33  38196651.082   200724747.160        -695.701          43.000  
E07  23678360.547   124430620.616       -3046.285          46.000    23678368.162    95342971.130       -2334.126          49.000  
R19  18717645.145   100126785.100       -1137.949          44.000    18717643.069    77876376.519        -885.169          50.000  
R07  20986524.017   112342485.961       -3857.306          52.000    20986528.929    87377507.326       -3000.004          47.000  
R08  20901905.842   111928750.198       -1304.788          47.000    20901903.973    87055694.434       -1014.900          47.000  
E15  24577187.212   129154001.589        1978.831          45.000    24577196.561    98962203.046        1516.151          50.000  
E27  22910065.427   120393216.411          69.460          46.000    22910067.751    92249354.164          53.091          51.000  
E30  22905184.670   120367556.614       -1631.290          49.000    22905186.279    92229694.494       -1249.968          52.000  
E34  24197798.653   127160285.677          24.875          44.000    24197801.285    97434522.869          19.111          49.000  
G32  21778669.596   114447670.357         354.444          44.000    21778670.116    89180019.536         275.784          41.000  
E02                                                                  26506052.878                       -1915.436          31.000  
> 2024 04 17 00 53 00.4950000  0 24                     
G06  21702149.870   114045553.876       -1197.368          36.000    21702148.552    88866672.605        -933.570          39.000  
G11  21246195.036   111649493.153         807.782          46.000    21246194.152    86999625.786         629.409          48.000  
G12  19608063.837   103041061.907        -737.576          50.000    19608058.680    80291720.766        -574.861          45.000  
G19  23345896.104   122683489.267       -4235.071          29.000                                                                  
G24  19058911.738   100155242.458       -1668.752          49.000    19058910.993    78043047.377       -1300.467          46.000  
R10  20100693.212   107148006.324        1560.861          45.000                                                                  
R18  21045125.784   112340314.713       -4031.446          48.000    21045125.780    87375792.930       -3135.549          50.000  
R09  18474998.379    98655458.361        -345.578          51.000    18474995.638    76732015.849        -268.785          51.000  
R16  20782279.779   111015208.519       -2689.656          47.000    20782279.795    86345171.912       -2092.114          41.000  
R20  19912366.669   106480392.584        3222.098          39.000    19912372.236    82818112.880        2506.459          42.000  
G25  20289273.864   106620838.017         674.509          48.000    20289273.897    83081184.635         525.723          45.000  
G29  21489628.431   112928759.990        2494.449          44.000    21489631.935    87996483.350        1943.545          40.000  
S31  37247348.030   195736125.212        -697.957          45.000  
S33  38200630.418   200745659.797        -698.380          43.000  
E07  23695780.492   124522158.241       -3056.513          46.000    23695787.139    95413110.248       -2341.889          49.000  
R19  18724115.025   100161388.899       -1168.691          45.000    18724110.776    77903290.638        -909.073          50.000  
R07  21008178.429   112458404.978       -3870.606          51.000    21008183.800    87467666.157       -3010.496          46.000  
R08  20909290.718   111968294.982       -1331.558          48.000    20909288.119    87086451.484       -1035.677          46.000  
E15  24565910.115   129094743.667        1971.556          45.000    24565920.260    98916798.030        1510.769          50.000  
E27  22909683.192   120391207.224          64.527          46.000    22909685.397    92247814.742          49.419          51.000  
E30  22914509.687   120416556.521       -1635.474          49.000    22914510.374    92267239.900       -1253.137          52.000  
E34  24197703.497   127159785.705           8.430          43.000    24197706.240    97434139.874           6.345          49.000  
G32  21776709.698   114437371.713         332.359          44.000    21776711.315    89171994.621         259.188          42.000  
E02                                                                  26520326.775   106786379.920       -1916.984          31.000  
> 2024 04 17 00 53 30.4950000  0 24                     
G06  21709051.166   114081818.496       -1219.793          40.000    21709049.859    88894930.768        -950.480          39.000  
G11  21241633.592   111625524.436         789.859          46.000    21241632.417    86980949.001         615.459          48.000  
G12  19612295.665   103063303.080        -745.412          50.000    19612291.027    80309051.610        -580.962          46.000  
G19  23370085.501                       -4239.761          29.000                                                                  
G24  19068493.908   100205593.332       -1688.123          50.000    19068492.426    78082281.806       -1315.294          46.000  
R10  20091919.646   107101238.597        1556.830          45.000                                                                  
R18  21067835.907   112461542.534       -4050.642          50.000    21067835.638    87470081.258       -3150.590          49.000  
R09  18476969.013    98665982.693        -356.197          50.000    18476966.670    76740201.451        -277.014          52.000  
R16  20797411.713   111096037.069       -2699.075          48.000    20797412.155    86408038.504       -2099.333          44.000  
R20  19894329.876   106383943.178        3207.226          39.000    19894335.226    82743097.127        2494.515          42.000  
G25  20285440.303   106600692.900         668.321          47.000    20285439.513    83065487.230         520.807          44.000  
G29  21475423.090   112854106.948        2482.352          42.000    21475424.953    87938312.669        1934.269          40.000  
S31  37251340.367   195757104.756        -701.058          45.000  
S33  38204626.288   200766657.963        -701.695          43.000  
E07  23713259.099   124614004.015       -3066.747          47.000    23713264.954    95483485.480       -2349.882          49.000  
R19  18730756.069   100196917.431       -1199.949          44.000    18730752.695    77930923.994        -933.242          50.000  
R07  21029906.993   112574719.425       -3883.883          50.000    21029912.192    87558132.542       -3020.841          45.000  
R08  20916824.242   112008640.948       -1358.421          48.000    20916823.022    87117831.690       -1056.466          46.000  
E15  24554674.592   129035703.184        1964.158          44.000    24554685.108    98871559.637        1505.081          50.000  
E27  22909328.926   120389348.183          59.323          46.000    22909331.518    92246390.349          45.392          51.000  
E30  22923858.053   120465684.068       -1639.879          49.000    22923859.090    92304883.109       -1256.642          52.000  
E34  24197701.665   127159783.088          -8.445          42.000    24197705.852    97434137.959          -6.470          49.000  
G32  21774871.763   114427714.365         311.216          43.000    21774873.833    89164469.443         242.506          42.000  
E02                                                                  26534611.458                       -1918.036          29.000  
> 2024 04 17 00 54 00.4950000  0 23                     
G06  21716079.361   114118746.805       -1242.343          40.000    21716076.575    88923706.113        -968.320          38.000  
G11  21237175.834   111602103.207         771.458          45.000    21237175.513    86962698.888         600.908          47.000  
G12  19616573.717   103085786.053        -753.707          49.000    19616569.899    80326570.836        -587.197          46.000  
G24  19078186.426   100256531.858       -1708.041          50.000    19078185.288    78121974.162       -1330.934          46.000  
R10  20083169.898   107054598.587        1552.233          45.000                                                                  
R18  21090655.942   112583354.744       -4070.342          50.000    21090655.410    87564824.112       -3165.876          49.000  
R09  18479000.723    98676832.270        -367.375          50.000    18478998.512    76748640.065        -285.759          52.000  
R16  20812597.546   111177158.271       -2709.213          46.000    20812597.631    86471132.763       -2106.936          45.000  
R20  19876380.354   106287959.279        3191.350          39.000    19876386.091    82668443.438        2481.993          43.000  
G25  20281642.924   106580741.996         661.467          48.000    20281643.007    83049941.169         515.369          44.000  
G29  21461288.281   112779829.852        2469.216          41.000    21461288.161    87880434.987        1923.990          38.000  
S31  37255351.331   195778182.823        -704.610          45.000  
S33  38208640.615   200787754.635        -704.933          43.000  
E07  23730796.717   124706168.394       -3077.564          46.000    23730803.426    95554104.838       -2358.181          49.000  
R19  18737572.631   100233381.938       -1231.184          44.000    18737569.917    77959285.351        -957.712          51.000  
R07  21051711.273   112691437.735       -3897.528          50.000    21051716.102    87648913.061       -3031.442          45.000  
R08  20924510.808   112049799.158       -1385.595          49.000    20924509.284    87149843.603       -1077.772          47.000  
E15  24543484.030   128976894.667        1956.318          45.000    24543493.362    98826498.987        1498.825          50.000  
E27  22909006.308   120387651.287          53.846          46.000    22909008.948    92245090.191          41.099          51.000  
E30  22933232.974   120514951.584       -1644.711          49.000    22933234.511    92342633.548       -1260.252          52.000  
E34  24197798.790   127160291.057         -25.589          43.000    24197802.326    97434527.285         -19.705          49.000  
G32  21773158.905   114418711.450         288.904          43.000    21773160.473    89157454.211         225.222          42.000  
E02                                                                  26548909.963                       -1920.275          24.000  
> 2024 04 17 00 54 30.4950000  0 23                     
G06  21723232.325   114156337.596       -1263.887          40.000    21723230.394    88952997.659        -984.868          39.000  
G11  21232824.220   111579230.772         753.269          47.000    21232822.928    86944876.377         586.930          48.000  
G12  19620897.569   103108508.733        -761.269          49.000    19620893.577    80344276.866        -593.367          45.000  
G24  19087991.498   100308057.000       -1727.193          49.000    19087991.022    78162123.605       -1346.011          47.000  
R10  20074444.949   107008086.523        1548.345          44.000                                                                  
R18  21113583.906   112705746.155       -4089.201          50.000    21113583.520    87660017.445       -3180.549          49.000  
R09  18481093.184    98688007.537        -378.018          51.000    18481091.575    76757331.927        -294.038          51.000  
R16  20827838.612   111258571.370       -2718.509          47.000    20827837.947    86534454.043       -2114.488          45.000  
R20  19858518.590   106192444.597        3176.305          39.000    19858523.614    82594154.696        2470.325          43.000  
G25  20277883.519   106560984.011         655.425          47.000    20277883.216    83034545.425         510.693          44.000  
G29  21447225.165   112705929.693        2457.313          43.000    21447225.062    87822850.991        1914.620          37.000  
S31  37259380.836   195799358.291        -707.488          44.000  
S33  38212673.489   200808948.464        -708.109          43.000  
E07  23748394.706   124798648.340       -3087.870          46.000    23748401.796    95624965.979       -2366.029          49.000  
R19  18744563.704   100270781.177       -1262.201          44.000    18744561.302    77988373.708        -981.743          50.000  
R07  21073588.432   112808553.477       -3910.439          49.000    21073594.095    87740002.700       -3041.421          44.000  
R08  20932347.813   112091765.547       -1412.311          50.000    20932346.608    87182484.077       -1098.345          47.000  
E15  24532337.538   128918319.197        1948.649          46.000    24532346.085    98781616.848        1493.161          49.000  
E27  22908713.779   120386115.076          48.673          46.000    22908716.703    92243913.151          37.298          52.000  
E30  22942634.800   120564357.964       -1649.113          48.000    22942636.110    92380490.391       -1263.651          52.000  
E34  24197993.575   127161309.412         -42.280          43.000    24197995.817    97435307.674         -32.404          49.000  
G32  21771570.757   114410362.470         267.321          45.000    21771571.471    89150948.578         208.365          42.000  
E02                                                                  26563230.783                3      -1925.947          22.000  
> 2024 04 17 00 55 00.4950000  0 23                     
G06  21730511.839   114194592.943       -1286.779          40.000    21730509.662    88982807.082       -1002.594          37.000  
G11  21228576.601   111556911.519         734.219          46.000    21228575.450    86927484.904         572.098          47.000  
G12  19625267.680   103131473.192        -769.930          49.000    19625263.138    80362171.261        -599.999          45.000  
G24  19097907.998   100360170.933       -1747.303          49.000    19097907.930    78202731.844       -1361.660          46.000  
R10  20065743.109   106961705.290        1543.440          42.000                                                                  
R18  21136620.154   112828714.949       -4109.003          51.000    21136619.472    87755659.887       -3195.975          49.000  
R09  18483248.843    98699512.015        -389.359          51.000    18483246.062    76766279.907        -302.865          52.000  
R16  20843135.087   111340279.340       -2728.936          48.000    20843133.253    86598004.646       -2122.630          45.000  
R20  19840745.548   106097405.801        3159.994          39.000    19840751.212    82520236.075        2457.198          43.000  
G25  20274161.106   106541420.893         648.234          47.000    20274160.606    83019301.525         505.334          45.000  
G29  21433235.075   112632410.149        2443.540          42.000    21433234.693    87765563.485        1904.149          38.000  
S31  37263429.303   195820632.654        -711.533          45.000  
S33  38216725.345   200830241.980        -711.819          43.000  
E07  23766053.520   124891443.908       -3098.699          46.000    23766060.410    95696068.975       -2374.442          49.000  
R19  18751730.460   100309116.111       -1293.863          43.000    18751727.131    78018189.777       -1006.277          51.000  
R07  21095540.193   112926064.880       -3924.082          49.000    21095545.170    87831400.060       -3052.064          41.000  
R08  20940335.696   112134541.413       -1439.820          49.000    20940333.940    87215754.185       -1119.876          47.000  
E15  24521235.724   128859980.944        1940.297          45.000    24521244.481    98736916.485        1486.630          49.000  
E27  22908451.442   120384741.266          42.848          46.000    22908455.285    92242860.569          32.702          52.000  
E30  22952063.244   120613905.150       -1654.368          48.000    22952065.009    92418455.127       -1267.587          52.000  
E34  24198285.431   127162841.102         -60.124          43.000    24198287.136    97436481.388         -46.003          49.000  
G32  21770106.949   114402670.141         244.947          46.000    21770108.582    89144954.596         190.796          43.000  
E02                                                                  26577555.987                3      -1925.229          23.000  
> 2024 04 17 00 55 30.4950000  0 23                     
G06  21737919.241   114233523.014       -1308.435          38.000    21737918.071    89013142.283       -1019.578          36.000  
G11  21224437.032   111535158.181         716.090          47.000    21224434.689    86910534.402         557.868          46.000  
G12  19629685.817   103154689.813        -777.697          49.000    19629680.809    80380262.159        -606.074          45.000  
G24  19107939.109   100412884.094       -1766.711          49.000    19107939.050    78243807.018       -1376.611          47.000  
R10  20057066.723   106915466.225        1539.238          41.000                                                                  
R18  21159765.987   112952267.408       -4127.811          51.000    21159764.854    87851756.266       -3210.416          48.000  
R09  18485467.097    98711357.436        -400.276          51.000    18485464.381    76775493.018        -311.255          52.000  
R16  20858487.726   111422293.313       -2738.541          46.000    20858487.692    86661793.207       -2129.938          47.000  
R20  19823064.401   106002857.793        3143.702          40.000    19823069.287    82446699.136        2445.225          43.000  
G25  20270477.242   106522062.821         642.131          48.000    20270476.974    83004217.421         500.302          45.000  
G29  21419317.505   112559283.441        2431.371          40.000    21419319.174    87708582.202        1894.675          39.000  
S31  37267498.587   195842016.778        -714.228          45.000  
S33  38220798.230   200851644.698        -714.732          43.000  
E07  23783774.163   124984563.609       -3109.013          46.000    23783781.023    95767420.315       -2382.278          50.000  
R19  18759072.920   100348396.810       -1324.932          42.000    18759071.342    78048741.487       -1030.329          51.000  
R07  21117568.116   113043977.380       -3936.585          48.000    21117571.480    87923109.396       -3061.872          40.000  
R08  20948477.017   112178134.966       -1466.395          50.000    20948475.324    87249660.253       -1140.500          47.000  
E15  24510182.018   128801892.469        1932.463          45.000    24510190.709    98692407.519        1480.597          50.000  
E27  22908223.786   120383539.969          37.507          47.000    22908226.445    92241940.170          28.691          51.000  
E30  22961520.748   120663603.548       -1658.909          48.000    22961522.518    92456535.713       -1270.978          52.000  
E34  24198674.391   127164897.297         -76.992          42.000    24198678.351    97438057.027         -59.038          49.000  
G32  21768770.493   114395645.468         223.437          45.000    21768772.328    89139480.861         174.109          43.000  
E02                                                                  26591899.910                3      -1930.747          22.000  
> 2024 04 17 00 56 00.4950000  0 23                     
G06  21745450.404   114273103.552       -1330.031          40.000    21745451.627    89043984.367       -1036.525          38.000  
G11  21220401.254   111513948.840         698.228          48.000    21220399.213    86894007.811         544.065          47.000  
G12  19634147.377   103178133.591        -784.794          50.000    19634142.190    80398530.074        -611.709          45.000  
G24  19118079.359   100466172.258       -1785.450          49.000    19118079.295    78285330.254       -1391.359          46.000  
R10  20048415.079   106869345.945        1535.637          43.000                                                                  
R18  21183015.631   113076374.966       -4145.771          52.000    21183014.155    87948284.403       -3224.539          47.000  
R09  18487744.567    98723520.476        -410.301          51.000    18487742.053    76784953.189        -319.135          51.000  
R16  20873893.026   111504589.194       -2747.477          46.000    20873892.955    86725801.076       -2136.962          46.000  
R20  19805471.467   105908779.797        3128.308          41.000    19805476.322    82373527.768        2432.971          43.000  
G25  20266827.485   106502885.389         636.746          47.000    20266828.066    82989274.044         496.161          46.000  
G29  21405471.816   112486527.254        2419.201          41.000    21405473.156    87651889.582        1885.179          39.000  
S31  37271583.799   195863486.368        -716.949          45.000  
S33  38224887.166   200873132.978        -717.451          44.000  
E07  23801549.862   125077981.161       -3118.423          46.000    23801557.624    95838999.896       -2389.494          50.000  
R19  18766587.738   100388597.469       -1354.884          42.000    18766586.130    78080008.742       -1053.915          51.000  
R07  21139665.938   113162261.830       -3948.556          49.000    21139670.060    88015107.998       -3071.214          43.000  
R08  20956766.143   112222519.698       -1492.303          50.000    20956763.661    87284181.713       -1160.682          47.000  
E15  24499170.109   128744031.581        1925.272          45.000    24499179.509    98648072.982        1475.043          50.000  
E27  22908023.476   120382486.568          32.929          47.000    22908025.828    92241133.075          25.302          51.000  
E30  22971001.824   120713428.762       -1662.515          48.000    22971003.614    92494713.495       -1273.908          52.000  
E34  24199162.211   127167454.672         -93.053          42.000    24199165.357    97440016.665         -71.374          49.000  
G32  21767555.546   114389264.780         202.417          45.000    21767558.676    89134508.924         157.677          43.000  
E02                                                                  26606264.109                3      -1926.426          21.000  
> 2024 04 17 00 56 30.4950000  0 22                     
G06  21753105.779   114313324.265       -1351.393          43.000    21753105.381    89075325.147       -1053.135          37.000  
G11  21216465.975   111493275.725         680.052          46.000    21216465.519    86877899.084         529.717          47.000  
G12  19638650.255   103201794.245        -792.496          49.000    19638644.344    80416966.970        -617.574          45.000  
G24  19128327.316   100520025.430       -1804.682          49.000    19128327.366    78327293.762       -1406.134          47.000  
R10  20039785.319   106823335.367        1531.478          44.000                                                                  
R18  21206366.129   113201023.440       -4164.201          51.000    21206365.166    88045233.222       -3238.813          47.000  
R09  18490080.723    98735992.454        -421.206          51.000    18490077.519    76794653.654        -327.530          52.000  
R16  20889351.673   111587157.136       -2757.093          48.000    20889351.399    86790020.576       -2144.253          48.000  
R20  19787964.931   105815166.484        3112.101          41.000    19787969.366    82300717.784        2420.739          43.000  
G25  20263210.499   106483878.483         630.374          47.000    20263210.800    82974463.543         491.288          45.000  
G29  21391696.214   112414133.478        2406.931          42.000    21391696.756    87595479.289        1875.538          38.000  
S31  37275683.786   195885031.662        -719.444          45.000  
S33  38228990.330   200894695.985        -720.424          43.000  
E07  23819381.865   125171684.635       -3128.477          46.000    23819388.875    95910798.540       -2397.067          50.000  
R19  18774273.703   100429706.897       -1385.622          43.000    18774270.618    78111982.778       -1077.714          50.000  
R07  21161830.355   113280903.345       -3960.793          50.000    21161833.765    88107384.282       -3080.656          43.000  
R08  20965199.343   112267683.036       -1518.558          49.000    20965197.945    87319308.710       -1181.105          47.000  
E15  24488202.226   128686390.507        1917.579          46.000    24488210.028    98603906.848        1469.157          49.000  
E27  22907849.385   120381570.693          27.965          47.000    22907851.629    92240431.353          21.439          51.000  
E30  22980505.536   120763370.844       -1666.975          48.000    22980507.096    92532980.801       -1277.259          52.000  
E34  24199740.752   127170504.001        -110.233          42.000    24199744.814    97442353.232         -84.314          48.000  
G32  21766463.134   114383518.616         180.789          46.000    21766463.489    89130031.407         140.909          41.000  
> 2024 04 17 00 57 00.4950000  0 22                     
G06  21760882.223   114354188.404       -1372.694          43.000    21760881.771    89107167.371       -1069.731          34.000  
G11  21212635.930   111473144.549         662.031          48.000    21212633.543    86862212.611         515.895          46.000  
G12  19643193.820   103225674.869        -799.672          49.000    19643188.816    80435575.295        -623.114          44.000  
G24  19138683.834   100574447.007       -1823.438          49.000    19138683.718    78369700.161       -1421.024          47.000  
R10  20031174.854   106777438.489        1528.130          44.000                                                                  
R18  21229817.957   113326212.126       -4181.834          51.000    21229816.546    88142602.241       -3252.583          46.000  
R09  18492475.615    98748778.102        -431.364          51.000    18492471.620    76804598.079        -335.458          51.000  
R16  20904861.220   111670001.906       -2766.062          49.000    20904859.710    86854455.330       -2151.418          47.000  
R20  19770546.792   105722025.614        3096.617          41.000    19770551.140    82228275.259        2408.849          44.000  
G25  20259627.277   106465045.311         625.004          47.000    20259627.162    82959788.428         486.876          46.000  
G29  21377989.836   112342107.092        2394.813          43.000    21377990.300    87539355.322        1865.862          38.000  
S31  37279798.537   195906654.827        -722.203          44.000  
S33  38233108.566   200916339.016        -722.573          43.000  
E07  23837268.497   125265675.437       -3137.784          47.000    23837275.270    95982817.351       -2404.198          50.000  
R19  18782128.579   100471727.930       -1415.849          42.000    18782126.174    78144665.852       -1101.144          50.000  
R07  21184060.452   113399900.600       -3972.333          49.000    21184064.225    88199937.223       -3089.828          43.000  
R08  20973778.844   112313626.620       -1544.401          49.000    20973777.361    87355042.577       -1201.129          47.000  
E15  24477276.930   128628974.802        1910.129          47.000    24477283.458    98559913.372        1463.618          48.000  
E27  22907701.251   120380795.439          23.747          46.000    22907704.121    92239837.405          18.066          51.000  
E30  22990032.364   120813433.105       -1670.602          48.000    22990033.536    92571340.216       -1280.078          52.000  
E34  24200416.702   127174049.435        -126.373          43.000    24200419.648    97445069.972         -96.938          49.000  
G32  21765490.885   114378410.912         159.826          46.000    21765490.973    89126051.433         124.312          42.000  
> 2024 04 17 00 57 30.4950000  0 22                     
G06  21768779.258   114395691.658       -1393.921          43.000    21768777.927    89139507.576       -1085.967          34.000  
G11  21208908.513   111453553.518         644.149          48.000    21208905.570    86846947.029         502.050          46.000  
G12  19647778.825   103249771.061        -806.667          49.000    19647774.023    80454351.598        -628.698          45.000  
G24  19149147.311   100629432.928       -1842.268          49.000    19149147.248    78412546.327       -1435.567          47.000  
R10  20022585.177   106731652.588        1524.542          43.000                                                                  
R18  21253369.334   113451932.997       -4199.324          50.000    21253368.260    88240385.170       -3266.197          46.000  
R09  18494927.464    98761874.902        -441.653          50.000    18494924.390    76814784.505        -343.474          52.000  
R16  20920420.033   111753119.343       -2774.980          46.000    20920418.255    86919102.161       -2158.323          46.000  
R20  19753217.157   105629357.810        3081.132          41.000    19753221.483    82156200.684        2396.304          43.000  
G25  20256075.634   106446381.723         619.600          47.000    20256075.890    82945245.455         482.833          46.000  
G29  21364351.433   112270445.426        2382.771          42.000    21364351.739    87483515.530        1856.624          35.000  
S31  37283927.365   195928353.704        -724.692          44.000  
S33  38237241.085   200938055.637        -724.699          43.000  
E07  23855207.628   125359947.557       -3147.044          46.000    23855214.968    96055051.731       -2411.282          51.000  
R19  18790153.161   100514654.839       -1445.885          42.000    18790150.591    78178053.493       -1124.517          50.000  
R07  21206356.526   113519245.229       -3983.787          49.000    21206358.912    88292760.340       -3098.345          42.000  
R08  20982503.064   112360343.974       -1570.009          49.000    20982501.919    87391378.284       -1221.063          48.000  
E15  24466392.940   128571782.503        1902.782          46.000    24466399.196    98516091.087        1457.904          48.000  
E27  22907579.247   120380156.450          19.109          46.000    22907582.279    92239347.855          14.657          51.000  
E30  22999581.001   120863611.492       -1674.445          48.000    22999582.071    92609788.594       -1282.951          52.000  
E34  24201186.628   127178087.773        -142.809          44.000    24201187.988    97448164.342        -109.311          48.000  
G32  21764639.708   114373938.142         138.492          46.000    21764640.643    89122566.193         107.902          43.000  
> 2024 04 17 00 58 00.4950000  0 22                     
G06  21776799.353   114437830.150       -1415.038          42.000    21776797.290    89172342.800       -1102.723          35.000  
G11  21205282.780   111434501.182         626.340          47.000    21205280.168    86832101.201         488.131          47.000  
G12  19652405.310   103274078.594        -813.643          49.000    19652399.154    80473292.556        -633.944          44.000  
G24  19159718.057   100684979.499       -1860.703          50.000    19159717.312    78455829.325       -1449.960          47.000  
R10  20014014.885   106685974.975        1521.007          43.000                                                                  
R18  21277018.555   113578178.028       -4216.674          49.000    21277017.663    88338575.767       -3279.652          45.000  
R09  18497436.519    98775280.020        -451.745          49.000    18497434.541    76825210.707        -351.472          51.000  
R16  20936028.947   111836506.501       -2783.758          46.000    20936029.934    86983958.812       -2165.071          48.000  
R20  19735975.798   105537163.310        3065.279          41.000    19735980.784    82084494.227        2384.158          44.000  
G25  20252554.874   106427883.914         614.104          45.000    20252555.198    82930831.673         478.588          45.000  
G29  21350784.144   112199147.059        2370.550          43.000    21350783.665    87427958.775        1847.009          37.000  
S31  37288069.717   195950122.556        -726.506          44.000  
S33  38241386.890   200959843.566        -727.190          43.000  
E07  23873199.873   125454495.391       -3155.960          46.000    23873207.065    96127497.338       -2418.223          51.000  
R19  18798346.043   100558483.314       -1475.799          42.000    18798343.452    78212142.342       -1147.752          50.000  
R07  21228715.143   113638928.628       -3994.814          49.000    21228717.410    88385846.949       -3107.055          42.000  
R08  20991370.735   112407829.001       -1595.388          49.000    20991369.711    87428311.019       -1240.884          48.000  
E15  24455551.353   128514812.061        1895.663          46.000    24455557.579    98472438.802        1452.474          47.000  
E27  22907483.191   120379649.731          15.003          47.000    22907485.579    92238959.662          11.445          51.000  
E30  23009150.656   120913902.310       -1677.928          48.000    23009152.142    92648323.135       -1285.708          51.000  
E34  24202045.929   127182616.038        -158.744          43.000    24202049.434    97451634.170        -121.708          48.000  
G32  21763908.564   114370097.046         117.901          46.000    21763910.472    89119573.214          91.845          44.000  
> 2024 04 17 00 58 30.4950000  0 23                     
G06  21784933.976   114480585.803       -1435.551          40.000    21784933.500    89205658.978       -1118.233          32.000  
G11  21201755.086   111415971.983         609.056          47.000    21201754.081    86817663.032         474.668          47.000  
G12  19657066.881   103298579.305        -819.597          48.000    19657061.508    80492384.039        -638.720          44.000  
G24  19170391.364   100741068.825       -1878.468          50.000    19170390.675    78499535.275       -1463.783          47.000  
R10  20005463.240   106640387.728        1518.266          44.000                                                                  
R18  21300762.455   113704925.101       -4233.057          48.000    21300762.056    88437156.869       -3292.336          44.000  
R09  18500001.584    98788976.935        -461.146          50.000    18499999.662    76835863.866        -358.706          51.000  
R16  20951686.039   111920146.021       -2791.885          46.000    20951687.558    87049011.687       -2171.526          48.000  
R20  19718820.555   105445428.120        3050.262          41.000    19718825.204    82013144.977        2372.617          44.000  
G25  20249062.012   106409533.974         609.547          45.000    20249062.674    82916533.123         474.862          44.000  
G29  21337282.348   112128195.811        2359.568          43.000    21337282.748    87372672.468        1838.773          38.000  
S31  37292222.237   195971945.094        -728.266          45.000  
S33  38245542.940   200981684.222        -728.838          43.000  
E07  23891241.226   125549299.131       -3164.124          46.000    23891247.810    96200139.028       -2424.433          51.000  
R19  18806704.734   100603193.838       -1504.557          43.000    18806701.450    78246917.257       -1170.406          50.000  
R07  21251130.572   113758928.205       -4005.049          46.000    21251136.672    88479179.494       -3115.134          43.000  
R08  21000377.603   112456061.791       -1619.951          49.000    21000376.179    87465825.408       -1260.034          47.000  
E15  24444748.828   128458047.903        1888.968          46.000    24444755.463    98428944.562        1447.329          47.000  
E27  22907408.827   120379257.200          11.373          47.000    22907410.747    92238658.956           8.758          51.000  
E30  23018739.523   120964287.781       -1680.869          48.000    23018739.905    92686930.177       -1287.896          51.000  
E34  24202998.326   127187617.339        -174.456          44.000    24203000.734    97455466.398        -133.567          48.000  
G32  21763294.193   114366870.372          97.950          45.000    21763295.095    89117058.981          76.171          43.000  
E02                                                                  26678232.519                       -1935.062          26.000  
> 2024 04 17 00 59 00.4950000  0 23                     
G06  21793185.335   114523946.994       -1455.143          40.000    21793184.545                       -1134.792          31.000  
G11  21198327.577   111397956.818         592.051          47.000    21198326.854    86803625.410         461.290          48.000  
G12  19661764.013   103323261.935        -825.558          49.000    19661758.454    80511617.276        -643.185          44.000  
G24  19181166.101   100797689.558       -1895.974          51.000    19181165.260    78543655.308       -1477.407          46.000  
R10  19996926.691   106594881.454        1515.909          45.000                                                                  
R18  21324598.012   113832158.731       -4248.971          48.000    21324598.014    88536116.359       -3304.907          46.000  
R09  18502620.120    98802955.803        -470.560          51.000    18502617.611    76846736.359        -365.993          51.000  
R16  20967388.406   112004026.766       -2799.808          45.000    20967389.840    87114252.231       -2177.689          46.000  
R20  19701750.034   105354145.827        3035.246          41.000    19701754.712    81942148.028        2360.717          44.000  
G25  20245595.995   106391320.483         605.231          45.000    20245596.502    82902340.869         471.596          44.000  
G29  21323844.401   112057582.097        2348.223          42.000    21323846.416    87317649.239        1829.662          40.000  
S31  37296382.981   195993809.345        -729.362          45.000  
S33  38249707.021   201003566.564        -729.679          43.000  
E07  23909327.299   125644345.481       -3172.051          46.000    23909334.398    96272966.620       -2430.488          51.000  
R19  18815225.944   100648773.851       -1533.625          44.000    18815221.607    78282368.426       -1192.841          49.000  
R07  21273602.390   113879227.512       -4014.869          45.000    21273611.256    88572745.134       -3122.447          42.000  
R08  21009520.905   112505028.120       -1644.201          48.000    21009519.616    87503910.288       -1278.870          47.000  
E15  24433983.248   128401480.794        1882.556          45.000    24433991.028    98385601.307        1442.417          47.000  
E27  22907353.268   120378967.230           8.288          47.000    22907355.593    92238436.854           6.283          51.000  
E30  23028343.232   121014756.535       -1683.491          49.000    23028343.719    92725601.058       -1289.914          51.000  
E34  24204037.100   127193080.999        -189.537          43.000    24204040.489    97459652.930        -145.236          48.000  
G32  21762794.592   114364247.253          77.639          45.000    21762796.004    89115015.037          60.275          43.000  
E02                                                                  26692632.515                3      -1934.032          25.000  
> 2024 04 17 00 59 30.4950000  0 23                     
G06  21801551.372   114567904.802       -1475.281          41.000    21801546.526    89273699.899       -1149.616          33.000  
G11  21194995.859   111380449.232         575.118          46.000    21194994.814    86789983.274         448.115          47.000  
G12  19666493.198   103348117.159        -831.426          48.000    19666488.792    80530985.014        -647.843          45.000  
G24  19192040.731   100854832.945       -1913.629          51.000    19192038.824    78588182.596       -1491.065          46.000  
R10  19988403.556   106549448.178        1513.076          45.000                                                                  
R18  21348522.298   113959866.040       -4264.899          47.000    21348522.152    88635444.284       -3317.046          45.000  
R09  18505289.563    98817209.096        -479.764          52.000    18505286.309    76857822.277        -373.098          51.000  
R16  20983134.642   112088140.642       -2807.701          46.000    20983135.417    87179674.080       -2183.758          45.000  
R20  19684763.748   105263312.038        3020.369          41.000    19684767.269    81871499.857        2349.001          43.000  
G25  20242155.271   106373234.698         600.663          46.000    20242154.974    82888248.124         468.041          44.000  
G29  21310469.058   111987298.695        2337.179          44.000    21310471.579    87262883.409        1821.034          41.000  
S31  37300549.771   196015706.650        -730.687          44.000  
S33  38253877.466   201025482.441        -731.321          43.000  
E07  23927458.481   125739623.874       -3179.750          46.000    23927464.998    96345972.014       -2436.445          50.000  
R19  18823907.631   100695213.234       -1562.378          44.000    18823903.103    78318487.994       -1215.066          49.000  
R07  21296127.892   113999813.161       -4024.417          45.000    21296138.258    88666533.470       -3130.223          41.000  
R08  21018799.801   112554717.429       -1668.354          48.000    21018798.203    87542557.528       -1297.765          46.000  
E15  24423253.734   128345104.277        1875.874          44.000    24423262.868    98342404.089        1437.333          48.000  
E27  22907315.815   120378770.933           4.856          47.000    22907318.274    92238286.504           3.733          51.000  
E30  23037961.857   121065299.967       -1686.032          49.000    23037961.824    92764329.166       -1292.008          51.000  
E34  24205163.979   127198999.165        -204.906          44.000    24205166.474    97464187.722        -157.094          48.000  
G32  21762409.229   114362219.437          57.451          45.000    21762410.335    89113434.963          44.813          43.000  
E02                                                                  26707052.962                3      -1935.290          27.000  
