     3.00           OBSERVATION DATA    M: Mixed            RINEX VERSION / TYPE
CONVBIN 2.4.3                           20240417 001442 UTC PGM / RUN BY / DATE 
format: u-blox UBX                                          COMMENT             
log: /home/regis/git/gnsspwv/obsdata/VERT00CHL/2024-04-17/VECOMMENT             
{self.marker}                                               MARKER NAME         
                                                            MARKER NUMBER       
GEODETIC                                                    MARKER TYPE         
{self.observer}     {self.institution}                      OBSERVER / AGENCY   
UNKNOWN             UBLOX-ZED-F9P                           REC # / TYPE / VERS 
UNKNOWN             TWIVSP6037L                             ANT # / TYPE        
  1713381.0000 -5047934.0000 -3490983.0000                  APPROX POSITION XYZ 
        0.0000        0.0000        0.0000                  ANTENNA: DELTA H/E/N
G    8 C1C L1C D1C S1C C2L L2L D2L S2L                      SYS / # / OBS TYPES 
R    8 C1C L1C D1C S1C C2C L2C D2C S2C                      SYS / # / OBS TYPES 
E    8 C1C L1C D1C S1C C7Q L7Q D7Q S7Q                      SYS / # / OBS TYPES 
S    4 C1C L1C D1C S1C                                      SYS / # / OBS TYPES 
  2024    04    17    00    00   00.0110000     GPS         TIME OF FIRST OBS   
  2024    04    17    00    14   30.4900000     GPS         TIME OF LAST OBS    
                                                            END OF HEADER       
> 2024 04 17 00 00 00.0110000  0 27                     
G13  27241680.493   143155647.0011      -4546.551          43.000                                                                  
G15  25789919.117   135526877.9291      -3662.549          47.000    25789926.699   105605376.0621      -2853.895          44.000  
G19  26187353.138   137615963.0301      -3727.648          41.000                                                                  
G24  23829480.568   125224966.3201       -143.804          50.000    23829478.943    97578006.1191       -112.060          47.000  
R09  23743335.859   126788181.3941        184.168          51.000    23743334.859    98613334.1291        143.249          50.000  
R08  26175947.127   140171088.2271       1200.012          37.000    26175951.315   109021855.6321        933.446          40.000  
R16  24636923.465   131606035.9781      -2208.845          50.000    24636921.934   102360781.2061      -1717.997          49.000  
R06  25803387.149   137691558.0171      -4576.777          35.000                                                                  
R10  26319956.048   140300172.8171       1505.242          36.000                                                                  
G12  24615437.016   129355237.9671       -188.795          49.000    24615434.904   100796600.0811       -146.960          46.000  
E08  29810000.133   156652550.8151      -3780.102          45.000    29810018.465   120032483.8041      -2896.333          46.000  
S31  42105789.942   221267414.9511       -760.116          45.000  
S33  43058657.823   226274742.9991       -760.804          43.000  
G11  27390158.071   143936602.3911       1797.067          45.000    27390164.705   112158591.8791       1400.202          44.000  
E36  30990729.979   162857349.3521       -905.511          43.000    30990734.423   124786877.5341       -693.957          48.000  
R19  24167277.580   129279077.8541       1540.161          43.000    24167277.696   100550590.5341       1197.907          49.000  
R07  24475332.035   131018375.3151      -2049.296          52.000    24475332.176   101903203.1791      -1593.834          49.000  
R18  24569902.913   131155926.8801      -1745.507          48.000    24569902.973   102010354.6921      -1357.492          50.000  
E07  27430189.538   144146779.0861      -2020.220          49.000    27430195.112   110450172.5131      -1547.951          52.000  
E27  28313458.339   148788625.7541        309.298          46.000    28313463.120   114007087.9871        236.987          51.000  
E34  29875673.270   156998003.8091       1144.199          44.000    29875679.628   120297233.2501        876.878          49.000  
G25  26090719.974   137107879.9411       1004.579          45.000    26090723.639   106837375.8481        782.741          43.000  
E30  27256801.752   143235937.2451      -1507.874          50.000    27256803.931   109752484.1181      -1155.430          52.000  
G06  26837359.499   141031462.1891        573.577          42.000    26837361.716   109894737.0331        446.689          42.000  
E02  30255325.782   158992750.4531      -2678.630          31.000    30255331.886   121826090.8301      -2052.830          34.000  
E15  31098906.762   163425896.4111       1971.928          37.000    31098947.332   125222559.9231       1510.796          42.000  
E18  29831663.619   156766916.9101      -5681.884          40.000                                                                  
> 2024 04 17 00 00 30.0110000  0 27                     
G13  27267643.607   143292082.053       -4549.097          41.000                                                                  
G15  25810849.645   135636870.603       -3670.429          47.000    25810858.165   105691084.199       -2860.015          45.000  
G19  26208662.634   137727946.441       -3738.060          41.000                                                                  
G24  23830339.316   125229479.290        -157.021          50.000    23830338.270    97581522.735        -122.446          47.000  
R09  23742314.007   126782725.141         179.663          51.000    23742312.344    98609090.444         139.715          50.000  
R08  26169290.662   140135430.649        1176.682          39.000    26169293.161   108994121.960         915.371          39.000  
R16  24649340.902   131672364.252       -2213.151          50.000    24649338.577   102412369.839       -1721.354          50.000  
R06  25829136.741   137828959.285       -4583.253          35.000                                                                  
R10  26311484.310   140255021.615        1504.934          39.000                                                                  
G12  24616535.183   129361008.616        -195.867          49.000    24616533.332   100801096.754        -152.688          46.000  
E08  29831589.025   156765996.568       -3782.895          46.000    29831606.728   120119409.041       -2898.576          46.000  
S31  42110129.878   221290222.183        -760.639          45.000  
S33  43063002.317   226297572.715        -761.257          43.000  
G11  27379912.907   143882764.253        1792.121          45.000    27379918.182   112116640.775        1396.431          43.000  
E36  30995940.771   162884729.703        -919.913          44.000    30995944.813   124807857.311        -704.761          49.000  
R19  24158701.611   129233201.415        1518.121          43.000    24158700.914   100514909.034        1180.774          49.000  
R07  24486884.588   131080219.890       -2073.713          51.000    24486884.697   101951304.439       -1612.883          49.000  
R18  24579786.148   131208687.942       -1772.110          48.000    24579787.220   102051391.111       -1378.319          51.000  
E07  27441760.279   144207581.971       -2033.204          49.000    27441765.671   110496761.673       -1557.915          52.000  
E27  28311703.578   148779408.161         305.102          46.000    28311708.904   114000025.278         233.840          51.000  
E34  29869163.706   156963800.113        1135.887          44.000    29869170.789   120271025.365         870.233          49.000  
G25  26084996.413   137077805.700        1000.129          44.000    26085000.947   106813941.592         779.229          44.000  
E30  27265417.643   143281215.075       -1510.763          49.000    27265420.066   109787177.544       -1157.608          52.000  
G06  26834125.760   141014474.375         558.904          42.000    26834128.553   109881499.845         435.483          42.000  
E02  30270621.214   159073098.840       -2677.529          35.000    30270621.871   121887656.512       -2051.685          35.000  
E15  31087641.508   163366696.674        1974.674          39.000    31087681.424   125177199.147        1513.088          42.000  
E18  29864090.204   156937323.063       -5678.522          40.000                                                                  
> 2024 04 17 00 01 00.0110000  0 27                     
G13  27293618.786   143428582.760       -4551.396          40.000                                                                  
G15  25831824.079   135747087.324       -3677.780          47.000    25831831.789   105776966.920       -2865.759          45.000  
G19  26230029.917   137840228.332       -3747.860          44.000                                                                  
G24  23831271.229   125234375.628        -169.899          49.000    23831270.283    97585338.066        -132.257          47.000  
R09  23741316.851   126777398.077         175.201          52.000    23741314.682    98604947.249         136.217          49.000  
R08  26162761.720   140100455.296        1154.194          40.000    26162760.742   108966919.085         897.521          35.000  
R16  24661778.995   131738811.164       -2217.004          49.000    24661778.286   102464050.785       -1724.379          50.000  
R06  25854918.985   137966538.808       -4588.933          36.000                                                                  
R10  26303012.176   140209867.520        1504.960          41.000                                                                  
G12  24617672.685   129366987.704        -202.994          49.000    24617670.928   100805755.849        -158.281          45.000  
E08  29853193.078   156879522.114       -3785.649          46.000    29853209.996   120206395.421       -2900.611          45.000  
S31  42114469.667   221313028.591        -760.259          45.000  
S33  43067346.214   226320401.144        -761.298          43.000  
G11  27369693.710   143829064.647        1787.482          46.000    27369698.866   112074797.570        1392.657          43.000  
E36  31001229.844   162912524.120        -933.581          44.000    31001233.986   124829154.384        -715.375          49.000  
R19  24150248.319   129187980.142        1496.320          43.000    24150247.991   100479737.104        1163.788          50.000  
R07  24498572.104   131142784.413       -2097.762          51.000    24498572.580   101999965.604       -1631.578          49.000  
R18  24589817.059   131262236.552       -1798.255          48.000    24589818.206   102093040.096       -1398.824          50.000  
E07  27453403.398   144268766.488       -2045.971          49.000    27453408.721   110543643.275       -1567.727          52.000  
E27  28309971.193   148770303.285         301.489          46.000    28309976.221   113993048.935         230.892          51.000  
E34  29862701.978   156929845.607        1127.271          43.000    29862709.907   120245008.399         863.786          49.000  
G25  26079298.718   137047861.363         995.691          46.000    26079302.437   106790608.534         775.798          44.000  
E30  27274048.407   143326567.857       -1513.221          49.000    27274050.391   109821928.397       -1159.470          52.000  
G06  26830974.687   140997918.237         544.494          42.000    26830977.174   109868599.024         424.137          42.000  
E02  30285904.462   159153409.727       -2676.469          34.000    30285905.261   121949193.453       -2050.736          36.000  
E15  31076359.429   163307407.299        1977.759          39.000    31076398.356   125131769.946        1515.094          43.000  
E18  29896494.846   157107610.007       -5674.409          39.000                                                                  
> 2024 04 17 00 01 30.0110000  0 27                     
G13  27319605.844   143565146.602       -4553.015          40.000                                                                  
G15  25852840.359   135857525.221       -3684.901          47.000    25852848.138   105863021.992       -2871.449          45.000  
G19  26251451.742   137952805.952       -3757.534          45.000                                                                  
G24  23832275.887   125239657.033        -182.348          49.000    23832274.881    97589453.471        -142.324          47.000  
R09  23740343.800   126772200.842         171.007          52.000    23740342.032    98600905.011         133.026          50.000  
R08  26156356.790   140066164.467        1131.383          34.000    26156355.221   108940248.461         880.575          36.000  
R16  24674241.273   131805376.833       -2220.835          50.000    24674239.519   102515824.067       -1727.334          50.000  
R06  25880735.351   138104291.804       -4594.443          34.000                                                                  
R10  26294541.420   140164710.992        1505.166          43.000                                                                  
G12  24618850.582   129373174.723        -209.727          50.000    24618847.501   100810576.966        -163.322          45.000  
E08  29874810.962   156993125.732       -3788.238          45.000    29874827.943   120293441.609       -2902.526          44.000  
S31  42118809.604   221335834.943        -760.274          45.000  
S33  43071690.386   226343230.213        -760.949          43.000  
G11  27359501.287   143775506.766        1782.833          46.000    27359507.085   112033064.783        1389.049          43.000  
E36  31006597.461   162940732.871        -947.221          44.000    31006601.750   124850768.926        -725.879          50.000  
R19  24141917.586   129143418.015        1474.402          42.000    24141916.671   100445077.851        1146.667          49.000  
R07  24510393.717   131206066.630       -2121.428          51.000    24510393.923   102049185.006       -1649.885          49.000  
R18  24599995.613   131316571.764       -1824.249          48.000    24599996.225   102135300.844       -1418.905          49.000  
E07  27465118.852   144330331.703       -2058.564          48.000    27465124.241   110590816.562       -1577.292          52.000  
E27  28308258.818   148761310.655         297.824          46.000    28308264.883   113986158.589         228.170          51.000  
E34  29856288.203   156896142.314        1119.132          44.000    29856295.329   120219184.013         857.558          48.000  
G25  26073625.345   137018046.553         991.599          46.000    26073628.087   106767376.439         772.576          44.000  
E30  27282692.307   143371995.075       -1515.470          49.000    27282694.794   109856736.290       -1161.287          51.000  
G06  26827907.352   140981796.256         529.916          42.000    26827908.658   109856036.485         413.462          41.000  
E02  30301176.517                       -2674.809          31.000    30301179.382   122010701.757       -2050.051          35.000  
E15  31065060.482   163248030.316        1980.493          41.000    31065098.833   125086273.762        1517.593          43.000  
E18  29928876.082   157277775.595       -5670.320          39.000                                                                  
> 2024 04 17 00 02 00.0110000  0 27                     
G13  27345605.542   143701772.903       -4555.463          40.000                                                                  
G15  25873898.653   135968183.291       -3692.209          47.000    25873906.565   105949248.579       -2876.928          46.000  
G19  26272930.441   138065678.405       -3767.443          45.000                                                                  
G24  23833354.008   125245326.862        -195.472          48.000    23833353.591    97593871.545        -152.393          47.000  
R09  23739394.415   126767135.547         166.558          50.000    23739393.582    98596965.393         129.621          50.000  
R08  26150075.464                3       1108.335          26.000    26150081.483   108914113.115         862.262          36.000  
R16  24686723.931   131872063.648       -2224.959          48.000    24686723.874   102567691.582       -1730.464          49.000  
R06  25906582.245   138242215.882       -4600.706          32.000                                                                  
R10  26286069.363   140119553.182        1505.510          39.000                                                                  
G12  24620067.661   129379570.533        -216.671          50.000    24620063.999   100815560.803        -168.861          44.000  
E08  29896444.797   157106807.247       -3790.556          45.000    29896461.466   120380547.506       -2904.517          44.000  
S31  42123149.811   221358643.078        -760.395          44.000  
S33  43076034.998   226366059.937        -761.139          43.000  
G11  27349337.232   143722095.455        1777.908          46.000    27349342.198   111991446.162        1385.383          43.000  
E36  31012044.220   162969357.830        -961.037          43.000    31012048.633   124872702.366        -736.383          50.000  
R19  24133710.985   129099520.394        1452.112          42.000    24133710.567   100410935.426        1129.443          50.000  
R07  24522349.246   131270065.522       -2145.257          52.000    24522348.654   102098961.814       -1668.465          47.000  
R18  24610322.004   131371694.109       -1850.555          49.000    24610323.823   102178173.819       -1439.201          50.000  
E07  27476906.439   144392278.337       -2071.184          47.000    27476912.438   110638282.113       -1587.003          52.000  
E27  28306569.609   148752431.449         294.177          47.000    28306574.900   113979355.161         225.389          51.000  
E34  29849923.255   156862694.005        1110.669          45.000    29849929.360   120193554.936         851.101          47.000  
G25  26067976.423   136988362.600         987.333          45.000    26067979.123   106744246.279         769.481          43.000  
E30  27291351.679   143417497.864       -1517.936          49.000    27291353.186   109891602.091       -1163.145          51.000  
G06  26824922.258   140966112.434         515.695          41.000    26824924.590   109843815.466         401.599          42.000  
E02  30316435.151                       -2673.889          28.000    30316448.831   122072182.629       -2048.765          36.000  
E15  31053745.778   163188569.319        1983.421          41.000    31053783.225   125040713.410        1519.731          43.000  
E18  29961233.168   157447819.232       -5665.871          39.000                                                                  
> 2024 04 17 00 02 30.0110000  0 28                     
G13  27371618.305   143838464.439       -4557.601          41.000                                                                  
G15  25894998.850   136079064.196       -3699.828          46.000    25895006.661   106035648.822       -2883.058          45.000  
G19  26294467.060   138178848.309       -3777.476          47.000                                                                  
G24  23834507.924   125251392.356        -208.982          48.000    23834507.392    97598597.920        -162.795          46.000  
G32  27748990.459                2       1898.238          28.000    27749003.463                1       1478.777          28.000  
R09  23738471.442   126762208.154         161.809          50.000    23738470.269    98593133.029         125.749          50.000  
R08  26143944.237   139999777.5631       1085.303          32.000    26143935.613   108888519.437         843.753          34.000  
R16  24699231.363   131938878.285       -2229.408          47.000    24699231.269   102619658.517       -1734.119          49.000  
R06  25932463.324   138380311.874       -4606.580          34.000                                                                  
R10  26277597.772   140074398.989        1505.092          38.000                                                                  
G12  24621325.139   129386180.056        -223.998          50.000    24621321.648   100820711.160        -174.579          44.000  
E08  29918094.180   157220570.505       -3793.682          46.000    29918111.431   120467716.004       -2906.758          45.000  
S31  42127491.268   221381457.443        -760.598          45.000  
S33  43080380.521   226388897.068        -761.551          43.000  
G11  27339201.951   143668839.452        1772.259          45.000    27339208.241   111949948.590        1381.101          43.000  
E36  31017572.557   162998404.781        -975.445          42.000    31017576.188   124894959.129        -747.392          50.000  
R19  24125631.168   129056296.694        1429.303          43.000    24125631.076   100377317.136        1111.749          51.000  
R07  24534440.305   131334783.775       -2169.403          53.000    24534438.262   102149298.131       -1687.270          47.000  
R18  24620796.834   131427608.015       -1877.261          48.000    24620798.043   102221662.495       -1459.984          49.000  
E07  27488768.817   144454610.980       -2084.364          47.000    27488773.720   110686043.419       -1596.986          51.000  
E27  28304904.098   148743670.716         289.969          48.000    28304907.694   113972642.516         222.062          51.000  
E34  29843608.396   156829508.239        1101.758          45.000    29843614.662   120168127.029         844.225          47.000  
G25  26062353.011   136958814.757         982.488          45.000    26062356.212   106721222.183         765.459          43.000  
E30  27300026.584   143463081.189       -1520.889          50.000    27300027.272   109926529.608       -1165.384          51.000  
G06  26822023.182   140950874.825         500.223          42.000    26822025.868   109831942.094         389.823          43.000  
E02  30331700.890                1      -2673.362          27.000    30331712.575   122133640.265       -2048.476          38.000  
E15  31042415.770   163129031.876        1985.667          42.000    31042453.303   124995094.671        1521.354          44.000  
E18  29993568.613   157617744.272       -5662.269          39.000                                                                  
> 2024 04 17 00 03 00.0110000  0 28                     
G13  27397643.971   143975225.371       -4559.580          41.000                                                                  
G15  25916142.092   136190171.955       -3707.528          45.000    25916150.647   106122225.782       -2888.708          46.000  
G19  26316060.214   138292319.635       -3787.323          48.000                                                                  
G24  23835739.153   125257862.069        -222.400          48.000    23835738.358    97603639.274        -173.341          46.000  
R09  23737575.673   126757426.442         156.933          51.000    23737574.996    98589413.977         122.075          50.000  
R08  26137930.405   139967576.923        1061.358          37.000    26137920.374                         826.542          32.000  
R16  24711765.686   132005828.029       -2234.013          48.000    24711764.650   102671730.569       -1737.424          49.000  
R06  25958376.266   138518582.302       -4611.920          34.000                                                                  
R10  26269130.280   140029255.788        1504.741          38.000                                                                  
G12  24622624.763   129393008.922        -231.167          50.000    24622621.343   100826032.429        -180.251          45.000  
E08  29939759.503   157334420.552       -3796.399          45.000    29939777.709   120554951.001       -2908.913          46.000  
S31  42131835.422   221404286.332        -761.324          44.000  
S33  43084728.523   226411748.207        -762.297          43.000  
G11  27329098.534   143615748.749        1766.958          45.000    27329105.862   111908579.876        1376.854          45.000  
E36  31023181.096   163027880.707        -989.783          40.000    31023185.480   124917544.618        -758.289          50.000  
R19  24117677.929   129013757.220        1406.366          41.000    24117678.252   100344231.014        1093.951          50.000  
R07  24546665.058   131400226.175       -2193.470          52.000    24546664.479   102200197.665       -1705.966          48.000  
R18  24631421.128   131484319.413       -1903.688          48.000    24631422.022   102265771.418       -1480.620          49.000  
E07  27500704.855   144517335.482       -2097.347          46.000    27500709.738   110734104.996       -1606.889          51.000  
E27  28303261.076   148735034.826         285.774          49.000    28303264.206   113966025.527         219.044          51.000  
E34  29837345.913   156796593.974        1092.583          46.000    29837351.810   120142907.147         837.199          48.000  
G25  26056757.614   136929409.456         977.610          45.000    26056760.388   106698309.169         761.844          43.000  
E30  27308716.932   143508751.411       -1523.752          49.000    27308718.109   109961523.701       -1167.497          51.000  
G06  26819211.213   140936092.503         485.156          43.000    26819211.955   109820423.517         377.922          42.000  
E02  30346969.279                       -2672.570          30.000    30346970.670   122195080.021       -2047.782          38.000  
E15  31031073.165   163069426.852        1987.958          43.000    31031110.642   124949424.338        1523.187          45.000  
E18  30025881.923   157787555.429       -5658.815          39.000                                                                  
G32                                                                  27738185.321                        1468.449          28.000  
> 2024 04 17 00 03 30.0110000  0 28                     
G13  27423679.999   144112046.116       -4561.754          40.000                                                                  
G15  25937327.083   136301496.674       -3714.642          46.000    25937335.077   106208971.815       -2894.550          45.000  
G19  26337708.180   138406082.486       -3796.847          47.000                                                                  
G24  23837046.635   125264730.525        -235.640          48.000    23837045.450    97608991.328        -183.558          46.000  
R09  23736707.102   126752783.392         152.267          51.000    23736705.878    98585802.783         118.504          51.000  
R08  26132048.277   139936076.891        1038.103          35.000    26132035.667   108838974.753         807.061          34.000  
R16  24724321.529   132072906.242       -2238.197          45.000    24724320.891   102723902.470       -1740.729          48.000  
R06  25984319.280   138657015.674       -4616.884          33.000                                                                  
R10  26260662.018   139984115.666        1504.819          38.000                                                                  
G12  24623964.542   129400049.553        -238.370          50.000    24623961.152   100831518.654        -185.636          44.000  
E08  29961439.112   157448348.477       -3799.051          44.000    29961457.910   120642245.634       -2910.832          46.000  
S31  42136180.809   221427122.480        -761.473          45.000  
S33  43089078.170   226434605.219        -762.002          43.000  
G11  27319025.386   143562819.499        1761.454          44.000    27319032.695   111867336.893        1372.690          44.000  
E36  31028870.618   163057778.650       -1003.870          40.000    31028874.588   124940453.461        -769.131          50.000  
R19  24109852.236   128971898.839        1383.832          41.000    24109852.826   100311674.644        1076.288          50.000  
R07  24559022.991   131466382.267       -2217.194          51.000    24559023.513   102251652.304       -1724.568          49.000  
R18  24642193.331   131541819.401       -1929.955          50.000    24642194.093   102310493.675       -1500.992          48.000  
E07  27512713.854   144580443.662       -2110.119          47.000    27512718.954   110782460.564       -1616.742          51.000  
E27  28301639.413   148726516.082         281.996          48.000    28301643.078   113959498.322         216.003          51.000  
E34  29831133.847   156763946.022        1083.819          45.000    29831139.439   120117891.348         830.333          49.000  
G25  26051187.543   136900139.230         973.198          45.000    26051190.932   106675501.391         758.486          44.000  
E30  27317422.960   143554500.824       -1526.371          50.000    27317423.990   109996578.477       -1169.600          51.000  
G06  26816483.996   140921760.733         470.047          42.000    26816485.336   109809256.032         366.344          43.000  
E02  30362221.967                       -2671.888          28.000    30362223.594   122256496.338       -2046.925          38.000  
E15  31019716.508   163009749.064        1990.076          44.000    31019753.520   124903698.371        1525.122          46.000  
E18  30058173.042   157957243.352       -5654.158          39.000                                                                  
G32                                                                  27727470.168                        1458.742          27.000  
> 2024 04 17 00 04 00.0110000  0 28                     
G13  27449726.302   144248918.477       -4563.523          41.000                                                                  
G15  25958551.097   136413029.723       -3721.479          46.000    25958558.024   106295880.195       -2899.873          43.000  
G19  26359410.103   138520128.870       -3806.431          46.000                                                                  
G24  23838428.860   125271993.684        -249.113          48.000    23838427.095    97614650.976        -194.020          45.000  
R09  23735863.171   126748273.958         147.931          51.000    23735860.922    98582295.521         115.081          50.000  
R08  26126288.708   139905273.831        1015.270          36.000    26126283.181                         788.648          24.000  
R16  24736901.213   132140107.557       -2242.226          43.000    24736902.002   102776170.170       -1743.958          49.000  
R06  26010288.791                       -4622.540          30.000                                                                  
R10  26252193.779   139938973.917        1504.637          39.000                                                                  
G12  24625343.122   129407295.485        -245.178          50.000    24625340.236   100837164.889        -190.953          45.000  
E08  29983132.295   157562346.895       -3801.315          43.000    29983151.583   120729594.278       -2912.696          45.000  
S31  42140526.437   221449958.858        -761.302          44.000  
S33  43093427.961   226457464.201        -762.051          43.000  
G11  27308982.722   143510049.189        1756.372          45.000    27308989.613   111826217.741        1368.288          44.000  
E36  31034639.751   163088093.098       -1017.586          38.000    31034642.927   124963681.466        -779.689          50.000  
R19  24102154.323   128930719.401        1361.090          41.000    24102154.790   100279646.371        1058.600          50.000  
R07  24571513.963   131533243.813       -2240.606          52.000    24571514.174   102303655.607       -1742.757          48.000  
R18  24653111.577   131600101.336       -1955.849          50.000    24653111.230   102355824.166       -1521.211          48.000  
E07  27524794.481   144643928.899       -2122.598          47.000    27524799.921   110831105.053       -1626.395          51.000  
E27  28300039.516   148718108.438         278.282          48.000    28300042.920   113953056.235         213.203          51.000  
E34  29824968.788   156731560.766        1074.923          43.000    29824975.847   120093076.877         823.613          48.000  
G25  26045641.299   136870998.056         968.979          45.000    26045645.690   106652794.193         755.082          45.000  
E30  27326142.917   143600323.313       -1528.718          50.000    27326143.812   110031689.245       -1171.447          51.000  
G06  26813842.023   140907876.220         455.260          41.000    26813843.694   109798437.025         354.657          44.000  
E15  31008344.764   162949994.855        1993.027          44.000    31008381.714   124857914.048        1527.015          47.000  
E18  30090438.626   158126800.247       -5649.619          40.000                                                                  
E02                                                                  30377468.557   122317884.966       -2046.051          38.000  
G32                                                                  27716794.137                3       1425.424          14.000  
> 2024 04 17 00 04 30.0110000  0 27                     
G13  27475781.776   144385839.127       -4565.101          41.000                                                                  
G15  25979813.904   136524768.033       -3728.269          46.000    25979822.309   106382948.500       -2904.986          44.000  
G19  26381165.687   138634456.140       -3815.685          47.000                                                                  
G24  23839886.113   125279652.962        -262.221          48.000    23839885.240    97620619.267        -204.341          46.000  
R09  23735043.777   126743897.999         143.488          52.000    23735041.031    98578892.076         111.627          50.000  
R08  26120666.417                         990.157          31.000    26120670.935                3        771.281          24.000  
R16  24749504.331   132207432.788       -2246.348          43.000    24749504.686   102828534.167       -1747.197          48.000  
R06  26036289.306   138934335.609       -4626.579          33.000                                                                  
R10  26243723.288   139893829.288        1504.678          40.000                                                                  
G12  24626761.252   129414745.866        -251.881          50.000    24626757.996   100842970.416        -196.161          45.000  
E08  30004839.147   157676413.765       -3803.470          42.000    30004858.374   120816995.377       -2914.347          45.000  
S31  42144872.283   221472796.220        -761.573          44.000  
S33  43097777.879   226480323.722        -762.288          43.000  
G11  27298971.835   143457440.802        1750.873          44.000    27298978.239   111785224.717        1364.157          44.000  
E36  31040485.250   163118823.929       -1031.664          37.000    31040490.645   124987228.540        -790.323          50.000  
R19  24094584.400   128890222.177        1338.080          42.000    24094583.456   100248148.689        1040.900          49.000  
R07  24584135.376   131600807.756       -2264.017          51.000    24584134.736   102356205.231       -1760.880          48.000  
R18  24664175.733   131659163.403       -1981.802          50.000    24664174.721   102401761.407       -1541.491          48.000  
E07  27536947.458   144707789.944       -2135.135          48.000    27536952.225   110880037.485       -1636.005          51.000  
E27  28298460.050   148709811.110         274.578          48.000    28298463.879   113946698.683         210.366          51.000  
E34  29818856.069   156699439.982        1065.870          43.000    29818863.733   120068465.008         816.873          48.000  
G25  26040120.562   136841985.394         964.792          45.000    26040124.461   106630187.112         751.742          45.000  
E30  27334876.674   143646218.067       -1531.303          50.000    27334877.133   110066855.383       -1173.262          51.000  
G06  26811283.789   140894440.906         440.271          39.000    26811286.261   109787968.111         343.134          42.000  
E02  30392704.126                1      -2669.748          29.000    30392708.003   122379245.684       -2044.958          39.000  
E15  30996959.075   162890165.996        1995.413          44.000    30996995.168   124812072.604        1528.943          47.000  
E18  30122678.598   158296223.702       -5645.304          40.000                                                                  
> 2024 04 17 00 05 00.0110000  0 27                     
G13  27501844.717   144522802.314       -4566.111          39.000                                                                  
G15  26001115.003   136636705.388       -3734.516          46.000    26001123.602   106470171.917       -2910.059          43.000  
G19  26402973.540   138749057.741       -3824.620          48.000                                                                  
G24  23841418.211   125287706.627        -274.971          47.000    23841417.999    97626894.862        -214.111          46.000  
R09  23734248.437   126739652.433         139.372          51.000    23734246.286    98575590.034         108.521          51.000  
R08  26115177.617   139845763.397         968.870          32.000    26115165.541   108768723.7651        752.733          33.000  
R16  24762131.378   132274879.086       -2250.170          45.000    24762130.620   102880992.404       -1750.203          47.000  
R06  26062315.307   139073209.555       -4631.536          35.000                                                                  
R10  26235252.914   139848677.937        1505.394          40.000                                                                  
G12  24628217.017   129422396.776        -258.252          49.000    24628213.638   100848932.217        -201.384          45.000  
E08  30026558.145   157790543.941       -3805.180          42.000    30026577.730   120904444.967       -2915.631          46.000  
S31  42149217.621   221495631.660        -761.113          45.000  
S33  43102127.416   226503180.952        -761.841          43.000  
G11  27288991.003   143404994.081        1745.606          44.000    27288998.304   111744357.698        1360.016          45.000  
E36  31046412.110   163149967.961       -1044.893          37.000    31046417.198   125011092.198        -800.799          49.000  
R19  24087141.677   128850407.236        1315.766          43.000    24087140.459   100217181.702        1023.383          49.000  
R07  24596886.979   131669067.647       -2286.866          51.000    24596886.908   102409296.132       -1778.684          48.000  
R18  24675384.703   131719000.917       -2007.517          50.000    24675384.116   102448301.738       -1561.268          47.000  
E07  27549170.993   144772022.374       -2147.181          48.000    27549175.381   110929254.480       -1645.246          51.000  
E27  28296900.870   148701620.233         271.334          48.000    28296905.233   113940422.671         207.920          51.000  
E34  29812794.153   156667582.253        1057.649          44.000    29812801.539   120044054.749         810.367          48.000  
G25  26034623.549   136813097.467         960.961          45.000    26034627.194   106607677.231         748.751          45.000  
E30  27343623.201   143692181.203       -1533.210          50.000    27343623.505   110102073.926       -1174.838          51.000  
G06  26808813.081   140881453.816         425.382          41.000    26808814.315   109777848.420         331.665          41.000  
E15  30985557.783   162830261.093        1998.118          44.000    30985593.894   124766173.030        1530.994          47.000  
E18  30154892.105   158465508.232       -5640.646          40.000                                                                  
E02                                                                  30407939.946   122440575.915       -2043.803          39.000  
> 2024 04 17 00 05 30.0110000  0 27                     
G13  27527912.039   144659790.057       -4566.601          38.000                                                                  
G15  26022451.339   136748823.291       -3740.038          47.000    26022459.805   106557536.043       -2914.547          43.000  
G19  26424829.903   138863915.681       -3832.621          47.000                                                                  
G24  23843023.088   125296140.605        -287.404          47.000    23843022.910    97633466.816        -223.901          46.000  
R09  23733474.015   126735522.299         135.938          50.000    23733472.905    98572377.765         105.657          51.000  
R08  26109821.485                3        946.684          23.000    26109806.107   108746383.592         736.364          35.000  
R16  24774777.920   132342431.070       -2253.321          46.000    24774776.852   102933532.806       -1752.620          47.000  
R06  26088364.655   139212203.075       -4635.228          35.000                                                                  
R10  26226778.563   139803504.188        1506.202          41.000                                                                  
G12  24629708.136   129430231.620        -264.058          50.000    24629703.280   100855037.339        -205.548          44.000  
E08  30048285.918   157904719.966       -3806.271          43.000    30048305.538   120991929.704       -2916.548          46.000  
S31  42153559.299   221518448.486        -759.902          44.000  
S33  43106473.517   226526020.097        -760.938          43.000  
G11  27279038.817   143352696.547        1741.058          45.000    27279044.371   111703606.889        1356.396          44.000  
E36  31052414.942   163181509.615       -1057.823          37.000    31052419.306   125035260.475        -810.576          48.000  
R19  24079824.210   128811262.402        1293.848          43.000    24079822.931   100186735.885        1006.256          50.000  
R07  24609764.869   131738004.894       -2308.987          52.000    24609764.334   102462913.854       -1795.780          48.000  
R18  24686735.559   131779596.398       -2032.306          49.000    24686736.129   102495431.630       -1580.648          48.000  
E07  27561461.102   144836609.394       -2158.663          47.000    27561465.853   110978743.180       -1654.000          51.000  
E27  28295358.583   148693519.612         268.737          47.000    28295363.726   113934215.800         205.913          51.000  
E34  29806779.439   156635973.993        1049.638          44.000    29806786.021   120019835.572         804.272          47.000  
G25  26029147.407   136784318.228         957.772          45.000    26029149.670   106585252.011         746.270          44.000  
E30  27352378.054   143738196.547       -1534.515          49.000    27352379.702   110137332.458       -1175.827          50.000  
G06  26806424.592   140868901.443         411.383          41.000    26806424.979   109768067.498         320.441          41.000  
E02  30423161.779                       -2665.019          27.000    30423160.289   122501863.684       -2042.247          38.000  
E15  30974139.748   162770266.435        2001.569          44.000    30974175.503   124720204.791        1533.625          47.000  
E18  30187076.852   158634635.994       -5634.891          40.000                                                                  
> 2024 04 17 00 06 00.0110000  0 27                     
G13  27553985.634   144796808.286       -4568.055          37.000                                                                  
G15  26043822.438   136861127.563       -3746.681          47.000    26043831.548   106645045.317       -2919.334          44.000  
G19  26446736.907   138979036.069       -3841.638          48.000                                                                  
G24  23844702.561   125304965.508        -300.715          47.000    23844702.293    97640343.372        -234.377          47.000  
R09  23732723.870   126731516.934         131.427          50.000    23732722.998    98569262.528         102.277          51.000  
R08  26104649.555                3        925.507          22.000    26104574.730   108724583.565         718.003          39.000  
R16  24787444.803   132410098.305       -2257.555          45.000    24787443.652   102986162.905       -1755.911          46.000  
R06  26114435.486   139351321.184       -4639.210          36.000                                                                  
R10  26218300.963   139758316.722        1506.577          40.000                                                                  
G12  24631236.010   129438258.960        -270.814          50.000    24631230.743   100861292.483        -210.847          44.000  
E08  30070023.213   158018949.073       -3808.382          42.000    30070043.440   121079455.096       -2918.231          46.000  
S31  42157899.518   221541257.179        -760.181          44.000  
S33  43110817.730   226548850.374        -760.681          43.000  
G11  27269118.262   143300560.448        1735.297          46.000    27269122.420   111662981.851        1351.892          45.000  
E36  31058492.669   163213457.884       -1071.697          36.000    31058498.686   125059740.357        -821.143          48.000  
R19  24072633.497   128772800.279        1270.581          43.000    24072632.609   100156821.083         988.214          50.000  
R07  24622771.355   131807625.357       -2332.039          52.000    24622770.450   102517062.990       -1813.804          48.000  
R18  24698232.225   131840957.540       -2058.183          51.000    24698231.985   102543157.068       -1600.841          49.000  
E07  27573819.793   144901558.965       -2170.928          47.000    27573825.198   111028509.697       -1663.437          51.000  
E27  28293836.358   148685517.821         264.944          47.000    28293840.908   113928084.650         203.116          52.000  
E34  29800814.989   156604626.086        1040.640          45.000    29800819.535   119995815.906         797.281          46.000  
G25  26023692.244   136755656.241         953.566          44.000    26023694.867   106562918.229         742.994          43.000  
E30  27361146.355   143784272.577       -1536.789          48.000    27361147.494   110172637.487       -1177.697          50.000  
G06  26804121.645   140856795.096         395.878          42.000    26804121.207   109758634.105         308.507          41.000  
E15  30962706.889   162710193.021        2003.626          44.000    30962742.427   124674176.316        1535.368          48.000  
E18  30219231.123   158803613.931       -5630.248          39.000                                                                  
E02                                                                  30438372.549   122563115.886       -2041.452          39.000  
> 2024 04 17 00 06 30.0110000  0 28                     
G13  27580065.754   144933868.014       -4569.318          39.000                                                                  
G15  26065231.347   136973629.177       -3753.155          48.000    26065240.438   106732708.405       -2924.726          43.000  
G19  26468694.844   139094429.332       -3850.836          47.000                                                                  
G24  23846459.498   125314196.614        -314.325          48.000    23846458.802    97647536.460        -244.959          46.000  
G32  27664668.615                        1794.031          30.000    27664656.543                3       1396.755          26.000  
R09  23731999.887   126727650.906         126.691          51.000    23731998.487    98566255.699          98.541          51.000  
R08  26099481.137   139761870.3521        898.893          39.000    26099474.645   108703336.000         699.226          40.000  
R16  24800135.707   132477895.719       -2261.975          45.000    24800136.506   103038894.220       -1759.349          46.000  
R06  26140531.781   139490573.024       -4644.079          35.000                                                                  
R10  26209822.736   139713129.899        1506.133          40.000                                                                  
G12  24632802.200   129446491.156        -277.675          50.000    24632797.919   100867707.240        -216.528          44.000  
E08  30091772.385   158133243.166       -3810.802          41.000    30091793.910   121167030.253       -2919.933          47.000  
S31  42162240.797   221564070.205        -760.370          44.000  
S33  43115163.102   226571685.673        -761.099          43.000  
G11  27259230.601   143248602.571        1729.193          47.000    27259234.706   111622495.717        1347.229          45.000  
E36  31064654.271   163245826.534       -1085.906          38.000    31064658.368   125084542.382        -832.102          49.000  
R19  24065573.987   128735037.899        1247.424          43.000    24065573.683   100127450.484         970.032          50.000  
R07  24635906.928   131877940.135       -2355.332          51.000    24635906.526   102571752.190       -1831.876          49.000  
R18  24709871.974   131903096.876       -2084.133          51.000    24709871.964   102591487.736       -1621.071          48.000  
E07  27586249.978   144966883.741       -2183.625          46.000    27586256.064   111078563.684       -1673.145          51.000  
E27  28292334.664   148677627.922         261.413          46.000    28292339.581   113922039.258         200.171          52.000  
E34  29794901.164   156573554.262        1031.140          44.000    29794906.763   119972007.765         790.029          46.000  
G25  26018262.076   136727124.925         949.192          44.000    26018265.100   106540686.251         739.575          43.000  
E30  27369928.107   143830422.468       -1539.470          49.000    27369929.560   110207999.096       -1179.573          50.000  
G06  26801905.060   140845150.628         380.610          41.000    26801907.123   109749560.637         296.416          42.000  
E15  30951262.000   162650056.512        2005.697          44.000    30951296.752   124628099.579        1536.812          47.000  
E18  30251359.098   158972453.564       -5625.967          37.000                                                                  
E02                                                                  30453578.766   122624343.000       -2040.505          40.000  
> 2024 04 17 00 07 00.0110000  0 28                     
G13  27606152.830   145070960.409       -4570.121          37.000                                                                  
G15  26086676.178   137086319.246       -3759.179          48.000    26086685.460   106820518.332       -2929.380          43.000  
G19  26490704.102   139210086.944       -3859.473          48.000                                                                  
G24  23848293.094   125323829.150        -327.520          49.000    23848291.163    97655042.336        -255.286          46.000  
G32  27654470.274   145325129.760        1780.077          33.000    27654450.160                3       1387.784          24.000  
R09  23731301.055   126723918.461         122.313          51.000    23731299.669    98563352.753          95.190          50.000  
R08  26094509.629   139735258.578         875.593          39.000    26094504.550   108682637.961         681.198          35.000  
R16  24812850.519   132545817.228       -2265.793          44.000    24812851.482   103091722.053       -1762.404          48.000  
R06  26166651.118   139629947.635       -4647.825          34.000                                                                  
R10  26201345.128   139667936.793        1506.670          43.000                                                                  
G12  24634405.824   129454921.417        -284.075          49.000    24634402.871   100874276.322        -221.459          45.000  
E08  30113533.424   158247594.067       -3812.491          42.000    30113554.782   121254648.937       -2921.148          47.000  
S31  42166581.725   221586881.617        -760.247          45.000  
S33  43119507.960   226594518.795        -761.260          43.000  
G11  27249376.180   143196819.802        1723.322          45.000    27249379.763   111582146.002        1342.755          43.000  
E36  31070892.636   163278609.231       -1099.482          38.000    31070896.379   125109661.669        -842.404          49.000  
R19  24058644.736   128697972.697        1224.115          43.000    24058644.598   100098622.184         952.014          50.000  
R07  24649169.771   131948939.920       -2377.805          49.000    24649170.833   102626974.113       -1849.351          50.000  
R18  24721657.793   131966006.165       -2109.568          51.000    24721656.737   102640417.246       -1640.680          47.000  
E07  27598751.279   145032576.169       -2195.727          47.000    27598756.863   111128899.386       -1682.350          51.000  
E27  28290852.762   148669843.082         258.011          46.000    28290857.856   113916074.365         197.632          51.000  
E34  29789039.484   156542754.027        1022.489          44.000    29789046.052   119948407.753         783.158          47.000  
G25  26012856.895   136698717.527         945.031          46.000    26012859.168   106518550.778         736.414          43.000  
E30  27378723.620   143876639.306       -1541.646          49.000    27378724.272   110243412.026       -1181.193          50.000  
G06  26799776.374   140833963.893         365.485          41.000    26799777.004   109740843.812         284.598          40.000  
E02  30468778.437   160114465.4901      -2661.191          28.000    30468777.491   122685540.166       -2039.219          39.000  
E15  30939804.166   162589852.549        2008.033          44.000    30939838.106   124581971.220        1538.624          47.000  
E18  30283460.928   159141146.545       -5620.442          37.000                                                                  
> 2024 04 17 00 07 30.0110000  0 28                     
G13  27632245.186   145208081.021       -4571.624          35.000                                                                  
G15  26108156.023   137199193.083       -3765.816          49.000    26108165.187   106908471.433       -2934.288          44.000  
G19  26512762.841   139326004.720       -3868.607          49.000                                                                  
G24  23850201.986   125333862.895        -341.500          48.000    23850200.258    97662860.870        -266.275          46.000  
G32  27644350.834                        1766.570          30.000    27644319.984                3       1386.252          21.000  
R09  23730627.537   126720317.861         117.461          52.000    23730625.776    98560552.313          91.368          51.000  
R08  26089670.606   139709352.942         851.269          39.000    26089663.628   108662489.052         662.003          37.000  
R16  24825589.910   132613861.595       -2270.500          45.000    24825589.890   103144645.416       -1766.012          46.000  
R06  26192791.195                       -4651.179          30.000                                                                  
R10  26192867.377   139622735.613        1506.590          41.000                                                                  
G12  24636047.200   129463547.787        -291.207          49.000    24636044.850   100880998.212        -226.748          46.000  
E08  30135304.412   158361998.229       -3814.701          42.000    30135326.009   121342308.431       -2922.838          47.000  
S31  42170921.864   221609690.407        -760.349          44.000  
S33  43123852.243   226617348.164        -760.842          43.000  
G11  27239553.819   143145213.431        1716.718          41.000    27239558.914   111541933.724        1337.769          43.000  
E36  31077209.066   163311804.236       -1113.756          37.000    31077213.130   125135096.902        -853.386          49.000  
R19  24051845.807   128661606.132        1200.128          42.000    24051845.259   100070337.262         933.398          49.000  
R07  24662559.363   132020619.616       -2400.876          51.000    24662561.140   102682724.874       -1867.384          49.000  
R18  24733585.688   132029682.154       -2135.581          51.000    24733584.653   102689943.066       -1660.934          47.000  
E07  27611320.260   145098633.386       -2208.189          46.000    27611326.982   111179514.628       -1692.051          50.000  
E27  28289391.362   148662161.030         253.949          47.000    28289395.865   113910188.222         194.638          51.000  
E34  29783229.330   156512225.663        1012.720          43.000    29783236.565   119925016.000         775.983          47.000  
G25  26007474.432   136670431.886         940.528          46.000    26007476.660   106496510.206         732.939          43.000  
E30  27387530.660   143922920.856       -1544.177          49.000    27387531.200   110278874.550       -1183.180          50.000  
G06  26797734.103   140823235.276         349.559          40.000    26797734.489   109732483.987         272.294          39.000  
E02  30483967.107                       -2660.567          31.000    30483966.779   122746706.090       -2038.722          39.000  
E15  30928333.474   162529581.359        2009.768          44.000    30928366.563   124535791.398        1539.980          46.000  
E18  30315533.638   159309688.873       -5616.005          38.000                                                                  
> 2024 04 17 00 08 00.0110000  0 28                     
G13  27658343.789   145345238.256       -4572.754          33.000                                                                  
G15  26129671.658   137312258.762       -3772.264          49.000    26129681.211   106996574.022       -2939.329          43.000  
G19  26534872.732   139442190.689       -3877.492          49.000                                                                  
G24  23852190.010   125344310.481        -355.348          47.000    23852188.661    97671001.848        -276.943          46.000  
R09  23729980.033   126716861.288         112.677          52.000    23729977.668    98557863.953          87.603          50.000  
R08  26084965.824   139684166.827         827.336          36.000    26084960.932   108642899.869         643.408          39.000  
R16  24838351.480   132682041.009       -2275.007          43.000    24838352.701   103197673.883       -1769.574          46.000  
R06  26218953.960                       -4655.335          27.000                                                                  
R10  26184386.984   139577536.847        1506.101          39.000                                                                  
G12  24637727.660   129472379.564        -297.966          49.000    24637725.688   100887880.182        -232.195          46.000  
E08  30157087.537   158476464.890       -3816.605          43.000    30157109.389   121430015.819       -2924.348          47.000  
S31  42175263.418   221632505.591        -760.851          45.000  
S33  43128198.399   226640188.033        -761.699          43.000  
G11  27229769.475   143093797.699        1710.529          43.000    27229774.800   111501870.054        1332.764          43.000  
E36  31083606.250   163345422.649       -1128.072          36.000    31083610.724   125160856.525        -864.266          49.000  
R19  24045180.451   128625952.840        1176.386          41.000    24045180.489   100042607.126         914.850          50.000  
R07  24676079.499   132092987.549       -2423.956          51.000    24676080.411   102739010.919       -1885.223          50.000  
R18  24745659.474   132094134.304       -2161.482          50.000    24745660.002   102740072.588       -1681.139          48.000  
E07  27623962.088   145165065.323       -2220.724          47.000    27623968.435   111230416.988       -1701.737          50.000  
E27  28287950.730   148654592.294         250.226          47.000    28287955.463   113904388.915         191.733          51.000  
E34  29777473.955   156481982.032        1003.293          43.000    29777481.451   119901842.432         768.635          47.000  
G25  26002117.679   136642278.653         935.998          45.000    26002119.126   106474572.809         729.488          44.000  
E30  27396351.773   143969277.657       -1546.704          49.000    27396352.462   110314394.742       -1185.084          50.000  
G06  26795782.567   140812978.040         333.645          39.000    26795782.449   109724491.481         260.063          39.000  
E02  30499148.100   160274089.089       -2659.557          34.000    30499152.620   122807849.167       -2037.694          40.000  
E15  30916852.175   162469255.949        2011.349          44.000    30916884.789   124489570.084        1541.310          45.000  
E18  30347579.377   159478089.624       -5611.147          37.000                                                                  
G32                                                                  27634286.123                3       1366.380          26.000  
> 2024 04 17 00 08 30.0110000  0 28                     
G13  27684449.260   145482431.012       -4574.000          30.000                                                                  
G15  26151224.063   137425514.876       -3778.644          48.000    26151233.330   107084825.023       -2944.584          42.000  
G19  26557033.520   139558643.679       -3886.509          49.000                                                                  
G24  23854257.233   125355174.978        -369.338          48.000    23854255.841    97679467.681        -287.911          46.000  
R09  23729360.094   126713550.651         107.578          52.000    23729357.220    98555289.052          83.746          50.000  
R08  26080396.962   139659703.435         803.202          37.000    26080394.412   108623872.794         624.542          37.000  
R16  24851142.787   132750357.333       -2279.657          46.000    24851140.962   103250808.785       -1773.041          45.000  
R06  26245141.967                       -4660.522          31.000                                                                  
R10  26175908.060   139532342.720        1506.196          40.000                                                                  
G12  24639448.619   129481417.928        -304.958          50.000    24639445.191   100894923.117        -237.690          46.000  
E08  30178883.272   158590993.781       -3818.920          44.000    30178904.419   121517770.868       -2926.081          48.000  
S31  42179607.124   221655331.365        -761.150          45.000  
S33  43132546.312   226663035.488        -761.924          43.000  
G11  27220022.341   143042577.372        1703.876          45.000    27220027.432   111461958.590        1327.478          43.000  
E36  31090083.454   163379465.967       -1142.119          34.000    31090088.881   125186941.702        -875.171          49.000  
R19  24038649.472   128591017.241        1151.978          41.000    24038649.227   100015435.177         896.088          49.000  
R07  24689725.972   132166042.510       -2446.873          51.000    24689728.049   102795831.362       -1903.113          49.000  
R18  24757879.927   132159362.647       -2187.423          51.000    24757880.057   102790805.807       -1701.430          48.000  
E07  27636675.661   145231872.390       -2233.423          46.000    27636681.673   111281606.750       -1711.267          50.000  
E27  28286532.579   148647137.885         246.375          47.000    28286537.108   113898677.204         188.761          51.000  
E34  29771774.141   156452026.697         993.444          44.000    29771781.690   119878889.780         761.130          48.000  
G25  25996784.545   136614258.909         931.442          46.000    25996786.808   106452739.434         725.698          44.000  
E30  27405188.319   144015710.696       -1549.260          50.000    27405188.342   110349973.330       -1187.086          50.000  
G06  26793920.511   140803195.821         317.678          38.000    26793921.279   109716869.039         247.630          39.000  
E02  30514328.710   160353857.756       -2658.879          37.000    30514330.947   122868970.621       -2037.203          38.000  
E15  30905361.169   162408879.858        2013.233          43.000    30905393.586   124443309.967        1542.214          45.000  
E18  30379598.648   159646348.230       -5606.341          38.000                                                                  
G32                                                                  27624325.881                        1354.496          26.000  
> 2024 04 17 00 09 00.0110000  0 29                     
G13  27710561.653                       -4574.784          27.000                                                                  
G15  26172811.855   137538957.912       -3784.339          48.000    26172820.847   107173221.646       -2948.646          42.000  
G19  26579243.100   139675360.456       -3894.826          47.000                                                                  
G24  23856404.596   125366457.451        -382.868          47.000    23856402.532    97688259.232        -298.451          46.000  
R09  23728768.125   126710386.262         103.160          53.000    23728764.344    98552827.910          80.230          50.000  
R08  26075965.730   139635963.725         780.051          35.000    26075959.457   108605408.579         606.259          34.000  
R16  24863956.853   132818811.060       -2284.092          45.000    24863956.234   103304050.536       -1776.339          46.000  
R06  26271353.402                       -4663.055          30.000                                                                  
R10  26167429.854   139487152.440        1506.466          40.000                                                                  
G12  24641207.527   129490661.705        -311.427          50.000    24641203.677   100902126.131        -242.649          46.000  
E08  30200689.337   158705582.644       -3820.315          43.000    30200710.674   121605571.862       -2927.452          48.000  
S31  42183952.083   221678165.812        -761.017          45.000  
S33  43136895.375   226685890.196        -761.826          43.000  
G11  27210314.024   142991555.097        1697.546          46.000    27210316.912   111422201.341        1322.699          44.000  
E36  31096642.764   163413933.699       -1156.020          34.000    31096647.741   125213352.082        -885.713          49.000  
R19  24032253.588   128556802.848        1128.522          42.000    24032252.275    99988824.160         877.783          48.000  
R07  24703501.555   132239780.509       -2469.194          51.000    24703502.234   102853183.020       -1920.487          49.000  
R18  24770244.820   132225364.750       -2212.779          51.000    24770244.330   102842140.826       -1721.137          48.000  
E07  27649460.969   145299052.902       -2245.364          47.000    27649466.045   111333082.660       -1720.506          51.000  
E27  28285135.820   148639796.798         242.944          47.000    28285139.940   113893052.324         186.198          51.000  
E34  29766128.608   156422361.150         984.144          44.000    29766135.820   119856159.216         754.156          47.000  
G25  25991477.455   136586371.877         927.541          46.000    25991480.183   106431009.474         722.731          44.000  
E30  27414038.200   144062219.019       -1551.359          49.000    27414038.540   110385609.593       -1188.701          50.000  
G06  26792149.066   140793890.224         302.454          38.000    26792150.706   109709618.038         235.510          39.000  
E02  30529504.789   160433597.775       -2657.139          40.000    30529504.668   122930070.139       -2036.042          39.000  
G29  28190352.066   148141266.8591       2976.693          28.000    28190372.090                1       2320.108          32.000  
E15  30893861.580   162348454.607        2015.129          43.000    30893893.266   124397012.192        1543.877          46.000  
E18  30411589.797   159814462.194       -5601.207          37.000                                                                  
G32                                                                  27614425.895                        1343.904          25.000  
> 2024 04 17 00 09 30.4900000  0 29                     
G13  21441472.975                       -4575.318          25.000                                                                  
G15  19899152.209   104570651.441       -3789.943          47.000    19899160.890    81483631.639       -2953.372          42.000  
G19  20306230.848   106710461.192       -3902.900          46.000                                                                  
G24  17563026.430    92294529.019        -396.614          48.000    17563023.662    71917925.381        -308.979          45.000  
R09  17432550.027    93088935.051          98.784          52.000    17432546.771    72402810.357          76.805          50.000  
R08  19775950.129   105899689.125         755.516          39.000    19775952.262    82366083.822         587.625          38.000  
R16  18581368.130    99258350.412       -2288.062          45.000    18581368.087    77201470.035       -1779.575          47.000  
R06  20002377.129                       -4666.609          27.000                                                                  
R10  19863167.861   105881890.806        1507.121          40.000                                                                  
G12  18347392.111    96416440.736        -317.797          49.000    18347388.786    75130005.930        -247.589          46.000  
E08  23927227.407   125738312.015       -3822.074          43.000    23927248.860    96344935.023       -2928.393          48.000  
S31  35892728.215   188617560.490        -760.857          45.000  
S33  36845675.378   193625307.333        -761.467          43.000  
G11  20904838.184   109856059.797        1691.248          45.000    20904843.400    85602335.267        1317.773          46.000  
E36  24807750.389   130365581.935       -1169.728          32.000    24807755.573    99890589.097        -896.163          49.000  
R19  17730246.458    94845314.016        1104.608          42.000    17730245.677    73768777.444         859.271          49.000  
R07  18421993.727    98614372.641       -2491.527          51.000    18421993.426    76700087.903       -1937.944          49.000  
R18  18487320.008    98686686.755       -2238.373          50.000    18487319.865    76756502.474       -1740.972          47.000  
E07  21366887.301   112283905.751       -2257.359          47.000    21366892.663    86035762.055       -1729.654          51.000  
E27  21988094.016   115548620.100         239.723          47.000    21988098.260    88537475.488         183.717          51.000  
E34  23464802.989   123308671.222         974.791          45.000    23464809.695    94483332.038         747.010          47.000  
G25  19690465.308   103474326.750         923.636          46.000    19690467.399    80629416.031         719.722          44.000  
E30  21127407.526   111025750.152       -1553.333          49.000    21127407.687    85071951.647       -1190.250          50.000  
G06  20494798.843   107701091.373         286.718          40.000    20494800.203    83923021.627         223.615          38.000  
E02  24249282.420   127430808.471       -2655.998          40.000    24249281.822    97642218.612       -2035.099          38.000  
E15  24586517.079   129203145.052        2017.338          43.000    24586548.876    98999958.964        1545.715          46.000  
E18  24148443.477   126901398.718       -5595.477          39.000                                                                  
G32                                                                  21308818.273                3       1333.457          24.000  
G29                                                                  21877464.238                        2317.101          32.000  
> 2024 04 17 00 10 00.4900000  0 28                     
G15  19920802.512   104684425.750       -3795.100          47.000    19920811.873    81572286.390       -2957.141          43.000  
G19  20328533.318   106827664.502       -3910.689          46.000                                                                  
G24  17565327.135    92306622.073        -409.717          48.000    17565325.238    71927348.562        -319.275          45.000  
R09  17432004.758    93086029.019          94.910          51.000    17432002.669    72400550.129          73.773          51.000  
R08  19771785.745   105877377.373         731.966          40.000    19771786.873    82348730.330         569.482          36.000  
R16  18594227.025    99327045.602       -2292.104          42.000    18594227.529    77254899.634       -1782.618          47.000  
R06  20028612.981                3      -4674.485          22.000                                                                  
R10  19854684.154   105836670.003        1507.859          38.000                                                                  
G12  18349222.386    96426059.715        -323.602          49.000    18349219.414    75137501.308        -252.155          45.000  
E08  23949048.083   125852979.437       -3822.996          43.000    23949070.227    96432796.186       -2929.141          48.000  
S31  35897069.579   188640376.161        -760.434          45.000  
S33  36850021.052   193648145.481        -760.999          43.000  
G11  20895198.306   109805409.614        1685.577          43.000    20895204.169    85562868.028        1313.147          46.000  
E36  24814463.910                       -1183.465          31.000    24814470.261    99917626.883        -906.327          49.000  
R19  17724117.281    94812526.193        1081.360          42.000    17724116.592    73743276.002         840.985          49.000  
R07  18436016.825    98689440.843       -2513.041          50.000    18436016.168    76758474.177       -1954.602          48.000  
R18  18499968.063    98754206.654       -2263.095          49.000    18499969.693    76809018.028       -1760.175          47.000  
E07  21379806.852   112351798.907       -2268.885          47.000    21379812.477    86087784.038       -1738.472          51.000  
E27  21986733.161   115541469.152         236.950          47.000    21986737.223    88531996.290         181.621          51.000  
E34  23459264.756   123279558.857         965.977          47.000    23459269.512    94461025.335         740.192          47.000  
G25  19685202.247   103446669.260         920.105          47.000    19685204.557    80607864.936         716.984          44.000  
E30  21136278.892   111072371.861       -1554.755          49.000    21136279.572    85107674.798       -1191.380          50.000  
G06  20493205.822   107692716.459         271.156          40.000    20493206.101    83916495.887         211.765          37.000  
E02  24264437.773   127510453.864       -2654.051          40.000    24264438.048    97703245.629       -2033.479          39.000  
E15  24574992.589   129142589.991        2019.656          44.000    24575023.739    98953561.734        1547.480          46.000  
E18  24180371.190   127069177.891       -5589.515          38.000                                                                  
G32                                                                  21299099.920                        1322.258          27.000  
G29                                                                  21860493.411                        2315.779          31.000  
> 2024 04 17 00 10 30.4900000  0 30                     
G13  21493703.137                3      -4575.298          26.000                                                                  
G15  19942484.641   104798362.095       -3800.659          47.000    19942494.899    81661067.388       -2961.629          43.000  
G19  20350882.362   106945107.080       -3918.903          47.000                                                                  
G24  17567705.448    92319121.272        -423.721          48.000    17567704.593    71937088.211        -330.140          46.000  
R09  17431484.661    93083254.312          90.069          51.000    17431483.366    72398392.069          70.006          51.000  
R08  19767751.634   105855778.003         707.786          37.000    19767753.375    82331930.824         551.044          34.000  
R16  18607111.975    99395863.208       -2296.314          42.000    18607111.791    77308424.444       -1785.911          49.000  
R06  20054893.875                3      -4666.523          18.000                                                                  
R10  19846197.249   105791436.134        1507.876          37.000                                                                  
G12  18351088.257    96435865.869        -330.070          49.000    18351085.237    75145142.524        -257.172          46.000  
E08  23970876.728   125967685.021       -3824.406          44.000    23970898.740    96520686.602       -2930.230          47.000  
S31  35901409.930   188663184.253        -760.156          45.000  
S33  36854365.342   193670974.215        -761.031          43.000  
G11  20885595.822   109754950.606        1678.729          42.000    20885601.667    85523549.718        1308.069          46.000  
E36  24821257.722   130436562.804       -1197.106          32.000    24821262.614    99944977.172        -916.942          49.000  
R19  17718120.970    94780452.027        1056.879          42.000    17718119.558    73718329.599         822.070          49.000  
R07  18450163.227    98765165.896       -2535.184          50.000    18450162.539    76817371.277       -1971.868          50.000  
R18  18512758.122    98822478.278       -2288.474          50.000    18512756.965    76862118.238       -1779.734          44.000  
R20  20600283.088                3       3648.392          25.000                                                                  
E07  21392793.678   112420045.551       -2280.862          47.000    21392799.471    86140076.883       -1747.698          51.000  
E27  21985390.698   115534413.597         233.406          47.000    21985394.115    88526590.195         178.797          51.000  
E34  23453777.592   123250725.621         956.319          47.000    23453782.919    94438932.502         732.740          47.000  
G25  19679960.697   103419126.923         915.888          46.000    19679963.052    80586403.542         713.757          44.000  
E30  21145161.427   111119050.997       -1557.007          49.000    21145162.336    85143441.945       -1193.078          50.000  
G06  20491700.696   107684808.093         255.695          40.000    20491701.908    83910333.654         199.119          39.000  
E02  24279585.798   127590054.322       -2652.690          40.000    24279586.672    97764238.184       -2032.531          41.000  
E15  24563456.475   129081975.516        2021.189          43.000    24563487.336    98907118.960        1548.699          46.000  
E18  24212267.371   127236789.934       -5584.433          39.000                                                                  
G32                                                                  21289454.656                        1310.536          30.000  
G29                                                                  21843543.371                        2312.943          30.000  
> 2024 04 17 00 11 00.4900000  0 29                     
G15  19964198.052   104912464.931       -3805.960          47.000    19964208.493    81749978.118       -2965.707          43.000  
G19  20373277.252   107062793.525       -3926.839          46.000                                                                  
G24  17570162.267    92332035.567        -437.256          46.000    17570161.777    71947151.296        -340.563          45.000  
R09  17430992.256    93080619.051          85.811          52.000    17430990.184    72396342.479          66.681          51.000  
R08  19763852.307   105834900.484         684.299          38.000    19763856.266                         532.474          30.000  
R16  18620017.804    99464811.812       -2300.262          41.000    18620019.166    77362051.080       -1789.184          48.000  
R06  20081170.743                       -4674.900          28.000                                                                  
R10  19837710.415   105746196.664        1507.945          38.000                                                                  
G12  18352991.654    96445865.987        -336.326          50.000    18352987.832    75152934.880        -262.164          45.000  
E08  23992713.494   126082434.447       -3825.458          44.000    23992735.481    96608610.627       -2931.215          46.000  
S31  35905749.750   188685991.852        -760.063          45.000  
S33  36858709.778   193693803.948        -760.791          43.000  
G11  20876033.086   109704693.479        1672.058          45.000    20876037.633    85484388.710        1302.722          45.000  
E36  24828117.475                       -1210.879          30.000    24828133.829    99972645.668        -927.529          48.000  
R19  17712259.898    94749102.557        1033.429          41.000    17712259.349    73693946.837         803.375          49.000  
R07  18464431.945    98841551.829       -2556.975          50.000    18464431.643    76876782.448       -1988.772          49.000  
R18  18525689.043    98891507.342       -2313.397          49.000    18525688.825    76915807.606       -1799.258          45.000  
R20  20579828.061                        3647.772          29.000    20579867.761                1       2837.637          26.000  
E07  21405848.747   112488652.012       -2292.770          47.000    21405854.780    86192645.412       -1756.800          52.000  
E27  21984067.196   115527460.400         230.032          47.000    21984070.972    88521262.520         176.450          50.000  
E34  23448344.550   123222180.870         946.922          46.000    23448350.732    94417060.734         725.505          47.000  
G25  19674742.321   103391706.846         912.137          45.000    19674745.259    80565037.412         710.667          45.000  
E30  21154056.557   111165794.569       -1559.180          49.000    21154057.592    85179258.464       -1194.584          51.000  
G06  20490285.796   107677375.811         240.274          38.000    20490289.509    83904542.451         186.779          41.000  
E02  24294725.117   127669617.363       -2651.589          40.000    24294726.584    97825202.083       -2031.654          41.000  
E15  24551910.670   129021311.085        2023.015          42.000    24551941.382    98860637.899        1549.979          47.000  
E18  24244130.886   127404240.355       -5579.006          38.000                                                                  
G32                                                                  21279877.689                        1301.323          28.000  
G29                                                                  21826608.124                        2309.983          29.000  
> 2024 04 17 00 11 30.4900000  0 29                     
G15  19985941.055   105026723.675       -3811.249          46.000    19985951.499    81839010.346       -2969.924          42.000  
G19  20395716.624   107180713.644       -3934.602          45.000                                                                  
G24  17572697.090    92345358.781        -450.929          47.000    17572697.507    71957533.034        -351.319          46.000  
R09  17430523.465    93078115.712          81.212          52.000    17430521.621    72394395.470          63.213          51.000  
R08  19760090.601   105814739.159         660.044          40.000                                                                  
R16  18632948.627    99533884.211       -2304.581          43.000    18632948.615    77415774.052       -1792.387          48.000  
R06  20107451.457                       -4677.269          24.000                                                                  
R10  19829221.452   105700943.671        1508.495          39.000                                                                  
G12  18354930.027    96456050.652        -342.596          50.000    18354925.928    75160871.063        -266.924          45.000  
E08  24014556.237   126197218.217       -3826.680          44.000    24014578.856    96696560.986       -2932.143          46.000  
S31  35910088.675   188708792.858        -760.021          45.000  
S33  36863052.559   193716626.139        -760.593          43.000  
G11  20866507.481   109654633.682        1665.295          46.000    20866511.417    85445381.382        1297.540          45.000  
E36  24835068.652   130509189.529       -1224.147          29.000    24835082.964   100000626.363        -937.918          48.000  
R19  17706534.151    94718473.118        1008.991          42.000    17706532.709    73670124.095         784.735          49.000  
R07  18478823.488    98918587.816       -2578.726          50.000    18478824.136    76936699.207       -2005.757          51.000  
R18  18538762.466    98961284.087       -2338.299          50.000    18538758.722    76970078.472       -1818.683          43.000  
R20  20559362.068   109940151.6031       3648.364          33.000    20559386.671                        2837.179          29.000  
E07  21418971.325   112557609.318       -2304.512          47.000    21418977.089    86245482.774       -1765.723          51.000  
E27  21982762.313   115520601.350         227.079          46.000    21982765.892    88516006.995         173.947          51.000  
E34  23442967.619   123193918.805         937.403          47.000    23442972.515    94395405.582         718.263          47.000  
G25  19669545.729   103364400.971         908.257          45.000    19669548.972    80543760.275         707.756          44.000  
E30  21162962.802   111212594.367       -1560.857          50.000    21162963.431    85215118.076       -1195.982          51.000  
G06  20488960.187   107670413.927         224.113          37.000    20488964.214    83899117.759         174.683          41.000  
E02  24309854.700   127749135.291       -2649.932          38.000    24309858.653    97886131.428       -2030.341          42.000  
G29  21809668.971   114610785.5691       2962.105          31.000    21809692.415                        2307.923          30.000  
E15  24540354.550   128960591.096        2024.964          41.000    24540384.534    98814114.274        1551.440          46.000  
E18  24275963.275   127571519.493       -5573.283          37.000                                                                  
G32                                                                  21270382.643                        1290.803          28.000  
> 2024 04 17 00 12 00.4900000  0 29                     
G15  20007713.566   105141135.360       -3816.289          46.000    20007723.167    81928161.721       -2973.890          41.000  
G19  20418200.026   107298864.469       -3942.261          43.000                                                                  
G24  17575310.767    92359092.090        -464.846          47.000    17575310.328    71968234.311        -362.147          45.000  
R09  17430078.921    93075744.777          76.690          51.000    17430076.823    72392551.444          59.606          50.000  
R08  19756459.821   105795294.050         636.121          41.000    19756466.237                1        494.565          28.000  
R16  18645901.738    99603080.613       -2308.619          43.000    18645902.746    77469593.426       -1795.801          48.000  
R06  20133754.515                       -4679.735          30.000                                                                  
R10  19820731.416   105655676.877        1508.820          41.000                                                                  
G12  18356902.921    96466419.352        -348.876          50.000    18356899.343    75168950.640        -271.830          46.000  
E08  24036405.289   126312034.226       -3827.696          44.000    24036429.108    96784536.045       -2933.031          46.000  
S31  35914425.747   188731584.868        -759.677          45.000  
S33  36867393.798   193739440.411        -760.494          43.000  
G11  20857019.896   109604774.078        1658.582          47.000    20857023.703    85406530.113        1292.181          46.000  
E36  24842110.423   130546194.6571      -1237.387          32.000    24842109.297   100028918.931        -948.341          48.000  
R19  17700942.765    94688566.168         984.650          41.000    17700942.250    73646863.287         765.900          49.000  
R07  18493335.460    98996270.487       -2600.236          51.000    18493336.198    76997118.957       -2022.446          50.000  
R18  18551972.060    99031806.342       -2363.225          48.000    18551970.988    77024929.127       -1838.219          43.000  
R20  20538893.516   109830699.465        3647.826          34.000    20538921.035    85424019.2411       2838.119          34.000  
E07  21432158.810   112626915.983       -2316.313          46.000    21432165.556    86298587.818       -1774.687          51.000  
E27  21981474.758   115513835.647         223.934          46.000    21981478.666    88510822.985         171.498          51.000  
E34  23437642.094   123165940.990         927.607          46.000    23437648.080    94373968.227         710.997          46.000  
G25  19664371.643   103337208.574         904.410          46.000    19664373.862    80522571.539         704.760          44.000  
E30  21171877.891   111259449.634       -1562.776          50.000    21171879.720    85251020.199       -1197.571          51.000  
G06  20487724.943   107663924.150         208.631          37.000    20487728.937    83894060.920         162.255          40.000  
E02  24324979.247   127828607.964       -2648.452          39.000    24324982.383    97947026.076       -2029.389          43.000  
G29  21792764.581   114521975.190        2958.703          35.000    21792793.466                        2305.565          32.000  
E15  24528787.785   128899817.292        2026.712          41.000    24528817.506    98767549.391        1552.776          46.000  
E18  24307761.748   127738625.065       -5567.514          36.000                                                                  
G32                                                                  21260966.541                        1279.529          28.000  
> 2024 04 17 00 12 30.4900000  0 29                     
G15  20029516.357   105255703.893       -3821.513          46.000    20029525.306    82017435.349       -2978.009          41.000  
G19  20440728.411   107417250.375       -3950.258          44.000                                                                  
G24  17578003.887    92373244.064        -478.809          48.000    17578003.131    71979261.813        -373.041          45.000  
G32  21251637.894                3       1626.703          31.000    21251635.543                        1267.899          31.000  
R09  17429661.126    93073514.085          71.930          51.000    17429658.053    72390816.532          55.901          50.000  
R08  19752963.653   105776574.787         611.984          40.000    19752972.844    82270464.5321        476.092          34.000  
R16  18658880.689    99672408.989       -2313.030          44.000    18658880.899    77523515.496       -1799.138          48.000  
R06  20160072.819                       -4681.777          31.000                                                                  
R10  19812238.093   105610403.555        1508.806          41.000                                                                  
G12  18358911.424    96476978.683        -355.293          49.000    18358908.568    75177178.768        -276.801          46.000  
E08  24058261.978   126426887.868       -3829.273          44.000    24058286.142    96872539.899       -2934.043          47.000  
S31  35918762.723   188754376.250        -759.892          45.000  
S33  36871734.677   193762254.025        -760.779          43.000  
G11  20847571.150   109555124.911        1651.233          44.000    20847574.068    85367842.754        1286.743          45.000  
E36  24849210.269   130583532.944       -1252.061          33.000    24849214.417   100057528.775        -959.112          49.000  
R19  17695489.515    94659393.038         960.004          42.000    17695488.489    73624173.208         746.625          49.000  
R07  18507969.080    99074603.341       -2621.998          51.000    18507969.760    77058044.359       -2039.348          50.000  
R18  18565323.947    99103079.378       -2388.604          47.000    18565322.563    77080363.755       -1857.567          45.000  
R20  20518424.939   109721248.955        3648.262          34.000    20518455.039    85338891.618        2837.850          32.000  
E07  21445414.562   112696577.877       -2328.099          46.000    21445421.743    86351965.057       -1783.905          51.000  
E27  21980205.352   115507169.929         220.368          46.000    21980210.108    88505715.584         168.856          51.000  
E34  23432374.106   123138256.463         917.791          46.000    23432379.489    94352755.592         703.363          46.000  
G25  19659219.944   103310136.432         900.055          47.000    19659222.044    80501476.528         701.360          44.000  
E30  21180805.771   111306367.075       -1565.145          49.000    21180807.802    85286969.940       -1199.210          51.000  
G06  20486583.161   107657915.654         192.088          39.000    20486584.807    83889379.077         149.744          40.000  
E02  24340095.723   127908042.479       -2647.218          40.000    24340098.280    98007891.463       -2028.483          44.000  
G29  21775885.185   114433268.213        2955.145          38.000    21775911.671                        2302.541          31.000  
E15  24517213.600   128838998.858        2027.909          42.000    24517242.134    98720950.299        1553.799          46.000  
E18  24339528.796   127905562.266       -5561.826          36.000                                                                  
> 2024 04 17 00 13 00.4900000  0 29                     
G15  20051347.846   105370424.773       -3826.729          46.000    20051357.430    82106827.620       -2981.817          43.000  
G19  20463300.088   107535866.938       -3957.881          44.000                                                                  
G24  17580777.146    92387814.453        -492.829          49.000    17580775.604    71990615.360        -383.910          45.000  
R09  17429268.818    93071422.637          67.260          50.000    17429266.292    72389189.879          52.319          49.000  
R08  19749602.970   105758580.907         587.343          39.000    19749608.379    82256469.105         457.146          32.000  
R16  18671882.531    99741868.528       -2317.709          43.000    18671883.621    77577539.570       -1802.689          49.000  
R06  20186403.371   107718544.6121      -4685.467          33.000                                                                  
R10  19803742.660   105565121.738        1509.248          43.000                                                                  
G12  18360955.675    96487726.219        -361.503          49.000    18360954.017    75185553.541        -281.638          46.000  
E08  24080124.718   126541775.556       -3830.334          45.000    24080149.200    96960569.849       -2934.927          47.000  
S31  35923099.550   188777166.165        -760.100          45.000  
S33  36876075.269   193785064.497        -760.593          44.000  
G11  20838159.770   109505687.499        1644.086          41.000    20838165.938    85329320.536        1281.134          45.000  
E36  24856394.571   130621283.286       -1265.337          33.000    24856398.047   100086454.453        -969.562          48.000  
R19  17690172.803    94630954.241         935.516          42.000    17690172.870    73602054.321         727.533          50.000  
R07  18522721.990    99153581.349       -2643.519          50.000    18522722.186    77119471.560       -2056.072          49.000  
R18  18578814.256    99175099.307       -2413.326          47.000    18578814.393    77136379.249       -1877.026          44.000  
R20  20497958.603   109611803.145        3647.878          34.000    20497986.921                        2837.511          31.000  
E07  21458738.189   112766592.026       -2339.898          46.000    21458744.899    86405612.203       -1792.870          51.000  
E27  21978956.574   115500601.951         217.053          46.000    21978959.957    88500683.060         166.331          51.000  
E34  23427162.274   123110865.369         907.910          45.000    23427167.515    94331767.763         695.684          47.000  
G25  19654090.571   103283182.380         896.348          47.000    19654093.346    80480473.535         698.300          44.000  
E30  21189745.269   111353344.432       -1567.042          49.000    21189747.144    85322965.612       -1200.740          51.000  
G06  20485531.080   107652388.542         176.009          36.000    20485532.772    83885072.370         137.207          40.000  
E02  24355204.651   127987437.178       -2646.021          41.000    24355206.086    98068726.364       -2027.294          43.000  
G29  21759024.564   114344664.400        2951.343          38.000    21759050.528                        2300.502          32.000  
E15  24505630.796   128778136.073        2029.018          43.000    24505658.625    98674317.214        1554.820          46.000  
E18  24371263.789   128072327.404       -5556.263          39.000                                                                  
G32                                                                  21242385.363    86983975.8021       1257.175          32.000  
> 2024 04 17 00 13 30.4900000  0 29                     
G15  20073207.066   105485295.285       -3831.618          45.000    20073217.000    82196336.513       -2985.781          42.000  
G19  20485915.881   107654711.703       -3965.407          41.000                                                                  
G24  17583629.778    92402804.964        -506.764          49.000    17583628.483    72002296.277        -394.788          45.000  
R09  17428903.084    93069471.316          62.596          51.000    17428901.332    72387672.221          48.618          49.000  
R08  19746381.594   105741314.275         563.392          38.000    19746382.508    82243039.545         437.284          33.000  
R16  18684910.818    99811459.745       -2322.062          45.000    18684912.947    77631666.043       -1806.074          50.000  
R06  20212748.940   107859111.491       -4686.856          33.000                                                                  
R10  19795246.883   105519831.664        1509.748          42.000                                                                  
G12  18363036.696    96498661.444        -367.700          49.000    18363035.266    75194074.563        -286.548          47.000  
E08  24101994.090   126656695.770       -3831.290          45.000    24102018.553    97048624.721       -2935.462          46.000  
S31  35927435.585   188799953.302        -759.472          45.000  
S33  36880415.743   193807873.000        -760.316          43.000  
G11  20828794.277   109456465.530        1637.158          44.000    20828798.677    85290966.183        1275.623          44.000  
E36  24863656.486   130659445.983       -1279.263          34.000    24863660.148   100115696.048        -980.030          48.000  
R19  17684994.179    94603252.661         911.089          42.000    17684993.232    73580508.789         708.482          50.000  
R07  18537596.761    99233201.435       -2664.724          50.000    18537596.437    77181398.163       -2072.633          49.000  
R18  18592446.706    99247864.272       -2438.025          47.000    18592446.272    77192974.273       -1896.184          47.000  
R20  20477494.497   109502366.051        3647.698          34.000    20477513.611                1       2837.035          29.000  
E07  21472129.112   112836957.425       -2351.368          47.000    21472135.082    86459528.511       -1801.690          51.000  
E27  21977725.370   115494131.430         214.062          47.000    21977728.418    88495725.236         163.912          51.000  
E34  23422005.713   123083769.759         898.056          44.000    23422011.802    94311006.387         688.157          48.000  
G25  19648983.488   103256346.378         892.441          47.000    19648986.946    80459562.538         695.384          45.000  
E30  21198695.614   111400381.565       -1568.834          49.000    21198698.075    85359007.081       -1202.213          51.000  
G06  20484571.183   107647345.056         160.101          37.000    20484574.040    83881142.535         124.854          40.000  
E02  24370304.256   128066792.466       -2644.546          40.000    24370306.521    98129531.080       -2026.278          43.000  
G29  21742183.475   114256166.969        2948.170          39.000    21742208.248                        2297.456          32.000  
E15  24494039.185   128717231.275        2030.704          43.000    24494067.135    98627651.917        1556.002          46.000  
E18  24402964.345   128238918.819       -5550.104          38.000                                                                  
G32                                                                  21233216.417    86946423.566        1245.429          34.000  
> 2024 04 17 00 14 00.4900000  0 29                     
G15  20095093.698   105600311.119       -3836.386          43.000    20095104.794    82285958.582       -2989.418          43.000  
G19  20508574.268   107773780.264       -3972.613          41.000                                                                  
G24  17586562.447    92418215.398        -520.741          49.000    17586560.899    72014304.408        -405.664          45.000  
R09  17428565.527    93067659.073          58.050          52.000    17428562.619    72386262.737          45.246          51.000  
R08  19743292.879                         539.477          31.000    19743287.976    82230175.162         419.002          38.000  
R16  18697964.414    99881182.093       -2326.331          47.000    18697964.982    77685894.573       -1809.405          49.000  
R06  20239102.542   107999737.559       -4689.097          33.000                                                                  
R10  19786748.125   105474531.877        1510.094          43.000                                                                  
G12  18365153.575    96509781.839        -373.823          49.000    18365151.329    75202739.868        -291.370          47.000  
E08  24123869.050   126771645.126       -3832.139          45.000    24123893.205    97136701.921       -2936.333          46.000  
S31  35931771.086   188822736.282        -759.289          45.000  
S33  36884755.182   193830678.533        -760.220          43.000  
G11  20819470.386   109407460.461        1629.907          46.000    20819472.150    85252780.728        1270.068          44.000  
E36  24870996.520   130698019.084       -1292.427          37.000    24871000.221   100145252.199        -990.489          47.000  
R19  17679954.283    94576290.301         886.210          42.000    17679953.029    73559538.196         689.373          49.000  
R07  18552587.945    99313458.546       -2685.831          50.000    18552589.514    77243820.250       -2088.973          49.000  
R18  18606217.236    99321370.581       -2462.462          48.000    18606217.311    77250145.856       -1915.543          47.000  
R20  20457029.941   109392939.067        3647.190          34.000    20457052.873                        2836.250          28.000  
E07  21485585.878   112907671.238       -2363.065          47.000    21485591.735    86513711.775       -1810.515          51.000  
E27  21976511.423   115487756.252         210.887          46.000    21976515.250    88490840.480         161.565          50.000  
E34  23416905.504   123056969.860         888.400          44.000    23416912.038    94290471.620         680.674          48.000  
G25  19643898.681   103229626.406         888.771          47.000    19643901.214    80438741.938         692.330          43.000  
E30  21207658.448   111447476.458       -1570.840          49.000    21207660.045    85395092.797       -1203.662          51.000  
G06  20483703.552   107642785.547         144.081          38.000    20483705.787    83877589.822         112.153          40.000  
E02  24385398.834   128146106.781       -2643.161          40.000    24385399.622    98190304.386       -2025.464          43.000  
G29  21725362.853   114167776.464        2944.349          39.000    21725388.910    88961693.9361       2294.263          33.000  
E15  24482439.679   128656284.925        2032.083          43.000    24482467.665    98580954.745        1556.966          47.000  
E18  24434631.744   128405333.093       -5544.214          38.000                                                                  
G32                                                                  21224126.694    86909206.409        1235.169          32.000  
> 2024 04 17 00 14 30.4900000  0 29                     
G15  20117006.792   105715461.405       -3841.030          44.000    20117018.257    82375685.404       -2993.089          43.000  
G19  20531272.354   107893062.274       -3980.092          42.000                                                                  
G24  17589573.770    92434039.362        -534.927          49.000    17589572.213    72026634.751        -416.781          45.000  
R09  17428251.202    93065978.492          53.177          52.000    17428248.085    72384955.655          41.410          51.000  
R08  19740319.939                1        514.543          30.000    19740333.227    82217870.919         400.484          37.000  
R16  18711039.659    99951028.004       -2330.853          47.000    18711040.061    77740219.131       -1812.913          49.000  
R06  20265465.507   108140410.207       -4690.757          34.000                                                                  
R10  19778245.232   105429214.401        1510.485          42.000                                                                  
G12  18367303.352    96521079.200        -380.051          49.000    18367300.589    75211543.079        -296.271          47.000  
E08  24145746.987   126886613.979       -3833.049          44.000    24145771.249    97224794.034       -2936.976          45.000  
S31  35936104.116   188845508.476        -759.529          45.000  
S33  36889092.690   193853472.393        -760.247          43.000  
G11  20810185.016   109358667.526        1622.314          46.000    20810188.035    85214760.639        1264.166          45.000  
E36  24878413.591   130736994.788       -1306.336          39.000    24878416.810   100175116.744       -1001.031          47.000  
R19  17675050.619    94550061.774         861.453          41.000    17675049.572    73539138.364         669.986          49.000  
R07  18567699.328    99394340.921       -2707.043          52.000    18567698.814    77306728.604       -2105.347          50.000  
R18  18620124.618    99395608.219       -2487.340          48.000    18620122.820    77307886.263       -1934.671          46.000  
R20  20436564.029   109283519.357        3646.592          32.000    20436592.378                        2836.550          31.000  
E07  21499106.097   112978724.302       -2374.581          47.000    21499112.684    86568154.981       -1819.442          51.000  
E27  21975314.395   115481468.126         207.476          46.000    21975318.485    88486022.396         159.123          50.000  
E34  23411860.346   123030459.744         878.145          44.000    23411866.120    94270158.851         672.837          46.000  
G25  19638835.093   103203014.242         884.637          47.000    19638835.905    80418005.351         689.308          43.000  
E30  21216630.097   111494620.755       -1572.865          49.000    21216631.505    85431216.373       -1205.131          52.000  
G06  20482927.587   107638704.114         127.696          38.000    20482928.820    83874409.539          99.406          38.000  
E02  24400482.060   128225372.248       -2641.914          41.000    24400483.389    98251040.282       -2024.235          43.000  
G29  21708561.160   114079487.298        2940.710          40.000    21708584.861                        2290.972          31.000  
E15  24470831.091   128595291.179        2033.297          43.000    24470859.132    98534221.201        1557.909          47.000  
E18  24466264.609   128571560.395       -5538.389          40.000                                                                  
G32                                                                  21215115.726                        1223.538          29.000  
