     3.00           OBSERVATION DATA    M: Mixed            RINEX VERSION / TYPE
CONVBIN 2.4.3                           20240417 115941 UTC PGM / RUN BY / DATE 
format: u-blox UBX                                          COMMENT             
log: /home/regis/git/gnsspwv/obsdata/VERT00CHL/2024-04-17/VECOMMENT             
{self.marker}                                               MARKER NAME         
                                                            MARKER NUMBER       
GEODETIC                                                    MARKER TYPE         
{self.observer}     {self.institution}                      OBSERVER / AGENCY   
UNKNOWN             UBLOX-ZED-F9P                           REC # / TYPE / VERS 
UNKNOWN             TWIVSP6037L                             ANT # / TYPE        
  1713381.0000 -5047934.0000 -3490983.0000                  APPROX POSITION XYZ 
        0.0000        0.0000        0.0000                  ANTENNA: DELTA H/E/N
G    8 C1C L1C D1C S1C C2L L2L D2L S2L                      SYS / # / OBS TYPES 
R    8 C1C L1C D1C S1C C2C L2C D2C S2C                      SYS / # / OBS TYPES 
E    8 C1C L1C D1C S1C C7Q L7Q D7Q S7Q                      SYS / # / OBS TYPES 
S    4 C1C L1C D1C S1C                                      SYS / # / OBS TYPES 
  2024    04    17    11    45   00.0110000     GPS         TIME OF FIRST OBS   
  2024    04    17    11    59   30.0110000     GPS         TIME OF LAST OBS    
                                                            END OF HEADER       
> 2024 04 17 11 45 00.0110000  0 26                     
G08  25193039.876   132390321.5911      -3768.376          48.000    25193039.935   103161300.1331      -2936.513          45.000  
G31  27406328.551   144021246.2681       1461.485          46.000    27406327.632   112224320.6751       1138.959          42.000  
E19  27039393.691   142092933.7611        865.186          43.000    27039394.673   108876413.2741        663.043          48.000  
G28  27006512.176   141920162.8391        481.470          44.000    27006509.904   110587119.1801        375.360          44.000  
R03  25655895.201   137337907.3831       2861.290          45.000    25655890.553   106818574.3851       2225.391          45.000  
R17  23370752.071   125061829.6851       1964.587          52.000    23370746.985    97270094.4151       1527.996          49.000  
R02  22538842.770   120271607.7651        -74.419          53.000    22538840.121    93544588.0411        -57.903          48.000  
G03  24748319.733   130053273.1341        509.121          48.000    24748317.981   101340206.0751        396.880          45.000  
G21  22869748.377   120181342.7761       -448.431          46.000                                                                  
S31  42014833.620   220789526.3181       -630.561          44.000  
S33  42968277.736   225799959.6901       -630.408          43.000  
E33  26849002.633   141092562.5171       -792.917          48.000    26849002.938   108109864.2271       -607.636          53.000  
R01  23788840.975   127164939.9531      -3563.863          48.000    23788840.047    98906072.4991      -2771.876          45.000  
R23  26765453.681   143177077.4831      -4399.795          44.000                                                                  
R24  22847518.815   122176033.7261      -1956.584          53.000    22847512.783    95025763.6421      -1521.871          45.000  
G02  23370987.442   122815376.0081        309.573          48.000                                                                  
G32  27077286.804   142292070.5671      -3999.548          48.000    27077286.101   110876952.5651      -3116.406          39.000  
E12  28533808.587   149946122.2861       1264.540          44.000    28533806.847   114893810.3361        968.960          47.000  
G04  25932264.074   136274938.4991       2829.399          45.000    25932262.886   106188199.9001       2204.742          45.000  
E10  30361888.634   159552850.1341       1669.312          33.000    30361886.252   122254719.3761       1279.312          39.000  
E04  31172544.856   163812838.9031       2383.836          35.000    31172547.859   125518931.8331       1826.666          40.000  
E26  29474460.240   154889541.4131      -2487.275          43.000    29474464.020   118681728.7451      -1905.757          48.000  
E14  29878182.055   157010910.4831       -577.811          44.000    29878183.602   120307073.0701       -442.707          46.000  
E07                                                                  31283392.917                3      -2587.007          19.000  
G27                                                                  27668104.152                3      -3479.853          15.000  
G17                                                                  26770755.542                        1914.729          30.000  
> 2024 04 17 11 45 30.0110000  0 26                     
G08  25214589.779   132503566.623       -3780.916          47.000    25214589.469   103249542.864       -2946.096          44.000  
G31  27398007.876   143977520.378        1453.671          47.000    27398006.612   112190248.573        1132.675          42.000  
E19  27034495.865   142067192.373         850.979          43.000    27034496.069   108856689.319         652.046          47.000  
G28  27003810.204   141905965.534         465.253          43.000    27003808.708   110576056.343         362.720          44.000  
R03  25639898.953   137252281.243        2847.209          43.000    25639894.783   106751976.254        2214.545          45.000  
R17  23359783.452   125003137.345        1948.349          52.000    23359779.158    97224444.777        1515.446          50.000  
R02  22539329.033   120274204.305         -98.541          52.000    22539326.947    93546607.517         -76.613          48.000  
G03  24745439.878   130038137.166         500.132          49.000    24745437.692   101328411.755         389.672          45.000  
G21  22872365.799   120195095.019        -468.312          47.000                                                                  
S31  42018441.416   220808484.828        -633.098          44.000  
S33  42971883.680   225818908.167        -632.648          42.000  
E33  26853556.930   141116498.237        -802.518          48.000    26853557.749   108128204.530        -614.873          53.000  
R01  23808877.525   127272049.194       -3576.549          48.000    23808876.946    98989379.617       -2781.835          45.000  
R23  26790159.403   143309233.808       -4410.582          44.000                                                                  
R24  22858562.586   122235089.643       -1980.216          53.000    22858558.006    95071695.924       -1540.061          46.000  
G02  23369267.569   122806338.073         292.959          48.000                                                                  
G32  27100148.782   142412208.138       -4009.430          49.000    27100149.087   110970566.026       -3124.036          41.000  
E12  28526600.533   149908246.658        1260.597          44.000    28526599.321   114864788.697         965.897          47.000  
G04  25916142.160   136190215.150        2819.029          45.000    25916140.388   106122181.691        2196.744          45.000  
E10  30352362.377   159502782.308        1668.451          33.000    30352359.652   122216355.594        1278.435          40.000  
E04  31158949.375   163741380.138        2380.081          37.000    31158949.718   125464177.535        1823.812          41.000  
E26  29488683.056   154964283.606       -2495.265          42.000    29488687.658   118738998.568       -1912.044          48.000  
E14  29881485.715   157028273.465        -579.719          43.000    29881487.899   120320376.970        -444.219          46.000  
E07                                                                  31302651.789                3      -2585.422          21.000  
G27                                                                  27693653.590                3      -3486.066          19.000  
G17                                                                  26756762.512                        1903.990          28.000  
> 2024 04 17 11 46 00.0110000  0 26                     
G08  25236211.111   132617188.404       -3793.425          45.000    25236211.559   103338079.166       -2955.844          45.000  
G31  27389732.937   143934034.540        1445.572          47.000    27389731.794   112156363.508        1126.615          43.000  
E19  27029679.754   142041881.934         836.595          43.000    27029679.745   108837295.569         640.925          47.000  
G28  27001203.610   141892264.507         448.431          42.000    27001200.758   110565380.129         349.463          43.000  
R03  25623979.664   137167073.316        2833.505          37.000    25623976.874   106685703.362        2203.850          45.000  
R17  23348907.685   124944939.433        1931.852          51.000    23348903.618    97179179.689        1502.396          50.000  
R02  22539952.311   120277528.521        -122.707          53.000    22539950.415    93549193.004         -95.458          49.000  
G03  24742611.713   130023276.400         490.983          49.000    24742609.645   101316831.879         382.556          45.000  
G21  22875095.979   120209443.366        -488.166          46.000                                                                  
S31  42022062.925   220827515.825        -635.456          44.000  
S33  42975503.042   225837927.737        -634.986          43.000  
E33  26858166.626   141140720.500        -812.168          47.000    26858167.188   108146764.378        -622.331          53.000  
R01  23828986.014   127379540.669       -3589.307          47.000    23828985.144    99072983.983       -2791.774          45.000  
R23  26814925.631   143441718.292       -4421.398          45.000                                                                  
R24  22869739.832   122294856.077       -2003.997          53.000    22869734.474    95118180.845       -1558.702          46.000  
G02  23367644.194   122797804.990         276.124          48.000                                                                  
G32  27123067.793   142532644.288       -4019.519          49.000    27123067.704   111064412.158       -3132.056          42.000  
E12  28519416.545   149870492.596        1256.323          44.000    28519414.911   114835860.194         962.812          47.000  
G04  25900079.878   136105805.271        2808.529          46.000    25900077.997   106056407.730        2188.306          46.000  
E10  30342837.246   159452746.063        1667.231          33.000    30342838.775   122178016.009        1277.712          41.000  
E04  31145374.777   163670047.432        2375.660          38.000    31145376.104   125409519.882        1820.421          42.000  
E26  29502952.513   155039271.024       -2503.553          43.000    29502957.069   118796456.256       -1918.352          48.000  
E14  29884801.158   157045695.356        -581.708          43.000    29884803.436   120333725.980        -445.622          46.000  
E07                                                                  31321944.185                3      -2594.028          17.000  
G27                                                                  27719200.422                3      -3473.083          11.000  
G17                                                                  26742849.967                        1893.405          26.000  
> 2024 04 17 11 46 30.0110000  0 24                     
G08  25257901.474   132731171.470       -3806.112          45.000    25257901.339   103426896.967       -2965.672          43.000  
G31  27381501.559   143890778.786        1437.545          47.000    27381500.043   112122657.763        1120.186          42.000  
E19  27024943.142   142016990.555         822.163          43.000    27024943.136   108818222.895         630.013          47.000  
G28  26998689.031   141879049.302         431.586          41.000    26998687.347   110555082.509         336.584          44.000  
R03  25608137.215   137082272.950        2819.514          38.000    25608135.610   106619747.520        2192.792          45.000  
R17  23338122.186   124887227.027        1915.090          52.000    23338118.455    97134292.216        1489.573          50.000  
R02  22540708.879   120281566.823        -146.993          52.000    22540706.959    93552333.876        -114.393          49.000  
G03  24739834.298   130008677.888         481.855          49.000    24739831.738   101305456.357         375.261          46.000  
G21  22877938.081   120224376.853        -507.988          46.000                                                                  
S31  42025695.781   220846606.146        -637.534          44.000  
S33  42979133.842   225857007.306        -637.560          42.000  
E33  26862829.073   141165217.757        -821.676          48.000    26862828.937   108165534.939        -629.515          53.000  
R01  23849163.552   127487398.171       -3601.810          48.000    23849162.559    99156873.014       -2801.412          45.000  
R23  26839751.583   143574516.143       -4432.388          46.000                                                                  
R24  22881047.079   122355319.974       -2027.538          53.000    22881041.336    95165208.241       -1576.977          46.000  
G02  23366114.506   122789766.379         259.311          49.000                                                                  
G32  27146040.420   142653363.791       -4029.028          48.000    27146040.251   111158479.079       -3139.526          43.000  
E12  28512252.800   149832848.837        1252.355          44.000    28512251.379   114807016.222         959.692          47.000  
G04  25884074.925   136021698.912        2797.994          47.000    25884072.819   105990870.263        2180.366          45.000  
E10  30333321.535   159402729.635        1666.778          34.000    30333321.615   122139691.623        1276.978          41.000  
E04  31131823.238   163598829.785        2371.327          36.000    31131823.359   125354950.386        1817.099          41.000  
E26  29517266.821   155114491.300       -2511.739          43.000    29517271.082   118854092.390       -1924.541          48.000  
E14  29888125.725   157063163.762        -583.567          43.000    29888127.736   120347110.651        -446.984          46.000  
G17                                                                  26729019.168                        1881.940          29.000  
> 2024 04 17 11 47 00.0110000  0 24                     
G08  25279661.665   132845520.713       -3817.493          46.000    25279660.967   103516000.134       -2974.784          43.000  
G31  27373315.914   143847764.094        1429.826          47.000    27373314.295   112089139.868        1114.049          42.000  
E19  27020287.303   141992526.952         808.435          43.000    27020287.843   108799477.997         619.451          48.000  
G28  26996268.568   141866330.081         416.095          41.000    26996267.495   110545171.417         323.840          45.000  
R03  25592373.625   136997890.712        2805.820          39.000    25592372.793   106554116.750        2182.230          46.000  
R17  23327430.423   124830012.208        1898.875          51.000    23327426.403    97089791.766        1476.872          49.000  
R02  22541600.405   120286326.283        -170.579          52.000    22541598.449    93556035.628        -132.694          48.000  
G03  24737107.497   129994348.916         473.076          49.000    24737105.530   101294290.870         368.682          46.000  
G21  22880893.143   120239905.100        -527.496          47.000                                                                  
S31  42029341.371   220865763.515        -639.694          44.000  
S33  42982777.500   225876155.105        -639.251          42.000  
E33  26867543.872   141189998.958        -830.651          48.000    26867544.746   108184523.074        -636.518          53.000  
R01  23869410.609   127595626.214       -3613.624          48.000    23869410.202    99241050.274       -2810.597          46.000  
R23  26864637.379   143707633.249       -4442.266          46.000                                                                  
R24  22892485.440   122416489.718       -2050.693          53.000    22892480.849    95212784.614       -1595.002          46.000  
G02  23364681.109   122782231.771         242.833          49.000                                                                  
G32  27169068.014   142774371.805       -4038.257          48.000    27169067.165   111252770.816       -3146.436          42.000  
E12  28505112.167   149795324.300        1248.735          44.000    28505110.543   114778263.605         956.983          47.000  
G04  25868130.099   135937906.479        2787.887          47.000    25868127.489   105925577.441        2172.366          45.000  
E10  30323811.488   159352741.781        1665.954          34.000    30323809.588   122101389.097        1276.634          41.000  
E04  31118295.267   163527736.529        2367.543          37.000    31118295.264   125300476.253        1814.151          41.000  
E26  29531628.539   155189952.481       -2519.328          45.000    29531630.630   118911913.090       -1930.346          47.000  
E14  29891459.906   157080686.754        -584.888          43.000    29891462.614   120360537.168        -448.343          46.000  
G17                                                                  26715277.291                        1869.851          31.000  
> 2024 04 17 11 47 30.0110000  0 24                     
G08  25301489.778   132960224.885       -3829.544          47.000    25301489.306   103605379.853       -2984.181          44.000  
G31  27365176.170   143804984.878        1421.647          47.000    27365173.677   112055805.473        1107.763          41.000  
E19  27015712.544   141968483.568         794.084          43.000    27015712.955   108781055.096         608.432          48.000  
G28  26993942.378   141854100.768         398.932          40.000    26993941.170   110535642.023         310.822          45.000  
R03  25576689.593   136913919.667        2791.877          43.000    25576687.498   106488805.853        2171.411          47.000  
R17  23316831.488   124773290.223        1882.092          51.000    23316826.503    97045674.627        1463.900          49.000  
R02  22542625.350   120291797.508        -194.663          51.000    22542624.182    93560290.945        -151.337          49.000  
G03  24734430.502   129980280.695         464.299          49.000    24734428.484   101283328.579         361.711          46.000  
G21  22883959.730   120256021.363        -547.231          47.000                                                                  
S31  42032998.105   220884980.414        -641.975          44.000  
S33  42986432.171   225895360.806        -641.325          43.000  
E33  26872313.291   141215056.783        -840.225          49.000    26872313.069   108203723.162        -643.815          53.000  
R01  23889722.750   127704212.777       -3625.844          47.000    23889723.135    99325506.409       -2820.119          46.000  
R23  26889580.074   143841059.082       -4453.012          48.000                                                                  
R24  22904055.034   122478356.508       -2074.248          53.000    22904050.509    95260903.148       -1613.517          46.000  
G02  23363341.855   122775194.912         225.848          48.000                                                                  
G32  27192147.478   142895657.303       -4047.760          45.000    27192147.498   111347278.789       -3154.358          44.000  
E12  28497992.864   149757911.969        1244.805          44.000    28497991.212   114749596.966         953.803          47.000  
G04  25852242.997   135854422.235        2777.403          46.000    25852240.735   105860524.737        2164.131          44.000  
E10  30314304.271   159302774.988        1664.662          33.000    30314301.002   122063102.698        1275.641          40.000  
E04  31104787.612   163456760.885        2363.629          36.000    31104789.475   125246092.244        1811.024          41.000  
E26  29546032.597   155265646.408       -2527.377          45.000    29546034.561   118969912.165       -1936.586          47.000  
E14  29894803.046   157098256.173        -586.718          43.000    29894805.953   120373999.238        -449.626          46.000  
G17                                                                  26701618.068                        1858.676          32.000  
> 2024 04 17 11 48 00.0110000  0 24                     
G08  25323384.707   133075281.406       -3840.804          48.000    25323383.536   103695034.136       -2992.805          44.000  
G31  27357081.127   143762444.340        1414.262          47.000    27357078.503   112022657.030        1101.930          41.000  
E19  27011217.404   141944861.623         780.599          43.000    27011217.786   108762955.119         598.090          48.000  
G28  26991706.621   141842363.744         382.855          36.000    26991706.882   110526496.263         298.578          44.000  
R03  25561081.731   136830362.115        2778.457          44.000    25561078.546   106423816.586        2161.044          46.000  
R17  23306324.846   124717065.295        1865.979          52.000    23306319.712    97001944.094        1451.344          49.000  
R02  22543784.479   120297979.788        -217.753          52.000    22543783.119    93565099.359        -169.307          49.000  
G03  24731802.896   129966473.075         455.964          49.000    24731801.258   101272569.339         355.405          47.000  
G21  22887138.673   120272727.317        -566.491          47.000                                                                  
S31  42036666.713   220904257.292        -643.451          45.000  
S33  42990098.574   225914627.294        -643.010          43.000  
E33  26877134.144   141240392.580        -848.982          49.000    26877134.229   108223136.243        -650.517          52.000  
R01  23910102.779   127813154.882       -3636.964          48.000    23910102.368    99410239.058       -2828.853          45.000  
R23  26914580.267   143974791.630       -4462.716          47.000                                                                  
R24  22915755.504   122540921.020       -2096.958          53.000    22915750.320    95309564.348       -1630.875          46.000  
G02  23362098.237   122768657.695         209.692          49.000                                                                  
G32  27215279.763   143017217.955       -4056.470          43.000    27215280.142   111442001.086       -3160.840          44.000  
E12  28490895.307   149720613.427        1241.635          45.000    28490893.737   114721017.510         951.324          47.000  
G04  25836415.206   135771249.023        2767.406          45.000    25836413.563   105795714.396        2156.349          44.000  
E10  30304797.927   159252830.398        1664.566          32.000    30304796.437   122024833.326        1275.816          39.000  
E04  31091305.055   163385904.839        2359.927          37.000    31091305.893   125191799.845        1808.389          41.000  
E26  29560481.358   155341573.603       -2534.523          44.000    29560483.789   119028089.950       -1942.009          48.000  
G17  26688054.037                3       2371.479          27.000    26688040.437   109283018.134        1847.061          32.000  
E14  29898155.421   157115872.518        -587.758          43.000    29898158.163   120387497.292        -450.544          46.000  
> 2024 04 17 11 48 30.0110000  0 24                     
G08  25345344.055   133190678.571       -3852.208          48.000    25345343.258   103784953.861       -3001.755          44.000  
G31  27349030.229   143720137.012        1406.230          46.000    27349027.332   111989690.261        1095.837          41.000  
E19  27006801.114   141921653.032         766.863          44.000    27006801.203   108745171.885         587.435          48.000  
G28  26989564.651   141831112.537         366.846          39.000    26989566.230   110517729.086         285.895          44.000  
R03  25545548.039   136747211.819        2764.815          44.000    25545545.694   106359144.104        2150.495          47.000  
R17  23295910.187   124661332.412        1849.479          52.000    23295904.382    96958596.295        1438.519          49.000  
R02  22545074.230   120304863.464        -241.113          52.000    22545072.424    93570453.296        -187.510          48.000  
G03  24729222.514   129952916.842         447.775          48.000    24729221.414   101262006.007         348.861          46.000  
G21  22890429.122   120290015.734        -586.045          48.000                                                                  
S31  42040344.757   220923584.705        -645.089          45.000  
S33  42993774.852   225933945.476        -644.768          43.000  
E33  26882007.554   141265998.732        -857.966          49.000    26882006.847   108242756.481        -657.472          52.000  
R01  23930548.057   127922440.292       -3648.517          50.000    23930546.041    99495238.698       -2837.566          45.000  
R23  26939635.920   144108820.001       -4472.435          41.000                                                                  
R24  22927584.649   122604174.153       -2119.867          54.000    22927579.191    95358761.144       -1648.770          46.000  
G02  23360948.132   122762613.821         193.180          49.000                                                                  
G32  27238462.595   143139042.350       -4065.082          43.000    27238462.206   111536928.942       -3167.639          43.000  
E12  28483817.463   149683420.986        1238.061          44.000    28483816.430   114692519.353         948.507          47.000  
G04  25820646.170   135688380.701        2757.265          46.000    25820643.895   105731141.620        2148.779          44.000  
E10  30295292.565                        1664.224          32.000    30295294.215   121986574.983        1275.131          38.000  
E04  31077843.358   163315161.124        2355.906          35.000    31077843.698   125137593.518        1805.482          40.000  
E26  29574972.981   155417725.519       -2542.077          44.000    29574975.183   119086439.904       -1947.828          48.000  
G17  26674549.247                        2356.186          27.000    26674545.689   109227757.682        1836.551          31.000  
E14  29901514.388   157133527.245        -589.011          43.000    29901518.012   120401024.762        -451.499          46.000  
> 2024 04 17 11 49 00.0110000  0 24                     
G08  25367366.828   133306409.761       -3863.523          48.000    25367366.069   103875133.872       -3010.710          44.000  
G31  27341022.913   143678061.638        1398.352          45.000    27341021.577   111956904.260        1089.581          42.000  
E19  27002463.377   141898854.882         752.753          44.000    27002462.713   108727703.125         576.729          47.000  
G28  26987516.189   141820345.623         351.154          37.000    26987515.699   110509339.235         273.199          42.000  
R03  25530092.757   136664466.579        2751.163          46.000    25530088.258   106294786.658        2139.718          47.000  
R17  23285587.178   124606091.633        1832.818          51.000    23285580.829    96915631.231        1425.467          49.000  
R02  22546495.329   120312443.717        -264.512          53.000    22546492.671    93576349.010        -205.674          48.000  
G03  24726689.991   129939607.775         439.241          48.000    24726688.423   101251635.234         342.280          45.000  
G21  22893829.529   120307884.517        -605.541          48.000                                                                  
S31  42044031.817   220942960.289        -646.792          45.000  
S33  42997460.236   225953310.042        -646.654          43.000  
E33  26886931.103   141291872.501        -867.302          49.000    26886930.445   108262581.774        -664.482          52.000  
R01  23951054.630   128032061.901       -3659.955          49.000    23951054.080    99580499.830       -2846.594          46.000  
R23  26964745.741   144243138.160       -4482.496          36.000                                                                  
R24  22939540.851   122668112.031       -2142.990          54.000    22939536.238    95408490.502       -1666.725          46.000  
G02  23359891.549   122757061.100         176.697          49.000                                                                  
G32  27261694.026   143261124.131       -4074.188          39.000    27261693.694   111632057.332       -3174.493          44.000  
E12  28476760.023   149646332.201        1234.163          44.000    28476758.901   114664100.606         945.790          48.000  
G04  25804934.903   135605816.144        2746.860          47.000    25804932.344   105666805.568        2140.244          45.000  
E10  30285792.215   159152981.557        1662.799          32.000    30285794.015   121948325.462        1274.459          37.000  
E04  31064402.012   163244527.585        2352.523          34.000    31064402.303   125083471.607        1802.423          41.000  
E26  29589507.165   155494098.578       -2549.740          44.000    29589508.139   119144959.317       -1953.682          47.000  
E14  29904880.510   157151216.855        -590.573          42.000    29904884.652   120414578.922        -452.499          46.000  
G17                                                                  26661131.454   109172834.245        1825.280          32.000  
> 2024 04 17 11 49 30.0110000  0 24                     
G08  25389453.060   133422474.389       -3874.412          47.000    25389453.334   103965573.680       -3019.056          45.000  
G31  27333060.549   143636223.505        1390.719          43.000    27333059.484   111924303.123        1083.326          42.000  
E19  26998203.974   141876470.421         739.194          44.000    26998203.355   108710551.351         566.472          48.000  
G28  26985561.322   141810067.579         334.558          39.000    26985559.335   110501330.261         260.468          42.000  
R03  25514712.611   136582131.132        2737.600          48.000    25514707.188   106230747.953        2129.226          45.000  
R17  23275356.452   124551349.250        1816.305          51.000    23275350.950    96873053.783        1412.707          49.000  
R02  22548047.144   120320721.875        -287.618          53.000    22548044.992    93582787.534        -223.658          49.000  
G03  24724204.914   129926547.833         431.050          48.000    24724202.966   101241458.588         335.891          45.000  
G21  22897340.555   120326337.546        -624.839          48.000                                                                  
S31  42047728.344   220962386.482        -648.675          45.000  
S33  43001154.701   225972725.694        -648.083          43.000  
E33  26891906.020   141318017.356        -876.085          49.000    26891905.782   108282614.782        -671.306          52.000  
R01  23971625.058   128142018.724       -3670.919          51.000    23971624.402    99666021.709       -2855.017          47.000  
R23  26989909.968   144377746.625       -4491.803          32.000                                                                  
R24  22951625.769   122732736.536       -2165.649          53.000    22951620.942    95458753.916       -1684.448          46.000  
G02  23358929.307   122752003.879         160.199          49.000                                                                  
G32  27284974.673   143383462.929       -4082.172          37.000    27284974.361   111727386.031       -3181.066          44.000  
E12  28469722.908   149609350.761        1230.788          44.000    28469721.646   114635764.129         943.072          48.000  
G04  25789282.449   135523560.234        2736.534          46.000    25789279.969   105602710.016        2132.327          45.000  
E10  30276290.995   159103077.637        1662.935          33.000    30276297.512   121910087.273        1274.318          37.000  
E04  31050980.937   163174008.069        2348.432          32.000    31050983.283   125029437.114        1799.693          42.000  
E26  29604081.163   155570695.295       -2557.149          43.000    29604084.036   119203650.145       -1959.284          47.000  
E14  29908254.030   157168943.877        -591.469          42.000    29908258.313   120428161.759        -453.377          46.000  
G17                                                                  26647802.322                        1813.959          30.000  
> 2024 04 17 11 50 00.0110000  0 24                     
G08  25411601.978   133538867.806       -3885.514          47.000    25411602.169   104056269.697       -3027.825          45.000  
G31  27325143.836   143594623.850        1382.345          44.000    27325143.911   111891887.835        1077.215          42.000  
E19  26994022.876   141854498.413         725.330          44.000    26994022.242   108693715.632         555.631          48.000  
G28  26983696.191   141800278.637         317.816          36.000    26983696.441   110493702.488         247.455          41.000  
R03  25499407.961   136500205.473        2723.748          47.000    25499403.251   106167027.980        2118.592          44.000  
R17  23265220.282   124497107.271        1799.473          52.000    23265214.965    96830865.524        1399.553          49.000  
R02  22549728.599   120329695.123        -310.988          52.000    22549727.096    93589766.671        -241.863          49.000  
G03  24721766.370   129913734.759         422.850          47.000    24721764.456   101231474.323         329.463          45.000  
G21  22900963.224   120345374.587        -644.630          48.000                                                                  
S31  42051434.280   220981860.323        -650.075          45.000  
S33  43004858.679   225992190.185        -649.941          43.000  
E33  26896932.664   141344432.611        -885.196          49.000    26896932.260   108302854.979        -678.375          52.000  
R01  23992256.639   128252305.636       -3681.964          50.000    23992254.854    99751800.367       -2863.635          45.000  
R23  27015127.332                       -4501.508          29.000                                                                  
R24  22963838.812   122798046.249       -2188.665          53.000    22963834.780    95509550.271       -1702.306          46.000  
G02  23358061.273   122747442.452         143.410          50.000                                                                  
G32  27308303.303   143506054.523       -4090.889          36.000    27308303.127   111822911.667       -3187.676          43.000  
E12  28462706.136   149572476.168        1227.174          44.000    28462705.050   114607509.504         940.268          48.000  
G04  25773689.106   135441613.827        2726.155          46.000    25773687.112   105538855.622        2124.163          47.000  
E10  30266807.328   159053187.672        1662.839          34.000    30266804.383   121871859.803        1273.654          37.000  
E04  31037581.515   163103602.548        2344.862          31.000    31037585.649   124975489.893        1796.603          41.000  
E26  29618698.357   155647514.152       -2564.448          42.000    29618702.446   119262511.184       -1965.031          47.000  
G17  26634561.988                3       2312.516          31.000    26634554.167                        1802.325          28.000  
E14  29911634.574   157186706.793        -592.792          42.000    29911638.676   120441772.085        -454.417          46.000  
> 2024 04 17 11 50 30.0110000  0 24                     
G08  25433812.751   133655582.505       -3895.937          48.000    25433812.297   104147216.040       -3035.875          44.000  
G31  27317273.489   143553261.101        1374.623          46.000    27317273.320   111859657.125        1071.024          42.000  
E19  26989919.331   141832935.069         711.915          44.000    26989918.800   108677193.050         545.403          47.000  
G28  26981927.630   141790976.576         302.124          38.000    26981927.354   110486454.068         235.132          43.000  
R03  25484178.867   136418687.300        2710.413          46.000    25484175.504   106103624.948        2108.026          44.000  
R17  23255176.897   124443365.047        1782.912          52.000    23255172.067    96789065.986        1386.715          50.000  
R02  22551538.796   120339357.992        -333.698          51.000    22551537.987    93597282.180        -259.583          49.000  
G03  24719374.802   129901163.599         414.810          48.000    24719372.822   101221678.578         323.112          46.000  
G21  22904696.477   120364992.432        -663.713          48.000                                                                  
S31  42055148.691   221001378.730        -651.499          45.000  
S33  43008571.514   226011698.360        -651.220          43.000  
E33  26902009.544   141371114.783        -893.964          48.000    26902009.842   108323299.695        -684.970          52.000  
R01  24012948.513   128362914.550       -3692.340          50.000    24012946.294    99837829.404       -2871.875          45.000  
R23  27040396.573                3      -4511.617          23.000                                                                  
R24  22976179.659   122864036.320       -2211.176          53.000    22976175.126    95560875.808       -1719.744          46.000  
G02  23357286.794   122743374.115         127.344          49.000                                                                  
G32  27331676.775   143628891.674       -4098.582          33.000    27331678.646   111918628.632       -3193.883          44.000  
E12  28455709.002   149535705.138        1223.879          45.000    28455707.893   114579334.250         937.765          48.000  
G04  25758152.927   135359974.907        2716.037          46.000    25758151.932   105475240.874        2116.428          47.000  
E10  30257317.521   159003308.048        1662.608          34.000    30257312.735   121833640.230        1273.803          36.000  
E04  31024200.173                        2341.273          28.000    31024209.509   124921627.695        1793.734          42.000  
E26  29633358.151   155724550.820       -2571.772          42.000    29633362.806   119321539.080       -1970.451          48.000  
G17  26621400.609   139896394.1801       2297.884          33.000    26621391.424                        1791.021          28.000  
E14  29915021.489   157204501.231        -593.885          42.000    29915024.869   120455406.568        -454.936          46.000  
> 2024 04 17 11 51 00.0110000  0 24                     
G08  25456083.471   133772614.885       -3906.413          47.000    25456082.549   104238409.935       -3044.007          44.000  
G31  27309448.777   143512137.592        1366.741          47.000    27309447.598   111827612.823        1065.152          42.000  
E19  26985893.702   141811780.570         698.420          44.000    26985893.168   108660983.727         535.056          47.000  
G28  26980251.587   141782162.741         285.532          39.000    26980250.556   110479586.116         222.304          42.000  
R03  25469026.567   136337577.855        2696.847          47.000    25469025.240   106040539.758        2097.551          43.000  
R17  23245228.585   124390125.414        1766.238          53.000    23245223.328    96747657.344        1373.784          49.000  
R02  22553478.430   120349708.472        -356.478          52.000    22553477.740    93605332.542        -277.215          49.000  
G03  24717028.343   129888833.132         406.958          48.000    24717027.518   101212070.393         317.031          47.000  
G21  22908541.276   120385191.908        -682.928          48.000                                                                  
S31  42058871.254   221020940.748        -652.846          45.000  
S33  43012292.033   226031250.029        -652.648          43.000  
E33  26907138.149   141398064.188        -902.747          48.000    26907138.241   108343949.175        -691.780          52.000  
R01  24033699.343   128473841.477       -3702.912          50.000    24033697.532    99924105.808       -2879.980          45.000  
R23  27065714.253                3      -4519.137          17.000                                                                  
R24  22988648.056   122930705.665       -2233.679          53.000    22988642.669    95612729.717       -1737.291          46.000  
G02  23356606.946   122739800.036         110.760          49.000                                                                  
G32  27355098.920   143751970.986       -4106.852          37.000    27355100.728   112014534.312       -3199.930          44.000  
E12  28448731.104   149499038.194        1220.436          44.000    28448730.338   114551238.755         935.150          48.000  
G04  25742677.001   135278645.389        2705.794          46.000    25742675.166   105411867.188        2108.355          46.000  
E10  30247822.275   158953438.922        1661.957          32.000    30247823.188   121795428.710        1273.695          37.000  
E04  31010847.377   162963124.959        2337.244          31.000    31010854.041   124867851.064        1791.292          42.000  
E26  29648060.667   155801804.713       -2578.831          43.000    29648063.846   119380733.407       -1975.892          49.000  
G17  26608320.598                1       2283.702          32.000    26608309.294                        1779.722          28.000  
E14  29918414.599   157222326.658        -594.659          42.000    29918417.206   120469064.822        -455.854          46.000  
> 2024 04 17 11 51 30.0110000  0 25                     
G08  25478413.201   133889957.682       -3916.639          47.000    25478412.009   104329845.707       -3051.963          44.000  
G31  27301668.859   143471251.834        1358.797          48.000    27301667.500   111795753.827        1058.650          42.000  
E19  26981945.883   141791031.405         684.878          45.000    26981945.132   108645084.969         524.786          48.000  
G28  26978667.959   141773835.007         269.471          38.000    26978665.677   110473096.855         210.225          42.000  
R18  26994873.566                3       3137.943          13.000                                                                  
R03  25453948.317   136256874.866        2683.365          46.000    25453948.260   105977770.702        2087.160          42.000  
R17  23235374.208   124337388.189        1749.573          53.000    23235368.402    96706639.468        1360.667          50.000  
R02  22555546.958   120360740.918        -379.154          53.000    22555544.653    93613913.291        -294.856          49.000  
G03  24714727.458   129876738.639         399.287          48.000    24714726.624   101202646.067         311.090          47.000  
G21  22912495.102   120405970.122        -702.207          48.000                                                                  
S31  42062601.281   221040542.355        -654.076          45.000  
S33  43016020.156   226050841.342        -653.555          43.000  
E33  26912317.123   141425277.649        -911.471          48.000    26912316.746   108364800.969        -698.398          51.000  
R01  24054508.685   128585078.677       -3713.074          50.000    24054506.810   100010623.551       -2888.001          46.000  
R23  27091093.607                3      -4526.769          20.000                                                                  
R24  23001241.327   122998049.751       -2256.075          53.000    23001237.401    95665108.328       -1754.530          47.000  
G02  23356019.993   122736717.917          94.487          49.000                                                                  
G32  27378564.465   143875285.463       -4114.023          34.000    27378567.438   112110623.375       -3206.251          44.000  
E12  28441773.005   149462472.384        1217.163          44.000    28441771.967   114523220.732         932.664          48.000  
G04  25727259.132   135197623.510        2695.595          46.000    25727256.998   105348733.210        2100.519          46.000  
E10  30238334.990                        1661.253          31.000    30238335.044   121757222.740        1273.393          37.000  
E04  30997513.733   162893050.991        2333.896          32.000    30997519.528   124814158.001        1788.503          42.000  
E26  29662802.626   155879271.674       -2585.892          44.000    29662805.921   119440091.020       -1981.426          49.000  
G17  26595321.457   139759377.0671       2268.417          31.000    26595315.564                        1768.661          31.000  
E14  29921811.981   157240179.021        -595.409          42.000    29921814.739   120482743.682        -456.241          46.000  
> 2024 04 17 11 52 00.0110000  0 23                     
G08  25500801.465   134007610.076       -3926.952          47.000    25500800.415   104421522.738       -3059.993          42.000  
G31  27293934.677   143430608.669        1350.755          47.000    27293932.844   111764083.852        1052.617          40.000  
E19  26978074.420   141770690.302         671.245          44.000    26978074.624   108629498.898         514.198          48.000  
G28  26977174.367   141765997.395         252.957          35.000    26977175.169   110466989.612         197.401          42.000  
R03  25438949.246   136176582.202        2669.528          47.000    25438949.667   105915320.789        2076.243          42.000  
R17  23225613.222   124285159.316        1732.400          53.000    23225608.127    96666016.970        1347.428          49.000  
R02  22557741.879   120372456.675        -401.926          52.000    22557740.234    93623025.505        -312.662          49.000  
G03  24712470.947   129864881.798         391.063          47.000    24712470.442   101193406.922         304.773          47.000  
G21  22916559.482   120427330.710        -721.789          48.000                                                                  
S31  42066339.412   221060185.560        -655.691          45.000  
S33  43019756.067   226070474.357        -654.891          43.000  
E33  26917545.994   141452758.258        -920.604          48.000    26917546.397   108385857.474        -705.383          51.000  
R01  24075375.841   128696624.986       -3723.480          50.000    24075374.160   100097381.663       -2895.990          46.000  
R24  23013961.280   123066070.572       -2278.677          53.000    23013957.459    95718013.305       -1772.446          46.000  
G02  23355527.460   122734131.817          77.868          48.000                                                                  
G32  27402074.870   143998834.893       -4122.259          34.000    27402078.313   112206895.355       -3212.215          44.000  
E12  28434834.782   149426011.070        1213.671          45.000    28434833.682   114495282.790         929.895          48.000  
G04  25711900.776   135116913.924        2685.070          46.000    25711898.186   105285842.592        2092.157          47.000  
E10  30228836.960                3       1660.903          26.000    30228848.653   121719024.552        1273.113          37.000  
E04  30984203.167   162823089.746        2330.368          35.000    30984206.341   124760551.276        1785.539          42.000  
E26  29677585.795   155956953.964       -2593.045          44.000    29677588.411   119499613.623       -1986.858          49.000  
G17  26582409.897   139691529.129        2254.039          34.000    26582407.672                        1756.132          31.000  
E14  29925215.109   157258060.581        -596.599          42.000    29925218.028   120496444.915        -457.244          47.000  
> 2024 04 17 11 52 30.0110000  0 23                     
G08  25523247.431   134125560.296       -3937.010          47.000    25523245.448   104513431.856       -3067.544          42.000  
G31  27286244.690   143390202.269        1342.602          46.000    27286242.490   111732598.335        1046.558          40.000  
E19  26974280.072   141750749.117         657.899          44.000    26974280.002   108614219.257         504.085          48.000  
G28  26975774.728   141758643.304         236.952          37.000    26975774.875   110461259.102         184.377          41.000  
R03  25424025.201   136096693.368        2655.883          47.000    25424025.874   105853184.977        2065.574          40.000  
R17  23215946.659   124233433.689        1715.574          52.000    23215942.256    96625785.873        1334.280          50.000  
R02  22560062.993   120384845.468        -424.375          51.000    22560062.686    93632661.176        -330.145          49.000  
G03  24710257.501   129853253.239         383.716          47.000    24710256.964   101184345.680         298.888          47.000  
G21  22920733.987   120449266.162        -740.946          48.000                                                                  
S31  42070083.800   221079862.084        -656.645          45.000  
S33  43023498.700   226090141.022        -656.326          43.000  
E33  26922824.913   141480498.284        -929.194          48.000    26922825.234   108407112.745        -712.059          51.000  
R01  24096299.045   128808468.202       -3733.246          50.000    24096297.043   100184370.752       -2903.546          46.000  
R24  23026806.601   123134758.780       -2300.990          53.000    23026802.170    95771437.378       -1789.755          46.000  
G02  23355128.587   122732034.468          61.431          49.000                                                                  
G32  27425628.584   144122607.707       -4130.122          34.000    27425632.192   112303341.385       -3218.048          43.000  
E12  28427915.072   149389646.684        1210.458          45.000    28427913.897   114467419.128         927.371          48.000  
G04  25696599.776   135036510.283        2674.781          45.000    25696597.542   105223190.400        2084.145          47.000  
E10  30219380.031                3       1661.910          26.000    30219362.878   121680828.138        1272.587          37.000  
E04  30970910.432   162753233.868        2327.036          35.000    30970913.285   124707025.295        1782.629          42.000  
E26  29692407.428   156034842.923       -2600.028          44.000    29692410.285   119559294.583       -1992.271          49.000  
G17  26569582.853   139624118.530        2239.454          35.000    26569581.752                        1745.284          30.000  
E14  29928621.746   157275962.712        -597.286          42.000    29928625.125   120510161.889        -457.645          47.000  
> 2024 04 17 11 53 00.0110000  0 23                     
G08  25545748.777   134243805.756       -3946.536          47.000    25545747.819   104605571.051       -3075.168          43.000  
G31  27278600.498   143350035.913        1334.814          46.000    27278599.126   111701299.935        1040.222          39.000  
E19  26970561.049   141731208.623         644.559          44.000    26970561.742   108599246.638         493.869          49.000  
G28  26974466.903   141751775.077         220.949          35.000    26974468.769   110455907.219         172.181          41.000  
R03  25409177.704   136017210.300        2642.610          45.000    25409175.034   105791364.805        2055.280          39.000  
R17  23206375.267   124182215.375        1698.667          53.000    23206370.961    96585949.375        1321.253          50.000  
R02  22562510.450   120397906.524        -446.688          51.000    22562509.972    93642819.740        -347.433          49.000  
G03  24708088.338   129841852.948         376.049          47.000    24708087.049   101175462.270         293.029          46.000  
G21  22925017.425   120471778.147        -760.190          48.000                                                                  
S31  42073834.454   221099572.165        -657.466          45.000  
S33  43027247.467   226109839.565        -657.383          43.000  
E33  26928152.851   141508499.088        -937.870          48.000    26928153.500   108428567.822        -718.556          51.000  
R01  24117275.848   128920605.267       -3742.877          50.000    24117274.390   100271588.379       -2911.078          46.000  
R24  23039776.432   123204114.379       -2323.093          53.000    23039770.600    95825380.519       -1806.809          44.000  
G02  23354822.927   122730428.353          45.282          48.000                                                                  
G32  27449224.248   144246601.524       -4136.744          39.000    27449227.330   112399959.676       -3223.511          43.000  
E12  28421013.773   149353380.999        1206.984          44.000    28421012.837   114439631.088         924.770          48.000  
G04  25681358.501   134956415.554        2664.543          47.000    25681355.722   105160778.897        2076.364          46.000  
E10  30209870.361                        1661.336          27.000    30209877.794   121642634.490        1272.968          37.000  
E04  30957636.081   162683485.365        2323.139          34.000    30957640.536   124653581.523        1779.946          42.000  
E26  29707268.481   156112939.089       -2606.744          44.000    29707271.093   119619134.296       -1997.454          48.000  
G17  26556842.507   139557149.773        2224.639          38.000    26556843.137                        1733.836          30.000  
E14  29932032.328   157293885.961        -597.876          41.000    29932036.016   120523895.057        -458.173          47.000  
> 2024 04 17 11 53 30.0110000  0 24                     
G08  25568305.650   134362342.934       -3956.133          46.000    25568305.308   104697937.535       -3083.002          43.000  
G31  27271004.070   143310112.039        1326.569          46.000    27271002.643   111670190.372        1033.734          41.000  
E19  26966919.320   141712069.390         630.991          44.000    26966919.755   108584581.483         483.520          49.000  
G28  26973253.690   141745394.296         203.812          36.000    26973254.183   110450935.160         159.104          40.000  
R18  26919756.492                3       3415.562          15.000                                                                  
R03  25394406.062   135938134.366        2628.868          44.000    25394403.413   105729861.266        2044.705          40.000  
R17  23196898.957   124131507.799        1681.431          52.000    23196895.469    96546510.099        1307.742          50.000  
R02  22565084.228   120411637.812        -468.951          52.000    22565082.502    93653499.580        -364.727          49.000  
G03  24705961.430   129830679.897         368.528          45.000    24705960.850   101166755.958         287.166          46.000  
G21  22929411.555   120494867.624        -779.558          48.000                                                                  
S31  42077591.614   221119315.093        -659.047          45.000  
S33  43031002.472   226129572.576        -658.620          43.000  
E33  26933531.158   141536761.204        -946.630          48.000    26933531.684   108450223.133        -725.352          51.000  
R01  24138307.575   129033032.420       -3752.552          50.000    24138306.476   100359031.614       -2918.567          46.000  
R24  23052870.176   123274136.704       -2345.426          53.000    23052864.586    95879842.210       -1824.066          45.000  
G02  23354611.403   122729314.692          28.740          49.000                                                                  
G32  27472861.619   144370813.278       -4144.271          39.000    27472863.974   112496747.863       -3229.370          43.000  
E12  28414131.681   149317214.636        1203.593          44.000    28414130.648   114411919.158         922.235          49.000  
G04  25666176.304   134876631.741        2654.102          47.000    25666173.490   105098609.692        2068.010          47.000  
E10  30200389.524                        1660.879          28.000    30200393.049   121604443.938        1272.848          37.000  
E04  30944383.480   162613845.165        2319.179          33.000    30944388.791   124600220.735        1777.354          43.000  
E26  29722168.490   156191242.003       -2613.585          43.000    29722172.004   119679132.459       -2002.811          48.000  
G17  26544183.969   139490625.076        2210.251          38.000    26544183.434                        1721.893          26.000  
E14  29935446.686   157311829.956        -598.681          41.000    29935450.775   120537644.110        -458.717          47.000  
> 2024 04 17 11 54 00.0110000  0 23                     
G08  25590916.076   134481166.467       -3965.357          45.000    25590917.008   104790527.112       -3089.921          44.000  
G31  27263452.777   143270430.919        1318.744          46.000    27263452.085   111639270.026        1027.698          42.000  
E19  26963353.608   141693329.463         618.109          44.000    26963353.398   108570222.292         473.745          49.000  
G28  26972131.856   141739500.410         188.031          34.000    26972131.963   110446342.505         146.846          39.000  
R03  25379709.009   135859465.056        2615.763          42.000    25379706.650   105668674.070        2034.368          35.000  
R17  23187519.289   124081312.350        1664.729          53.000    23187515.420    96507469.147        1294.938          50.000  
R02  22567782.942   120426035.918        -490.865          53.000    22567780.485    93664698.051        -381.613          49.000  
G03  24703878.475   129819731.137         361.450          45.000    24703877.424   101158224.423         281.743          46.000  
G21  22933915.293   120518533.495        -798.269          48.000                                                                  
S31  42081354.541   221139089.551        -659.512          45.000  
S33  43034763.756   226149336.565        -659.152          43.000  
E33  26938958.615   141565283.172        -954.987          48.000    26938959.215   108472077.562        -731.694          51.000  
R01  24159392.631   129145743.700       -3761.688          49.000    24159391.744   100446695.828       -2925.574          46.000  
R24  23066090.122   123344822.551       -2367.068          53.000    23066084.396    95934819.979       -1840.910          45.000  
G02  23354493.703   122728692.879          12.673          50.000                                                                  
G32  27496538.628   144495237.985       -4150.713          38.000    27496541.449   112593701.904       -3234.592          43.000  
E12  28407268.519   149281146.445        1200.797          44.000    28407267.248   114384282.454         920.073          49.000  
G04  25651053.168   134797158.826        2644.053          47.000    25651050.882   105036682.715        2060.284          47.000  
E10  30190931.227                        1660.982          27.000    30190907.926   121566255.302        1273.195          36.000  
E04  30931151.874   162544312.268        2316.373          34.000    30931156.746   124546942.234        1774.856          42.000  
E26  29737108.159   156269749.389       -2620.240          43.000    29737111.457   119739287.261       -2007.584          48.000  
G17  26531606.485   139424544.581        2195.634          37.000    26531613.974                1       1710.397          26.000  
E14  29938863.900   157329792.420        -599.103          40.000    29938868.917   120551407.319        -458.843          47.000  
> 2024 04 17 11 54 30.0110000  0 24                     
G08  25613582.504   134600274.782       -3975.236          46.000    25613581.944   104883338.636       -3097.747          42.000  
G31  27255948.948   143230996.807        1309.991          46.000    27255948.394   111608542.151        1020.856          42.000  
E19  26959864.157   141674990.897         604.418          44.000    26959863.622   108556170.646         463.107          48.000  
G28  26971106.178   141734096.930         171.591          38.000    26971104.625   110442131.944         133.751          41.000  
R18  26881323.037                3       3411.984          18.000                                                                  
R03  25365090.246   135781205.777        2601.432          45.000    25365088.689   105607805.813        2023.335          38.000  
R17  23178235.900   124031634.176        1647.087          53.000    23178231.391    96468830.538        1281.028          50.000  
R02  22570605.470   120441100.813        -513.535          51.000    22570603.981    93676415.166        -399.473          49.000  
G03  24701838.627   129809007.696         353.503          46.000    24701836.195   101149868.452         275.465          46.000  
G21  22938528.767   120542778.869        -818.160          47.000                                                                  
S31  42085123.739   221158895.783        -661.047          45.000  
S33  43038530.621   226169132.920        -660.722          43.000  
E33  26944437.175   141594067.512        -964.051          49.000    26944436.932   108494133.023        -738.671          51.000  
R01  24180530.634   129258737.465       -3771.442          48.000    24180529.959   100534579.764       -2933.386          46.000  
R24  23079433.631   123416173.143       -2389.722          53.000    23079426.874    95990314.781       -1858.492          45.000  
G02  23354468.213   122728566.027          -4.312          50.000                                                                  
G32  27520256.002   144619874.480       -4158.314          39.000    27520259.129   112690820.964       -3240.175          42.000  
E12  28400424.106   149245179.203        1197.023          44.000    28400422.928   114356723.091         917.275          49.000  
G04  25635989.824   134718000.809        2633.043          47.000    25635988.190   104975001.137        2051.594          47.000  
E10  30181440.926                3       1660.256          25.000    30181424.800   121528070.486        1272.648          36.000  
E04  30917940.956   162474889.785        2312.292          33.000    30917945.802   124493748.308        1771.514          42.000  
E26  29752087.750   156348462.815       -2627.403          43.000    29752090.543   119799599.925       -2013.047          48.000  
G17  26519116.471   139358912.652        2180.131          37.000    26519130.745                        1698.872          28.000  
E14  29942286.376   157347774.986        -599.991          40.000    29942290.815   120565185.923        -459.882          47.000  
> 2024 04 17 11 55 00.0110000  0 24                     
G08  25636301.843   134719664.830       -3984.167          47.000    25636300.846   104976369.705       -3104.404          42.000  
G31  27248493.028   143191812.626        1302.087          47.000    27248491.815   111578009.019        1014.740          43.000  
E19  26956450.509   141657054.212         591.358          44.000    26956450.056   108542426.911         453.222          48.000  
G28  26970171.650   141729185.685         155.818          34.000    26970170.018   110438304.909         121.245          41.000  
R03  25350547.965   135703358.768        2588.122          45.000    25350545.372   105547258.054        2013.341          36.000  
R17  23169050.238   123982476.903        1630.121          53.000    23169045.242    96430597.064        1267.820          50.000  
R02  22573553.427   120456830.928        -535.214          52.000    22573552.217    93688649.685        -416.211          49.000  
G03  24699840.859   129798509.020         346.298          46.000    24699838.023   101141687.602         270.031          45.000  
G21  22943252.829   120567604.559        -836.970          47.000                                                                  
S31  42088899.040   221178734.895        -661.427          44.000  
S33  43042304.342   226188961.413        -661.201          43.000  
E33  26949964.912   141623115.108        -972.359          49.000    26949964.605   108516390.201        -745.184          51.000  
R01  24201721.100   129372010.201       -3780.194          49.000    24201720.476   100622680.671       -2940.076          46.000  
R24  23092900.011   123488187.969       -2411.278          53.000    23092893.680    96046326.234       -1875.459          45.000  
G02  23354539.937   122728935.879         -20.403          50.000                                                                  
G32  27544013.193   144744720.069       -4164.784          41.000    27544017.924   112788102.925       -3245.154          42.000  
E12  28393599.121   149209314.178        1193.928          44.000    28393597.949   114329242.046         914.831          49.000  
G04  25620987.093   134639160.103        2622.906          48.000    25620985.213   104913566.793        2043.694          46.000  
E04  30904752.138   162405579.167        2309.046          33.000    30904756.572   124440640.070        1769.060          42.000  
E26  29767106.446   156427382.271       -2633.686          44.000    29767109.027   119860070.467       -2018.113          49.000  
G17  26506713.507   139293732.053        2164.681          35.000    26506728.912                        1686.843          29.000  
E14  29945713.530   157365777.702        -600.490          40.000    29945716.783   120578979.971        -459.921          46.000  
E10                                                                  30171943.023   121489890.137        1272.738          37.000  
R18                                                                  26861935.200                3       2655.617          17.000  
> 2024 04 17 11 55 30.0110000  0 23                     
G08  25659072.322   134839328.011       -3993.405          46.000    25659071.607   105069613.574       -3111.575          42.000  
G31  27241083.348   143152875.601        1293.713          47.000    27241083.038   111547668.496        1008.051          44.000  
E19  26953112.555   141639514.462         578.101          44.000    26953112.551   108528987.324         442.945          48.000  
G28  26969327.373   141724762.873         139.972          34.000    26969328.204   110434858.614         108.507          40.000  
R03  25336080.878   135625919.695        2574.628          45.000    25336079.172   105487027.666        2002.824          39.000  
R17  23159960.553   123933838.682        1612.564          52.000    23159955.916    96392767.298        1254.322          50.000  
R02  22576624.985   120473219.347        -557.363          52.000    22576623.766    93701396.196        -433.400          49.000  
G03  24697882.965   129788228.952         339.127          44.000    24697882.207   101133677.125         264.130          45.000  
G21  22948086.718   120593005.902        -856.391          48.000                                                                  
S31  42092679.562   221198601.323        -662.666          45.000  
S33  43046082.867   226208817.215        -662.162          43.000  
E33  26955541.769   141652421.329        -981.239          49.000    26955541.604   108538845.517        -751.734          51.000  
R01  24222962.700   129485553.147       -3789.185          49.000    24222960.701   100710991.750       -2947.186          45.000  
R24  23106490.807   123560860.654       -2433.465          53.000    23106485.627    96102849.358       -1892.756          46.000  
G02  23354704.087   122729798.743         -36.947          50.000                                                                  
G32  27567809.584   144869766.443       -4171.553          45.000    27567814.268   112885541.373       -3250.553          42.000  
E12  28386792.619   149173546.915        1190.740          44.000    28386791.703   114301835.912         912.384          49.000  
G04  25606044.245   134560633.524        2612.189          47.000    25606041.312   104852377.229        2035.617          45.000  
E10  30162463.818                        1660.751          28.000    30162462.090   121451710.637        1272.910          38.000  
E04  30891585.591   162336376.269        2305.093          36.000    30891588.114   124387614.331        1766.271          43.000  
E26  29782162.486   156506502.196       -2640.755          45.000    29782165.444   119920694.613       -2023.385          49.000  
G17  26494396.264   139229000.092        2149.592          36.000    26494414.558                1       1675.720          28.000  
E14  29949142.787   157383795.058        -600.951          41.000    29949145.500   120592785.255        -460.451          46.000  
> 2024 04 17 11 56 00.0110000  0 24                     
G08  25681896.397   134959262.973       -4002.134          48.000    25681895.070   105163069.221       -3118.200          43.000  
G31  27233721.324   143114190.109        1285.461          46.000    27233720.000   111517523.926        1001.636          43.000  
E19  26949850.810   141622373.690         565.063          44.000    26949850.944   108515853.443         432.973          48.000  
G28  26968580.330   141720832.247         123.277          36.000    26968579.928   110431795.753          95.811          39.000  
R03  25321692.168   135548891.932        2560.944          46.000    25321691.779   105427117.153        1992.138          39.000  
R17  23150969.878   123885724.935        1595.236          53.000    23150964.538    96355345.460        1240.696          50.000  
R02  22579819.932   120490266.354        -578.882          52.000    22579817.649    93714654.933        -450.202          48.000  
G03  24695968.597   129778168.702         331.882          43.000    24695967.808   101125837.873         258.901          45.000  
G21  22953031.218   120618986.229        -875.499          48.000                                                                  
S31  42096465.405   221218495.445        -663.350          45.000  
S33  43049866.751   226228701.513        -663.226          43.000  
E33  26961167.839   141681988.788        -989.684          49.000    26961167.897   108561501.027        -758.294          51.000  
R01  24244252.254   129599364.507       -3797.852          48.000    24244250.708   100799511.567       -2953.949          44.000  
R24  23120203.642   123634192.531       -2455.104          53.000    23120199.449    96159885.167       -1909.627          46.000  
G02  23354962.382   122731157.810         -53.264          49.000                                                                  
G32  27591644.126   144995012.609       -4177.788          46.000    27591647.366   112983135.549       -3255.510          41.000  
E12  28380005.725   149137880.411        1187.583          44.000    28380004.666   114274506.985         909.926          49.000  
G04  25591161.449   134482425.120        2601.887          47.000    25591158.318   104791435.605        2027.266          45.000  
E10  30152989.228                        1661.138          30.000    30152981.668   121413534.000        1272.754          40.000  
E04  30878438.549   162267284.140        2301.687          37.000    30878440.403   124334673.509        1763.653          43.000  
E26  29797256.986   156585824.275       -2647.094          45.000    29797259.962   119981473.658       -2028.342          49.000  
G17  26482164.391   139164721.531        2135.037          37.000    26482167.536                        1664.286          27.000  
E14  29952574.798   157401828.815        -601.153          41.000    29952577.692   120606603.093        -460.438          47.000  
R18                                                                  26823712.816                1       2652.921          29.000  
> 2024 04 17 11 56 30.0110000  0 24                     
G08  25704769.218   135079462.440       -4011.323          46.000    25704768.765   105256730.993       -3125.798          43.000  
G31  27226407.408   143075755.022        1276.904          45.000    27226405.778   111487574.498         995.020          43.000  
E19  26946663.426   141605628.223         551.670          43.000    26946664.793   108503022.460         422.669          49.000  
G28  26967925.942   141717391.263         106.622          35.000    26967925.066   110429114.413          82.908          40.000  
R03  25307378.256   135472273.359        2547.009          45.000    25307378.442   105367524.863        1980.631          36.000  
R17  23142076.746   123838135.097        1577.457          53.000    23142071.557    96318331.101        1226.934          51.000  
R02  22583137.071   120507966.070        -600.997          52.000    22583133.978    93728421.333        -467.368          48.000  
G03  24694097.231   129768323.419         324.353          45.000    24694093.937   101118166.201         252.928          45.000  
G21  22958085.309   120645542.573        -894.971          50.000                                                                  
S31  42100256.101   221238415.066        -664.563          45.000  
S33  43053655.184   226248610.204        -664.163          43.000  
E33  26966843.238   141711814.234        -998.561          48.000    26966843.411   108584354.207        -765.099          51.000  
R01  24265592.563   129713436.461       -3806.793          48.000    24265590.456   100888234.077       -2960.797          44.000  
R24  23134039.647   123708178.438       -2477.243          53.000    23134035.000    96217429.694       -1926.822          47.000  
G02  23355314.810   122733010.886         -70.156          49.000                                                                  
G32  27615514.874   145120451.774       -4184.553          46.000    27615518.022   113080880.081       -3260.419          41.000  
E12  28373237.248   149102311.669        1183.894          44.000    28373236.022   114247252.963         907.145          49.000  
G04  25576338.944   134404533.157        2590.888          47.000    25576336.515   104730740.543        2018.912          46.000  
E10  30143501.732                        1660.571          30.000    30143501.244   121375357.652        1272.629          41.000  
E04  30865310.842   162198300.051        2297.312          37.000    30865313.675   124281815.494        1760.432          44.000  
E26  29812389.873   156665344.357       -2654.108          46.000    29812392.034   120042404.409       -2033.509          48.000  
G17  26470020.299   139100895.210        2120.302          35.000    26470023.075                3       1642.077          22.000  
E14  29956008.560   157419874.918        -601.925          40.000    29956012.203   120620430.382        -461.192          47.000  
R18                                                                  26804532.026   111287824.8371       2652.460          33.000  
> 2024 04 17 11 57 00.0110000  0 24                     
G08  25727693.358   135199925.103       -4019.718          47.000    25727692.221   105350597.808       -3132.201          43.000  
G31  27219141.773   143037574.516        1268.384          46.000    27219140.310   111457823.452         988.409          43.000  
E19  26943553.137   141589280.465         538.499          44.000    26943553.852   108490496.227         412.589          49.000  
G28  26967365.201   141714443.530          90.277          37.000    26967364.486   110426817.422          70.287          40.000  
R03  25293143.245   135396067.401        2533.348          45.000    25293143.743   105308253.426        1970.775          37.000  
R17  23133282.426   123791074.849        1559.881          53.000    23133278.211    96281728.643        1213.289          51.000  
R02  22586574.787   120526318.960        -622.596          51.000    22586573.799    93742695.777        -484.096          48.000  
G03  24692264.451   129758694.374         317.443          45.000    24692261.498   101110663.034         247.366          44.000  
G21  22963248.412   120672677.569        -914.103          49.000                                                                  
S31  42104051.923   221258361.024        -665.312          45.000  
S33  43057449.263   226268546.387        -664.865          43.000  
E33  26972568.888   141741900.339       -1007.101          49.000    26972568.619   108607407.129        -771.676          51.000  
R01  24286979.492   129827767.819       -3815.058          46.000    24286978.545   100977158.347       -2967.486          45.000  
R24  23147998.044   123782819.753       -2498.909          54.000    23147994.855    96275483.968       -1943.599          48.000  
G02  23355762.508   122735361.106         -86.490          49.000                                                                  
G32  27639422.285   145246083.044       -4190.806          47.000    27639424.977   113178774.291       -3265.353          41.000  
E12  28366488.120   149066843.724        1180.735          44.000    28366486.872   114220076.185         904.762          49.000  
G04  25561577.189   134326961.742        2580.407          46.000    25561574.586   104670295.257        2010.798          45.000  
E10  30134005.707                        1660.667          28.000    30134021.403   121337183.680        1272.602          42.000  
E04  30852204.756   162129427.208        2293.826          38.000    30852207.773   124229042.720        1757.792          43.000  
E26  29827560.122   156745064.199       -2660.535          45.000    29827562.358   120103488.228       -2038.552          47.000  
G17  26457962.219   139037525.407        2105.314          33.000    26457969.619                3       1643.879          16.000  
E14  29959445.142   157437935.137        -602.315          41.000    29959449.261   120634268.489        -461.345          47.000  
R18                                                                  26785375.113   111208273.542        2651.739          35.000  
> 2024 04 17 11 57 30.0110000  0 24                     
G08  25750666.302   135320649.493       -4028.406          46.000    25750665.779   105444668.586       -3138.854          43.000  
G31  27211925.538   142999652.810        1260.016          45.000    27211922.980   111428274.040         981.909          42.000  
E19  26940519.000   141573332.377         525.245          45.000    26940518.807   108478276.226         402.290          48.000  
G28  26966898.937   141711992.417          73.498          39.000    26966897.445   110424907.347          57.502          40.000  
R03  25278984.657   135320277.285        2519.587          44.000    25278985.485   105249305.401        1960.240          33.000  
R17  23124587.898   123744549.361        1542.166          53.000    23124583.461    96245542.107        1199.458          51.000  
R02  22590137.218   120545325.067        -644.104          52.000    22590135.790    93757478.276        -501.013          49.000  
G03  24690472.897   129749282.602         310.332          45.000    24690470.781   101103329.160         241.743          44.000  
G21  22968523.042   120700394.044        -933.328          49.000                                                                  
S31  42107852.727   221278334.740        -666.197          44.000  
S33  43061247.922   226288509.733        -665.730          43.000  
E33  26978344.219   141772249.586       -1015.868          49.000    26978343.697   108630661.678        -778.395          51.000  
R01  24308416.050   129942356.594       -3823.610          47.000    24308414.981   101066282.798       -2973.803          44.000  
R24  23162079.343   123858117.158       -2520.647          54.000    23162076.138    96334048.530       -1960.491          48.000  
G02  23356305.069   122738211.892        -103.140          50.000                                                                  
G32  27663365.790   145371905.327       -4196.957          46.000    27663368.444   113276817.349       -3270.377          43.000  
E12  28359758.453   149031479.408        1177.264          44.000    28359757.227   114192978.804         902.081          49.000  
G04  25546877.386   134249714.870        2569.685          45.000    25546874.234   104610102.884        2002.452          44.000  
E10  30124525.493                        1660.538          28.000    30124541.774   121299013.993        1272.310          42.000  
E04  30839120.216   162060668.595        2290.123          38.000    30839123.843   124176357.519        1754.785          44.000  
E26  29842767.102   156824985.331       -2667.326          44.000    29842770.202   120164726.308       -2043.761          46.000  
G17  26445988.475                1       2089.161          31.000    26446001.337                3       1628.375          25.000  
E14  29962885.176   157456011.133        -602.381          41.000    29962889.396   120648118.674        -461.692          47.000  
R18                                                                  26766222.797                        2650.632          31.000  
> 2024 04 17 11 58 00.0110000  0 24                     
G08  25773687.090   135441626.482       -4036.613          46.000    25773687.359   105538936.199       -3145.488          44.000  
G31  27204758.134   142961986.845        1251.184          45.000    27204756.263   111398923.901         975.201          42.000  
E19  26937558.755   141557778.419         512.008          44.000    26937559.015   108466358.200         392.283          48.000  
G28  26966526.954   141710033.628          57.041          42.000    26966525.783   110423380.961          44.591          41.000  
R18  26747066.512                1       3407.534          32.000    26747069.041   111049239.129        2650.314          30.000  
R03  25264903.158   135244898.406        2505.737          42.000    25264905.552   105190677.318        1949.428          36.000  
R17  23115993.442   123698556.174        1524.224          53.000    23115988.142    96209769.574        1185.529          50.000  
R02  22593820.877   120564976.271        -665.766          52.000    22593818.249    93772762.496        -517.874          49.000  
G03  24688721.253   129740081.536         303.419          46.000    24688720.900   101096159.454         236.401          46.000  
G21  22973906.861   120728686.890        -952.639          49.000                                                                  
S31  42111657.889   221298330.883        -666.914          45.000  
S33  43065051.424   226308494.961        -666.677          43.000  
E33  26984168.274   141802856.858       -1024.523          49.000    26984168.036   108654113.936        -784.999          51.000  
R01  24329899.155   130057193.912       -3832.033          47.000    24329897.870   101155600.617       -2980.365          45.000  
R24  23176281.239   123934064.222       -2542.298          53.000    23176277.719    96393118.351       -1977.400          47.000  
G02  23356942.491   122741558.667        -119.744          50.000                                                                  
G32  27687343.564   145497909.965       -4203.018          46.000    27687346.911   113375002.456       -3275.099          43.000  
E12  28353047.501   148996213.935        1174.051          44.000    28353046.320   114165957.153         899.555          49.000  
G04  25532238.462   134172788.899        2558.878          44.000    25532235.775   104550160.559        1993.999          44.000  
E10  30115053.843                        1660.413          30.000    30115062.028   121260844.648        1272.587          42.000  
E04  30826057.073   161992019.655        2286.762          39.000    30826059.718   124123756.317        1752.038          43.000  
E26  29858012.989   156905101.734       -2673.551          43.000    29858015.823   120226113.998       -2048.640          46.000  
G17  26434107.569                        2074.725          31.000    26434099.237                3       1629.534          21.000  
E14  29966327.384   157474096.965        -603.125          42.000    29966331.240   120661976.380        -462.021          47.000  
> 2024 04 17 11 58 30.0110000  0 24                     
G08  25796756.494   135562855.016       -4045.131          46.000    25796756.156   105633399.804       -3151.853          44.000  
G31  27197640.580   142924581.342        1242.615          44.000    27197637.656   111369776.720         968.011          41.000  
E19  26934673.776   141542621.015         498.664          44.000    26934674.607   108454744.052         382.039          48.000  
G28  26966248.066   141708570.911          40.353          41.000    26966247.545   110422241.206          31.505          40.000  
R18  26727930.197   142675478.3741       3405.790          34.000    26727926.150                        2648.751          31.000  
R03  25250902.198   135169935.046        2491.884          44.000    25250901.898   105132372.503        1938.010          38.000  
R17  23107499.460   123653100.955        1506.151          53.000    23107493.432    96174415.490        1171.398          50.000  
R02  22597624.419   120585273.268        -687.302          52.000    22597621.428    93788549.009        -534.655          48.000  
G03  24687011.185   129731092.580         296.244          47.000    24687011.009   101089155.031         230.548          46.000  
G21  22979401.559   120757559.359        -971.995          49.000                                                                  
S31  42115467.804   221318350.818        -667.672          45.000  
S33  43068859.153   226328504.411        -667.542          43.000  
E33  26990042.390   141833725.053       -1033.465          49.000    26990042.357   108677766.122        -791.782          51.000  
R01  24351427.495   130172277.745       -3840.095          46.000    24351426.620   101245110.155       -2986.809          45.000  
R24  23190605.868   124010661.795       -2564.074          54.000    23190601.333    96452694.143       -1994.274          46.000  
G02  23357673.747   122745405.186        -136.542          50.000                                                                  
G32  27711356.452   145624096.272       -4209.253          46.000    27711359.536   113473329.137       -3279.932          42.000  
E12  28346355.927   148961050.572        1170.460          43.000    28346354.952   114139013.745         896.768          49.000  
G04  25517661.507   134096188.031        2547.948          44.000    25517659.585   104490471.556        1985.429          45.000  
E10  30105579.246   158205867.5061       1660.457          33.000    30105583.108   121222677.887        1272.155          42.000  
E04  30813014.903   161923483.732        2282.615          40.000    30813017.927   124071241.744        1748.934          43.000  
E26  29873297.372   156985415.353       -2680.483          43.000    29873299.513   120287652.789       -2053.779          46.000  
G17  26422307.730                1       2058.838          30.000    26422308.637                        1603.208          27.000  
E14  29969772.249   157492194.631        -603.426          42.000    29969775.204   120675843.163        -462.300          47.000  
> 2024 04 17 11 59 00.0110000  0 24                     
G08  25819874.154   135684334.838       -4053.472          46.000    25819873.880   105728059.220       -3158.709          44.000  
G31  27190572.675   142887441.845        1233.331          45.000    27190572.300   111340836.827         961.218          44.000  
E19  26931866.186   141527863.513         485.260          44.000    26931866.288   108443436.303         371.806          48.000  
G28  26966064.198   141707608.813          23.860          39.000    26966062.930   110421491.543          18.512          40.000  
R18  26708793.695   142573326.431        3404.222          35.000    26708788.663                        2647.781          30.000  
R03  25236976.577   135095391.209        2477.815          44.000    25236973.333   105074393.955        1927.031          41.000  
R17  23099106.329   123608190.294        1487.795          53.000    23099101.020    96139484.945        1157.150          50.000  
R02  22601549.785   120606217.395        -709.002          53.000    22601547.135    93804838.841        -551.456          49.000  
G03  24685342.063   129722318.082         288.750          48.000    24685341.013   101082317.706         225.034          45.000  
G21  22985006.882   120787015.427        -991.691          49.000                                                                  
S31  42119282.727   221338398.024        -668.807          45.000  
S33  43072672.017   226348541.215        -668.556          43.000  
E33  26995966.921   141864857.889       -1042.162          49.000    26995966.802   108701621.083        -798.615          51.000  
R01  24373001.236   130287608.241       -3848.522          44.000    24373001.425   101334811.483       -2993.344          45.000  
R24  23205051.793   124087912.146       -2585.947          53.000    23205047.315    96512777.621       -2011.346          46.000  
G02  23358501.763   122749755.928        -153.513          50.000                                                                  
G32  27735403.449   145750464.445       -4215.399          45.000    27735406.752   113571797.569       -3284.533          41.000  
E12  28339684.858   148925993.410        1166.800          43.000    28339683.947   114112151.704         894.009          49.000  
G04  25503146.903   134019917.536        2536.846          43.000    25503146.189   104431039.997        1976.643          46.000  
E10  30096100.508   158156063.885        1659.750          34.000    30096105.793   121184516.586        1272.033          42.000  
E04  30799995.128   161855065.130        2278.554          41.000    30799997.799   124018817.051        1745.769          42.000  
E26  29888618.403   157065928.982       -2687.264          43.000    29888620.931   120349344.867       -2058.957          46.000  
E14  29973219.755   157510307.056        -604.178          43.000    29973221.857   120689721.251        -462.825          47.000  
G17                                                                  26410593.512   108146969.3981       1591.721          28.000  
> 2024 04 17 11 59 30.0110000  0 24                     
G08  25843039.219   135806068.431       -4061.765          46.000    25843038.780   105822916.381       -3165.250          43.000  
G31  27183558.440   142850577.009        1224.292          44.000    27183556.802   111312110.963         953.986          43.000  
E19  26929135.422   141513511.953         471.542          44.000    26929135.175   108432439.609         361.402          48.000  
G28  26965977.592   141707154.690           6.909          41.000    26965977.489   110421137.640           5.328          41.000  
R18  26689664.711   142471221.447        3403.207          34.000    26689660.290                        2646.164          29.000  
R03  25223131.326   135021274.251        2463.519          45.000    25223127.598   105016747.457        1916.049          42.000  
R17  23090817.072   123563833.331        1469.342          53.000    23090812.049    96104985.035        1142.949          51.000  
R02  22605596.105   120627812.646        -730.473          52.000    22605594.614    93821635.105        -568.182          49.000  
G03  24683714.607   129713763.020         281.639          49.000    24683712.354   101075651.371         219.434          45.000  
G21  22990724.208   120817061.346       -1011.335          48.000                                                                  
S31  42123103.624   221358477.852        -669.709          45.000  
S33  43076491.377   226368610.676        -669.592          43.000  
E33  27001943.801   141896261.855       -1051.213          50.000    27001943.022   108725683.783        -805.468          51.000  
R01  24394623.563   130403187.580       -3856.744          46.000    24394623.649   101424706.363       -2999.448          45.000  
R24  23219620.754   124165819.940       -2607.812          53.000    23219616.500    96573372.494       -2028.371          46.000  
G02  23359427.002   122754617.979        -170.487          49.000                                                                  
G32  27759485.335   145877017.456       -4221.342          44.000    27759489.249   113670410.031       -3289.308          39.000  
E12  28333035.173   148891049.283        1162.882          43.000    28333034.435   114085376.284         891.146          49.000  
G04  25488698.480   133943985.393        2525.484          44.000    25488697.263   104371872.061        1967.760          46.000  
E10  30086628.489   158106273.895        1659.458          34.000    30086631.192   121146365.760        1271.677          43.000  
E04  30786999.587   161786770.830        2274.274          40.000    30787001.864   123966487.601        1742.840          42.000  
E26  29903978.990   157146648.223       -2693.996          43.000    29903982.035   120411194.461       -2064.149          47.000  
E14  29976670.386   157528439.843        -604.667          43.000    29976672.856   120703614.962        -463.446          47.000  
G17                                                                  26398985.118                        1579.725          31.000  
