     3.00           OBSERVATION DATA    M: Mixed            RINEX VERSION / TYPE
CONVBIN 2.4.3                           20240417 061442 UTC PGM / RUN BY / DATE 
format: u-blox UBX                                          COMMENT             
log: /home/regis/git/gnsspwv/obsdata/VERT00CHL/2024-04-17/VECOMMENT             
{self.marker}                                               MARKER NAME         
                                                            MARKER NUMBER       
GEODETIC                                                    MARKER TYPE         
{self.observer}     {self.institution}                      OBSERVER / AGENCY   
UNKNOWN             UBLOX-ZED-F9P                           REC # / TYPE / VERS 
UNKNOWN             TWIVSP6037L                             ANT # / TYPE        
  1713381.0000 -5047934.0000 -3490983.0000                  APPROX POSITION XYZ 
        0.0000        0.0000        0.0000                  ANTENNA: DELTA H/E/N
G    8 C1C L1C D1C S1C C2L L2L D2L S2L                      SYS / # / OBS TYPES 
R    8 C1C L1C D1C S1C C2C L2C D2C S2C                      SYS / # / OBS TYPES 
E    8 C1C L1C D1C S1C C7Q L7Q D7Q S7Q                      SYS / # / OBS TYPES 
S    4 C1C L1C D1C S1C                                      SYS / # / OBS TYPES 
  2024    04    17    06    00   00.0030000     GPS         TIME OF FIRST OBS   
  2024    04    17    06    14   30.0030000     GPS         TIME OF LAST OBS    
                                                            END OF HEADER       
> 2024 04 17 06 00 00.0030000  0 25                     
G31  23840166.635   125280828.3361      -2927.039          46.000    23840162.324    97621546.1731      -2280.746          43.000  
G16  23440977.901   123183216.5651       2281.637          45.000                                                                  
G26  21226287.025   111544918.9301        144.191          49.000    21226285.495    86918130.2761        112.250          46.000  
G27  24880959.775   130750285.6321       1696.033          44.000    24880957.818   101883384.6061       1321.600          37.000  
G23  22102713.018   116150685.7721       1548.715          46.000    22102709.939    90506993.9991       1206.730          49.000  
R22  20740003.586   110711700.8871       -975.633          52.000    20739999.113    86108929.0371       -758.773          50.000  
R11  21854696.593   116784895.8381      -4385.986          51.000    21854691.406    90832684.5101      -3411.303          50.000  
R07  24485903.848   131074954.0501       2879.082          46.000    24485898.617   101947217.0361       2239.387          44.000  
R13  23297679.061                1       2820.032          26.000    23297689.053    96762007.4341       2193.195          36.000  
G29  24008911.870   126167830.8811      -2618.538          39.000    24008906.480    98312678.5691      -2040.334          38.000  
S31  39602415.402   208112187.3161       -651.157          44.000  
S33  40557314.763   213130259.2841       -651.045          43.000  
G10  24115055.235   126725568.4321       3133.299          45.000    24115051.880    98747121.7731       2441.708          39.000  
R12  20527762.514   109655756.5941       -144.991          51.000    20527759.028    85287770.2111       -112.816          49.000  
R06  23574343.978   125797219.1201       1030.237          37.000                                                                  
R23  23102271.306   123581593.9451       1384.042          46.000                                                                  
R21  22551681.958   120679125.1031      -3209.692          51.000    22551676.681    93861635.0941      -2496.231          45.000  
G28  25247976.170   132678977.0621      -3659.875          37.000    25247974.435   103386191.4611      -2852.011          36.000  
E21  24283463.005   127610531.6431      -1152.579          48.000    24283462.164    97779535.4341       -883.123          50.000  
E13  24808341.960   130369129.9471      -2130.623          46.000    24808343.260    99893335.1291      -1632.537          53.000  
E27  26961691.146   141684673.8871      -3272.096          44.000    26961693.100   108563593.1001      -2507.139          49.000  
G18  21681319.619   113936405.6511      -2320.203          48.000    21681314.430    88781726.3301      -1808.020          49.000  
E26  24633056.206   129447839.0141        307.677          48.000    24633054.581    99187452.5051        235.662          52.000  
E14  24079937.518   126540990.8391      -2806.709          49.000    24079936.314    96960007.2361      -2150.536          52.000  
E15                                                                  28827103.845                       -2469.566          26.000  
> 2024 04 17 06 00 30.0030000  0 25                     
G31  23856903.644   125368777.979       -2935.847          46.000    23856897.963    97690078.312       -2287.708          43.000  
G16  23427974.696   123114882.733        2274.476          44.000                                                                  
G26  21225516.883   111540867.401         126.204          50.000    21225514.630    86914973.222          98.317          46.000  
G27  24871274.187   130699388.246        1697.284          44.000    24871272.595   101843724.359        1322.626          38.000  
G23  22093918.043   116104465.753        1533.040          46.000    22093914.223    90470978.402        1194.638          48.000  
R22  20745513.808   110741119.546        -985.148          51.000    20745510.470    86131810.220        -766.326          50.000  
R11  21879359.065   116916690.115       -4399.896          51.000    21879354.798    90935191.091       -3422.021          50.000  
R07  24469771.371   130988598.969        2878.399          46.000    24469768.540   101880052.086        2238.690          46.000  
R13  23281887.868                        2806.159          27.000    23281886.460    96696375.384        2182.105          37.000  
G29  24023871.538   126246441.225       -2621.737          41.000    24023866.415    98373933.444       -2043.271          39.000  
S31  39606132.388   208131720.217        -650.605          44.000  
S33  40561031.634   213149791.162        -650.534          43.000  
G10  24097178.200   126631628.188        3130.046          45.000    24097175.336    98673921.713        2438.555          39.000  
R12  20528653.905   109660515.167        -171.908          52.000    20528649.831    85291471.309        -133.742          49.000  
R06  23568609.156   125766618.916        1011.006          38.000                                                                  
R23  23094533.459   123540204.209        1375.667          45.000                                                                  
R21  22569679.103   120775427.334       -3210.047          51.000    22569671.661    93936536.850       -2496.894          43.000  
G28  25268865.659   132788748.780       -3658.053          40.000    25268862.906   103471727.676       -2850.239          36.000  
E21  24290078.922   127645297.455       -1164.756          48.000    24290077.869    97806174.165        -892.466          50.000  
E13  24820521.594   130433137.544       -2136.171          46.000    24820523.320    99942379.906       -1636.758          53.000  
E27  26980388.779   141782931.929       -3278.016          44.000    26980391.146   108638881.697       -2511.785          50.000  
G18  21694596.675   114006176.436       -2330.701          48.000    21694591.435    88836093.175       -1816.223          49.000  
E26  24631326.639   129438750.679         298.739          48.000    24631324.951    99180488.718         228.799          52.000  
E14  24095962.195   126625200.336       -2806.831          49.000    24095960.874    97024531.400       -2150.681          52.000  
E15                                                                  28845500.516                       -2467.787          25.000  
> 2024 04 17 06 01 00.0030000  0 24                     
G31  23873689.752   125456990.681       -2944.851          45.000    23873683.845    97758815.409       -2294.682          43.000  
G16  23415012.428   123046764.633        2266.753          45.000                                                                  
G26  21224848.556   111537351.989         107.888          51.000    21224845.760    86912233.944          84.104          46.000  
G27  24861580.283   130648447.946        1698.291          43.000    24861579.103   101804030.653        1323.370          38.000  
G23  22085210.926   116058710.906        1516.989          45.000    22085207.647    90435325.294        1182.189          48.000  
R22  20751078.090   110770822.154        -995.133          51.000    20751074.943    86154912.245        -774.005          51.000  
R11  21904099.291   117048894.864       -4413.956          51.000    21904095.581    91038016.963       -3433.060          50.000  
R07  24453644.665   130902265.036        2877.042          49.000    24453641.034   101812903.565        2237.719          47.000  
R13  23266146.647                3       2790.979          25.000    23266162.813    96631069.431        2171.400          38.000  
G29  24038847.894   126325144.727       -2625.669          40.000    24038844.164    98435260.806       -2045.967          39.000  
S31  39609846.883   208151240.470        -650.819          44.000  
S33  40564745.884   213169311.764        -650.773          43.000  
G10  24079320.978   126537789.178        3125.826          45.000    24079318.049    98600800.490        2435.862          39.000  
R12  20529694.659   109666078.449        -199.221          52.000    20529690.738    85295798.295        -154.945          48.000  
R06  23562978.941   125736577.591         991.688          37.000                                                                  
R23  23086843.856   123499064.120        1366.877          46.000                                                                  
R21  22587676.997   120871733.539       -3210.555          51.000    22587670.104    94011441.636       -2496.932          46.000  
G28  25289742.362   132898457.980       -3656.179          40.000    25289740.059   103557215.151       -2848.840          37.000  
E21  24296762.598   127680423.555       -1177.230          48.000    24296762.275    97833088.971        -902.070          51.000  
E13  24832731.985   130497303.580       -2141.677          46.000    24832733.781    99991546.090       -1641.065          53.000  
E27  26999119.766   141881365.325       -3284.346          44.000    26999122.139   108714304.669       -2516.594          50.000  
G18  21707932.758   114076258.675       -2341.559          48.000    21707927.467    88890702.685       -1824.463          49.000  
E26  24629646.929   129429924.018         289.520          47.000    24629645.203    99173725.440         221.905          52.000  
E14  24111986.006   126709405.780       -2807.025          49.000    24111984.462    97089052.460       -2150.830          52.000  
> 2024 04 17 06 01 30.0030000  0 24                     
G31  23890525.718   125545463.144       -2952.962          45.000    23890520.440    97827754.926       -2301.083          43.000  
G16  23402091.373   122978864.591        2259.978          44.000                                                                  
G26  21224281.667   111534373.865          90.730          50.000    21224279.367    86909913.333          70.760          46.000  
G27  24851878.194   130597464.781        1700.726          42.000    24851877.360   101764303.538        1325.281          38.000  
G23  22076593.099   116013423.625        1502.201          46.000    22076589.497    90400036.548        1170.542          48.000  
R22  20756695.630   110800806.772       -1003.650          52.000    20756691.668    86178233.603        -780.661          50.000  
R11  21928914.892   117181506.136       -4426.656          49.000    21928911.997    91141159.005       -3442.898          50.000  
R07  24437521.557   130815956.655        2876.893          49.000    24437516.993   101745774.925        2237.685          46.000  
R13  23250509.289                        2777.500          27.000    23250517.522    96566092.843        2160.606          37.000  
G29  24053842.893   126403941.561       -2627.472          41.000    24053837.495    98496660.894       -2047.208          38.000  
S31  39613559.315   208170749.106        -649.874          44.000  
S33  40568458.225   213188819.807        -649.628          42.000  
G10  24061484.041   126444054.380        3123.177          45.000    24061481.328    98527760.480        2433.526          39.000  
R12  20530886.915   109672447.363        -225.277          52.000    20530883.678    85300751.874        -175.258          49.000  
R06  23557455.050   125707098.642         973.427          38.000                                                                  
R23  23079199.562   123458173.361        1359.515          46.000                                                                  
R21  22605673.754   120968042.295       -3209.858          51.000    22605667.365    94086348.417       -2496.356          46.000  
G28  25310607.185   133008101.699       -3653.176          39.000    25310604.989   103642651.637       -2846.544          39.000  
E21  24303515.609   127715910.043       -1188.492          48.000    24303515.287    97860279.902        -910.614          51.000  
E13  24844973.487   130561626.451       -2146.262          46.000    24844974.080   100040832.439       -1644.572          52.000  
E27  27017886.113   141979972.811       -3289.352          45.000    27017886.733   108789861.015       -2520.500          50.000  
G18  21721328.300   114146650.000       -2350.946          48.000    21721322.936    88945553.064       -1832.031          49.000  
E26  24628016.889   129421358.391         281.612          47.000    24628015.228    99167162.207         215.774          52.000  
E14  24128008.566   126793605.069       -2806.097          49.000    24128007.170    97153568.797       -2150.163          52.000  
> 2024 04 17 06 02 00.0030000  0 25                     
G31  23907406.396   125634173.244       -2961.189          44.000    23907401.136    97896879.632       -2307.146          42.000  
G16  23389208.689   122911166.009        2253.196          44.000                                                                  
G26  21223813.700   111531915.279          73.059          50.000    21223811.217    86907997.553          56.872          46.000  
G27  24842164.693   130546419.776        1702.271          43.000    24842163.204   101724528.256        1326.465          37.000  
G23  22068061.543   115968587.471        1486.888          46.000    22068057.692    90365099.288        1158.566          48.000  
R22  20762362.427   110831052.179       -1012.632          51.000    20762357.824    86201757.838        -787.709          50.000  
R11  21953801.520   117314500.237       -4439.670          49.000    21953799.385    91244598.793       -3453.041          50.000  
R07  24421400.097   130729658.083        2876.250          49.000    24421395.660   101678653.951        2237.108          46.000  
R13  23234940.769                        2764.164          29.000    23234948.728    96501433.507        2150.120          38.000  
G29  24068850.857   126482812.573       -2630.162          40.000    24068847.300    98558118.829       -2049.594          40.000  
S31  39617265.760   208190226.210        -649.026          44.000  
S33  40572164.635   213208295.995        -648.980          42.000  
G10  24043663.979   126350407.929        3119.913          46.000    24043662.035    98454789.323        2431.372          40.000  
R12  20532227.238   109679603.258        -251.837          52.000    20532223.978    85306317.568        -195.824          50.000  
R06  23552033.231   125678165.905         955.027          38.000                                                                  
R23  23071598.167   123417511.730        1351.403          47.000                                                                  
R21  22623667.571   121064332.747       -3209.436          49.000    22623662.528    94161240.993       -2496.302          46.000  
G28  25331455.490   133117658.009       -3650.579          39.000    25331453.331   103728020.028       -2844.495          42.000  
E21  24310333.093   127751738.044       -1200.106          48.000    24310333.374    97887732.532        -919.437          51.000  
E13  24857239.172   130626085.584       -2151.016          47.000    24857240.081   100090223.203       -1648.154          52.000  
E27  27036680.574   142078734.123       -3294.566          46.000    27036680.510   108865535.241       -2524.494          50.000  
G18  21734777.942   114217329.144       -2360.846          48.000    21734773.278    89000627.725       -1839.636          50.000  
E26  24626433.090   129413034.240         273.494          47.000    24626431.351    99160784.001         209.391          52.000  
E14  24144025.863   126877777.149       -2805.373          49.000    24144024.697    97218064.287       -2149.560          52.000  
E33                                                                  28335080.323   114093624.7021       1290.554          33.000  
> 2024 04 17 06 02 30.0030000  0 25                     
G31  23924332.764   125723123.694       -2968.772          44.000    23924327.708    97966191.638       -2313.456          42.000  
G16  23376365.310   122843677.356        2246.434          44.000                                                                  
G26  21223445.861   111529983.275          55.751          50.000    21223443.220    86906492.095          43.548          45.000  
G27  24832440.457   130495318.871        1704.675          43.000    24832437.800   101684709.431        1328.015          36.000  
G23  22059617.070   115924210.672        1471.673          47.000    22059613.584    90330519.988        1146.848          48.000  
R22  20768076.152   110861562.589       -1021.158          50.000    20768073.434    86225488.132        -794.183          50.000  
R11  21978762.915   117447879.021       -4452.023          50.000    21978759.873    91348337.806       -3462.668          50.000  
R07  24405282.748   130643380.198        2875.774          48.000    24405278.520   101611549.005        2236.761          47.000  
R13  23219456.300   123990524.0731       2750.076          33.000    23219459.278    96437099.204        2139.580          39.000  
G29  24083874.514   126561764.045       -2632.596          39.000    24083869.971    98619639.450       -2051.422          38.000  
S31  39620967.166   208209677.450        -647.827          44.000  
S33  40575865.939   213227747.824        -647.635          42.000  
G10  24025862.190   126256858.722        3116.973          45.000    24025860.611    98381893.957        2428.589          40.000  
E33  28325488.895                1       1680.371          29.000    28325477.282   114054960.111        1287.594          31.000  
R12  20533715.001   109687553.014        -277.896          51.000    20533712.495    85312500.704        -216.177          50.000  
R06  23546714.391   125649788.363         937.090          37.000                                                                  
R23  23064039.149   123377084.594        1343.921          45.000                                                                  
R21  22641660.175   121160609.293       -3208.770          50.000    22641653.894    94236122.773       -2495.663          47.000  
G28  25352286.280   133227129.980       -3647.506          40.000    25352285.468   103813322.661       -2842.262          43.000  
E21  24317217.496   127787913.615       -1211.223          48.000    24317217.561    97915451.475        -928.243          52.000  
E13  24869532.354   130690685.338       -2155.409          47.000    24869533.075   100139721.714       -1651.455          52.000  
E27  27055504.304   142177653.926       -3299.640          46.000    27055504.338   108941330.888       -2528.329          50.000  
G18  21748283.643   114288299.706       -2370.343          48.000    21748278.683    89055929.452       -1846.948          50.000  
E26  24624896.124   129404956.932         265.354          48.000    24624894.174    99154594.905         203.371          51.000  
E14  24160038.895   126961925.838       -2804.204          48.000    24160037.592    97282541.860       -2148.739          52.000  
> 2024 04 17 06 03 00.0030000  0 26                     
G31  23941300.928   125812292.105       -2976.121          44.000    23941295.734    98035673.448       -2319.278          41.000  
G16  23363559.376   122776382.304        2240.022          43.000                                                                  
G26  21223174.947   111528559.863          38.783          50.000    21223172.261    86905382.930          30.102          45.000  
G27  24822701.690   130444142.944        1706.995          43.000    24822698.995   101644832.113        1330.280          37.000  
G23  22051256.870   115880276.525        1456.963          47.000    22051252.398    90296285.604        1135.342          48.000  
R05  25282405.406                3      -1949.117          11.000                                                                  
R22  20773837.477   110892316.491       -1029.353          50.000    20773834.920    86249407.836        -800.599          50.000  
R11  22003791.960   117581618.839       -4464.111          51.000    22003787.552    91452357.637       -3472.136          50.000  
R07  24389165.490   130557107.589        2875.382          47.000    24389161.589   101544448.206        2236.528          46.000  
R13  23204046.510   123908210.650        2736.467          35.000    23204045.070    96373077.654        2129.062          40.000  
G29  24098910.166   126640776.961       -2635.063          39.000    24098905.702    98681207.929       -2052.967          38.000  
S31  39624660.467   208229085.125        -646.103          44.000  
S33  40579558.699   213247154.004        -646.411          42.000  
G10  24008075.218   126163390.655        3114.126          45.000    24008073.271    98309061.807        2426.205          40.000  
E33  28315894.007   148801081.5471       1676.379          32.000    28315895.253                        1284.470          31.000  
R12  20535347.987   109696277.671        -303.848          51.000    20535345.101    85319286.553        -236.382          50.000  
R06  23541498.450   125621949.865         918.553          37.000                                                                  
R23  23056522.284   123336871.871        1336.745          45.000                                                                  
R21  22659645.557   121256851.124       -3207.600          51.000    22659639.188    94310977.493       -2494.812          48.000  
G28  25373097.851   133336495.493       -3643.685          40.000    25373097.345   103898542.373       -2839.427          42.000  
E21  24324164.447   127824417.679       -1222.360          49.000    24324164.089    97943422.101        -936.607          52.000  
E13  24881848.810   130755404.996       -2159.402          47.000    24881848.785   100189312.105       -1654.605          52.000  
E27  27074353.413   142276711.778       -3304.339          45.000    27074354.588   109017232.310       -2531.812          51.000  
G18  21761840.029   114359540.196       -2379.260          48.000    21761834.938    89111441.519       -1854.016          50.000  
E26  24623401.232   129397106.648         257.853          47.000    24623400.305    99148579.761         197.528          51.000  
E14  24176043.554   127046029.991       -2802.931          48.000    24176041.967    97346985.298       -2147.702          52.000  
> 2024 04 17 06 03 30.0030000  0 26                     
G31  23958307.896   125901664.038       -2981.818          45.000    23958303.176    98105313.851       -2323.727          42.000  
G16  23350788.781   122709271.715        2234.491          43.000                                                                  
G26  21222998.515   111527634.911          23.098          50.000    21222996.189    86904662.189          18.012          45.000  
G27  24812947.564   130392880.813        1710.535          42.000    24812944.101   101604887.611        1332.971          38.000  
G23  22042978.365   115836776.132        1443.305          46.000    22042974.019    90262389.212        1124.682          47.000  
R05  25291737.988                3      -1980.837          12.000                                                                  
R22  20779643.081   110923300.595       -1036.143          52.000    20779639.508    86273506.593        -805.865          50.000  
R11  22028884.614   117715703.936       -4474.676          51.000    22028879.752    91556645.989       -3480.342          50.000  
R07  24373050.044   130470833.054        2876.331          48.000    24373045.122   101477345.904        2237.159          47.000  
R13  23188707.277   123826291.693        2724.452          35.000    23188703.994    96309363.003        2119.007          40.000  
G29  24113956.794   126719840.116       -2636.092          40.000    24113950.195    98742815.593       -2053.899          37.000  
S31  39628342.462   208248435.951        -643.424          44.000  
S33  40583241.233   213266505.463        -643.733          42.000  
G10  23990302.790   126069995.573        3112.432          46.000    23990301.067    98236286.508        2425.298          41.000  
E33  28306333.859   148750831.963        1673.750          33.000    28306333.074   113977877.886        1282.921          33.000  
R12  20537125.256   109705766.561        -328.579          52.000    20537120.942    85326666.785        -255.496          49.000  
R06  23536379.527   125594642.014         901.855          34.000                                                                  
R23  23049042.104   123296861.147        1330.935          45.000                                                                  
R21  22677621.448   121353045.598       -3205.172          50.000    22677615.974    94385795.415       -2492.881          48.000  
G28  25393886.743   133445740.479       -3638.682          41.000    25393886.553   103983668.136       -2835.126          42.000  
E21  24331171.262   127861239.102       -1232.177          49.000    24331170.816    97971635.902        -944.177          52.000  
E13  24894184.358   130820231.764       -2162.247          47.000    24894184.832   100238984.571       -1656.639          52.000  
E27  27093227.343   142375895.217       -3307.784          44.000    27093228.627   109093229.946       -2534.447          51.000  
G18  21775445.268   114431037.082       -2386.841          48.000    21775440.575    89167153.370       -1860.004          50.000  
E26  24621948.376   129389471.561         251.435          48.000    24621947.085    99142729.503         192.689          51.000  
E14  24192037.381   127130076.291       -2799.934          49.000    24192035.368    97411384.420       -2145.424          52.000  
> 2024 04 17 06 04 00.0030000  0 25                     
G31  23975352.709   125991236.182       -2989.375          45.000    23975348.727    98175110.251       -2329.266          42.000  
G16  23338054.283   122642348.293        2227.378          44.000                                                                  
G26  21222918.059   111527209.665           5.576          50.000    21222915.321    86904330.820           4.357          45.000  
G27  24803176.435   130341532.611        1712.781          44.000    24803173.125   101564876.103        1334.436          38.000  
G23  22034783.180   115793712.031        1427.824          46.000    22034779.165    90228832.800        1112.619          48.000  
R22  20785490.600   110954513.040       -1044.505          52.000    20785485.609    86297782.935        -812.376          50.000  
R11  22054040.671   117850130.372       -4486.800          51.000    22054035.414    91661199.826       -3489.886          50.000  
R07  24356932.218   130384561.057        2875.279          48.000    24356929.605   101410245.556        2236.252          48.000  
R13  23173441.225   123744771.270        2710.172          37.000    23173437.138    96245958.279        2107.989          40.000  
G29  24129011.108   126798953.546       -2638.309          40.000    24129006.350    98804462.422       -2055.989          37.000  
S31  39632014.255   208267730.452        -642.849          44.000  
S33  40586912.517   213285798.795        -642.242          42.000  
G10  23972544.539   125976676.702        3108.960          46.000    23972542.403    98163570.591        2422.698          41.000  
E33  28296791.626   148700682.938        1669.781          32.000    28296789.268   113939452.243        1279.358          33.000  
R12  20539044.492   109716020.316        -354.873          52.000    20539041.259    85334641.924        -275.958          50.000  
R06  23531363.828   125567868.026         883.101          37.000                                                                  
R23  23041601.627   123257051.823        1323.371          47.000                                                                  
R21  22695587.610   121449191.215       -3204.358          49.000    22695582.651    94460575.318       -2492.161          48.000  
G28  25414651.942   133554862.132       -3635.367          41.000    25414651.760   104068697.822       -2832.991          41.000  
E21  24338238.961   127898378.035       -1243.624          49.000    24338238.273    98000092.991        -952.901          51.000  
E13  24906540.698   130885164.239       -2166.522          47.000    24906541.031   100288738.018       -1659.951          52.000  
E27  27112124.333   142475203.028       -3312.509          44.000    27112126.169   109169322.922       -2538.279          50.000  
G18  21789098.392   114502788.169       -2396.204          47.000    21789093.947    89223063.286       -1867.169          50.000  
E26  24620536.336   129382051.156         243.522          48.000    24620534.966    99137043.743         186.569          51.000  
E14  24208019.652   127214062.890       -2798.943          49.000    24208017.605    97475737.795       -2144.612          52.000  
> 2024 04 17 06 04 30.0030000  0 26                     
G31  23992438.723   126081022.875       -2996.999          45.000    23992434.300    98245073.866       -2335.321          41.000  
G16  23325358.280   122575632.129        2219.914          44.000                                                                  
G26  21222936.435   111527302.754         -12.188          50.000    21222932.766    86904403.351          -9.482          45.000  
G27  24793392.517   130290116.002        1714.417          43.000    24793389.509   101524811.249        1335.925          40.000  
G23  22026675.866   115751104.153        1412.262          46.000    22026671.621    90195631.867        1100.474          48.000  
R05  25319757.208                3      -1981.773          12.000                                                                  
R22  20791382.844   110985969.824       -1053.060          51.000    20791378.806    86322249.337        -819.017          50.000  
R11  22079262.865   117984911.718       -4499.039          51.000    22079257.711    91766029.684       -3499.193          50.000  
R07  24340820.556   130298313.566        2874.046          49.000    24340817.484   101343164.271        2235.307          47.000  
R13  23158253.980   123663671.082        2695.919          37.000    23158248.889    96182880.404        2096.885          39.000  
G29  24144077.508   126878135.299       -2641.159          40.000    24144073.966    98866162.432       -2057.803          36.000  
S31  39635678.670   208286987.137        -641.741          44.000  
S33  40590576.591   213305053.974        -641.678          42.000  
G10  23954804.713   125883454.620        3105.290          46.000    23954802.542    98090930.079        2419.974          42.000  
E33  28287268.973   148650652.350        1664.957          33.000    28287268.958   113901117.264        1275.926          35.000  
R12  20541110.891   109727057.522        -381.339          52.000    20541107.675    85343226.412        -296.654          50.000  
R06  23526451.086   125541648.531         864.190          36.000                                                                  
R23  23034201.412   123217461.368        1315.696          47.000                                                                  
R21  22713547.631   121545304.251       -3203.606          48.000    22713544.484    94535329.903       -2491.754          48.000  
G28  25435396.720   133663875.140       -3632.106          41.000    25435396.519   104153642.775       -2830.026          41.000  
E21  24345370.040   127935852.107       -1255.099          49.000    24345369.197    98028806.876        -961.733          51.000  
E13  24918920.641   130950218.321       -2170.786          47.000    24918920.468   100338584.653       -1663.325          52.000  
E27  27131048.859   142574651.537       -3317.706          44.000    27131050.632   109245523.697       -2542.137          50.000  
G18  21802803.346   114574808.671       -2405.554          47.000    21802798.752    89279183.177       -1874.457          49.000  
E26  24619169.151   129374862.364         235.358          48.000    24619167.191    99131535.452         180.385          51.000  
E14  24223993.117   127298005.299       -2797.659          48.000    24223991.386    97540057.310       -2143.702          52.000  
> 2024 04 17 06 05 00.0030000  0 25                     
G31  24009569.873   126171045.175       -3004.761          46.000    24009565.129    98315221.081       -2341.512          42.000  
G16  23312707.446   122509149.891        2212.030          44.000                                                                  
G26  21223057.381   111527939.554         -30.552          51.000    21223054.109    86904899.568         -23.782          45.000  
G27  24783598.976   130238655.338        1715.668          42.000    24783597.461   101484712.101        1337.036          41.000  
G23  22018660.372   115708979.120        1395.737          47.000    22018655.856    90162807.188        1087.666          48.000  
R22  20797326.631   111017693.707       -1062.177          51.000    20797322.261    86346923.486        -826.083          50.000  
R11  22104555.205   118120068.322       -4511.793          51.000    22104550.779    91871151.431       -3509.103          50.000  
R07  24324718.776   130212119.591        2871.935          49.000    24324714.434   101276124.589        2233.801          45.000  
R13  23143150.229   123583019.734        2680.461          37.000    23143145.183    96120151.627        2084.832          40.000  
G29  24159163.976   126957409.689       -2644.053          42.000    24159158.357    98927934.709       -2060.665          33.000  
S31  39639340.036   208306228.183        -641.595          44.000  
S33  40594238.124   213324294.359        -641.277          42.000  
G10  23937088.640   125790356.730        3100.694          45.000    23937087.497    98018386.366        2416.182          43.000  
E33  28277774.258   148600764.767        1659.954          33.000    28277775.060   113862891.917        1272.031          34.000  
R12  20543327.642   109738903.061        -408.673          52.000    20543325.125    85352439.599        -317.817          50.000  
R06  23521647.790   125516011.602         844.739          37.000                                                                  
R23  23026845.153   123178113.416        1307.284          46.000                                                                  
R21  22731508.664   121641408.565       -3203.610          50.000    22731503.507    94610077.710       -2491.687          48.000  
G28  25456124.951   133772800.964       -3629.520          41.000    25456124.013   104238519.827       -2828.330          40.000  
E21  24352569.834   127973685.708       -1267.400          49.000    24352568.742    98057796.252        -971.109          51.000  
E13  24931327.610   131015416.858       -2175.989          48.000    24931327.347   100388541.990       -1667.230          52.000  
E27  27150004.474   142674263.773       -3323.482          45.000    27150006.236   109321849.930       -2546.525          50.000  
G18  21816563.891   114647120.610       -2415.472          48.000    21816559.073    89335530.143       -1882.221          49.000  
E26  24617849.519   129367928.862         226.649          47.000    24617847.938    99126222.791         173.616          52.000  
E14  24239962.754   127381925.867       -2797.216          48.000    24239961.007    97604360.095       -2143.376          51.000  
> 2024 04 17 06 05 30.0030000  0 25                     
G31  24026746.606   126261309.909       -3012.729          46.000    24026742.113    98385557.190       -2347.680          41.000  
G16  23300103.397   122442914.023        2203.760          44.000                                                                  
G26  21223283.878   111529131.081         -48.968          50.000    21223280.728    86905828.025         -38.096          45.000  
G27  24773799.752   130187160.643        1716.913          42.000    24773798.714   101444586.395        1337.915          41.000  
G23  22010738.251   115667349.206        1379.462          45.000    22010734.122    90130368.321        1074.722          49.000  
R22  20803320.222   111049693.012       -1071.150          51.000    20803317.029    86371811.823        -833.134          51.000  
R11  22129918.962   118255606.272       -4524.288          51.000    22129914.879    91976569.805       -3518.873          49.000  
R07  24308629.013   130125993.497        2869.691          49.000    24308624.074   101209137.716        2232.131          44.000  
R13  23128133.284   123502831.266        2664.668          36.000    23128129.387    96057782.837        2072.521          40.000  
G29  24174268.948   127036786.793       -2647.594          41.000    24174263.047    98989786.945       -2062.941          34.000  
S31  39643000.848   208325465.060        -641.281          44.000  
S33  40597898.886   213343531.848        -641.461          42.000  
G10  23919399.487   125697396.021        3096.410          46.000    23919398.199    97945949.550        2412.663          43.000  
E33  28268308.380   148551030.511        1655.434          32.000    28268310.737   113824783.974        1268.440          34.000  
R12  20545698.386   109751567.838        -435.826          52.000    20545696.188    85362289.996        -338.985          50.000  
R06  23516955.409   125490970.246         825.026          36.000                                                                  
R23  23019536.628   123139017.282        1298.974          46.000                                                                  
R21  22749468.015   121737512.378       -3203.498          49.000    22749462.749    94684825.092       -2491.386          47.000  
G28  25476838.152   133881646.658       -3626.930          41.000    25476837.107   104323334.430       -2826.211          40.000  
E21  24359839.460   128011888.806       -1279.793          49.000    24359838.678    98087068.748        -980.622          51.000  
E13  24943762.419   131080768.208       -2181.035          47.000    24943763.339   100438616.409       -1671.107          52.000  
E27  27168993.307   142774048.424       -3329.137          45.000    27168994.537   109398308.260       -2550.696          50.000  
G18  21830382.080   114719731.644       -2425.354          48.000    21830376.316    89392110.182       -1889.954          49.000  
E26  24616579.970   129361259.977         217.867          47.000    24616578.932    99121112.888         166.893          52.000  
E14  24255929.177   127465832.592       -2796.692          48.000    24255927.843    97668652.268       -2142.955          51.000  
> 2024 04 17 06 06 00.0030000  0 25                     
G31  24043971.235   126351827.625       -3021.335          45.000    24043966.763    98456090.413       -2354.223          41.000  
G16  23287548.528   122376940.760        2194.503          43.000                                                                  
G26  21223619.199   111530892.066         -68.178          50.000    21223615.559    86907200.207         -53.240          45.000  
G27  24763997.291   130135645.759        1717.395          42.000    24763995.634   101404444.933        1338.165          41.000  
G23  22002912.668   115626230.421        1362.112          45.000    22002909.864    90098327.756        1061.342          49.000  
R22  20809368.541   111081979.619       -1080.966          51.000    20809364.596    86396923.620        -840.706          49.000  
R11  22155355.858   118391534.938       -4537.421          51.000    22155352.724    92082292.039       -3529.170          49.000  
R07  24292556.486   130039953.921        2866.564          50.000    24292551.431   101142218.164        2229.460          44.000  
R13  23113202.690   123423123.059        2648.429          36.000    23113202.516    95995787.583        2060.411          40.000  
G29  24189396.252   127116280.521       -2651.684          42.000    24189390.034    99051730.016       -2065.736          32.000  
S31  39646663.228   208344711.471        -641.532          44.000  
S33  40601560.822   213362775.588        -641.535          42.000  
G10  23901739.590   125604589.322        3091.100          47.000    23901737.476    97873632.741        2408.441          43.000  
E33  28258871.711   148501463.455        1649.404          32.000    28258878.959   113786804.180        1263.689          37.000  
R12  20548226.001   109765066.175        -463.878          52.000    20548223.176    85372788.692        -360.762          50.000  
R06  23512376.557   125466541.193         804.397          33.000                                                                  
R23  23012275.950   123100186.525        1289.717          45.000                                                                  
R21  22767430.201   121833628.688       -3204.040          51.000    22767423.107    94759582.206       -2492.042          45.000  
G28  25497537.802   133990423.101       -3624.712          40.000    25497537.166   104408095.075       -2824.892          40.000  
E21  24367182.258   128050475.141       -1292.579          49.000    24367181.219    98116634.888        -990.417          51.000  
E13  24956229.338   131146284.566       -2186.584          47.000    24956230.716   100488817.259       -1675.428          52.000  
E27  27188016.641   142874017.854       -3335.358          45.000    27188018.205   109474908.187       -2555.642          50.000  
G18  21844258.249   114792653.143       -2435.840          47.000    21844253.253    89448932.141       -1898.059          49.000  
E26  24615363.474   129354868.742         208.416          47.000    24615362.748    99116215.744         159.756          52.000  
E14  24271895.757   127549737.196       -2796.722          47.000    24271894.166    97732942.804       -2142.856          51.000  
> 2024 04 17 06 06 30.0030000  0 26                     
G31  24061244.344   126442598.337       -3030.093          43.000    24061240.183    98526820.776       -2360.946          41.000  
G16  23275044.819   122311235.829        2185.661          44.000                                                                  
G26  21224063.390   111533226.756         -87.529          50.000    21224059.476    86909019.432         -68.142          45.000  
G27  24754191.122   130084113.960        1717.584          42.000    24754188.617   101364290.341        1338.611          40.000  
G23  21995185.795   115585628.338        1344.514          44.000    21995182.927    90066689.772        1047.802          48.000  
R22  20815471.162   111114554.926       -1090.763          51.000    20815466.336    86422259.990        -848.418          49.000  
R11  22180866.788   118527853.464       -4550.647          51.000    22180863.100    92188317.506       -3539.234          49.000  
R07  24276500.963   129954008.325        2863.066          49.000    24276496.177   101075371.673        2226.588          44.000  
R13  23098366.773   123343902.535        2632.117          38.000    23098367.250    95934171.690        2047.246          41.000  
G29  24204546.366   127195894.323       -2655.796          41.000    24204540.451    99113766.706       -2069.089          33.000  
S31  39650327.866   208363968.441        -642.098          44.000  
S33  40605225.324   213382032.177        -642.421          42.000  
G10  23884108.986   125511942.970        3085.504          46.000    23884106.538    97801440.872        2404.240          42.000  
E33  28249474.624   148452067.132        1644.047          35.000    28249479.509   113748955.179        1259.369          39.000  
R12  20550909.629   109779401.665        -491.958          52.000    20550906.438    85383938.511        -382.675          50.000  
R06  23507912.247                         783.085          30.000                                                                  
R23  23005065.818   123061623.640        1281.038          45.000                                                                  
R21  22785392.914   121929759.325       -3204.682          49.000    22785388.610    94834350.464       -2492.452          46.000  
G28  25518224.256   134099130.688       -3622.667          39.000    25518223.745   104492802.017       -2822.688          40.000  
E21  24374598.987   128089447.984       -1305.593          49.000    24374597.515    98146497.193       -1000.409          51.000  
E13  24968728.923   131211967.633       -2192.299          47.000    24968730.100   100539145.832       -1679.839          52.000  
E27  27207076.271   142974174.070       -3341.812          46.000    27207077.346   109551651.219       -2560.464          50.000  
G18  21858193.616   114865886.050       -2446.368          47.000    21858188.869    89505996.750       -1906.317          49.000  
E26  24614201.091   129348757.803         198.949          48.000    24614199.879    99111533.357         152.412          52.000  
E14  24287861.887   127633640.997       -2796.845          47.000    24287860.349    97797232.733       -2143.009          51.000  
E15                                                                  29064948.617                3      -2443.098          25.000  
> 2024 04 17 06 07 00.0030000  0 26                     
G31  24078564.837   126533620.807       -3038.223          41.000    24078561.904    98597747.324       -2367.609          41.000  
G16  23262593.574   122245804.222        2176.681          44.000                                                                  
G26  21224617.334   111536138.423        -106.532          50.000    21224613.807    86911288.254         -83.133          45.000  
G27  24744381.207   130032567.652        1718.463          41.000    24744379.376   101324124.427        1339.270          40.000  
G23  21987558.012   115545547.446        1327.533          44.000    21987555.563    90035457.929        1034.471          48.000  
R22  20821627.275   111147419.424       -1100.124          51.000    20821623.613    86447821.236        -855.690          50.000  
R11  22206448.884   118664560.012       -4563.170          50.000    22206445.210    92294644.778       -3549.176          49.000  
R07  24260464.010   129868163.607        2859.861          48.000    24260460.248   101008603.604        2224.395          44.000  
R13  23083626.599   123265175.316        2616.160          39.000    23083624.192    95872939.449        2034.757          41.000  
G29  24219719.614   127275630.456       -2659.592          42.000    24219714.679    99175898.720       -2072.227          33.000  
S31  39653995.087   208383240.900        -642.765          44.000  
S33  40608892.347   213401303.636        -642.397          43.000  
G10  23866510.382   125419462.274        3080.040          47.000    23866507.760    97729378.084        2400.236          42.000  
E33  28240110.027   148402844.166        1637.792          38.000    28240112.102   113711238.987        1255.119          40.000  
R12  20553750.815   109794577.085        -519.781          53.000    20553746.347    85395741.593        -404.195          49.000  
R06  23503566.661   125419544.287         762.381          33.000                                                                  
R23  22997907.452   123023329.790        1272.105          45.000                                                                  
R21  22803360.283   122025905.167       -3205.035          49.000    22803355.456    94909130.599       -2492.752          47.000  
G28  25538897.655   134207768.843       -3619.470          39.000    25538896.714   104577454.919       -2820.717          40.000  
E21  24382088.985   128128809.647       -1318.417          49.000    24382087.775    98176657.415       -1010.208          51.000  
E13  24981260.244   131277818.166       -2197.623          47.000    24981261.040   100589602.714       -1683.906          52.000  
E27  27226171.405   143074517.992       -3347.700          46.000    27226172.242   109628538.085       -2565.163          50.000  
G18  21872188.647   114939430.367       -2456.531          48.000    21872183.647    89563304.009       -1914.209          49.000  
E26  24613091.737   129342928.780         189.823          48.000    24613090.356    99107066.956         145.486          52.000  
E14  24303828.246   127717544.335       -2796.515          47.000    24303826.352    97861522.304       -2142.740          50.000  
E15                                                                  29083137.370                3      -2442.068          22.000  
> 2024 04 17 06 07 30.0030000  0 25                     
G31  24095932.878   126624892.936       -3046.408          41.000    24095929.773    98668868.425       -2373.544          40.000  
G16  23250195.614   122180649.243        2167.538          45.000                                                                  
G26  21225281.478   111539628.890        -125.580          50.000    21225278.405    86914008.103         -97.907          46.000  
G27  24734568.929   129981007.850        1719.177          40.000    24734567.847   101283948.022        1339.526          41.000  
G23  21980031.656   115505990.964        1310.094          44.000    21980028.003    90004634.713        1020.854          48.000  
R22  20827838.239   111180572.138       -1109.529          51.000    20827834.147    86473606.684        -863.016          50.000  
R11  22232103.478   118801651.073       -4575.659          50.000    22232099.897    92401271.083       -3558.887          49.000  
R07  24244447.413   129782424.526        2856.462          48.000    24244442.789   100941917.748        2221.648          44.000  
R13  23068976.656   123186946.735        2599.423          39.000    23068974.719    95812095.039        2022.234          41.000  
G29  24234916.635   127355489.993       -2663.751          43.000    24234911.168    99238126.980       -2076.030          32.000  
S31  39657665.225   208402527.678        -642.806          44.000  
S33  40612562.336   213420589.966        -642.891          43.000  
G10  23848944.203   125327151.345        3074.254          47.000    23848941.259    97657447.560        2395.830          42.000  
E33  28230775.939   148353795.604        1632.594          38.000    28230778.581   113673656.489        1250.997          41.000  
R12  20556749.445   109810593.237        -547.493          52.000    20556744.660    85408198.600        -425.939          49.000  
R06  23499337.734   125396985.416         741.442          32.000                                                                  
R23  22990800.222   122985305.545        1263.206          46.000    22990440.754                3       1011.367          12.000  
R21  22821330.378   122122066.046       -3205.152          50.000    22821325.802    94983922.392       -2492.909          48.000  
G28  25559557.125   134316335.788       -3617.392          39.000    25559556.243   104662052.265       -2818.842          40.000  
E21  24389653.106   128168561.002       -1331.126          49.000    24389652.371    98207116.231       -1020.035          52.000  
E13  24993821.676   131343835.493       -2202.981          47.000    24993823.340   100640187.417       -1687.965          52.000  
E27  27245301.000   143175049.316       -3353.845          45.000    27245302.555   109705568.518       -2569.783          50.000  
G18  21886243.371   115013284.663       -2466.639          48.000    21886237.539    89620852.805       -1922.141          49.000  
E26  24612035.716   129337381.884         180.604          47.000    24612034.747    99102816.751         138.301          51.000  
E14  24319794.710   127801446.209       -2796.413          47.000    24319792.334    97925810.760       -2142.686          50.000  
> 2024 04 17 06 08 00.0030000  0 26                     
G31  24113342.100   126716379.340       -3053.010          37.000    24113338.625    98740156.479       -2378.987          38.000  
G16  23237844.411   122115741.382        2159.479          46.000                                                                  
G26  21226049.868   111543667.192        -143.642          50.000    21226047.664    86917154.830        -111.997          46.000  
G27  24724749.167   129929402.718        1721.082          39.000    24724747.298   101243736.259        1341.187          40.000  
G23  21972597.765   115466929.093        1293.838          44.000    21972594.575    89974196.934        1008.192          48.000  
R22  20834097.109   111213978.634       -1117.780          52.000    20834092.121    86499589.530        -869.383          50.000  
R11  22257823.267   118939090.340       -4586.989          50.000    22257819.086    92508168.230       -3567.732          49.000  
R07  24228445.396   129696763.238        2854.131          49.000    24228439.957   100875292.403        2219.928          44.000  
R13  23054414.335   123109187.762        2584.170          38.000    23054412.554    95751615.882        2010.168          40.000  
G29  24250130.407   127435441.277       -2666.344          43.000    24250125.920    99300426.580       -2077.461          34.000  
S31  39661332.154   208421797.054        -641.975          44.000  
S33  40616229.160   213439857.957        -642.064          42.000  
G10  23831404.704   125234981.184        3070.053          47.000    23831401.745    97585626.764        2391.883          42.000  
E33  28221468.983   148304889.811        1627.809          38.000    28221471.895   113636183.391        1247.260          42.000  
R12  20559898.507   109827418.340        -574.262          52.000    20559894.940    85421284.752        -446.663          49.000  
R06  23495223.292   125375024.463         722.449          36.000                                                                  
R23  22983736.386   122947517.209        1255.735          46.000                                                                  
R21  22839297.426   122218208.068       -3204.248          49.000    22839293.744    95058699.501       -2492.228          49.000  
G28  25580196.480   134424796.578       -3613.468          40.000    25580196.176   104746566.879       -2815.494          41.000  
E21  24397285.753   128208670.084       -1342.836          49.000    24397285.025    98237849.144       -1028.919          52.000  
E13  25006410.467   131409986.160       -2207.269          47.000    25006411.339   100690874.289       -1691.161          52.000  
E27  27264461.270   143275734.667       -3358.667          45.000    27264461.894   109782716.983       -2573.437          49.000  
G18  21900349.373   115087414.677       -2475.553          47.000    21900344.386    89678616.444       -1929.090          49.000  
E26  24611028.636   129332084.463         172.504          48.000    24611026.821    99098757.700         132.210          52.000  
E14  24335754.043   127885312.715       -2794.835          47.000    24335751.606    97990072.121       -2141.484          50.000  
E15                                                                  29119486.531                3      -2437.050          27.000  
> 2024 04 17 06 08 30.0030000  0 26                     
G31  24130790.035   126808068.559       -3060.120          36.000    24130785.654    98811602.601       -2384.583          37.000  
G16  23225539.066   122051074.833        2151.207          47.000                                                                  
G26  21226920.633   111548245.822        -161.948          49.000    21226918.730    86920722.594        -126.199          46.000  
G27  24714919.338   129877743.979        1722.620          41.000    24714916.904   101203482.752        1342.078          41.000  
G23  21965258.436   115428355.752        1277.337          44.000    21965254.000    89944139.781         995.241          48.000  
R22  20840400.382   111247628.617       -1126.074          50.000    20840396.091    86525761.743        -875.885          50.000  
R11  22283605.631   119076864.412       -4598.438          49.000    22283601.363    92615325.749       -3576.538          48.000  
R07  24212456.591   129611175.524        2851.271          49.000    24212451.510   100808724.292        2217.835          44.000  
R13  23039939.629   123031893.624        2568.352          38.000    23039937.578    95691498.212        1998.154          39.000  
G29  24265360.347   127515475.603       -2669.501          41.000    24265355.600    99362790.931       -2080.036          33.000  
S31  39664994.288   208441041.815        -641.403          44.000  
S33  40619890.968   213459101.305        -641.245          42.000  
G10  23813891.027   125142946.605        3065.056          47.000    23813887.841    97513911.557        2388.349          42.000  
E33  28212187.674   148256118.611        1622.950          38.000    28212190.811   113598813.410        1243.638          42.000  
R12  20563198.108   109845043.856        -601.224          52.000    20563194.977    85434993.477        -467.650          50.000  
R06  23491221.527   125353656.101         701.690          36.000                                                                  
R23  22976714.099   122909955.851        1247.909          46.000                                                                  
R21  22857258.559   122314321.567       -3203.737          50.000    22857253.579    95133454.418       -2491.784          49.000  
G28  25600813.525   134533140.067       -3609.994          39.000    25600813.595   104830990.065       -2812.620          42.000  
E21  24404984.328   128249128.466       -1354.860          48.000    24404983.903    98268849.703       -1038.040          52.000  
E13  25019022.334   131476260.203       -2211.431          47.000    25019022.861   100741655.703       -1694.469          52.000  
E27  27283647.725   143376564.400       -3363.665          45.000    27283649.169   109859976.092       -2577.346          49.000  
G18  21914505.578   115161809.707       -2484.572          47.000    21914502.070    89736586.604       -1936.040          50.000  
E26  24610066.011   129327027.475         164.266          48.000    24610064.590    99094882.885         125.839          52.000  
E14  24351704.183   127969133.629       -2793.483          47.000    24351702.339    98054298.543       -2140.452          51.000  
E15                                                                  29137636.351                       -2435.500          28.000  
> 2024 04 17 06 09 00.0030000  0 26                     
G31  24148280.055   126899988.335       -3068.370          35.000    24148277.575    98883228.376       -2390.616          38.000  
G16  23213285.759   121986682.981        2141.634          47.000                                                                  
G26  21227900.864   111553396.778        -181.433          49.000    21227898.812    86924736.315        -141.314          46.000  
G27  24705084.851   129826062.834        1722.888          44.000    24705082.311   101163211.809        1342.120          39.000  
G23  21958017.146   115390304.150        1259.638          44.000    21958013.402    89914489.209         981.455          48.000  
R22  20846754.740   111281551.728       -1135.580          51.000    20846751.359    86552146.373        -883.153          50.000  
R11  22309455.989   119215000.732       -4610.649          49.000    22309451.802    92722765.046       -3586.123          49.000  
R07  24196488.538   129525697.189        2847.287          49.000    24196484.150   100742241.236        2214.479          44.000  
R13  23025558.023   122955099.796        2551.209          37.000    23025555.958    95631769.754        1984.356          40.000  
G29  24280612.188   127595624.599       -2673.628          41.000    24280607.430    99425244.710       -2083.970          33.000  
S31  39668657.161   208460290.388        -641.945          44.000  
S33  40623553.763   213478348.480        -641.950          42.000  
G10  23796409.390   125051081.739        3059.115          46.000    23796407.124    97442328.605        2383.804          42.000  
E33  28202937.981   148207513.366        1617.223          37.000    28202941.599   113561570.597        1239.334          43.000  
R12  20566653.505   109863501.534        -629.309          52.000    20566650.586    85449349.445        -489.397          50.000  
R06  23487334.318   125332914.398         680.690          35.000                                                                  
R23  22969740.975   122872651.990        1239.071          47.000                                                                  
R21  22875219.022   122410436.803       -3204.034          50.000    22875214.303    95208210.687       -2492.017          48.000  
G28  25621413.894   134641394.598       -3607.122          39.000    25621413.640   104915343.953       -2810.973          42.000  
E21  24412755.452   128289967.212       -1367.820          48.000    24412755.012    98300141.721       -1048.056          51.000  
E13  25031663.392   131542687.213       -2216.804          48.000    25031663.356   100792554.334       -1698.622          51.000  
E27  27302868.661   143477568.265       -3369.814          45.000    27302869.944   109937368.615       -2582.098          50.000  
G18  21928718.644   115236498.564       -2494.784          46.000    21928714.768    89794785.703       -1943.864          49.000  
E26  24609155.052   129322241.332         154.951          48.000    24609154.019    99091215.601         118.676          52.000  
E14  24367651.397   128052938.140       -2793.344          47.000    24367650.025    98118512.400       -2140.375          51.000  
E15                                                                  29155767.565                3      -2432.637          25.000  
> 2024 04 17 06 09 30.0030000  0 26                     
G31  24165814.194   126992135.129       -3074.590          32.000    24165813.112    98955030.961       -2396.015          38.000  
G16  23201084.750   121922568.189        2132.844          47.000                                                                  
G26  21228990.490   111559120.686        -199.878          50.000    21228988.068    86929196.522        -155.930          46.000  
G27  24695246.872   129774359.226        1724.200          44.000    24695242.946   101122923.298        1343.463          40.000  
G23  21950875.309   115352776.208        1242.692          44.000    21950872.252    89885246.697         968.185          48.000  
R22  20853160.833   111315745.920       -1143.888          51.000    20853157.004    86578741.853        -889.775          50.000  
R11  22335374.010   119353495.014       -4622.058          51.000    22335369.576    92830482.769       -3594.904          48.000  
R07  24180541.273   129440332.292        2843.939          48.000    24180536.723   100675846.343        2212.037          44.000  
R13  23011271.436   122878809.799        2534.682          37.000    23011269.491    95572433.149        1971.650          40.000  
G29  24295885.502   127675888.064       -2677.096          41.000    24295881.166    99487787.619       -2086.010          34.000  
S31  39672321.015   208479544.708        -641.531          44.000  
S33  40627217.596   213497602.204        -641.660          43.000  
G10  23778960.841   124959389.386        3053.823          46.000    23778958.779    97370880.110        2379.562          43.000  
E33  28193720.691   148159073.942        1612.698          38.000    28193723.673   113524454.854        1235.345          43.000  
R12  20570264.206   109882791.364        -656.469          52.000    20570261.707    85464352.657        -510.550          50.000  
R06  23483564.073                         659.843          32.000                                                                  
R23  22962815.024   122835604.437        1231.076          46.000                                                                  
R21  22893178.949   122506552.144       -3203.394          49.000    22893176.311    95282967.042       -2491.556          48.000  
G28  25641997.293   134749557.065       -3603.799          39.000    25641996.106   104999626.088       -2807.793          41.000  
E21  24420598.769   128331186.001       -1379.867          48.000    24420598.479    98331724.946       -1057.273          51.000  
E13  25044332.654   131609265.422       -2221.276          48.000    25044332.870   100843568.805       -1702.023          51.000  
E27  27322122.010   143578744.679       -3374.974          45.000    27322123.426   110014893.343       -2585.994          50.000  
G18  21942987.324   115311478.716       -2503.871          47.000    21942982.516    89853211.795       -1950.956          49.000  
E26  24608295.777   129317725.096         146.453          48.000    24608294.449    99087755.128         112.231          52.000  
E14  24383594.742   128136724.153       -2792.176          46.000    24383594.083    98182712.073       -2139.330          51.000  
E15                                                                  29173891.040                3      -2430.721          25.000  
> 2024 04 17 06 10 00.0030000  0 26                     
G31  24183388.771   127084474.622       -3081.014          35.000    24183384.414    99026983.718       -2400.514          38.000  
G16  23188931.556   121858702.225        2124.632          47.000                                                                  
G26  21230183.223   111565387.462        -217.993          50.000    21230181.259    86934079.711        -169.960          46.000  
G27  24685397.893   129722602.301        1726.166          44.000    24685394.164   101082593.241        1345.038          41.000  
G23  21943828.382   115315743.199        1226.135          45.000    21943825.022    89856389.812         955.351          48.000  
R22  20859611.348   111350177.698       -1151.717          51.000    20859607.285    86605522.117        -895.802          50.000  
R11  22361352.519   119492311.256       -4632.548          51.000    22361347.944    92938450.910       -3603.119          48.000  
R07  24164611.657   129355054.220        2841.028          49.000    24164606.343   100609519.000        2209.819          46.000  
R13  22997075.454   122802995.892        2519.184          38.000    22997071.677    95513466.802        1959.619          40.000  
G29  24311174.643   127756235.364       -2679.561          40.000    24311168.941                       -2088.075          32.000  
S31  39675980.294   208498773.325        -640.461          44.000  
S33  40630876.311   213516829.158        -640.399          42.000  
G10  23761540.127   124867841.782        3049.144          46.000    23761537.438    97299544.353        2375.653          43.000  
E33  28184528.717   148110769.847        1607.920          38.000    28184531.629   113487442.739        1231.772          43.000  
R12  20574025.318   109902881.723        -683.063          52.000    20574022.236    85479978.499        -531.368          50.000  
R06  23479906.376   125293290.076         640.319          33.000                                                                  
R23  22955931.532   122798781.432        1223.596          46.000                                                                  
R21  22911135.792   122602634.857       -3202.221          50.000    22911130.047    95357698.078       -2490.649          47.000  
G28  25662556.595   134857593.776       -3599.143          38.000    25662555.466   105083810.212       -2804.505          40.000  
E21  24428508.278   128372753.851       -1391.313          47.000    24428508.503    98363575.624       -1066.139          51.000  
E13  25057024.976   131675962.343       -2225.150          48.000    25057025.021   100894674.240       -1705.118          52.000  
E27  27341402.225   143680061.344       -3379.617          45.000    27341403.365   110092525.568       -2589.599          50.000  
G18  21957304.376   115386716.861       -2512.220          47.000    21957300.029    89911838.930       -1957.612          49.000  
E26  24607481.640   129313447.118         138.668          48.000    24607480.325    99084477.202         106.210          52.000  
E14  24399529.616   128220458.855       -2790.276          46.000    24399528.452    98246872.431       -2138.015          51.000  
E15                                                                  29191995.743                       -2428.306          26.000  
> 2024 04 17 06 10 30.0030000  0 26                     
G31  24200998.595   127177009.952       -3087.370          35.000    24200993.525    99099089.211       -2406.241          38.000  
G16  23176826.971   121795094.029        2115.863          47.000                                                                  
G26  21231480.456   111572204.414        -236.415          50.000    21231478.309    86939391.629        -184.110          46.000  
G27  24675539.552   129670798.756        1727.563          44.000    24675536.976   101042226.904        1345.795          41.000  
G23  21936877.609   115279213.755        1209.038          44.000    21936873.973    89827925.304         942.090          49.000  
R22  20866107.561   111384851.933       -1159.751          52.000    20866103.122    86632490.985        -902.145          50.000  
R11  22387391.357   119631451.728       -4643.473          52.000    22387385.659    93046671.232       -3611.456          47.000  
R07  24148698.732   129269873.540        2837.689          49.000    24148693.602   100543267.465        2207.052          45.000  
R13  22982969.610   122727668.351        2502.263          37.000    22982964.792    95454878.768        1946.173          39.000  
G29  24326483.175   127836672.966       -2682.875          40.000    24326477.035    99613074.466       -2090.655          34.000  
S31  39679635.342   208517981.142        -639.968          44.000  
S33  40634531.206   213536035.218        -639.820          43.000  
G10  23744148.799   124776448.513        3043.849          46.000    23744146.609    97228328.892        2371.838          44.000  
E33  28175364.405   148062607.707        1603.038          39.000    28175366.938   113450539.414        1228.206          44.000  
R12  20577937.445   109923779.419        -710.100          52.000    20577934.286    85496232.290        -552.349          50.000  
R06  23476364.277   125274388.052         620.248          35.000                                                                  
R23  22949090.756   122762188.019        1215.902          46.000                                                                  
R21  22929087.015   122698690.605       -3201.431          53.000    22929082.412    95432408.036       -2489.879          49.000  
G28  25683092.881   134965508.498       -3595.298          41.000    25683091.361   105167899.281       -2801.464          40.000  
E21  24436486.087   128414677.198       -1403.384          47.000    24436486.162    98395698.699       -1075.352          51.000  
E13  25069740.920   131742782.990       -2229.416          49.000    25069740.933   100945874.482       -1708.233          52.000  
E27  27360709.938   143781523.490       -3384.561          44.000    27360711.180   110170269.242       -2593.334          50.000  
G18  21971671.921   115462217.314       -2521.010          47.000    21971667.087    89970670.441       -1964.435          49.000  
E26  24606714.638   129309413.242         130.365          48.000    24606712.292    99081386.321          99.811          51.000  
E14  24415455.224   128304146.948       -2788.909          47.000    24415453.887    98310997.077       -2137.010          51.000  
E15                                                                  29210081.247                3      -2427.158          25.000  
> 2024 04 17 06 11 00.0030000  0 26                     
G31  24218645.187   127269737.254       -3094.078          33.000    24218640.239    99171344.142       -2410.877          38.000  
G16  23164771.908   121731745.141        2107.327          47.000                                                                  
G26  21232882.359   111579571.259        -254.734          50.000    21232879.623    86945132.020        -198.576          46.000  
G27  24665672.489   129618947.624        1729.364          44.000    24665669.601   101001823.479        1347.479          40.000  
G23  21930021.984   115243188.833        1192.371          45.000    21930018.268    89799853.955         929.081          48.000  
R22  20872647.099   111419765.620       -1167.689          50.000    20872643.548    86659646.073        -908.142          50.000  
R11  22413488.698   119770911.184       -4653.747          51.000    22413483.823    93155139.633       -3619.573          48.000  
R07  24132805.735   129184793.761        2834.319          49.000    24132799.390   100477094.359        2204.548          46.000  
R13  22968954.475   122652829.936        2486.122          36.000    22968950.579    95396671.146        1933.814          40.000  
G29  24341806.293   127917199.824       -2685.743          39.000    24341801.285    99675822.691       -2093.103          35.000  
S31  39683286.508   208537168.114        -639.016          44.000  
S33  40638182.237   213555222.056        -639.224          42.000  
G10  23726787.140   124685211.620        3038.645          47.000    23726784.384    97157235.281        2367.827          43.000  
E33  28166226.413   148014586.562        1598.093          39.000    28166228.320   113413744.107        1224.724          44.000  
R12  20582000.129   109945483.174        -736.829          52.000    20581997.127    85513112.976        -573.108          50.000  
R06  23472938.310   125256097.617         599.571          34.000                                                                  
R23  22942292.134   122725822.817        1208.399          47.000    22942957.340                3       1017.000          12.000  
R21  22947031.109   122794717.018       -3200.250          50.000    22947026.289    95507095.298       -2489.261          48.000  
G28  25703604.490   135073297.306       -3590.769          41.000    25703603.174   105251890.263       -2798.026          39.000  
E21  24444531.916   128456954.825       -1415.178          48.000    24444531.403    98428093.235       -1084.388          51.000  
E13  25082479.011   131809724.733       -2233.308          48.000    25082479.476   100997167.504       -1711.320          52.000  
E27  27380044.441   143883128.676       -3388.985          44.000    27380045.980   110248122.500       -2596.853          50.000  
G18  21986088.813   115537976.610       -2529.707          47.000    21986083.773    90029703.665       -1971.131          49.000  
E26  24605992.627   129305621.600         122.330          48.000    24605990.427    99078481.041          93.728          51.000  
E14  24431371.399   128387785.488       -2787.116          47.000    24431369.655    98375083.748       -2135.556          51.000  
E15                                                                  29228150.148                3      -2423.310          27.000  
> 2024 04 17 06 11 30.0030000  0 26                     
G31  24236326.960   127362657.375       -3100.796          32.000    24236321.767    99243749.384       -2416.278          35.000  
G16  23152767.370   121668662.498        2097.895          48.000                                                                  
G26  21234389.441   111587493.472        -273.662          50.000    21234387.317    86951305.159        -213.187          46.000  
G27  24655797.294   129567053.830        1730.444          44.000    24655794.337   100961386.806        1348.016          39.000  
G23  21923264.826   115207675.279        1174.857          46.000    21923260.271    89772181.070         915.388          48.000  
R22  20879232.855   111454921.686       -1176.178          50.000    20879229.094    86686989.698        -914.833          49.000  
R11  22439646.549   119910690.174       -4664.840          51.000    22439641.565    93263856.580       -3628.452          48.000  
R07  24116932.964   129099823.951        2830.203          50.000    24116927.465   100411006.853        2201.280          46.000  
R13  22955032.498   122578489.270        2469.235          36.000    22955029.752    95338850.667        1920.386          40.000  
G29  24357147.222   127997820.741       -2689.280          38.000    24357143.728    99738644.305       -2095.490          37.000  
S31  39686934.675   208556339.085        -639.047          44.000  
S33  40641830.042   213574391.615        -638.956          43.000  
G10  23709456.250   124594138.854        3032.643          46.000    23709454.221    97086269.559        2363.097          43.000  
E33  28157116.542   147966711.363        1593.052          40.000    28157118.059   113377060.639        1220.732          44.000  
R12  20586215.244   109967997.656        -764.338          52.000    20586211.433    85530624.222        -594.448          49.000  
R06  23469628.289   125238426.128         578.297          37.000                                                                  
R23  22935538.192   122689689.538        1200.201          48.000                                                                  
R21  22964971.691   122890717.539       -3199.950          51.000    22964967.662    95581762.320       -2488.845          48.000  
G28  25724092.879   135180962.142       -3587.265          41.000    25724091.315   105335784.584       -2795.281          39.000  
E21  24452645.674   128499591.311       -1427.493          48.000    24452645.132    98460762.748       -1093.816          51.000  
E13  25095241.329   131876790.742       -2237.937          48.000    25095241.580   101048555.728       -1714.758          52.000  
E27  27399407.316   143984880.189       -3394.521          44.000    27399408.650   110326087.891       -2600.971          49.000  
G18  22000554.571   115613997.134       -2538.730          46.000    22000550.144    90088940.417       -1978.252          49.000  
E26  24605317.323   129302076.161         113.735          48.000    24605315.549    99075764.423          87.023          50.000  
E14  24447278.128   128471377.310       -2785.961          47.000    24447276.726    98439134.636       -2134.723          51.000  
E15                                                                  29246203.148                       -2421.119          28.000  
> 2024 04 17 06 12 00.0030000  0 26                     
G31  24254048.039   127455768.129       -3106.824          38.000    24254039.105    99316303.312       -2421.356          33.000  
G16  23140814.357   121605849.413        2089.472          48.000                                                                  
G26  21236002.830   111595972.501        -291.807          49.000    21236000.577    86957912.189        -227.453          46.000  
G27  24645913.162   129515118.182        1732.111          43.000    24645911.352   100920917.512        1349.750          40.000  
G23  21916603.958   115172675.808        1158.502          45.000    21916600.223    89744908.791         902.594          48.000  
R22  20885864.763   111490318.988       -1183.808          52.000    20885860.733    86714520.935        -920.768          50.000  
R11  22465862.674   120050784.822       -4675.051          50.000    22465858.409    93372818.997       -3636.062          48.000  
R07  24101081.078   129014969.358        2826.652          50.000    24101074.489   100345008.903        2198.570          44.000  
R13  22941204.978   122504650.369        2452.839          37.000    22941202.035    95281420.382        1908.210          40.000  
G29  24372507.924   128078536.689       -2691.861          40.000    24372503.504    99801539.797       -2097.699          37.000  
S31  39690579.654   208575493.891        -638.128          44.000  
S33  40645474.738   213593544.722        -637.950          43.000  
G10  23692157.485   124503234.006        3027.562          45.000    23692155.788    97015434.699        2359.029          44.000  
E33  28148033.901   147918983.022        1588.301          42.000    28148035.103   113340489.722        1217.183          44.000  
R12  20590582.048   109991323.495        -790.862          52.000    20590578.005    85548766.511        -615.145          49.000  
R06  23466433.281   125221376.859         557.628          35.000    23466063.007                3        579.279          13.000  
R23  22928826.106   122653787.954        1192.953          48.000    22928255.358                3       1004.117          10.000  
R21  22982907.278   122986691.830       -3198.493          52.000    22982901.486    95656409.019       -2487.741          48.000  
G28  25744557.457   135288500.984       -3582.246          40.000    25744555.736   105419580.770       -2791.474          36.000  
E21  24460827.488   128542587.313       -1439.035          48.000    24460827.091    98493707.726       -1102.756          51.000  
E13  25108026.761   131943980.194       -2241.659          48.000    25108027.092   101100038.551       -1717.654          52.000  
E27  27418797.463   144086777.395       -3398.942          44.000    27418799.075   110404164.945       -2604.459          49.000  
G18  22015069.930   115690277.310       -2546.727          47.000    22015065.213    90148379.541       -1984.517          48.000  
E26  24604689.724   129298776.958         106.013          48.000    24604687.811    99073236.462          81.176          50.000  
E14  24463175.600   128554921.357       -2783.804          47.000    24463174.327    98503148.910       -2133.016          51.000  
E15                                                                  29264235.060                       -2419.226          26.000  
> 2024 04 17 06 12 30.0030000  0 26                     
G31  24271806.450   127549084.067       -3114.484          40.000    24271797.799    99389017.001       -2427.087          35.000  
G16  23128916.657   121543326.436        2078.797          48.000                                                                  
G26  21237725.926   111605027.052        -311.683          49.000    21237723.492    86964967.666        -242.821          46.000  
G27  24636025.013   129463158.839        1731.714          43.000    24636024.070   100880429.762        1349.445          40.000  
G23  21910046.079   115138210.462        1139.555          47.000    21910041.104    89718052.698         888.022          48.000  
R22  20892543.616   111525973.799       -1193.128          51.000    20892539.693    86742252.459        -928.035          50.000  
R11  22492140.992   120191209.008       -4686.623          50.000    22492137.007    93482037.729       -3645.269          48.000  
R07  24085255.152   128930252.350        2821.086          49.000    24085249.184   100279117.955        2194.176          45.000  
R13  22927474.954   122431335.286        2434.127          36.000    22927472.466    95224397.615        1893.415          40.000  
G29  24387890.167   128159365.863       -2696.459          43.000    24387883.127    99864523.599       -2101.473          35.000  
S31  39694225.092   208594650.538        -638.853          44.000  
S33  40649119.906   213612700.076        -639.035          43.000  
G10  23674894.561   124412518.195        3020.354          46.000    23674892.555    96944747.134        2353.322          43.000  
E33  28138982.915   147871419.647        1582.145          42.000    28138983.827   113304045.177        1212.413          44.000  
R12  20595103.968   110015478.931        -819.357          52.000    20595099.533    85567554.062        -637.269          49.000  
R06  23463358.843   125204970.646         535.981          34.000                                                                  
R23  22922162.647   122618135.939        1183.859          49.000                                                                  
R21  23000841.045   123082656.818       -3199.145          51.000    23000836.071    95731048.416       -2488.130          48.000  
G28  25765000.962   135395929.114       -3579.704          38.000    25764999.636   105503290.640       -2788.972          35.000  
E21  24469081.235   128585960.590       -1452.462          48.000    24469080.722    98526941.774       -1112.869          51.000  
E13  25120838.359   132011309.565       -2246.993          47.000    25120839.332   101151628.584       -1721.738          52.000  
E27  27438218.797   144188836.867       -3405.006          44.000    27438220.439   110482366.338       -2609.077          49.000  
G18  22029638.080   115766832.861       -2556.769          47.000    22029633.213    90208033.226       -1992.293          48.000  
E26  24604112.201   129295741.163          96.490          47.000    24604110.403    99070910.346          73.865          51.000  
E14  24479067.723   128638433.785       -2783.613          47.000    24479066.162    98567138.967       -2132.913          51.000  
E15                                                                  29282255.525                1      -2418.341          26.000  
> 2024 04 17 06 13 00.0030000  0 26                     
G31  24289602.232   127642602.207       -3120.841          37.000    24289592.877    99461888.130       -2431.271          34.000  
G16  23117075.005   121481096.393        2069.197          48.000                                                                  
G26  21239558.997   111614658.058        -330.833          50.000    21239555.826    86972472.341        -257.772          45.000  
G27  24626133.909   129411176.247        1732.904          43.000    24626131.096   100839923.887        1350.018          38.000  
G23  21903590.159   115104281.519        1121.850          47.000    21903584.721    89691614.558         874.151          47.000  
R22  20899270.476   111561884.577       -1201.464          49.000    20899267.577    86770183.072        -934.528          50.000  
R11  22518480.252   120331959.017       -4697.254          50.000    22518475.973    93591509.856       -3653.507          48.000  
R07  24069454.953   128845677.787        2816.461          48.000    24069449.727   100213337.761        2190.734          45.000  
R13  22913844.125   122358547.975        2417.273          38.000    22913842.053    95167785.271        1880.181          40.000  
G29  24403292.599   128240308.429       -2700.006          41.000    24403285.419    99927595.748       -2104.056          35.000  
S31  39697870.952   208613809.036        -638.829          44.000  
S33  40652765.276   213631857.542        -638.931          42.000  
G10  23657669.170   124321994.778        3014.076          47.000    23657666.223    96874209.431        2348.760          43.000  
E33  28129963.593   147824021.705        1576.967          43.000    28129963.911   113267727.419        1208.329          44.000  
R12  20599781.119   110040463.519        -846.799          52.000    20599776.534    85586986.505        -658.707          49.000  
R06  23460405.064   125189210.079         514.589          35.000                                                                  
R23  22915544.087   122582732.390        1175.773          49.000                                                                  
R21  23018771.750   123178611.930       -3198.528          52.000    23018765.964    95805680.179       -2487.777          46.000  
G28  25785422.434   135503244.008       -3575.586          34.000    25785421.884   105586912.268       -2786.942          32.000  
E21  24477406.741   128629711.292       -1464.812          48.000    24477406.224    98560465.030       -1122.405          51.000  
E13  25133677.341   132078777.605       -2251.527          48.000    25133677.951   101203324.866       -1725.071          52.000  
E27  27457670.200   144291057.563       -3410.119          43.000    27457672.305   110560691.243       -2613.035          48.000  
G18  22044259.113   115843661.679       -2565.583          48.000    22044253.453    90267899.815       -1999.234          49.000  
E26  24603583.784   129292968.307          87.827          47.000    24603583.068    99068785.709          67.277          51.000  
E14  24494953.583   128721913.089       -2782.337          47.000    24494951.923    98631103.634       -2131.904          51.000  
E15                                                                  29300259.540                3      -2414.904          26.000  
> 2024 04 17 06 13 30.0030000  0 26                     
G31  24307436.917   127736321.759       -3127.686          35.000    24307427.671    99534916.261       -2436.838          34.000  
G16  23105289.778   121419164.257        2059.092          48.000                                                                  
G26  21241501.929   111624868.788        -350.489          50.000    21241498.696    86980428.767        -273.072          45.000  
G27  24616238.720   129359173.217        1733.386          44.000    24616234.995   100799402.067        1350.702          39.000  
G23  21897235.950   115070893.559        1103.459          46.000    21897231.329    89665597.993         859.850          48.000  
R22  20906045.803   111598052.131       -1210.393          50.000    20906043.309    86798313.406        -941.366          50.000  
R11  22544880.262   120473033.039       -4708.210          50.000    22544876.047    93701234.030       -3661.937          47.000  
R07  24053683.312   128761253.306        2811.237          48.000    24053680.317   100147674.360        2186.530          48.000  
R13  22900313.584   122286294.633        2399.033          39.000    22900310.995    95111588.292        1865.985          40.000  
G29  24418716.970   128321367.521       -2704.352          40.000    24418708.823    99990758.642       -2106.838          34.000  
S31  39701517.800   208632972.910        -639.282          44.000  
S33  40656411.754   213651020.008        -639.220          42.000  
G10  23640480.893   124231669.398        3007.239          46.000    23640477.355    96803826.099        2343.259          43.000  
E33  28120975.176   147776792.034        1571.003          42.000    28120975.858   113231538.560        1203.791          43.000  
R12  20604613.805   110066280.103        -874.770          52.000    20604609.380    85607066.056        -680.389          49.000  
R06  23457572.988   125174100.592         492.228          36.000                                                                  
R23  22908972.160   122547579.027        1167.210          49.000                                                                  
R21  23036700.877   123274558.597       -3198.567          50.000    23036695.891    95880305.355       -2487.690          47.000  
G28  25805823.906                       -3571.862          31.000    25805823.383                       -2783.637          28.000  
E21  24485804.827   128673841.844       -1477.723          48.000    24485804.115    98594279.340       -1132.313          51.000  
E13  25146542.343   132146385.374       -2256.289          47.000    25146543.513   101255128.232       -1728.880          52.000  
E27  27477153.485   144393440.687       -3415.932          43.000    27477155.235   110639140.605       -2617.379          48.000  
G18  22058930.287   115920764.102       -2574.968          47.000    22058925.565    90327979.610       -2006.542          49.000  
E26  24603106.636   129290460.245          78.858          47.000    24603106.291    99066863.967          60.391          52.000  
E14  24510832.505   128805360.075       -2781.337          47.000    24510831.393    98695043.544       -2131.245          51.000  
E15                                                                  29318251.973                       -2414.827          28.000  
> 2024 04 17 06 14 00.0030000  0 26                     
G31  24325306.618   127830249.135       -3133.929          33.000    24325301.961    99608106.457       -2442.010          36.000  
G16  23093563.631   121357542.301        2049.203          48.000                                                                  
G26  21243557.320   111635669.783        -369.423          50.000    21243554.593    86988845.115        -287.817          46.000  
G27  24606340.762   129307159.750        1734.442          44.000    24606337.479   100758872.125        1351.526          40.000  
G23  21890987.984   115038058.450        1085.656          47.000    21890982.890    89640012.211         845.975          47.000  
R22  20912871.046   111634484.577       -1218.372          50.000    20912867.527    86826649.771        -947.694          49.000  
R11  22571342.142   120614436.833       -4718.522          51.000    22571336.815    93811214.706       -3670.003          46.000  
R07  24037943.030   128676992.471        2806.298          49.000    24037939.194   100082138.230        2182.553          48.000  
R13  22886885.277   122214589.343        2381.519          38.000    22886882.122    95055817.524        1852.207          40.000  
G29  24434165.234   128402552.664       -2707.867          41.000    24434158.059   100054019.829       -2110.794          33.000  
S31  39705166.901   208652150.345        -639.013          44.000  
S33  40660060.621   213670195.915        -638.991          42.000  
G10  23623332.904   124141555.073        3000.602          47.000    23623328.966    96733607.216        2338.218          44.000  
E33  28112020.674   147729740.545        1565.853          40.000    28112022.471   113195486.227        1199.782          44.000  
R12  20609604.793   110092938.204        -902.191          52.000    20609601.216    85627800.126        -701.700          51.000  
R06  23454864.975   125159654.582         471.200          35.000                                                                  
R23  22902447.915   122512685.408        1159.050          48.000                                                                  
R21  23054632.117   123370505.448       -3197.823          51.000    23054625.779    95954930.708       -2487.192          47.000  
E21  24494276.078   128718361.948       -1490.051          48.000    24494275.779    98628392.136       -1141.820          51.000  
E13  25159435.809   132214141.227       -2260.570          47.000    25159437.127   101307045.054       -1732.138          53.000  
E27  27496669.394   144495994.658       -3420.872          44.000    27496670.602   110717720.877       -2621.167          48.000  
G18  22073655.900   115998147.730       -2583.815          47.000    22073651.186    90388278.514       -2013.390          49.000  
E26  24602682.053   129288226.055          70.316          47.000    24602681.195    99065152.081          53.849          52.000  
E14  24526706.761   128888782.850       -2779.974          46.000    24526705.820    98758964.894       -2130.123          51.000  
E15                                                                  29336232.433                       -2411.942          27.000  
G28                                                                  25826195.999                3      -2777.856          25.000  
> 2024 04 17 06 14 30.0030000  0 26                     
G31  24343211.945   127924347.922       -3139.371          34.000    24343209.907    99681430.057       -2446.240          35.000  
G16  23081890.393   121296199.831        2039.926          48.000                                                                  
G26  21245718.736   111647028.174        -388.038          50.000    21245715.931    86997695.804        -302.326          46.000  
G27  24596434.174   129255102.584        1735.950          44.000    24596431.814   100718308.114        1352.820          41.000  
G23  21884838.805   115005744.642        1068.311          47.000    21884833.300    89614832.656         832.452          47.000  
R22  20919739.706   111671146.160       -1225.994          51.000    20919735.231    86855164.350        -953.558          50.000  
R11  22597859.701   120756131.851       -4728.143          51.000    22597853.979    93921421.913       -3677.428          47.000  
R07  24022227.420   128592866.353        2801.752          49.000    24022224.498   100016706.854        2179.193          48.000  
R13  22873553.306   122143401.422        2364.254          38.000    22873550.387    95000449.168        1838.542          40.000  
G29  24449632.540   128483830.659       -2710.852          42.000    24449625.535   100117353.293       -2112.731          34.000  
S31  39708812.560   208671308.532        -638.341          44.000  
S33  40663706.057   213689351.703        -638.358          42.000  
G10  23606218.390   124051621.404        2994.490          47.000    23606215.480    96663529.120        2333.465          44.000  
E33  28103094.434   147682833.946        1561.116          40.000    28103096.516   113159544.928        1196.055          44.000  
R12  20614746.808   110120403.308        -929.079          53.000    20614742.559    85649161.853        -722.609          50.000  
R06  23452274.925   125145840.524         449.824          35.000                                                                  
R23  22895967.699   122478016.159        1151.795          49.000                                                                  
R21  23072556.583   123466417.593       -3196.587          52.000    23072550.277    96029529.073       -2486.360          48.000  
E21  24502815.652   128763237.910       -1502.012          48.000    24502815.354    98662777.587       -1150.870          51.000  
E13  25172351.461   132282010.182       -2264.302          47.000    25172352.213   101359048.536       -1734.926          53.000  
E27  27516210.743   144598684.631       -3425.405          45.000    27516211.842   110796405.352       -2624.609          48.000  
G18  22088428.092   116075776.725       -2591.920          48.000    22088423.794    90448768.626       -2019.636          49.000  
E26  24602302.483   129286231.495          62.358          48.000    24602301.480    99063623.790          47.752          52.000  
E14  24542570.478   128972146.182       -2777.861          46.000    24542569.050    98822840.692       -2128.493          50.000  
E15                                                                  29354192.850                3      -2407.665          24.000  
G28                                                                  25846538.074                3      -2775.625          24.000  
