     3.00           OBSERVATION DATA    M: Mixed            RINEX VERSION / TYPE
CONVBIN 2.4.3                           20240417 025942 UTC PGM / RUN BY / DATE 
format: u-blox UBX                                          COMMENT             
log: /home/regis/git/gnsspwv/obsdata/VERT00CHL/2024-04-17/VECOMMENT             
{self.marker}                                               MARKER NAME         
                                                            MARKER NUMBER       
GEODETIC                                                    MARKER TYPE         
{self.observer}     {self.institution}                      OBSERVER / AGENCY   
UNKNOWN             UBLOX-ZED-F9P                           REC # / TYPE / VERS 
UNKNOWN             TWIVSP6037L                             ANT # / TYPE        
  1713381.0000 -5047934.0000 -3490983.0000                  APPROX POSITION XYZ 
        0.0000        0.0000        0.0000                  ANTENNA: DELTA H/E/N
G    8 C1C L1C D1C S1C C2L L2L D2L S2L                      SYS / # / OBS TYPES 
R    8 C1C L1C D1C S1C C2C L2C D2C S2C                      SYS / # / OBS TYPES 
E    8 C1C L1C D1C S1C C7Q L7Q D7Q S7Q                      SYS / # / OBS TYPES 
S    4 C1C L1C D1C S1C                                      SYS / # / OBS TYPES 
  2024    04    17    02    45   00.4980000     GPS         TIME OF FIRST OBS   
  2024    04    17    02    59   30.4980000     GPS         TIME OF LAST OBS    
                                                            END OF HEADER       
> 2024 04 17 02 45 00.4980000  0 23                     
G11  22790571.617   119765289.2371      -3134.490          44.000    22790566.835    93323634.2071      -2442.567          43.000  
G12  21250874.942   111674107.6701      -1867.111          47.000    21250870.527    87018771.4571      -1454.632          44.000  
G20  23532449.394   123663825.4761        499.922          38.000                                                                  
G24  23237214.925   122112258.0931      -4340.875          43.000    23237219.989    95152382.7811      -3382.410          40.000  
R10  18858043.149   100524029.9591       -155.518          46.000                                                                  
R11  21111503.293   112813491.0421       2617.745          48.000    21111499.079    87743811.7691       2036.038          49.000  
R09  20456919.459   109238796.8931      -3039.144          51.000    20456918.290    84963499.4841      -2363.793          51.000  
R20  18794779.155   100504249.6231      -1887.399          41.000    18794779.200    78170027.1581      -1467.776          45.000  
G25  19977855.403   104984362.2601       -303.838          48.000    19977854.056    81806017.2401       -236.804          46.000  
G29  20059901.870   105415634.0831       -329.573          48.000    20059896.639    82142133.6701       -256.831          46.000  
S31  38157249.267   200517751.8651       -676.217          44.000  
S33  39111438.816   205532080.8441       -676.686          43.000  
R21  19925131.559   106623882.9681       2344.801          51.000    19925127.451    82929771.1971       1823.632          48.000  
G28  21431581.008   112623731.0371       1477.095          46.000    21431577.535    87758737.5621       1150.909          46.000  
E15  23375209.076   122837674.2471       -466.337          48.000    23375211.031    94122449.7241       -357.310          52.000  
E21  25325599.644   133086970.8271       1123.130          41.000    25325600.912   101975761.0521        860.521          46.000  
E13  24527858.899   128895128.4731       2015.830          47.000    24527861.870    98763892.1871       1544.574          50.000  
E27  23130846.112   121553454.5591       -425.172          47.000    23130846.981    93138375.0101       -325.753          52.000  
E30  25294635.308   132924201.1821      -2141.246          45.000    25294637.115   101851018.9611      -1640.788          50.000  
E34  26204003.788   137702991.2791      -2910.428          47.000    26204004.847   105512706.6111      -2230.032          44.000  
G32  23799182.886   125065508.2931      -2952.013          40.000    23799187.074    97453626.0461      -2300.530          41.000  
G18  23176538.028   121793695.6351       3100.488          45.000    23176540.458    94904256.0131       2415.771          43.000  
G05  24347122.885   127945031.9641       1478.317          43.000    24347122.624    99697423.6821       1151.667          39.000  
> 2024 04 17 02 45 30.4980000  0 23                     
G11  22808506.015   119859533.355       -3148.751          45.000    22808499.691    93397071.178       -2453.603          41.000  
G12  21261552.380   111730215.656       -1873.935          48.000    21261548.094    87062491.966       -1460.174          45.000  
G20  23529628.820   123649006.539         487.440          37.000                                                                  
G24  23262007.311   122242542.198       -4345.020          42.000    23262012.442    95253902.378       -3385.620          40.000  
R10  18858965.122   100528939.602        -172.198          47.000                                                                  
R11  21096813.688   112734997.828        2614.557          48.000    21096809.851    87682761.584        2033.563          48.000  
R09  20474033.594   109330180.960       -3053.453          52.000    20474030.891    85034575.959       -2374.884          50.000  
R20  18805433.906   100561225.860       -1911.454          41.000    18805433.938    78214342.035       -1486.674          45.000  
G25  19979611.940   104993589.758        -311.629          48.000    19979609.906    81813207.519        -242.910          46.000  
G29  20061817.278   105425699.718        -341.952          49.000    20061812.759    82149977.071        -266.506          46.000  
S31  38161108.278   200538032.035        -676.069          44.000  
S33  39115302.006   205552380.111        -677.148          42.000  
R21  19912037.070   106553815.819        2326.140          51.000    19912033.174    82875274.681        1809.172          47.000  
G28  21423190.012   112579636.825        1462.054          47.000    21423186.174    87724378.475        1139.233          46.000  
E15  23377912.792   122851879.911        -481.074          48.000    23377914.189    94133334.617        -368.653          52.000  
E21  25319186.968   133053274.928        1123.343          41.000    25319188.820   101949942.180         860.663          47.000  
E13  24516371.558   128834760.896        2008.284          47.000    24516374.651    98717636.668        1538.854          50.000  
E27  23133282.642   121566260.441        -428.978          47.000    23133283.876    93148187.324        -328.720          53.000  
E30  25306870.536   132988494.175       -2145.179          46.000    25306872.012   101900282.419       -1643.804          50.000  
E34  26220644.235   137790434.924       -2919.515          47.000    26220644.691   105579708.879       -2237.053          45.000  
G32  23816052.886   125154156.491       -2957.930          41.000    23816055.598    97522702.356       -2305.159          39.000  
G18  23158847.579   121700733.423        3096.674          45.000    23158850.158    94831818.536        2413.104          43.000  
G05  24338691.778   127900722.770        1475.468          44.000    24338691.758    99662897.400        1149.736          41.000  
> 2024 04 17 02 46 00.4980000  0 23                     
G11  22826519.317   119954197.462       -3162.715          44.000    22826514.996    93470835.442       -2464.338          43.000  
G12  21272268.526   111786529.726       -1880.906          47.000    21272264.328    87106373.048       -1465.699          45.000  
G20  23526884.291   123634580.092         474.022          39.000                                                                  
G24  23286823.775   122372950.274       -4349.280          42.000    23286828.722    95355518.642       -3389.246          39.000  
R10  18859980.775   100534352.279        -189.249          48.000                                                                  
R11  21082142.152   112656597.700        2611.393          49.000    21082138.486    87621783.772        2031.102          48.000  
R09  20491227.600   109421995.040       -3067.989          52.000    20491224.340    85105986.902       -2386.239          49.000  
R20  18816223.958   100618924.380       -1935.478          41.000    18816223.525    78259218.673       -1505.438          45.000  
G25  19981412.099   105003046.341        -319.609          49.000    19981409.622    81820576.297        -248.854          46.000  
G29  20063803.137   105436137.379        -354.347          48.000    20063798.742    82158110.355        -276.169          46.000  
S31  38164967.511   200558312.735        -676.322          44.000  
S33  39119164.817   205572680.882        -677.141          42.000  
R21  19899047.851   106484307.818        2307.161          51.000    19899043.204    82821212.997        1794.473          47.000  
G28  21414884.475   112535990.253        1446.981          47.000    21414880.454    87690368.204        1127.582          46.000  
E15  23380700.223   122866530.120        -496.010          48.000    23380701.814    94144560.150        -380.086          51.000  
E21  25312774.605   133019573.213        1123.414          41.000    25312775.831   101924118.851         860.691          47.000  
E13  24504927.558   128774618.435        2000.711          47.000    24504929.597    98671553.627        1532.981          50.000  
E27  23135742.316   121579183.031        -432.896          48.000    23135743.135    93158089.068        -331.758          53.000  
E30  25319126.600   133052907.037       -2149.166          45.000    25319129.240   101949637.720       -1646.896          50.000  
E34  26237335.954   137878149.400       -2928.522          47.000    26237335.841   105646918.692       -2243.907          45.000  
G32  23832956.909   125242984.553       -2964.268          41.000    23832959.336    97591918.835       -2309.893          39.000  
G18  23141177.659   121607879.792        3093.018          45.000    23141179.846    94759465.709        2410.059          43.000  
G05  24330275.787   127856496.735        1472.424          44.000    24330275.672    99628435.896        1147.451          41.000  
> 2024 04 17 02 46 30.4980000  0 23                     
G11  22844614.232   120049284.351       -3177.014          44.000    22844609.301    93544929.131       -2475.580          42.000  
G12  21283025.605   111843055.670       -1888.199          48.000    21283021.137    87150419.232       -1471.427          45.000  
G20  23524216.194   123620553.606         460.266          41.000                                                                  
G24  23311663.583   122503484.949       -4353.864          42.000    23311669.303    95457233.522       -3392.322          38.000  
R10  18861092.517   100540275.370        -206.511          48.000                                                                  
R11  21067489.946   112578298.414        2607.806          49.000    21067485.821    87560884.426        2028.158          48.000  
R09  20508502.343   109514243.667       -3082.732          52.000    20508499.265    85177735.783       -2397.619          49.000  
R20  18827149.148   100677347.574       -1959.927          41.000    18827148.970    78304658.946       -1524.522          45.000  
G25  19983255.974   105012738.408        -327.459          49.000    19983253.781    81828128.597        -255.274          46.000  
G29  20065860.399   105446951.116        -367.077          48.000    20065856.546    82166536.682        -286.035          46.000  
S31  38168828.085   200578599.814        -676.784          44.000  
S33  39123029.221   205592988.542        -677.465          43.000  
R21  19886164.907   106415367.238        2288.073          51.000    19886161.083    82767592.700        1779.564          48.000  
G28  21406665.196   112492798.779        1431.599          47.000    21406661.396    87656712.531        1115.668          46.000  
E15  23383573.888   122881630.070        -511.312          48.000    23383574.921    94156130.271        -391.817          51.000  
E21  25306360.553   132985871.266        1122.942          40.000    25306362.698   101898295.333         860.491          47.000  
E13  24493526.665   128714707.996        1992.713          48.000    24493529.353    98625648.370        1526.747          51.000  
E27  23138224.968   121592228.235        -437.482          48.000    23138225.574    93168084.756        -335.104          53.000  
E30  25331408.059   133117445.367       -2153.911          45.000    25331409.866   101999089.188       -1650.510          49.000  
E34  26254079.152   137966138.113       -2938.008          47.000    26254079.771   105714338.662       -2251.310          46.000  
G32  23849894.353   125331994.587       -2970.548          40.000    23849898.242    97661277.104       -2314.421          41.000  
G18  23123530.038   121515142.763        3088.971          45.000    23123531.974    94687203.724        2406.750          42.000  
G05  24321876.920   127812363.531        1469.207          43.000    24321876.663    99594046.712        1144.383          39.000  
> 2024 04 17 02 47 00.4980000  0 23                     
G11  22862790.608   120144807.115       -3191.801          44.000    22862786.180    93619362.433       -2487.200          42.000  
G12  21293825.580   111899809.875       -1896.049          48.000    21293820.511    87194643.280       -1477.184          44.000  
G20  23521626.301   123606944.612         446.280          39.000                                                                  
G24  23336529.661   122634159.062       -4358.478          41.000    23336536.192    95559057.069       -3396.198          37.000  
R10  18862301.979   100546726.791        -224.125          47.000                                                                  
R11  21052859.167   112500118.621        2603.538          48.000    21052855.692    87500078.004        2025.010          49.000  
R09  20525860.339   109606941.839       -3097.892          51.000    20525858.386    85249834.317       -2409.370          49.000  
R20  18838213.035   100736508.177       -1984.769          41.000    18838212.197    78350672.791       -1543.608          45.000  
G25  19985148.235   105022682.677        -336.050          48.000    19985146.154    81835877.382        -261.886          46.000  
G29  20067992.476   105458155.625        -380.256          48.000    20067988.509    82175267.502        -296.284          46.000  
S31  38172692.877   200598909.171        -677.785          43.000  
S33  39126897.254   205613316.754        -678.098          43.000  
R21  19873390.398   106347012.037        2268.468          51.000    19873386.927    82714427.687        1764.144          47.000  
G28  21398536.297   112450080.128        1415.709          48.000    21398532.141    87623425.319        1103.113          46.000  
E15  23386535.715   122897195.113        -526.809          49.000    23386537.162    94168056.772        -403.715          51.000  
E21  25299949.432   132952184.826        1122.364          41.000    25299952.336   101872483.719         859.953          48.000  
E13  24482173.412   128655046.795        1984.210          47.000    24482175.699    98579934.083        1520.408          50.000  
E27  23140734.135   121605412.243        -442.081          49.000    23140734.583    93178186.804        -338.791          53.000  
E30  25343717.666   133182125.061       -2158.660          46.000    25343717.988   102048648.948       -1654.025          49.000  
E34  26270877.136   138054414.795       -2947.686          45.000    26270878.525   105781979.267       -2258.671          47.000  
G32  23866868.696   125421199.024       -2977.427          39.000    23866873.145    97730786.832       -2319.855          40.000  
G18  23105907.979   121422540.672        3083.990          45.000    23105909.384    94615046.820        2403.259          42.000  
G05  24313499.851   127768340.779        1465.159          42.000    24313499.064    99559743.559        1141.706          39.000  
> 2024 04 17 02 47 30.4980000  0 23                     
G11  22881051.569   120240766.353       -3205.971          45.000    22881046.981    93694135.860       -2498.226          43.000  
G12  21304669.471   111956795.876       -1903.431          48.000    21304664.819    87239047.950       -1483.269          45.000  
G20  23519116.459   123593758.534         432.384          38.000                                                                  
G24  23361422.301   122764973.058       -4362.610          41.000    23361429.309    95660989.610       -3399.646          38.000  
R10  18863613.033   100553711.702        -241.861          48.000                                                                  
R11  21038252.602   112422064.212        2599.832          49.000    21038248.377    87439369.114        2022.007          49.000  
R09  20543305.803   109700092.472       -3112.572          51.000    20543303.304    85322284.787       -2421.034          50.000  
R20  18849414.910   100796407.069       -2009.268          41.000    18849413.862    78397260.845       -1562.463          45.000  
G25  19987089.468   105032883.376        -344.294          48.000    19987087.084    81843825.983        -268.207          46.000  
G29  20070199.006   105469752.958        -393.160          47.000    20070194.880    82184304.435        -306.232          46.000  
S31  38176562.186   200619242.939        -678.154          44.000  
S33  39130770.506   205633669.945        -679.105          43.000  
R21  19860727.830   106279248.031        2248.937          52.000    19860722.991    82661722.454        1749.014          47.000  
G28  21390498.202   112407839.647        1399.951          48.000    21390494.030    87590510.683        1090.851          46.000  
E15  23389586.727   122913228.322        -542.340          49.000    23389588.338    94180342.000        -415.482          51.000  
E21  25293542.936   132918517.423        1122.139          41.000    25293545.552   101846686.675         859.639          48.000  
E13  24470868.183   128595639.680        1975.845          47.000    24470870.888    98534414.473        1514.054          50.000  
E27  23143270.075   121618738.900        -446.551          49.000    23143270.585    93188398.166        -342.204          53.000  
E30  25356052.852   133246949.574       -2163.323          46.000    25356053.673   102098319.675       -1657.604          49.000  
E34  26287730.234   138142980.746       -2957.090          45.000    26287732.489   105849841.497       -2265.734          48.000  
G32  23883880.944   125510597.797       -2983.063          42.000    23883885.301    97800448.044       -2324.813          40.000  
G18  23088312.531   121330079.330        3079.645          45.000    23088313.680    94542999.618        2399.677          42.000  
G05  24305143.978   127724433.547        1461.682          41.000    24305142.862    99525530.442        1138.804          39.000  
> 2024 04 17 02 48 00.4980000  0 23                     
G11  22899390.739   120337141.986       -3219.369          45.000    22899386.049    93769233.752       -2508.269          42.000  
G12  21315554.388   112013996.927       -1910.098          48.000    21315550.249    87283620.185       -1488.300          45.000  
G20  23516683.850   123580979.591         419.318          36.000                                                                  
G24  23386339.023   122895906.749       -4366.034          42.000    23386345.788    95763015.358       -3402.205          39.000  
R10  18865020.313   100561214.669        -258.577          47.000                                                                  
R11  21023665.440   112344120.053        2596.549          48.000    21023662.117    87378745.913        2019.490          48.000  
R09  20560830.461   109793676.770       -3126.380          51.000    20560828.205    85395072.534       -2431.636          49.000  
R20  18860750.398   100857023.076       -2031.909          42.000    18860749.037    78444406.668       -1580.650          45.000  
G25  19989076.038   105043324.065        -351.721          48.000    19989073.801    81851961.613        -274.159          46.000  
G29  20072477.461   105481724.232        -404.962          48.000    20072472.653    82193632.763        -315.570          46.000  
S31  38180433.088   200639583.971        -677.841          44.000  
S33  39134645.049   205654031.298        -678.597          43.000  
R21  19848171.039   106212059.702        2230.206          50.000    19848167.397    82609465.015        1734.613          47.000  
G28  21382548.544   112366061.946        1385.114          48.000    21382543.650    87557956.662        1079.267          46.000  
E15  23392723.085   122929711.915        -556.747          49.000    23392724.460    94192972.335        -426.505          50.000  
E21  25287137.773   132884851.771        1122.544          42.000    25287138.975   101820890.960         860.024          47.000  
E13  24459608.244   128536470.732        1968.708          46.000    24459611.398    98489077.367        1508.334          50.000  
E27  23145830.068   121632191.311        -450.195          49.000    23145830.460    93198705.874        -345.073          53.000  
E30  25368412.487   133311901.679       -2166.997          46.000    25368413.775   102148088.166       -1660.421          49.000  
E34  26304634.741   138231816.524       -2965.460          44.000    26304637.356   105917910.513       -2272.246          48.000  
G32  23900926.895   125600170.227       -2988.224          42.000    23900931.011    97870244.578       -2328.643          41.000  
G18  23070741.633   121237743.985        3076.020          46.000    23070741.800    94471050.594        2396.969          42.000  
G05  24296807.296   127680627.894        1458.694          41.000    24296806.985    99491396.507        1136.689          39.000  
> 2024 04 17 02 48 30.4980000  0 24                     
G31  24010521.174                1       2697.895          27.000    24010514.036                1       2102.240          28.000  
G11  22917802.065   120433895.562       -3231.446          44.000    22917798.248    93844626.204       -2518.117          42.000  
G12  21326473.560   112071377.257       -1915.782          48.000    21326468.870    87328332.139       -1492.990          44.000  
G20  23514322.275   123568574.543         406.976          34.000                                                                  
G24  23411271.114   123026921.433       -4368.661          43.000    23411277.631    95865104.255       -3404.305          40.000  
R10  18866518.383   100569201.260        -274.377          47.000                                                                  
R11  21009092.499   112266252.147        2594.119          48.000    21009090.270    87318182.050        2017.587          48.000  
R09  20578430.690   109887657.364       -3139.553          50.000    20578427.075    85468168.543       -2441.815          48.000  
R20  18872211.867   100918316.977       -2054.344          41.000    18872211.426    78492079.717       -1598.054          45.000  
G25  19991101.336   105053969.963        -358.448          48.000    19991099.849    81860257.120        -279.347          46.000  
G29  20074820.389   105494032.379        -416.078          48.000    20074814.939    82203223.559        -324.153          46.000  
S31  38184298.293   200659896.222        -676.918          44.000  
S33  39138514.191   205674363.699        -677.434          42.000  
R21  19835716.196   106145412.781        2212.395          50.000    19835713.303    82557628.648        1720.658          48.000  
G28  21374679.959   112324713.220        1371.043          47.000    21374675.264    87525736.927        1068.387          46.000  
E15  23395938.647   122946609.825        -570.302          48.000    23395939.508    94205920.133        -437.073          50.000  
E21  25280725.007   132851152.239        1123.748          42.000    25280725.955   101795069.303         861.052          47.000  
E13  24448387.255   128477505.720        1961.887          46.000    24448390.394    98443896.524        1503.325          50.000  
E27  23148406.739   121645734.210        -453.134          48.000    23148407.612    93209082.918        -347.205          53.000  
E30  25380789.490   133376945.830       -2169.780          45.000    25380791.067   102197927.193       -1662.596          49.000  
E34  26321583.675   138320884.363       -2972.859          44.000    26321586.206   105986157.329       -2277.922          49.000  
G32  23917998.008   125689877.300       -2992.713          43.000    23918001.425    97940145.938       -2331.739          40.000  
G18  23053188.081   121145501.471        3073.194          46.000    23053188.221    94399173.906        2394.387          42.000  
G05  24288484.381   127636891.240        1456.533          43.000    24288483.402    99457316.277        1134.856          39.000  
> 2024 04 17 02 49 00.4980000  0 24                     
G31  23995116.570                3       2693.328          25.000    23995103.114                        2099.043          27.000  
G11  22936284.561   120531017.122       -3243.738          45.000    22936280.401    93920305.359       -2527.539          42.000  
G12  21337425.213   112128929.972       -1921.483          48.000    21337421.253    87373178.422       -1497.318          45.000  
G20  23512032.508   123556537.858         394.993          34.000                                                                  
G24  23436216.968   123158006.974       -4371.107          44.000    23436222.969    95967248.306       -3405.932          40.000  
R10  18868105.968   100577665.872        -290.324          47.000                                                                  
R11  20994533.917   112188455.691        2591.782          47.000    20994531.499    87257673.792        2015.885          48.000  
R09  20596102.662   109982026.272       -3152.467          50.000    20596099.951    85541566.540       -2451.830          49.000  
R20  18883799.649   100980278.147       -2076.723          42.000    18883798.488    78540271.761       -1615.275          45.000  
G25  19993165.263   105064814.777        -365.063          48.000    19993163.831    81868707.614        -284.393          47.000  
G29  20077224.696   105506668.757        -426.909          48.000    20077220.102    82213070.135        -332.555          46.000  
S31  38188156.123   200680172.400        -675.442          44.000  
S33  39142376.073   205694657.317        -676.074          42.000  
R21  19823360.267   106079301.866        2194.513          51.000    19823358.878    82506209.178        1706.892          48.000  
G28  21366891.973   112283788.178        1356.858          48.000    21366887.556    87493847.333        1057.418          46.000  
E15  23399231.305   122963914.394        -583.782          48.000    23399232.319    94219179.523        -447.296          49.000  
E21  25274304.867   132817411.704        1124.896          43.000    25274305.219   101769216.224         862.118          47.000  
E13  24437203.481   128418738.815        1955.265          45.000    24437207.467    98398867.479        1498.200          50.000  
E27  23150999.315   121659360.827        -455.914          48.000    23151000.440    93219524.107        -349.331          53.000  
E30  25393183.582   133442074.883       -2172.719          45.000    25393185.400   102247831.268       -1664.732          50.000  
E34  26338575.857   138410174.940       -2980.185          44.000    26338577.593   106054574.813       -2283.614          50.000  
G32  23935092.051   125779708.355       -2996.760          42.000    23935095.613    98010143.944       -2335.054          40.000  
G18  23035651.443   121053347.021        3070.044          46.000    23035651.756    94327365.824        2392.212          42.000  
G05  24280173.508   127593218.471        1454.433          42.000    24280172.555    99423285.817        1133.411          39.000  
> 2024 04 17 02 49 30.4980000  0 24                     
G11  22954839.240   120628518.418       -3256.544          45.000    22954834.501    93996280.421       -2537.346          43.000  
G12  21348413.269   112186669.831       -1927.658          48.000    21348409.112    87418170.531       -1502.329          45.000  
G20  23509816.377   123544885.972         381.713          32.000                                                                  
G24  23461177.867   123289175.020       -4373.710          44.000    23461183.507    96069456.656       -3408.296          40.000  
R10  18869787.116   100586625.232        -306.976          48.000                                                                  
R11  20979992.145   112110748.069        2588.661          48.000    20979989.692    87197234.618        2013.389          48.000  
R09  20613850.587   110076796.890       -3165.758          51.000    20613847.770    85615277.002       -2462.320          49.000  
R20  18895513.659   101042918.227       -2099.093          41.000    18895512.128    78588991.846       -1632.915          45.000  
G25  19995269.980   105075873.953        -372.457          48.000    19995268.367    81877325.182        -290.101          47.000  
G29  20079693.650   105519646.281        -438.342          48.000    20079690.232    82223182.542        -341.540          47.000  
S31  38192010.564   200700425.394        -674.759          44.000  
S33  39146233.479   205714931.012        -675.716          43.000  
R21  19811110.889   106013744.020        2175.792          52.000    19811108.058    82455219.851        1692.401          48.000  
G28  21359187.972   112243303.286        1342.050          48.000    21359183.717    87462300.696        1045.747          46.000  
E15  23402604.508   122981639.757        -598.001          48.000    23402605.255    94232761.334        -458.187          49.000  
E21  25267878.666   132783644.765        1125.941          42.000    25267879.343   101743342.923         862.716          47.000  
E13  24426060.606   128360185.984        1948.036          45.000    24426065.088    98354002.454        1492.657          50.000  
E27  23153611.098   121673086.152        -459.341          48.000    23153612.266    93230040.946        -351.941          53.000  
E30  25405596.710   133507303.445       -2176.115          46.000    25405598.146   102297811.607       -1667.331          50.000  
E34  26355612.290   138499700.765       -2988.269          43.000    26355614.002   106123172.522       -2289.681          50.000  
G32  23952212.482   125869674.612       -3001.375          44.000    23952216.437    98080247.287       -2338.842          41.000  
G18  23018134.361   120961297.693        3066.295          46.000    23018134.800    94255639.605        2389.421          42.000  
G05  24271878.046   127549626.522        1451.547          42.000    24271876.987    99389318.369        1131.422          39.000  
G31                                                                  23979760.281                        2095.260          29.000  
> 2024 04 17 02 50 00.4980000  0 24                     
G11  22973467.560   120726410.643       -3269.682          45.000    22973462.517    94072560.079       -2547.807          43.000  
G12  21359438.577   112244610.887       -1934.926          48.000    21359434.038    87463319.422       -1507.746          44.000  
G20  23507675.119   123533634.272         368.443          35.000                                                                  
G24  23486156.125   123420436.630       -4377.143          43.000    23486162.418    96171737.898       -3410.804          40.000  
R10  18871564.291   100596095.176        -324.369          48.000                                                                  
R11  20965470.367   112033145.924        2584.702          48.000    20965467.473    87136877.467        2010.410          48.000  
R09  20631675.023   110171982.406       -3180.041          50.000    20631672.441    85689310.163       -2473.193          48.000  
R20  18907356.454   101106247.978       -2122.497          42.000    18907355.410    78638248.323       -1650.808          45.000  
G25  19997417.688   105087162.314        -380.365          47.000    19997416.595    81886121.341        -296.349          46.000  
G29  20082230.465   105532977.696        -450.408          48.000    20082226.664    82233570.699        -351.069          47.000  
S31  38195863.335   200720670.669        -674.982          44.000  
S33  39150089.975   205735196.027        -675.224          42.000  
R21  19798965.413   105948755.575        2156.622          51.000    19798963.093    82404673.392        1677.374          48.000  
G28  21351571.453   112203274.421        1326.431          49.000    21351566.254    87431109.402        1033.630          46.000  
E15  23406059.611   122999799.422        -612.729          47.000    23406061.022    94246675.912        -469.512          49.000  
E21  25261449.773   132749865.550        1126.131          42.000    25261451.586   101717460.210         862.893          47.000  
E13  24414961.903   128301862.630        1940.164          45.000    24414966.206    98309313.274        1486.544          50.000  
E27  23156244.457   121686924.618        -463.354          48.000    23156245.587    93240644.459        -355.088          53.000  
E30  25418030.720   133572645.683       -2180.193          45.000    25418032.391   102347879.018       -1670.488          50.000  
E34  26372695.325   138589473.656       -2996.696          43.000    26372696.972   106191959.579       -2296.219          50.000  
G32  23969361.410   125959786.625       -3006.442          45.000    23969364.474    98150464.197       -2342.571          41.000  
G18  23000640.634   120869370.022        3062.245          46.000    23000641.980    94184008.233        2385.685          43.000  
G05  24263600.928   127506132.028        1447.700          42.000    24263600.645    99355426.880        1128.490          39.000  
G31                                                                  23964418.806                        2090.489          28.000  
> 2024 04 17 02 50 30.4980000  0 24                     
G31  23949138.640   125853585.2161       2678.631          28.000    23949110.612                        2087.195          29.000  
G11  22992167.278   120824679.411       -3281.874          44.000    22992161.786    94149133.136       -2557.369          42.000  
G12  21370500.205   112302742.132       -1940.817          48.000    21370495.842    87508616.491       -1512.374          44.000  
G20  23505608.674   123522773.512         354.699          34.000                                                                  
G24  23511150.287   123551777.305       -4379.370          43.000    23511155.883    96274080.735       -3412.186          40.000  
R10  18873433.928   100606066.297        -340.726          47.000                                                                  
R11  20950966.382   111955639.981        2581.969          49.000    20950963.619    87076595.156        2008.201          48.000  
R09  20649576.020   110267570.176       -3192.871          51.000    20649572.640    85763656.169       -2483.388          48.000  
R20  18919325.347   101170253.149       -2144.371          40.000    18919324.745    78688030.153       -1668.118          45.000  
G25  19999607.382   105098669.192        -387.228          48.000    19999606.027    81895087.735        -301.803          46.000  
G29  20084832.380   105546650.280        -461.335          49.000    20084828.118    82244224.680        -359.628          46.000  
S31  38199711.511   200740895.816        -673.696          44.000  
S33  39153942.253   205755440.997        -674.812          43.000  
R21  19786926.325   105884326.789        2138.292          52.000    19786923.845    82354562.219        1663.165          49.000  
G28  21344039.138   112163691.833        1311.908          49.000    21344034.283    87400265.861        1022.390          46.000  
E15  23409595.532   123018381.340        -626.361          47.000    23409597.275    94260914.031        -479.990          50.000  
E21  25255016.740   132716062.580        1127.169          42.000    25255019.473   101691559.277         863.672          48.000  
E13  24403905.841   128243758.600        1933.117          46.000    24403908.731    98264792.111        1481.197          49.000  
E27  23158897.732   121700865.074        -466.455          48.000    23158898.334    93251326.115        -357.302          53.000  
E30  25430485.001   133638090.051       -2183.267          45.000    25430485.077   102398024.705       -1672.833          49.000  
E34  26389822.211   138679479.924       -3004.058          41.000    26389824.622   106260925.452       -2301.757          50.000  
G32  23986533.681   126050029.422       -3010.013          43.000    23986537.495    98220783.050       -2345.954          41.000  
G18  22983167.815   120777554.941        3058.630          46.000    22983169.701    94112464.539        2383.400          43.000  
G05  24255339.468   127462725.367        1445.432          41.000    24255340.021    99321603.789        1126.721          39.000  
> 2024 04 17 02 51 00.4980000  0 24                     
G11  23010937.636   120923316.585       -3294.063          44.000    23010931.857    94225993.273       -2566.631          43.000  
G12  21381597.755   112361058.433       -1946.967          49.000    21381593.874    87554057.775       -1517.107          45.000  
G20  23503615.294                1        342.773          31.000                                                                  
G24  23536157.077   123683188.747       -4381.485          42.000    23536162.773    96376478.711       -3414.215          40.000  
R10  18875398.017   100616534.300        -357.375          47.000                                                                  
R11  20936480.237   111878227.421        2578.762          49.000    20936476.689    87016385.438        2005.797          47.000  
R09  20667550.419   110363553.729       -3206.024          50.000    20667547.274    85838310.034       -2493.541          48.000  
R20  18931418.059   101234924.214       -2167.100          40.000    18931417.983    78738329.848       -1685.147          44.000  
G25  20001838.160   105110390.162        -394.238          47.000    20001836.161    81904220.971        -307.251          46.000  
G29  20087498.542   105560657.062        -472.491          49.000    20087493.641    82255139.080        -368.195          46.000  
S31  38203555.066   200761093.623        -672.870          44.000  
S33  39157789.305   205775657.769        -673.580          42.000  
R21  19774989.066   105820454.087        2119.836          51.000    19774987.758    82304883.578        1648.648          49.000  
G28  21336590.406   112124552.032        1297.146          48.000    21336586.185    87369767.362        1010.792          46.000  
E15  23413210.925   123037379.654        -640.214          47.000    23413212.796    94275471.212        -490.582          50.000  
E21  25248580.008   132682230.526        1128.226          43.000    25248581.608   101665636.070         864.465          48.000  
E13  24392890.256   128185869.861        1926.184          47.000    24392892.474    98220435.929        1475.694          49.000  
E27  23161569.485   121714902.626        -469.576          48.000    23161569.433    93262082.175        -359.830          53.000  
E30  25442956.706   133703631.233       -2186.286          45.000    25442957.157   102448244.592       -1675.190          49.000  
E34  26406992.827   138769712.154       -3011.454          40.000    26406995.204   106330064.443       -2307.386          50.000  
G32  24003729.479   126140394.277       -3014.207          42.000    24003733.818    98291196.977       -2348.563          41.000  
G18  22965716.345   120685849.571        3055.012          46.000    22965717.980    94041006.338        2380.418          42.000  
G05  24247095.463   127419405.126        1442.519          40.000    24247095.995    99287848.063        1124.362          39.000  
G31                                                                  23933836.482    98005021.2951       2083.293          31.000  
> 2024 04 17 02 51 30.4980000  0 24                     
G31  23918602.053                1       2668.312          26.000    23918584.473                        2079.743          29.000  
G11  23029777.270   121022317.376       -3306.356          43.000    23029771.858    94303136.742       -2576.382          43.000  
G12  21392730.239   112419557.768       -1953.092          49.000    21392725.501    87599641.671       -1522.006          45.000  
G20  23501698.139                         329.585          29.000                                                                  
G24  23561176.441   123814666.112       -4383.804          42.000    23561182.490    96478928.051       -3416.022          40.000  
R10  18877454.647   100627499.279        -374.067          47.000                                                                  
R11  20922011.174   111800908.579        2575.567          49.000    20922007.482    86956248.611        2003.119          47.000  
R09  20685598.874   110459930.306       -3219.264          50.000    20685596.623    85913269.559       -2503.915          49.000  
R20  18943635.706   101300256.244       -2188.770          41.000    18943635.623    78789143.710       -1702.537          44.000  
G25  20004109.462   105122324.228        -401.429          48.000    20004107.437    81913520.268        -312.824          46.000  
G29  20090227.025   105574994.471        -483.459          49.000    20090221.972    82266311.133        -376.776          46.000  
S31  38207393.639   200781264.375        -672.139          44.000  
S33  39161631.452   205795847.529        -672.265          43.000  
R21  19763157.674   105757137.798        2101.095          51.000    19763154.894    82255637.664        1634.077          48.000  
G28  21329226.076   112085854.946        1282.385          47.000    21329222.316    87339613.835         999.123          47.000  
E15  23416905.289   123056791.956        -654.130          48.000    23416906.791    94290345.609        -501.237          50.000  
E21  25242136.190   132648367.612        1129.114          43.000    25242137.741   101639689.224         865.155          48.000  
E13  24381914.711   128128195.958        1918.598          46.000    24381917.427    98176244.341        1470.147          49.000  
E27  23164258.675   121729035.815        -472.972          48.000    23164258.782    93272911.513        -362.371          53.000  
E30  25455446.856   133769267.455       -2189.710          45.000    25455447.770   102498537.298       -1677.787          49.000  
E34  26424205.176   138860166.277       -3018.988          38.000    26424208.092   106399373.508       -2313.338          50.000  
G32  24020947.922   126230875.896       -3018.092          44.000    24020951.309    98361701.932       -2352.023          39.000  
G18  22948286.147   120594254.540        3050.924          45.000    22948287.370    93969634.084        2377.384          42.000  
G05  24238868.857   127376171.349        1439.457          41.000    24238868.411    99254159.685        1121.699          39.000  
> 2024 04 17 02 52 00.4980000  0 23                     
G11  23048682.952   121121670.460       -3317.583          41.000    23048677.931    94380554.721       -2585.161          44.000  
G12  21403895.898   112478232.629       -1958.897          50.000    21403891.065    87645362.350       -1526.461          45.000  
G24  23586206.716   123946197.944       -4385.203          42.000    23586212.973    96581419.827       -3417.069          40.000  
R10  18879603.542   100638954.319        -390.225          47.000                                                                  
R11  20907557.441   111723677.840        2572.676          47.000    20907554.885    86896180.314        2001.046          48.000  
R09  20703718.939   110556689.516       -3231.901          51.000    20703716.278    85988526.675       -2513.628          49.000  
R20  18955975.318   101366237.159       -2210.295          42.000    18955973.703    78840462.211       -1719.073          44.000  
G25  20006419.383   105134463.653        -408.240          48.000    20006417.569    81922979.548        -317.936          46.000  
G29  20093016.012   105589652.430        -494.031          49.000    20093011.206    82277732.962        -385.114          46.000  
S31  38211224.199   200801397.229        -670.472          44.000  
S33  39165465.974   205815999.724        -671.327          43.000  
R21  19751427.572   105694370.938        2082.921          51.000    19751425.457    82206819.124        1619.918          48.000  
G28  21321945.620   112047593.885        1267.875          47.000    21321941.176    87309800.067         988.029          47.000  
E15  23420676.108   123076609.182        -667.493          48.000    23420677.733    94305530.279        -511.480          50.000  
E21  25235684.631   132614465.406        1130.757          44.000    25235686.233   101613712.276         866.187          48.000  
E13  24370979.405   128070729.640        1911.910          46.000    24370981.901    98132211.855        1465.007          49.000  
E27  23166965.335   121743256.526        -475.613          49.000    23166964.837    93283807.919        -364.461          52.000  
E30  25467951.866   133834990.244       -2192.423          43.000    25467954.561   102548896.309       -1679.865          49.000  
E34  26441457.218   138950831.682       -3025.591          36.000    26441460.896   106468844.402       -2318.553          50.000  
G32  24038185.744   126321462.339       -3021.315          44.000    24038189.629    98432288.558       -2354.440          38.000  
G18  22930875.368   120502763.777        3047.730          45.000    22930876.441    93898343.096        2374.829          42.000  
G05  24230656.393   127333017.449        1436.891          41.000    24230656.070    99220533.556        1119.749          39.000  
G31                                                                  23903357.816                        2075.169          28.000  
> 2024 04 17 02 52 30.4980000  0 24                     
G11  23067654.124   121221370.397       -3329.466          40.000    23067649.533    94458242.996       -2594.264          44.000  
G12  21415094.484   112537080.518       -1964.646          50.000    21415089.530    87691217.836       -1530.933          45.000  
G20  23498071.225   123483159.3371        304.381          35.000                                                                  
G24  23611246.289   124077778.693       -4386.855          43.000    23611252.601    96683949.724       -3418.560          40.000  
R10  18881844.220   100650898.602        -406.535          47.000                                                                  
R11  20893120.385   111646534.468        2569.790          47.000    20893118.433    86836179.939        1998.712          48.000  
R09  20721910.584   110653827.936       -3244.589          51.000    20721907.047    86064078.742       -2523.382          48.000  
R20  18968434.698   101432861.188       -2231.739          41.000    18968432.815    78892280.926       -1735.894          43.000  
G25  20008768.049   105146806.774        -415.207          48.000    20008765.675    81932597.597        -323.352          45.000  
G29  20095865.216   105604627.349        -504.718          49.000    20095860.147    82289401.761        -393.170          45.000  
S31  38215048.007   200821489.947        -669.240          44.000  
S33  39169293.101   205836111.320        -670.087          43.000  
R21  19739801.319   105632153.055        2064.499          51.000    19739796.989    82158427.551        1605.736          46.000  
G28  21314747.234   112009768.032        1253.303          48.000    21314742.885    87280325.422         976.678          47.000  
E15  23424523.410   123096828.190        -680.912          47.000    23424525.426    94321022.810        -521.703          50.000  
E21  25229225.900   132580521.461        1131.862          44.000    25229226.883   101587703.304         867.396          48.000  
E13  24360083.744   128013469.760        1905.066          46.000    24360085.461    98088337.535        1459.578          49.000  
E27  23169686.976   121757562.637        -478.535          48.000    23169687.362    93294769.754        -366.719          52.000  
E30  25480474.066   133900797.146       -2195.074          42.000    25480477.070   102599319.754       -1681.970          49.000  
E34  26458751.451   139041703.600       -3032.800          38.000    26458753.106   106538473.545       -2323.763          49.000  
G32  24055443.209   126412147.640       -3024.707          45.000    24055446.520    98502952.193       -2356.763          38.000  
G18  22913485.318   120411377.266        3044.268          46.000    22913485.251    93827133.297        2372.058          41.000  
G05  24222460.121   127289944.237        1433.922          42.000    24222459.153    99186970.233        1117.457          39.000  
G31                                                                  23888164.951                        2072.443          29.000  
> 2024 04 17 02 53 00.4980000  0 24                     
G31  23873095.638                3       2655.720          25.000    23872996.533                        2069.700          30.000  
G11  23086690.615   121321405.437       -3340.033          42.000    23086685.522    94536192.420       -2602.594          44.000  
G12  21426324.436   112596092.548       -1969.712          50.000    21426318.692    87737201.234       -1534.879          44.000  
G20  23496369.321   123474205.396         292.039          34.000                                                                  
G24  23636292.608   124209396.611       -4387.928          42.000    23636299.704    96786508.579       -3419.154          41.000  
R10  18884175.819   100663324.430        -422.115          47.000                                                                  
R11  20878698.876   111569472.288        2567.352          48.000    20878697.398    86776242.748        1996.857          48.000  
R09  20740169.086   110751335.649       -3256.312          51.000    20740166.196    86139918.005       -2532.624          47.000  
R20  18981010.880   101500115.388       -2252.163          41.000    18981009.814    78944589.766       -1751.818          43.000  
G25  20011153.952   105159345.658        -421.063          48.000    20011151.766    81942368.179        -328.193          45.000  
G29  20098773.086   105619908.913        -514.447          49.000    20098768.141    82301309.511        -400.885          45.000  
S31  38218862.171   200841533.656        -667.434          44.000  
S33  39173111.091   205856174.641        -667.846          43.000  
R21  19728274.614   105570476.845        2046.948          51.000    19728271.365    82110457.280        1592.002          47.000  
G28  21307630.730   111972370.384        1239.442          47.000    21307626.997    87251184.462         965.815          47.000  
E15  23428446.297   123117439.627        -693.646          48.000    23428447.461    94336816.020        -531.315          50.000  
E21  25222756.221   132546527.000        1134.172          44.000    25222758.079   101561655.664         868.917          48.000  
E13  24349224.758   127956408.808        1898.842          46.000    24349227.066    98044615.630        1455.017          49.000  
E27  23172423.383   121771945.791        -480.724          48.000    23172424.148    93305790.623        -368.272          52.000  
E30  25493009.844   133966679.245       -2197.405          41.000    25493013.722   102649800.858       -1683.603          49.000  
E34  26476081.300   139132771.111       -3038.444          36.000    26476082.558   106608252.525       -2328.248          49.000  
G32  24072717.181   126502919.597       -3027.043          45.000    24072719.808    98573683.363       -2358.777          37.000  
G18  22896113.589   120320088.652        3041.505          46.000    22896113.175    93755999.772        2369.977          42.000  
G05  24214278.486   127246945.345        1432.151          42.000    24214276.264    99153464.832        1115.835          40.000  
> 2024 04 17 02 53 30.4980000  0 24                     
G11  23105786.389   121421754.590       -3349.988          40.000    23105781.587    94614386.584       -2610.572          44.000  
G12  21437582.159   112655250.733       -1974.262          51.000    21437576.394    87783298.531       -1538.397          45.000  
G20  23494733.537   123465607.025         280.635          36.000                                                                  
G24  23661341.607   124341030.554       -4387.818          42.000    23661349.159    96889079.944       -3419.533          41.000  
R10  18886595.055   100676215.441        -437.547          48.000                                                                  
R11  20864290.151   111492475.522        2565.465          49.000    20864288.453    86716356.436        1995.201          47.000  
R09  20758494.703   110849192.927       -3267.659          50.000    20758492.121    86216029.183       -2541.489          48.000  
R20  18993701.671   101567978.497       -2272.261          41.000    18993701.024    78997372.192       -1767.298          44.000  
G25  20013573.635   105172062.977        -426.832          48.000    20013572.058    81952277.769        -332.661          46.000  
G29  20101735.280   105635477.213        -523.627          48.000    20101730.369    82313440.689        -407.990          45.000  
S31  38222663.371   200861509.560        -664.577          44.000  
S33  39176915.784   205876168.997        -665.345          42.000  
R21  19716847.728   105509325.734        2029.655          51.000    19716844.063    82062895.425        1578.505          47.000  
G28  21300592.321   111935384.473        1226.104          47.000    21300589.269    87222364.304         955.389          48.000  
E15  23432438.803   123138424.648        -705.660          47.000    23432440.342    94352895.502        -540.688          50.000  
E21  25216274.126   132512463.967        1136.573          44.000    25216275.706   101535555.482         870.869          47.000  
E13  24338399.897   127899529.937        1893.046          45.000    24338403.796    98001033.266        1450.419          50.000  
E27  23175172.004   121786388.134        -482.333          48.000    23175172.436    93316856.846        -369.601          52.000  
E30  25505559.149   134032618.519       -2198.753          42.000    25505561.621   102700325.752       -1684.815          49.000  
E34  26493444.429   139224013.798       -3044.171          35.000    26493445.526   106678165.782       -2332.622          49.000  
G32  24090002.933   126593756.520       -3028.691          45.000    24090005.573    98644465.147       -2360.395          35.000  
G18  22878757.474   120228882.183        3038.953          45.000    22878756.311    93684930.288        2367.944          41.000  
G05  24206106.894   127204004.455        1430.615          41.000    24206105.175    99120004.654        1114.640          40.000  
G31                                                                  23857850.806                        2067.367          31.000  
> 2024 04 17 02 54 00.4980000  0 24                     
G11  23124940.642   121522411.802       -3360.565          41.000    23124936.096    94692820.764       -2618.610          43.000  
G12  21448866.069   112714552.222       -1979.242          50.000    21448861.049    87829507.523       -1542.245          44.000  
G20  23493165.057   123457363.444         268.369          35.000                                                                  
G24  23686392.584   124472674.401       -4388.301          41.000    23686400.715    96991658.991       -3419.507          41.000  
R10  18889099.773   100689569.971        -453.082          48.000                                                                  
R11  20849894.319   111415543.503        2563.208          49.000    20849891.144    86656520.491        1993.563          47.000  
R09  20776885.236   110947395.301       -3279.231          51.000    20776882.439    86292408.770       -2550.435          47.000  
R20  19006505.689   101636444.137       -2292.399          41.000    19006504.600    79050623.241       -1782.926          44.000  
G25  20016027.389   105184956.473        -432.940          48.000    20016025.638    81962324.639        -337.273          46.000  
G29  20104751.219   105651327.617        -533.081          48.000    20104746.857    82325791.709        -415.271          44.000  
S31  38226450.798   200881413.329        -662.310          44.000  
S33  39180707.188   205896092.178        -663.092          43.000  
R21  19705518.186   105448698.120        2012.038          51.000    19705513.995    82015740.705        1564.881          48.000  
G28  21293632.796   111898808.908        1212.204          47.000    21293629.218    87193863.891         944.633          47.000  
E15  23436502.523   123159779.487        -718.107          47.000    23436503.848    94369258.337        -550.260          49.000  
E21  25209778.470   132478329.294        1138.791          45.000    25209779.422   101509400.396         872.672          47.000  
E13  24327610.440   127842831.321        1886.648          45.000    24327614.416    97957589.002        1445.654          50.000  
E27  23177931.461   121800886.973        -484.399          48.000    23177931.468    93327966.360        -371.165          52.000  
E30  25518118.277   134098611.780       -2200.867          43.000    25518119.815   102750892.018       -1686.321          49.000  
E34  26510841.684   139315426.489       -3050.313          33.000    26510840.543   106748209.200       -2337.017          48.000  
G32  24107300.044   126684651.899       -3030.890          46.000    24107303.144    98715292.424       -2361.874          35.000  
G18  22861416.060   120137757.171        3035.994          46.000    22861414.784    93613924.260        2365.729          39.000  
G05  24197946.301   127161121.473        1428.427          41.000    24197944.557    99086589.667        1112.871          39.000  
G31                                                                  23842733.442                        2062.468          30.000  
> 2024 04 17 02 54 30.4980000  0 24                     
G11  23144154.325   121623377.716       -3371.210          41.000    23144149.564    94771495.528       -2626.947          43.000  
G12  21460179.548   112774000.745       -1984.518          50.000    21460173.415    87875831.034       -1546.393          44.000  
G20  23491663.020   123449479.499         256.419          36.000                                                                  
G24  23711445.807   124604328.820       -4388.891          41.000    23711454.739    97094246.267       -3420.159          41.000  
R10  18891692.523   100703393.590        -469.108          47.000                                                                  
R11  20835510.989   111338682.521        2560.286          49.000    20835507.255    86596739.788        1991.394          47.000  
R09  20795340.145   111045945.063       -3291.328          50.000    20795337.166    86369058.580       -2559.919          47.000  
R20  19019421.017   101705511.850       -2312.644          41.000    19019420.917    79104342.572       -1798.758          44.000  
G25  20018515.917   105198030.612        -439.319          48.000    20018513.930    81972512.286        -342.452          47.000  
G29  20107821.936   105667462.383        -542.938          49.000    20107816.964    82338364.274        -423.102          44.000  
S31  38230225.461   200901249.025        -660.616          44.000  
S33  39184485.011   205915947.269        -661.296          43.000  
R21  19694286.434   105388599.667        1993.877          51.000    19694283.649    81968997.571        1550.749          49.000  
G28  21286751.949   111862649.012        1197.878          47.000    21286748.261    87165687.382         933.441          48.000  
E15  23440637.074   123181507.172        -730.985          47.000    23440638.589    94385906.845        -560.129          50.000  
E21  25203270.043   132444126.725        1140.562          45.000    25203270.047   101483193.282         873.991          46.000  
E13  24316855.768   127786317.889        1880.264          45.000    24316860.366    97914286.642        1440.597          51.000  
E27  23180701.874   121815446.409        -486.882          48.000    23180701.942    93339122.303        -372.983          52.000  
E30  25530685.758   134164662.700       -2203.364          42.000    25530689.577   102801502.469       -1688.225          50.000  
E34  26528271.676   139407010.521       -3057.116          34.000    26528268.277   106818383.919       -2341.753          48.000  
G32  24124609.019   126775605.967       -3033.203          45.000    24124611.407    98786165.441       -2363.136          34.000  
G18  22844092.169   120046719.789        3032.648          47.000    22844090.244    93542986.462        2363.037          40.000  
G05  24189798.043   127118303.464        1425.582          42.000    24189796.096    99053225.244        1110.467          39.000  
G31                                                                  23827624.982                        2059.548          27.000  
> 2024 04 17 02 55 00.4980000  0 24                     
G11  23163430.401   121724676.278       -3382.458          39.000    23163426.100    94850429.469       -2635.815          43.000  
G12  21471524.856   112833623.204       -1990.841          49.000    21471520.363    87922290.101       -1551.319          45.000  
G20  23490236.471   123441983.787         243.197          35.000                                                                  
G24  23736505.852   124736017.662       -4390.945          40.000    23736514.698    97196860.315       -3421.093          41.000  
R10  18894378.572   100717715.008        -486.143          46.000                                                                  
R11  20821145.814   111261922.133        2556.473          49.000    20821142.054    86537037.288        1988.356          48.000  
R09  20813865.231   111144868.200       -3304.137          50.000    20813863.456    86445998.738       -2569.763          48.000  
R20  19032454.170   101775204.804       -2334.124          42.000    19032453.702    79158548.254       -1815.170          44.000  
G25  20021043.400   105211313.013        -446.792          48.000    20021041.892    81982862.225        -348.171          47.000  
G29  20110951.351   105683906.635        -553.711          49.000    20110946.505    82351177.990        -431.342          45.000  
S31  38233992.242   200921043.908        -659.550          44.000  
S33  39188255.584   205935759.670        -660.463          43.000  
R21  19683159.856   105329059.403        1974.867          51.000    19683156.434    81922688.588        1536.039          49.000  
G28  21279955.904   111826933.293        1182.714          48.000    21279951.531    87137856.991         921.509          47.000  
E15  23444847.340   123203633.801        -744.585          47.000    23444849.289    94402861.039        -570.518          50.000  
E21  25196753.092   132409883.111        1141.782          44.000    25196753.333   101456954.740         874.887          46.000  
E13  24306143.356   127730017.731        1872.753          45.000    24306146.109    97871147.662        1435.007          50.000  
E27  23183489.276   121830093.612        -490.024          48.000    23183489.277    93350345.506        -375.536          52.000  
E30  25543272.743   134230798.138       -2206.398          43.000    25543274.420   102852177.623       -1690.513          49.000  
E34  26545735.953   139498790.471       -3062.950          35.000    26545733.345   106888708.806       -2346.874          48.000  
G32  24141933.323   126866642.032       -3036.171          43.000    24141933.795                       -2366.184          31.000  
G18  22826790.009   119955799.240        3028.350          47.000    22826790.114    93472139.751        2359.666          43.000  
G05  24181667.192   127075578.109        1422.279          43.000    24181665.582    99019933.028        1108.080          38.000  
G31                                                                  23812546.180                3       2054.622          25.000  
> 2024 04 17 02 55 30.4980000  0 24                     
G11  23182775.538   121826335.392       -3394.885          40.000    23182771.002    94929644.385       -2645.355          43.000  
G12  21482909.759   112893451.092       -1997.875          49.000    21482905.056    87968909.213       -1556.673          45.000  
G20  23488890.993   123434908.353         228.659          37.000                                                                  
G24  23761578.181   124867768.713       -4392.864          41.000    23761586.565    97299522.904       -3422.935          40.000  
R10  18897164.101   100732566.982        -504.128          47.000                                                                  
R11  20806806.067   111185296.664        2551.742          48.000    20806802.774    86477439.771        1984.763          48.000  
R09  20832466.363   111244194.899       -3317.816          50.000    20832463.033    86523252.836       -2580.460          48.000  
R20  19045610.102   101845551.678       -2356.032          42.000    19045608.713    79213262.513       -1832.330          43.000  
G25  20023616.122   105224835.433        -454.774          48.000    20023614.982    81993399.203        -354.444          47.000  
G29  20114145.089   105700689.547        -565.210          49.000    20114140.506    82364255.610        -440.460          46.000  
S31  38237756.946   200940826.764        -659.445          44.000  
S33  39192023.643   205955562.120        -660.087          43.000  
R21  19672144.499   105270110.578        1954.890          52.000    19672139.910    81876839.610        1520.505          48.000  
G28  21273249.812   111791694.319        1166.480          47.000    21273244.810    87110398.091         909.069          46.000  
E15  23449140.441   123226189.590        -759.104          47.000    23449141.786    94420144.074        -581.725          51.000  
E21  25190234.086   132375629.415        1141.760          44.000    25190235.412   101430708.460         874.976          46.000  
E13  24295475.783   127673962.969        1864.297          45.000    24295479.663    97828196.732        1428.467          51.000  
E27  23186300.274   121844859.926        -494.328          49.000    23186299.036    93361659.973        -378.807          52.000  
E30  25555879.889   134297048.886       -2210.328          44.000    25555880.644   102902941.211       -1693.544          47.000  
E34  26563242.653   139590795.054       -3070.716          38.000    26563241.173   106959205.823       -2352.821          47.000  
G32  24159277.450   126957787.567       -3040.177          42.000    24159278.419    98928124.600       -2368.549          33.000  
G18  22809516.652   119865028.883        3022.892          47.000    22809516.939    93401410.019        2355.571          43.000  
G05  24173560.606   127032979.442        1417.532          43.000    24173558.469    98986739.508        1104.365          37.000  
G31                                                                  23797510.272                        2049.819          26.000  
> 2024 04 17 02 56 00.4980000  0 24                     
G11  23202188.290   121928350.253       -3406.549          39.000    23202183.569    95009136.489       -2654.352          43.000  
G12  21494332.388   112953482.536       -2004.310          47.000    21494328.477    88015686.971       -1561.833          45.000  
G20  23487626.835   123428253.311         214.731          40.000                                                                  
G24  23786661.002   124999577.264       -4394.618          40.000    23786669.112    97402230.259       -3424.406          40.000  
R10  18900050.066   100747949.048        -521.528          47.000                                                                  
R11  20792492.436   111108806.818        2547.557          48.000    20792488.660    86417947.722        1981.250          48.000  
R09  20851141.728   111343921.890       -3330.730          50.000    20851139.210    86600818.231       -2590.663          48.000  
R20  19058886.246   101916547.164       -2376.971          43.000    19058884.971    79268481.257       -1848.813          43.000  
G25  20026234.701   105238596.814        -462.598          47.000    20026233.474    82004122.343        -360.313          47.000  
G29  20117402.487   105717807.757        -575.995          49.000    20117397.936    82377594.493        -448.944          45.000  
S31  38241518.681   200960596.583        -658.783          44.000  
S33  39195789.106   205975351.263        -659.175          43.000  
R21  19661239.709   105211752.758        1935.509          52.000    19661234.830    81831450.308        1505.538          48.000  
G28  21266634.675   111756931.840        1150.861          47.000    21266629.355    87083310.489         896.692          46.000  
E15  23453513.818   123249171.925        -773.056          47.000    23453515.378    94437753.940        -592.324          51.000  
E21  25183713.694   132341363.891        1142.299          44.000    25183715.297   101404453.119         875.419          47.000  
E13  24284856.695   127618153.007        1856.371          46.000    24284859.451    97785433.389        1422.337          51.000  
E27  23189132.123   121859743.784        -498.063          49.000    23189131.384    93373064.505        -381.590          52.000  
E30  25568509.777   134363413.156       -2213.942          45.000    25568509.797   102953791.759       -1696.440          47.000  
E34  26580792.491   139683020.198       -3077.796          39.000    26580791.144   107029871.843       -2358.312          47.000  
G32  24176641.400   127049037.192       -3043.096          41.000    24176643.480    98999227.954       -2371.237          34.000  
G18  22792271.477   119774409.286        3018.255          47.000    22792273.122    93330797.762        2351.911          45.000  
G05  24165478.532   126990508.960        1413.421          45.000    24165476.305    98953645.869        1101.115          36.000  
G31                                                                  23782505.663                        2044.438          28.000  
> 2024 04 17 02 56 30.4980000  0 24                     
G11  23221668.045   122030719.403       -3418.378          37.000    23221663.549    95088904.649       -2663.538          43.000  
G12  21505794.504   113013718.999       -2011.492          48.000    21505791.565    88062624.476       -1567.389          46.000  
G20  23486440.847   123422021.628         200.368          39.000                                                                  
G24  23811754.598   125131441.695       -4396.588          40.000    23811762.745    97504981.180       -3426.100          39.000  
R10  18903036.085   100763864.322        -539.622          48.000                                                                  
R11  20778204.283   111032456.511        2542.375          48.000    20778200.629    86358564.214        1977.324          48.000  
R09  20869893.555   111444049.378       -3344.379          51.000    20869891.504    86678695.092       -2601.283          49.000  
R20  19072283.924   101988189.010       -2399.067          43.000    19072282.182    79324202.703       -1865.826          43.000  
G25  20028898.983   105252599.534        -471.122          47.000    20028898.018    82015033.593        -367.104          47.000  
G29  20120723.982   105735261.382        -587.671          49.000    20120719.706    82391194.750        -457.837          45.000  
S31  38245278.399   200980353.366        -658.613          44.000  
S33  39199552.684   205995126.565        -659.312          43.000  
R21  19650444.343   105153989.280        1915.352          52.000    19650439.868    81786523.254        1489.674          47.000  
G28  21260110.120   111722649.012        1134.562          47.000    21260105.004    87056596.641         883.965          46.000  
E15  23457967.919   123272581.611        -787.550          47.000    23457970.322    94455691.258        -603.371          51.000  
E21  25177191.350   132307088.137        1142.709          45.000    25177192.937   101378189.953         875.381          47.000  
E13  24274283.400   127562590.611        1847.843          47.000    24274286.223    97742859.726        1415.848          51.000  
E27  23191986.198   121874747.131        -502.265          48.000    23191986.342    93384560.584        -384.895          52.000  
E30  25581159.269   134429892.360       -2217.900          45.000    25581160.719   103004730.376       -1699.582          48.000  
E34  26598383.723   139775465.211       -3085.126          40.000    26598382.566   107100706.344       -2364.096          46.000  
G32  24194025.062   127140389.048       -3046.799          40.000    24194028.237    99070410.950       -2374.625          33.000  
G18  22775055.967   119683944.399        3012.616          46.000    22775057.773    93260306.028        2347.537          45.000  
G05  24157421.628   126948169.521        1408.933          44.000    24157418.811    98920654.343        1098.202          34.000  
G31                                                                  23767550.349                        2040.806          31.000  
> 2024 04 17 02 57 00.4980000  0 24                     
G11  23241215.093   122133443.424       -3430.048          39.000    23241211.257    95168949.348       -2672.742          42.000  
G12  21517296.877   113074163.993       -2018.256          47.000    21517293.898    88109724.450       -1572.610          46.000  
G20  23485335.289   123416218.664         186.403          39.000                                                                  
G24  23836858.500   125263362.666       -4398.455          40.000    23836867.005    97607776.054       -3426.763          39.000  
R10  18906122.636   100780318.154        -557.371          47.000                                                                  
R11  20763943.513   110956251.887        2537.865          47.000    20763940.354    86299294.034        1973.816          49.000  
R09  20888719.543   111544579.880       -3357.532          51.000    20888717.191    86756885.448       -2611.410          49.000  
R20  19085801.264   102060476.868       -2420.513          41.000    19085800.017    79380426.618       -1882.579          43.000  
G25  20031610.130   105266847.901        -478.820          47.000    20031609.785    82026136.205        -373.145          47.000  
G29  20124109.075   105753052.358        -598.547          49.000    20124104.320    82405057.880        -466.339          45.000  
S31  38249036.252   201000101.546        -657.977          44.000  
S33  39203313.968   206014893.566        -658.615          43.000  
R21  19639761.918   105096825.408        1895.535          51.000    19639757.536    81742062.557        1474.363          47.000  
G28  21253679.471   111688850.981        1118.590          48.000    21253674.246    87030260.559         871.774          47.000  
E15  23462504.388   123296421.453        -801.714          47.000    23462506.765    94473958.188        -614.213          51.000  
E21  25170668.058   132272805.821        1142.960          45.000    25170669.338   101351921.734         875.854          48.000  
E13  24263758.128   127507280.553        1839.653          47.000    24263761.096    97700479.426        1409.571          51.000  
E27  23194864.617   121889873.956        -506.141          48.000    23194865.155    93396151.276        -387.761          52.000  
E30  25593831.701   134496490.106       -2221.836          44.000    25593833.451   103055759.783       -1702.410          47.000  
E34  26616017.533   139868131.439       -3092.349          42.000    26616016.581   107171710.315       -2369.388          46.000  
G32  24211428.599   127231843.242       -3049.875          38.000    24211431.919    99141673.628       -2376.161          32.000  
G18  22757871.577   119593640.189        3007.462          47.000    22757872.926    93189939.516        2343.580          45.000  
G05  24149390.755   126905967.941        1404.273          43.000    24149388.239    98887770.181        1094.409          37.000  
G31                                                                  23752623.905    97262987.6001       2034.719          29.000  
> 2024 04 17 02 57 30.4980000  0 24                     
G31  23737743.836                3       2605.815          24.000    23737729.887                        2029.790          31.000  
G11  23260828.376   122236512.791       -3441.089          39.000    23260825.091    95249263.152       -2681.531          43.000  
G12  21528838.474   113134811.641       -2024.928          47.000    21528834.476    88156982.333       -1577.859          46.000  
G20  23484310.172   123410838.967         172.250          37.000                                                                  
G24  23861971.723   125395330.595       -4399.674          40.000    23861980.066    97710607.581       -3428.096          38.000  
R10  18909310.007   100797305.090        -575.124          47.000                                                                  
R11  20749709.206   110880189.310        2533.024          48.000    20749706.708    86240134.282        1970.172          50.000  
R09  20907618.924   111645505.203       -3370.739          49.000    20907617.021    86835382.902       -2621.685          49.000  
R20  19099438.664   102133401.211       -2441.462          42.000    19099437.194    79437145.585       -1898.767          43.000  
G25  20034367.583   105281336.279        -486.885          47.000    20034366.752    82037425.862        -379.518          47.000  
G29  20127556.792   105771172.329        -609.558          48.000    20127552.287    82419177.384        -474.872          44.000  
S31  38252791.076   201019832.985        -657.305          45.000  
S33  39207072.264   206034643.836        -657.865          43.000  
R21  19629190.589   105040255.817        1875.706          51.000    19629186.197    81698064.099        1458.854          48.000  
G28  21247339.195   111655532.860        1102.610          48.000    21247334.159    87004298.433         859.088          47.000  
E15  23467121.672   123320684.185        -815.857          47.000    23467123.590    94492549.153        -625.110          51.000  
E21  25164142.580   132238510.496        1143.432          46.000    25164142.977   101325643.567         876.054          48.000  
E13  24253279.313   127452217.591        1831.243          47.000    24253282.737    97658288.446        1403.184          51.000  
E27  23197766.073   121905118.134        -510.083          48.000    23197766.152    93407831.896        -390.903          52.000  
E30  25606526.240   134563199.800       -2225.489          43.000    25606527.310   103106874.972       -1705.170          47.000  
E34  26633690.272   139961010.131       -3099.531          42.000    26633690.853   107242877.139       -2374.926          46.000  
G32  24228848.803   127323389.850       -3053.258          35.000    24228854.185                       -2379.445          31.000  
G18  22740717.444   119503492.620        3002.406          47.000    22740718.279    93119695.038        2339.423          44.000  
G05  24141385.151   126863899.125        1400.095          43.000    24141383.451    98854989.529        1090.891          38.000  
> 2024 04 17 02 58 00.4980000  0 24                     
G31  23722879.222                1       2598.263          29.000    23722878.574                        2023.585          31.000  
G11  23280508.626   122339932.080       -3453.607          40.000    23280505.718    95329849.573       -2691.229          42.000  
G12  21540420.152   113195669.513       -2032.550          49.000    21540415.343    88204404.042       -1583.828          46.000  
G20  23483370.253   123405891.879         157.371          38.000                                                                  
G24  23887094.394   125527350.065       -4401.969          38.000    23887103.060    97813479.264       -3429.630          36.000  
R10  18912598.828   100814834.058        -593.883          48.000                                                                  
R11  20735503.717   110804278.666        2527.245          48.000    20735501.024    86181092.730        1965.735          50.000  
R09  20926593.689   111746831.683       -3384.718          50.000    20926592.207    86914192.319       -2632.487          50.000  
R20  19113195.717   102206965.052       -2463.339          42.000    19113194.279    79494361.901       -1915.981          43.000  
G25  20037171.780   105296072.985        -495.804          48.000    20037170.653    82048909.005        -386.343          46.000  
G29  20131068.457   105789627.525        -621.161          47.000    20131064.547    82433558.080        -484.058          45.000  
S31  38256544.074   201039555.554        -657.865          44.000  
S33  39210828.593   206054385.178        -658.213          43.000  
R21  19618731.123   104984289.858        1855.029          50.000    19618728.021    81654535.124        1442.774          49.000  
G28  21241091.669   111622703.727        1085.771          47.000    21241086.879    86978717.293         846.072          47.000  
E15  23471820.870   123345376.527        -830.759          48.000    23471822.385    94511469.280        -636.482          51.000  
E21  25157615.880   132204209.790        1143.065          46.000    25157616.169   101299361.261         875.753          48.000  
E13  24242850.236   127397410.446        1822.255          47.000    24242852.773    97616293.468        1396.240          51.000  
E27  23200690.595   121920487.563        -514.718          48.000    23200691.101    93419608.489        -394.409          53.000  
E30  25619244.740   134630028.875       -2229.997          44.000    25619244.383   103158081.675       -1708.730          46.000  
E34  26651405.650   140054106.594       -3107.184          43.000    26651406.678   107314210.789       -2380.788          46.000  
G32  24246287.156                       -3057.162          32.000    24246293.986                       -2382.077          29.000  
G18  22723594.167   119413511.604        2996.148          46.000    22723594.603    93049580.321        2334.614          43.000  
G05  24133407.844   126821973.946        1394.768          44.000    24133405.518    98822320.745        1086.740          40.000  
> 2024 04 17 02 58 30.4980000  0 24                     
G31  23708069.756                        2590.746          30.000    23708065.498                1       2018.330          29.000  
G11  23300256.054   122443702.490       -3464.929          41.000    23300251.803    95410709.655       -2699.609          41.000  
G12  21552041.023   113256741.956       -2039.202          48.000    21552036.833    88251992.963       -1588.967          46.000  
G20  23482513.562   123401382.908         143.044          40.000                                                                  
G24  23912227.313   125659422.369       -4403.584          34.000    23912236.367    97916392.141       -3431.342          33.000  
R10  18915989.997   100832911.579        -611.611          48.000                                                                  
R11  20721328.154   110728527.097        2522.455          48.000    20721325.017    86122174.923        1961.914          51.000  
R09  20945644.856   111848561.993       -3397.783          50.000    20945642.839    86993315.855       -2642.627          49.000  
R20  19127071.813   102281169.253       -2484.144          42.000    19127070.928    79552076.305       -1932.124          43.000  
G25  20040024.485   105311063.108        -503.858          48.000    20040022.461    82060589.634        -392.554          46.000  
G29  20134644.961   105808420.557        -631.915          48.000    20134640.913    82448202.039        -492.529          45.000  
S31  38260296.273   201059273.313        -656.783          44.000  
S33  39214584.295   206074120.341        -657.787          43.000  
R21  19608386.135   104928933.629        1835.049          51.000    19608383.132    81611480.369        1427.337          49.000  
G28  21234938.510   111590369.394        1069.561          48.000    21234933.895    86953521.753         833.439          47.000  
E15  23476602.417   123370501.950        -844.581          48.000    23476603.402    94530721.260        -647.164          51.000  
E21  25151088.681   132169908.057        1143.531          46.000    25151088.355   101273078.185         876.207          48.000  
E13  24232469.433   127342864.565        1813.880          47.000    24232473.197    97574498.688        1389.881          51.000  
E27  23203639.633   121935986.910        -518.631          48.000    23203640.646    93431484.631        -397.443          53.000  
E30  25631983.583   134696981.633       -2233.701          43.000    25631984.903   103209383.155       -1711.508          47.000  
E34  26669163.003   140147422.886       -3114.114          43.000    26669164.143   107385712.903       -2386.012          45.000  
G32  24263743.613                3      -3059.844          30.000    24263751.554                       -2384.048          28.000  
G18  22706504.245   119323703.918        2990.751          47.000    22706504.711    92979600.681        2330.443          44.000  
G05  24125458.967   126780199.833        1389.837          44.000    24125456.192    98789769.663        1083.077          40.000  
> 2024 04 17 02 59 00.4980000  0 24                     
G31  23693297.238   124509172.9111       2584.363          31.000    23693287.655    97020068.2281       2013.715          29.000  
G11  23320068.999   122547820.177       -3476.324          42.000    23320064.399    95491840.329       -2708.759          41.000  
G12  21563703.393   113318027.976       -2046.523          48.000    21563699.330    88299748.293       -1594.809          47.000  
G20  23481737.320   123397312.766         128.156          37.000                                                                  
G24  23937369.510   125791543.736       -4404.934          32.000    23937379.089                       -3431.560          30.000  
R10  18919484.070   100851537.247        -630.241          48.000                                                                  
R11  20707182.362   110652936.633        2516.717          48.000    20707179.032    86063382.390        1957.536          50.000  
R09  20964770.885   111950694.212       -3411.180          49.000    20964769.066    87072752.013       -2653.205          49.000  
R20  19141067.074   102356009.665       -2505.377          42.000    19141066.301    79610285.561       -1948.740          43.000  
G25  20042925.408   105326306.644        -512.498          48.000    20042923.210    82072467.735        -399.461          46.000  
G29  20138285.244   105827549.185        -643.353          48.000    20138280.655    82463107.475        -501.306          45.000  
S31  38264046.633   201078983.565        -657.029          44.000  
S33  39218338.680   206093849.749        -657.704          43.000  
R21  19598155.847   104874187.601        1814.519          52.000    19598152.427    81568900.216        1411.267          48.000  
G28  21228880.076   111558530.565        1052.827          48.000    21228874.541    86928712.301         820.555          47.000  
E15  23481465.213   123396058.801        -859.162          47.000    23481466.628    94550303.797        -658.272          51.000  
E21  25144559.945   132135604.569        1143.458          45.000    25144560.971   101246793.758         876.058          48.000  
E13  24222140.048   127288580.352        1804.958          47.000    24222143.290    97532904.396        1383.117          51.000  
E27  23206613.476   121951615.714        -523.254          48.000    23206614.969    93443459.954        -400.919          53.000  
E30  25644749.475   134764057.222       -2237.973          44.000    25644749.763   103260778.721       -1714.871          48.000  
E34  26686962.446   140240955.901       -3121.534          44.000    26686962.919   107457381.092       -2391.856          45.000  
G18  22689447.840   119234071.055        2984.686          47.000    22689447.549    92909757.220        2325.851          44.000  
G05  24117538.252   126738577.795        1384.755          42.000    24117535.045    98757337.072        1078.889          40.000  
G32                                                                  24281225.026                3      -2387.827          26.000  
> 2024 04 17 02 59 30.4980000  0 24                     
G31  23678556.171                        2577.173          25.000    23678557.532                        2008.172          31.000  
G11  23339947.843   122652284.192       -3487.695          44.000    23339942.829    95573240.859       -2717.865          41.000  
G12  21575406.612   113379530.254       -2053.553          48.000    21575402.151    88347672.160       -1600.274          46.000  
G20  23481046.599   123393685.150         113.639          38.000                                                                  
G24  23962521.245   125923713.123       -4406.114          29.000    23962530.914                       -3432.744          28.000  
R10  18923081.463   100870714.903        -648.455          48.000                                                                  
R11  20693067.710   110577511.730        2511.411          49.000    20693064.157    86004718.639        1953.370          50.000  
R09  20983971.867   112053228.409       -3424.443          49.000    20983970.145    87152500.755       -2663.473          48.000  
R20  19155182.135   102431484.454       -2526.277          42.000    19155179.689    79668988.176       -1964.803          43.000  
G25  20045875.441   105341806.372        -521.025          48.000    20045872.373    82084545.432        -405.979          46.000  
G29  20141988.999   105847013.245        -654.260          48.000    20141983.734    82478274.319        -509.851          44.000  
S31  38267796.718   201098690.080        -656.805          44.000  
S33  39222092.382   206113575.644        -657.431          43.000  
R21  19588040.584   104820055.368        1794.195          52.000    19588036.466    81526797.460        1395.552          48.000  
G28  21222916.300   111527190.767        1036.337          48.000    21222910.904    86904291.718         807.630          46.000  
E15  23486409.931   123422048.232        -873.512          46.000    23486412.504    94570217.811        -669.256          51.000  
E21  25138031.943   132101301.490        1143.452          45.000    25138033.434   101220509.630         876.155          49.000  
E13  24211859.925   127234560.971        1796.237          47.000    24211863.334    97491513.043        1376.333          51.000  
E27  23209612.646   121967376.420        -527.586          48.000    23209614.146    93455536.349        -404.129          54.000  
E30  25657535.834   134831257.542       -2242.031          43.000    25657537.591   103312269.852       -1717.854          48.000  
E34  26704803.147   140334705.424       -3128.464          45.000    26704803.481   107529215.142       -2397.176          46.000  
G18  22672425.318   119144617.489        2978.767          48.000    22672424.567    92840053.501        2321.001          44.000  
G05  24109646.436   126697111.968        1379.399          40.000    24109643.555    98725026.239        1075.062          40.000  
G32                                                                  24298717.260                       -2389.041          26.000  
