     3.00           OBSERVATION DATA    M: Mixed            RINEX VERSION / TYPE
CONVBIN 2.4.3                           20240417 082942 UTC PGM / RUN BY / DATE 
format: u-blox UBX                                          COMMENT             
log: /home/regis/git/gnsspwv/obsdata/VERT00CHL/2024-04-17/VECOMMENT             
{self.marker}                                               MARKER NAME         
                                                            MARKER NUMBER       
GEODETIC                                                    MARKER TYPE         
{self.observer}     {self.institution}                      OBSERVER / AGENCY   
UNKNOWN             UBLOX-ZED-F9P                           REC # / TYPE / VERS 
UNKNOWN             TWIVSP6037L                             ANT # / TYPE        
  1713381.0000 -5047934.0000 -3490983.0000                  APPROX POSITION XYZ 
        0.0000        0.0000        0.0000                  ANTENNA: DELTA H/E/N
G    8 C1C L1C D1C S1C C2L L2L D2L S2L                      SYS / # / OBS TYPES 
R    8 C1C L1C D1C S1C C2C L2C D2C S2C                      SYS / # / OBS TYPES 
E    8 C1C L1C D1C S1C C7Q L7Q D7Q S7Q                      SYS / # / OBS TYPES 
S    4 C1C L1C D1C S1C                                      SYS / # / OBS TYPES 
  2024    04    17    08    15   00.0060000     GPS         TIME OF FIRST OBS   
  2024    04    17    08    29   30.0060000     GPS         TIME OF LAST OBS    
                                                            END OF HEADER       
> 2024 04 17 08 15 00.0060000  0 27                     
G08  24392632.641   128184173.7301       2354.048          45.000    24392631.402    99883787.6861       1834.401          42.000  
G16  22872176.399   120194144.9061      -2105.637          47.000                                                                  
G26  24637405.834   129470443.1401      -3935.654          45.000    24637404.460   100886065.9171      -3066.615          42.000  
G27  22455408.870   118003952.5631        905.171          51.000    22455405.678    91951182.4871        705.415          48.000  
G23  23623177.896   124140776.7341      -3290.321          49.000    23623172.545    96733039.4541      -2563.865          46.000  
R08  22191172.221   118832733.7921       1728.197          48.000    22191167.702    92425494.8131       1344.159          50.000  
R22  23394396.851   124881021.9131      -2265.123          46.000    23394392.606    97129510.3011      -1761.702          49.000  
R14  24408818.420   130112767.6831        471.833          32.000    24408812.363   101198740.0211        367.601          36.000  
R07  22885684.166   122508876.0791      -2034.372          50.000    22885676.971    95284718.7481      -1582.324          47.000  
R13  23489654.161   125433328.8861      -3224.329          42.000    23489652.111    97559277.6581      -2507.939          40.000  
E08  29371823.286   154350083.8281       -967.546          41.000    29371823.493   118268146.3391       -741.516          39.000  
S31  40566015.697   213175936.2321       -614.287          44.000  
S33  41520607.929   218192396.7901       -614.173          42.000  
G10  21825832.074   114695656.6551      -1000.725          49.000    21825828.836    89373171.7461       -779.802          45.000  
E33  26814858.687   140913136.5681        416.193          46.000    26814858.285   107972382.8701        318.867          50.000  
R12  25244267.591   134850438.9221      -4671.295          46.000    25244267.922   104883623.2611      -3633.246          44.000  
R01  25137364.152                1       3811.200          27.000                                                                  
R23  22275356.708   119158181.8901        -45.989          50.000                                                                  
R24  24809692.947                3       1721.525          25.000    24809698.206                3       1336.411          24.000  
G32  25505696.950   134033352.5201       2366.376          46.000    25505694.545   104441599.6521       1843.939          44.000  
E21  28295234.381   148692510.2391      -3603.534          45.000    28295235.616   113933253.5391      -2761.181          49.000  
E13  28525002.190   149899810.5771      -2394.134          32.000    28524997.336   114858747.9901      -1834.553          39.000  
E31  27716198.632   145649536.9231        734.727          39.000    27716199.850   111601676.3371        562.760          47.000  
E07  28048763.900   147397270.4351       1122.708          45.000    28048765.484   112940778.2841        860.223          47.000  
G18  26314087.408   138281473.0631      -3164.825          39.000    26314080.623   107752118.1511      -2466.154          38.000  
E26  25554382.257   134289444.4161      -1175.309          48.000    25554380.574   102897254.8251       -900.643          51.000  
E14  27690793.756   145516168.6061      -1661.716          47.000    27690792.373   111499428.8181      -1273.258          49.000  
> 2024 04 17 08 15 30.0060000  0 27                     
G08  24379202.185   128113597.216        2350.593          45.000    24379200.911    99828793.048        1831.332          42.000  
G16  22884247.967   120257581.394       -2123.814          47.000                                                                  
G26  24659888.176   129588584.878       -3940.662          45.000    24659886.342   100978124.402       -3070.674          42.000  
G27  22450271.428   117976954.817         894.387          50.000    22450268.190    91930145.295         696.989          48.000  
G23  23641992.746   124239652.834       -3301.598          48.000    23641988.211    96810085.744       -2572.611          47.000  
R08  22181552.535   118781220.307        1705.792          49.000    22181548.317    92385428.797        1326.716          51.000  
R22  23407134.721   124949030.669       -2268.979          45.000    23407132.518    97182405.978       -1764.853          48.000  
R14  24406217.551   130098955.219         448.333          32.000    24406223.324   101187996.959         348.669          39.000  
R07  22897156.547   122570294.192       -2060.385          50.000    22897151.327    95332488.402       -1602.533          48.000  
R13  23507812.778   125530299.359       -3240.716          40.000    23507811.398    97634699.076       -2520.678          40.000  
E08  29377383.877   154379308.427        -980.790          42.000    29377385.258   118290539.288        -751.634          40.000  
S31  40569523.032   213194366.532        -614.660          44.000  
S33  41524112.812   218210815.918        -614.014          42.000  
G10  21831602.297   114725980.621       -1020.933          49.000    21831599.844    89396800.813        -795.585          46.000  
E33  26812490.152   140900691.354         413.306          46.000    26812489.682   107962846.951         316.706          50.000  
R12  25270496.946   134990555.604       -4670.181          46.000    25270498.640   104992602.969       -3632.308          44.000  
R01  25115968.089                        3810.653          28.000                                                                  
R23  22275624.829   119159618.756         -50.095          49.000                                                                  
R24  24800022.809                        1721.823          27.000    24800048.557                        1339.624          27.000  
G32  25492198.858   133962414.254        2362.427          47.000    25492195.747   104386323.138        1841.064          43.000  
E21  28315813.149   148800653.444       -3606.120          44.000    28315814.327   114016116.511       -2763.095          49.000  
E13  28538662.211                       -2393.308          28.000    28538661.975   114913770.544       -1833.804          39.000  
E31  27712039.634   145627684.700         722.061          40.000    27712041.804   111584932.449         553.322          47.000  
E07  28042378.399   147363717.385        1114.214          44.000    28042380.912   112915068.825         853.645          48.000  
G18  26332151.674   138376405.289       -3164.113          37.000    26332147.824   107826091.315       -2465.592          40.000  
E26  25561098.323   134324734.379       -1177.456          49.000    25561095.605   102924295.185        -902.163          51.000  
E14  27700264.206   145565936.298       -1656.286          47.000    27700262.874   111537562.510       -1269.207          49.000  
> 2024 04 17 08 16 00.0060000  0 27                     
G08  24365794.887   128043140.645        2346.287          45.000    24365792.823    99773891.842        1828.251          42.000  
G16  22896424.564   120321571.721       -2142.572          46.000                                                                  
G26  24682400.102   129706887.226       -3946.290          45.000    24682398.559   101070308.023       -3075.207          42.000  
G27  22445196.696   117950287.406         883.042          50.000    22445193.281    91909365.507         688.189          48.000  
G23  23660873.883   124338875.335       -3313.356          48.000    23660869.049    96887401.980       -2581.976          45.000  
R08  22172062.100   118730392.907        1682.536          49.000    22172057.085    92345896.384        1308.560          51.000  
R22  23419901.528   125017171.031       -2273.772          47.000    23419897.648    97235404.017       -1768.456          48.000  
R14  24403763.419   130085872.843         423.770          40.000    24403769.238   101177821.840         329.194          39.000  
R07  22908777.354   122632498.135       -2086.727          51.000    22908771.974    95380869.217       -1622.967          49.000  
R13  23526067.175   125627774.485       -3257.735          40.000    23526066.511    97710513.013       -2533.539          41.000  
E08  29383024.045   154408943.567        -994.973          42.000    29383024.217   118313246.766        -762.296          39.000  
S31  40573032.475   213212809.237        -614.919          44.000  
S33  41527620.348   218229247.084        -615.079          42.000  
G10  21837492.033   114756924.183       -1041.957          51.000    21837488.973    89420912.688        -811.997          46.000  
E33  26810141.498   140888347.345         409.545          47.000    26810140.387   107953388.582         313.812          49.000  
R12  25296723.072   135130646.640       -4669.396          47.000    25296723.489   105101562.659       -3631.719          42.000  
R01  25094596.829                        3808.990          30.000                                                                  
R23  22275917.851   119161187.035         -54.676          49.000                                                                  
R24  24790360.645                        1720.506          30.000    24790370.001   103106291.5781       1339.343          32.000  
G32  25478724.658   133891605.257        2357.990          47.000    25478721.191   104331147.362        1837.273          43.000  
E21  28336409.184   148908886.269       -3609.680          44.000    28336410.403   114099048.145       -2765.852          49.000  
E13  28552324.817   150043407.699       -2392.908          32.000    28552321.801   114968776.930       -1833.534          38.000  
E31  27707953.315   145606217.615         708.774          39.000    27707956.366   111568483.675         543.265          47.000  
E07  28036046.002   147330435.256        1104.498          45.000    28036047.146   112889566.953         846.480          48.000  
G18  26350212.711   138471320.853       -3163.403          36.000    26350209.103   107900051.422       -2465.389          38.000  
E26  25567827.750   134360099.032       -1180.188          49.000    25567825.080   102951392.784        -904.319          51.000  
E14  27709707.463   145615557.904       -1651.768          47.000    27709705.627   111575584.254       -1265.691          49.000  
> 2024 04 17 08 16 30.0060000  0 27                     
G08  24352412.209   127972813.427        2342.419          45.000    24352409.775    99719091.437        1825.438          41.000  
G16  22908708.225   120386120.937       -2160.502          47.000                                                                  
G26  24704943.604   129825354.453       -3951.270          44.000    24704941.827   101162620.120       -3079.043          41.000  
G27  22440186.720   117923959.812         872.272          50.000    22440183.257    91888850.528         679.712          47.000  
G23  23679821.980   124438448.754       -3324.531          48.000    23679817.209    96964991.656       -2590.628          44.000  
R08  22162699.567   118680262.653        1659.777          49.000    22162695.005    92306906.212        1290.917          50.000  
R22  23432694.192   125085450.952       -2278.015          50.000    23432687.814    97288510.609       -1771.809          48.000  
R14  24401452.204   130073528.849         399.539          41.000    24401450.113   101168220.924         310.354          36.000  
R07  22920546.761   122695493.219       -2112.562          51.000    22920539.900    95429865.366       -1643.049          49.000  
R13  23544416.385   125725757.351       -3274.270          41.000    23544415.277    97786721.856       -2546.452          40.000  
E08  29388742.796   154438996.464       -1008.248          43.000    29388743.089   118336274.353        -772.731          41.000  
S31  40576545.760   213231270.748        -615.503          43.000  
S33  41531131.211   218247697.755        -614.824          42.000  
G10  21843499.643   114788493.398       -1062.328          51.000    21843496.557    89445512.064        -827.731          46.000  
E33  26807813.443   140876111.268         406.410          47.000    26807811.959   107944012.904         311.446          50.000  
R12  25322945.015   135270715.101       -4668.133          46.000    25322943.770   105210504.827       -3630.607          43.000  
R01  25073226.256   134030724.3541       3808.880          36.000    25073214.878                1       2961.522          28.000  
R23  22276237.208   119162894.249         -58.757          50.000                                                                  
R24  24780702.974   132513636.5241       1722.085          34.000    24780707.832   103066118.267        1339.683          33.000  
G32  25465276.279   133820936.092        2353.719          47.000    25465272.692   104276080.498        1834.207          42.000  
E21  28357023.506   149017214.053       -3612.069          44.000    28357024.377   114182052.539       -2767.784          49.000  
E31  27703943.286   145585144.003         696.142          38.000    27703945.985   111552336.413         533.416          47.000  
E07  28029765.685   147297433.085        1095.706          45.000    28029767.039   112864279.622         839.575          48.000  
G18  26368273.350   138566226.708       -3162.816          36.000    26368269.118   107974004.023       -2464.679          39.000  
E26  25574572.896   134395545.177       -1182.578          49.000    25574570.271   102978552.816        -906.107          51.000  
E14  27719123.478   145665040.941       -1646.908          47.000    27719122.063   111613499.819       -1261.876          50.000  
E13                                                                  28565980.493   115023772.746       -1832.799          40.000  
> 2024 04 17 08 17 00.0060000  0 27                     
G08  24339053.068   127902608.747        2337.809          45.000    24339049.847    99664386.546        1821.719          41.000  
G16  22921095.653   120451218.617       -2179.308          47.000                                                                  
G26  24727515.203   129943974.658       -3956.956          43.000    24727514.666   101255051.403       -3083.281          42.000  
G27  22435239.117   117897965.264         860.636          49.000    22435236.091    91868595.059         670.604          47.000  
G23  23698835.160   124538361.512       -3336.357          49.000    23698829.413    97042845.747       -2599.640          44.000  
R08  22153467.845   118630823.650        1636.163          50.000    22153462.734    92268453.691        1272.605          51.000  
R22  23445508.042   125153861.983       -2282.899          48.000    23445504.758    97341719.180       -1775.487          49.000  
R14  24399271.977   130061915.229         374.382          41.000    24399270.157   101159188.047         291.686          37.000  
R07  22932460.304   122759268.530       -2139.091          52.000    22932452.907    95479468.400       -1663.822          48.000  
R13  23562858.772   125824234.649       -3290.711          40.000    23562856.284    97863315.249       -2559.547          40.000  
E08  29394540.217   154469458.231       -1022.461          44.000    29394539.911   118359615.213        -783.334          42.000  
S31  40580060.799   213249743.722        -616.196          44.000  
S33  41534644.605   218266159.653        -615.798          42.000  
G10  21849623.826   114820678.169       -1083.465          52.000    21849620.223    89470591.126        -844.273          45.000  
E33  26805503.058   140863973.621         402.822          47.000    26805502.146   107934712.676         308.562          50.000  
R12  25349160.174   135410748.050       -4667.311          48.000    25349157.414   105319419.423       -3630.177          42.000  
R01  25051861.031   133916507.681        3806.476          39.000    25051860.473   104157290.2791       2960.089          33.000  
R23  22276581.590   119164732.604         -63.784          50.000    22273852.405                3        388.053          10.000  
R24  24771042.206   132461980.921        1721.796          39.000    24771045.644   103025941.717        1338.934          35.000  
G32  25451852.380   133750401.087        2348.631          44.000    25451850.934   104221118.232        1830.027          44.000  
E21  28377653.819   149125626.053       -3615.253          45.000    28377654.596   114265121.479       -2770.268          49.000  
E13  28579638.314   150186961.4901      -2391.400          32.000    28579635.857   115078751.199       -1832.506          42.000  
E31  27700006.121   145564456.094         683.053          38.000    27700009.445   111536484.674         523.269          47.000  
E07  28023537.575   147264703.886        1086.332          46.000    28023538.984   112839201.409         832.307          48.000  
G18  26386327.205                       -3162.513          31.000    26386326.056   108047942.149       -2464.843          39.000  
E26  25581331.768   134431063.423       -1185.396          48.000    25581329.536   103005768.099        -908.321          51.000  
E14  27728511.151   145714376.771       -1642.389          46.000    27728510.474   111651302.600       -1258.388          50.000  
> 2024 04 17 08 17 30.0060000  0 27                     
G08  24325719.625   127832540.641        2333.472          46.000    24325716.220    99609788.059        1818.300          41.000  
G16  22933590.188   120516874.690       -2197.606          48.000                                                                  
G26  24750119.068   130062756.704       -3961.816          43.000    24750118.010   101347608.836       -3087.162          42.000  
G27  22430358.321   117872317.863         849.335          48.000    22430355.720    91848610.082         661.705          47.000  
G23  23717914.665   124638622.755       -3347.727          49.000    23717907.745    97120971.361       -2608.552          44.000  
R08  22144367.548   118582091.949        1612.849          50.000    22144362.079    92230551.276        1254.345          50.000  
R22  23458351.521   125222416.930       -2287.342          48.000    23458345.720    97395039.733       -1779.087          47.000  
R14  24397231.834   130051044.993         350.171          43.000    24397233.175   101150733.396         272.450          39.000  
R07  22944521.568   122823834.480       -2165.138          51.000    22944515.047    95529686.340       -1683.963          49.000  
R13  23581394.019   125923214.236       -3307.411          40.000    23581391.872    97940299.303       -2572.231          40.000  
E08  29400417.285   154500340.748       -1036.216          44.000    29400417.028   118383278.454        -794.012          44.000  
S31  40583580.332   213268238.562        -616.550          43.000  
S33  41538161.614   218284643.349        -616.245          42.000  
G10  21855868.063   114853489.221       -1103.981          52.000    21855863.924    89496158.174        -860.243          45.000  
E33  26803213.641   140851945.790         399.395          47.000    26803213.253   107925496.584         305.912          50.000  
R12  25375368.744   135550753.707       -4666.155          46.000    25375367.408   105428312.766       -3629.291          44.000  
R01  25030504.129   133802342.049        3804.837          41.000    25030504.033   104068494.813        2959.357          37.000  
R23  22276952.216   119166714.523         -68.169          50.000                                                                  
R24  24761386.042   132410332.947        1721.570          43.000    24761384.175   102985771.128        1338.838          39.000  
G32  25438457.946   133680015.503        2343.731          44.000    25438457.332   104166272.362        1826.176          45.000  
E21  28398301.698   149234132.364       -3618.235          46.000    28398302.657   114348262.680       -2772.396          49.000  
E13  28593281.644   150258702.469       -2390.968          33.000    28593287.550   115133721.552       -1831.984          42.000  
E31  27696145.325   145544166.865         670.230          38.000    27696149.030   111520938.412         513.315          47.000  
E07  28017364.278   147232261.403        1076.897          46.000    28017365.521   112814342.896         825.105          48.000  
G18  26404384.477   138755962.3851      -3162.582          34.000    26404380.732   108121874.935       -2464.049          38.000  
E26  25588106.258   134466665.196       -1187.933          49.000    25588104.577   103033047.390        -910.240          52.000  
E14  27737874.175   145763577.555       -1637.590          46.000    27737873.232   111689001.894       -1254.710          50.000  
> 2024 04 17 08 18 00.0060000  0 27                     
G08  24312411.381   127762605.997        2328.775          45.000    24312408.286    99555293.591        1814.630          42.000  
G16  22946188.873   120583082.211       -2216.238          47.000                                                                  
G26  24772751.644   130181692.382       -3967.120          43.000    24772751.036   101440285.962       -3091.467          42.000  
G27  22425543.657   117847014.523         837.542          49.000    22425540.387    91828893.205         652.612          48.000  
G23  23737058.375   124739224.515       -3359.236          49.000    23737052.049    97199362.330       -2617.592          44.000  
R08  22135398.652   118534065.913        1588.899          49.000    22135392.185    92193197.700        1235.767          50.000  
R22  23471220.126   125291111.015       -2292.380          49.000    23471216.345    97448468.444       -1783.096          49.000  
R14  24395331.249   130040913.259         325.425          44.000    24395332.315   101142853.153         252.664          39.000  
R07  22956728.203   122889183.986       -2191.542          51.000    22956722.357    95580513.738       -1704.675          48.000  
R13  23600022.238   126022686.691       -3324.115          40.000    23600020.370    98017666.740       -2585.356          39.000  
E08  29406373.024   154531638.731       -1050.399          44.000    29406372.922   118407260.038        -804.859          46.000  
S31  40587103.116   213286751.632        -617.542          44.000  
S33  41541682.680   218303145.008        -617.162          42.000  
G10  21862229.872   114886920.063       -1124.727          51.000    21862225.816    89522208.199        -876.507          45.000  
E33  26800944.392   140840021.998         395.557          46.000    26800944.317   107916360.220         303.058          50.000  
R12  25401570.879   135690722.591       -4665.206          45.000    25401571.005   105537177.490       -3628.362          45.000  
R01  25009155.671   133688225.638        3802.794          39.000    25009157.702   103979737.635        2957.580          38.000  
R23  22277347.877   119168835.051         -73.213          49.000                                                                  
R24  24751729.082   132358687.361        1721.301          47.000    24751726.120   102945602.322        1339.303          41.000  
G32  25425092.398   133609777.381        2338.573          45.000    25425091.270   104111541.401        1822.142          44.000  
E21  28418966.386   149342725.935       -3621.398          45.000    28418967.268   114431470.729       -2774.824          48.000  
E13  28606936.359   150330427.697       -2390.875          36.000    28606937.125   115188679.862       -1831.965          43.000  
E31  27692360.550   145524272.238         656.052          40.000    27692363.153   111505694.449         502.990          46.000  
E07  28011245.113   147200102.208        1066.968          46.000    28011246.298   112789701.415         817.654          48.000  
G18  26422438.101   138850830.505       -3162.095          34.000    26422433.523   108195798.190       -2463.914          39.000  
E26  25594895.578   134502344.859       -1190.715          48.000    25594894.772   103060386.361        -912.448          52.000  
E14  27747210.302   145812638.333       -1633.198          46.000    27747209.104   111726593.916       -1251.326          50.000  
> 2024 04 17 08 18 30.0060000  0 28                     
G08  24299129.383   127692810.491        2324.087          45.000    24299126.638    99500907.516        1811.043          42.000  
G16  22958892.792   120649842.764       -2234.673          47.000                                                                  
G26  24795414.164   130300782.242       -3972.318          43.000    24795412.440   101533083.217       -3095.388          42.000  
G27  22420795.238   117822060.951         825.760          49.000    22420792.054    91809448.856         643.572          47.000  
G23  23756266.870   124840167.619       -3370.427          49.000    23756262.636    97278019.281       -2626.386          45.000  
R08  22126563.647   118486752.444        1565.100          49.000    22126556.889    92156398.352        1217.323          50.000  
R22  23484115.535   125359948.598       -2297.086          49.000    23484111.681    97502008.778       -1786.556          48.000  
R14  24393571.166   130031524.848         300.478          45.000    24393571.748   101135551.036         233.593          40.000  
R07  22969082.752   122955318.208       -2217.518          52.000    22969076.790    95631951.454       -1724.840          48.000  
R13  23618742.201   126122651.444       -3340.388          38.000    23618741.025    98095417.020       -2597.923          40.000  
E08  29412409.093   154563355.707       -1064.292          45.000    29412408.674   118431562.653        -815.370          48.000  
G21  26271264.323                3       2019.529          25.000                                                                  
S31  40590630.239   213305285.160        -618.115          44.000  
S33  41545207.307   218321667.360        -617.668          42.000  
G10  21868708.871   114920972.956       -1145.465          51.000    21868705.464    89548742.948        -892.496          45.000  
E33  26798696.145   140828205.213         392.103          46.000    26798695.878   107907305.837         300.495          50.000  
R12  25427766.697   135830654.362       -4663.821          45.000    25427766.575   105646013.399       -3627.389          44.000  
R01  24987819.333   133574166.060        3801.305          39.000    24987820.496   103891024.748        2956.116          37.000  
R23  22277770.002   119171098.474         -77.908          48.000                                                                  
R24  24742073.249   132307047.260        1721.166          45.000    24742068.705   102905437.849        1338.603          39.000  
G32  25411756.096   133539693.589        2333.401          47.000    25411754.607   104056930.667        1818.383          45.000  
E21  28439648.777   149451408.435       -3624.216          45.000    28439648.535   114514746.923       -2776.977          48.000  
E13  28620579.726   150402140.814       -2390.072          34.000    28620584.160   115243628.875       -1831.427          44.000  
E31  27688651.320   145504776.702         643.101          41.000    27688652.936   111490756.342         492.748          45.000  
E07  28005181.029   147168231.657        1057.489          47.000    28005181.070   112765281.130         810.324          48.000  
G18  26440488.705   138945689.871       -3162.057          34.000    26440483.993   108269714.593       -2463.430          38.000  
E26  25601701.246   134538105.516       -1193.354          48.000    25601699.700   103087787.371        -914.373          52.000  
E14  27756520.187   145861562.907       -1628.537          46.000    27756519.153   111764081.588       -1247.908          50.000  
> 2024 04 17 08 19 00.0060000  0 28                     
G08  24285875.974   127623167.320        2318.621          44.000    24285874.547    99446640.142        1806.974          43.000  
G16  22971704.090   120717165.757       -2253.655          47.000                                                                  
G26  24818107.148   130420034.275       -3977.823          43.000    24818105.649   101626006.884       -3099.906          42.000  
G27  22416116.417   117797470.378         813.553          49.000    22416112.887    91790287.377         633.934          48.000  
G23  23775542.182   124941460.388       -3382.455          49.000    23775537.590    97356948.737       -2635.758          44.000  
R08  22117863.818   118440166.184        1540.657          49.000    22117857.905    92120164.624        1198.250          51.000  
R22  23497040.968   125428941.411       -2302.489          49.000    23497036.766    97555669.844       -1790.863          48.000  
R14  24391950.599   130022891.254         275.026          45.000    24391952.352   101128836.008         214.001          41.000  
R07  22981585.009   123022246.160       -2244.293          51.000    22981578.550    95684006.529       -1745.518          46.000  
R13  23637555.840   126223115.163       -3357.141          39.000    23637554.790    98173555.410       -2610.953          39.000  
E08  29418526.451   154595502.608       -1078.751          45.000    29418525.848   118456194.700        -826.674          49.000  
G21  26259755.769   137995934.7541       2017.620          32.000                                                                  
S31  40594162.899   213323850.396        -619.492          44.000  
S33  41548737.949   218340221.311        -619.029          42.000  
G10  21875309.027   114955657.708       -1166.751          50.000    21875305.899    89575770.042        -909.351          45.000  
E33  26796470.443   140816505.883         387.963          47.000    26796469.685   107898341.451         297.227          50.000  
R12  25453956.752   135970556.420       -4663.188          46.000    25453955.983   105754826.224       -3626.810          42.000  
R01  24966497.334   133460178.800        3798.180          40.000    24966497.109   103802368.030        2954.154          39.000  
R23  22278221.883   119173516.598         -83.291          48.000                                                                  
R24  24732419.690   132255423.964        1720.409          46.000    24732414.578   102865286.416        1338.389          40.000  
G32  25398451.900   133469778.486        2327.277          47.000    25398449.936   104002451.372        1813.533          44.000  
E21  28460349.599   149560189.031       -3627.670          46.000    28460349.315   114598098.306       -2779.635          48.000  
E13  28634229.439   150473853.011       -2390.170          35.000    28634229.885   115298577.125       -1831.549          43.000  
E31  27685020.234   145485692.414         629.107          42.000    27685020.872   111476133.335         482.104          45.000  
E07  27999172.520   147136662.572        1047.123          46.000    27999173.834   112741091.844         802.387          49.000  
G18  26458539.524   139040551.420       -3161.868          35.000    26458535.326   108343632.684       -2464.130          39.000  
E26  25608523.247   134573957.726       -1196.683          48.000    25608521.867   103115258.559        -916.946          52.000  
E14  27765806.605   145910362.575       -1624.529          47.000    27765805.365   111801473.545       -1244.935          50.000  
> 2024 04 17 08 19 30.0060000  0 28                     
G08  24272649.961   127553667.665        2314.918          44.000    24272649.023    99392484.618        1803.726          43.000  
G16  22984620.184   120785037.682       -2270.941          48.000                                                                  
G26  24840828.501   130539434.579       -3981.853          43.000    24840827.503   101719046.067       -3102.709          43.000  
G27  22411504.343   117773233.993         802.576          49.000    22411500.835    91771401.881         625.378          48.000  
G23  23794881.309   125043089.122       -3392.689          48.000    23794876.402    97436139.955       -2643.437          43.000  
R08  22109300.025   118394299.179        1517.385          51.000    22109292.949    92084490.309        1180.259          50.000  
R22  23509991.312   125498078.995       -2306.464          48.000    23509987.916    97609443.493       -1793.844          48.000  
R14  24390471.874   130015002.315         251.133          45.000    24390471.909   101122700.181         195.424          41.000  
R07  22994233.719   123089955.025       -2269.384          51.000    22994226.563    95736668.960       -1764.978          46.000  
R13  23656460.326   126324062.905       -3372.719          38.000    23656459.332    98252070.285       -2622.972          39.000  
E08  29424723.292   154628068.464       -1092.042          44.000    29424722.202   118481147.751        -836.735          48.000  
G21  26248237.692   137935411.246        2017.728          35.000                                                                  
S31  40597699.548   213342437.406        -619.425          44.000  
S33  41552272.722   218358796.584        -619.052          42.000  
G10  21882027.590   114990962.024       -1186.594          51.000    21882023.935    89603279.898        -924.491          45.000  
E33  26794264.181   140804912.622         385.300          47.000    26794263.528   107889458.336         295.237          50.000  
R12  25480138.362   136110413.557       -4660.491          45.000    25480136.840   105863604.136       -3624.798          41.000  
R01  24945187.208   133346256.525        3796.868          43.000    24945184.888   103713761.890        2953.078          39.000  
R23  22278701.490   119176079.247         -87.293          48.000                                                                  
R24  24722765.550   132203806.352        1721.112          44.000    24722762.125   102825139.499        1338.480          40.000  
G32  25385178.166   133400024.366        2323.046          46.000    25385175.218   103948097.519        1810.206          44.000  
E21  28481065.010   149669055.002       -3629.792          45.000    28481065.969   114681515.086       -2781.118          48.000  
E13  28647873.051   150545553.322       -2389.425          35.000    28647873.328   115353516.363       -1830.721          42.000  
E31  27681464.890   145467009.525         616.582          43.000    27681465.368   111461817.895         472.467          44.000  
E07  27993220.259   147105385.878        1038.233          45.000    27993222.981   112717126.631         795.541          50.000  
G18  26476591.083   139135404.093       -3161.437          37.000    26476586.885   108417543.816       -2462.740          40.000  
E26  25615361.147   134609890.166       -1198.506          48.000    25615359.310   103142791.210        -918.387          52.000  
E14  27775067.451   145959026.716       -1619.397          47.000    27775065.885   111838761.651       -1240.677          50.000  
> 2024 04 17 08 20 00.0060000  0 28                     
G08  24259450.903   127484307.086        2309.380          43.000    24259450.133    99338437.450        1799.582          43.000  
G16  22997638.426   120853450.454       -2289.496          47.000                                                                  
G26  24863575.462   130658973.467       -3987.139          42.000    24863574.763   101812193.220       -3106.730          41.000  
G27  22406958.819   117749347.291         790.532          50.000    22406955.557    91752788.894         615.825          48.000  
G23  23814282.541   125145044.442       -3404.062          48.000    23814277.004    97515585.636       -2652.107          42.000  
R08  22100867.913   118349148.868        1492.984          50.000    22100861.814    92049373.436        1161.222          50.000  
R22  23522968.865   125567355.344       -2311.722          48.000    23522965.906    97663325.069       -1797.929          49.000  
R14  24389132.261   130007852.050         225.929          46.000    24389130.507   101117138.857         175.552          41.000  
R07  23007025.910   123158435.937       -2295.690          51.000    23007020.829    95789931.893       -1785.543          46.000  
R13  23675452.432   126425482.917       -3388.521          38.000    23675452.254    98330952.542       -2635.369          39.000  
E08  29430999.005   154661046.453       -1106.225          44.000    29430997.859   118506416.605        -847.542          49.000  
G21  26236723.881   137874907.225        2016.232          38.000                                                                  
S31  40601239.481   213361038.735        -620.334          44.000  
S33  41555809.904   218377385.846        -620.116          42.000  
G10  21888862.637   115026877.923       -1207.411          51.000    21888858.732    89631266.303        -940.687          45.000  
E33  26792076.784   140793418.120         381.484          47.000    26792076.226   107880650.901         292.253          50.000  
R12  25506310.123   136250215.132       -4659.064          44.000    25506307.501   105972338.789       -3623.889          38.000  
R01  24923887.884   133232396.469        3794.157          43.000    24923884.746   103625204.133        2951.022          39.000  
R23  22279206.727   119178780.126         -92.464          49.000                                                                  
R24  24713112.878   132152187.595        1720.554          46.000    24713110.064   102784991.601        1338.081          40.000  
G32  25371934.663   133330427.871        2317.310          46.000    25371931.019   103893866.555        1805.564          43.000  
E21  28501796.266   149777997.810       -3632.756          45.000    28501797.375   114764990.736       -2783.433          47.000  
E13  28661512.517   150617235.304       -2389.228          35.000    28661513.732   115408441.506       -1830.521          42.000  
E31  27677984.055   145448722.349         602.844          42.000    27677985.716   111447805.668         461.847          44.000  
E07  27987323.751   147074396.691        1028.220          46.000    27987325.627   112693381.722         787.751          50.000  
G18  26494638.233   139230240.982       -3160.633          37.000    26494633.538   108491442.704       -2462.912          37.000  
E26  25622212.493   134645895.714       -1201.359          48.000    25622210.870   103170379.861        -920.524          51.000  
E14  27784301.015   146007548.876       -1615.148          47.000    27784299.391   111875940.989       -1237.584          50.000  
> 2024 04 17 08 20 30.0060000  0 28                     
G08  24246279.488   127415090.333        2305.009          43.000    24246278.539    99284502.351        1796.001          43.000  
G16  23010760.175   120922404.379       -2307.345          48.000                                                                  
G26  24886349.526   130778650.604       -3991.698          42.000    24886347.489   101905448.177       -3110.521          40.000  
G27  22402480.578   117725815.099         778.655          49.000    22402477.934    91734452.135         606.743          48.000  
G23  23833746.792   125247326.238       -3414.558          48.000    23833741.449    97595285.755       -2660.524          43.000  
R08  22092572.097   118304720.863        1469.045          50.000    22092564.985    92014818.366        1142.569          50.000  
R22  23535973.669   125636773.765       -2315.952          50.000    23535970.298    97717317.171       -1801.415          49.000  
R14  24387929.130   130001443.329         201.535          43.000    24387926.347   101112154.325         156.750          39.000  
R07  23019963.471   123227689.034       -2321.165          52.000    23019957.944    95843795.427       -1805.220          46.000  
R13  23694533.264   126527374.079       -3404.184          37.000    23694533.338    98410201.212       -2647.364          39.000  
E08  29437353.318   154694439.171       -1119.806          43.000    29437352.321   118532003.235        -858.094          49.000  
G21  26225215.390   137814425.265        2016.113          41.000                                                                  
S31  40604782.433   213379656.900        -620.589          44.000  
S33  41559350.687   218395992.330        -620.497          42.000  
G10  21895814.043   115063406.618       -1227.715          51.000    21895810.567    89659730.244        -956.706          45.000  
E33  26789908.972   140782024.509         378.327          47.000    26789908.102   107871920.761         289.796          50.000  
R12  25532470.096   136389959.928       -4657.007          40.000    25532468.036   106081029.280       -3622.156          36.000  
R01  24902600.144   133118605.640        3792.219          42.000    24902597.838   103536700.243        2949.248          39.000  
R23  22279738.226   119181622.487         -96.845          48.000                                                                  
R24  24703458.248   132100570.198        1720.756          43.000    24703456.428   102744844.773        1338.140          40.000  
G32  25358722.583   133260995.015        2312.013          47.000    25358717.876   103839763.075        1801.328          43.000  
E21  28522542.304   149887018.242       -3634.983          45.000    28522543.510   114848525.886       -2785.251          47.000  
E13  28675150.877   150688901.634       -2388.358          37.000    28675151.145   115463354.696       -1829.865          42.000  
E31  27674580.585   145430834.586         589.858          43.000    27674581.649   111434099.466         451.788          44.000  
E07  27981481.951   147043699.472        1018.539          45.000    27981483.615   112669860.503         780.495          49.000  
G18  26512681.870   139325064.835       -3160.286          38.000    26512677.510   108565331.409       -2462.853          36.000  
E26  25629078.629   134681976.599       -1203.860          48.000    25629076.693   103198026.247        -922.320          51.000  
E14  27793507.623   146055932.005       -1610.255          47.000    27793506.550   111913013.776       -1233.759          51.000  
> 2024 04 17 08 21 00.0060000  0 28                     
G08  24233134.978   127346012.566        2300.476          43.000    24233133.288    99230675.560        1792.467          44.000  
G16  23023983.591   120991890.745       -2325.037          48.000                                                                  
G26  24909147.369   130898455.964       -3995.575          41.000    24909146.038   101998803.000       -3113.458          41.000  
G27  22398068.999   117702632.486         766.954          49.000    22398066.371    91716387.761         597.748          49.000  
G23  23853270.657   125349924.736       -3425.119          48.000    23853264.954    97675232.657       -2668.859          43.000  
R08  22084408.490   118261011.059        1445.103          49.000    22084402.699    91980821.888        1123.923          51.000  
R22  23549003.774   125706327.666       -2320.842          49.000    23548999.518    97771414.639       -1804.951          48.000  
R14  24386862.722   129995770.408         176.934          43.000    24386862.466   101107741.990         137.609          42.000  
R07  23033043.219   123297705.332       -2346.495          51.000    23033039.271    95898252.583       -1825.054          46.000  
R13  23713700.168   126629724.816       -3419.268          37.000    23713700.797    98489807.321       -2659.238          40.000  
E08  29443784.860   154728239.428       -1133.385          42.000    29443784.311   118557902.141        -868.478          50.000  
G21  26213708.759   137753958.144        2015.240          41.000                                                                  
S31  40608327.056   213398285.140        -621.213          44.000  
S33  41562893.626   218414610.119        -620.833          42.000  
G10  21902879.445   115100539.749       -1247.738          51.000    21902876.187    89688665.150        -972.187          45.000  
E33  26787758.679   140770724.182         375.242          47.000    26787757.569   107863262.105         287.577          50.000  
R12  25558617.875   136529636.844       -4654.688          38.000    25558617.186   106189666.947       -3620.215          35.000  
R01  24881324.694   133004880.598        3789.688          42.000    24881323.425   103448247.498        2947.655          40.000  
R23  22280294.240   119184600.027        -101.484          48.000                                                                  
R24  24693804.440   132048946.875        1720.813          44.000    24693802.765   102704693.282        1338.394          40.000  
G32  25345540.689   133191722.067        2306.493          47.000    25345535.161   103785784.188        1797.135          42.000  
E21  28543300.826   149996107.423       -3637.422          45.000    28543302.288   114932113.708       -2787.074          46.000  
E13  28688784.100   150760545.470       -2387.599          38.000    28688784.329   115518250.628       -1829.627          42.000  
E31  27671251.579   145413340.188         576.470          43.000    27671252.811   111420694.664         441.857          45.000  
E07  27975695.164   147013288.929        1008.984          45.000    27975695.418   112646558.943         773.108          47.000  
G18  26530722.581   139419868.422       -3159.940          37.000    26530718.202   108639204.274       -2462.024          37.000  
E26  25635957.360   134718125.298       -1206.055          48.000    25635955.553   103225724.615        -924.077          51.000  
E14  27802686.785   146104169.339       -1605.502          47.000    27802685.810   111949974.856       -1230.180          51.000  
> 2024 04 17 08 21 30.0060000  0 28                     
G08  24220015.475   127277067.416        2295.941          44.000    24220013.248    99176952.086        1789.271          44.000  
G16  23037305.678   121061898.842       -2342.038          48.000                                                                  
G26  24931967.499   131018377.933       -3999.022          41.000    24931967.050   102092248.690       -3116.411          42.000  
G27  22393722.985   117679793.061         755.767          50.000    22393719.849    91698590.817         588.848          48.000  
G23  23872852.492   125452828.662       -3434.853          47.000    23872847.337    97755417.520       -2676.609          43.000  
R08  22076379.155   118218014.288        1421.452          50.000    22076373.000    91947379.952        1105.589          51.000  
R22  23562057.941   125776009.073       -2324.666          49.000    23562053.237    97825611.276       -1807.983          49.000  
R14  24385935.342   129990824.167         153.070          39.000    24385935.230   101103894.883         118.959          43.000  
R07  23046264.214   123368473.921       -2371.273          51.000    23046259.285    95953294.819       -1844.334          45.000  
R13  23732951.231   126732522.083       -3433.420          37.000    23732950.582    98569760.708       -2670.408          38.000  
E08  29450292.856   154762438.528       -1146.593          41.000    29450291.910   118584106.631        -878.313          50.000  
G21  26202203.229   137693497.339        2015.260          41.000                                                                  
S31  40611872.447   213416915.176        -620.892          44.000  
S33  41566436.456   218433227.812        -620.325          42.000  
G10  21910058.788   115138267.324       -1267.219          51.000    21910055.429    89718063.253        -987.527          45.000  
E33  26785624.009   140759508.028         372.730          47.000    26785623.204   107854667.955         285.507          50.000  
R12  25584751.899   136669233.223       -4651.050          36.000    25584750.085   106298241.976       -3617.328          33.000  
R01  24860060.109   132891216.922        3787.861          42.000    24860060.328   103359842.500        2946.263          40.000  
R23  22280875.352   119187704.870        -105.414          50.000                                                                  
R24  24684149.331   131997308.855        1721.674          44.000    24684146.428   102664530.462        1339.193          38.000  
G32  25332387.618   133122603.742        2301.531          46.000    25332383.002   103731925.803        1793.618          43.000  
E21  28564070.697   150105254.940       -3638.807          44.000    28564071.990   115015746.260       -2788.381          45.000  
E13  28702412.638   150832158.332       -2386.045          39.000    28702412.254   115573122.826       -1828.674          43.000  
E31  27667994.266   145396231.584         563.993          41.000    27667997.489   111407585.488         432.077          45.000  
E07  27969961.053   146983158.276         999.802          45.000    27969962.102   112623471.834         766.120          48.000  
G18  26548757.813   139514643.076       -3158.630          39.000    26548751.770                       -2461.236          31.000  
E26  25642847.626   134754332.914       -1207.641          48.000    25642845.577   103253468.118        -925.401          51.000  
E14  27811836.242   146152252.561       -1599.901          47.000    27811835.610   111986817.845       -1225.923          51.000  
> 2024 04 17 08 22 00.0060000  0 28                     
G08  24206916.919   127208232.561        2292.595          45.000    24206914.662    99123314.593        1786.405          44.000  
G16  23050721.955   121132401.969       -2358.168          47.000                                                                  
G26  24954804.772   131138389.098       -4001.609          42.000    24954804.458   102185763.886       -3118.201          43.000  
G27  22389438.594   117657274.529         745.347          50.000    22389435.175    91681043.908         580.773          48.000  
G23  23892487.857   125556010.781       -3443.888          48.000    23892483.284    97835819.148       -2683.625          44.000  
R08  22068477.713   118175709.305        1398.651          49.000    22068472.751    91914476.096        1087.844          50.000  
R22  23575131.370   125845793.668       -2327.649          49.000    23575126.897    97879888.170       -1810.496          50.000  
R14  24385136.890   129986580.812         129.665          36.000    24385139.016   101100594.537         100.889          43.000  
R07  23059619.550   123439967.543       -2395.149          51.000    23059614.131    96008900.964       -1862.785          44.000  
R13  23752281.063   126835736.775       -3447.468          38.000    23752278.948    98650038.785       -2681.265          38.000  
E08  29456870.948   154797011.814       -1158.473          41.000    29456871.040   118610597.887        -887.852          50.000  
G21  26190694.342   137633017.925        2016.313          42.000                                                                  
S31  40615413.000   213435522.055        -619.638          44.000  
S33  41569975.213   218451823.277        -619.233          42.000  
G10  21917346.191   115176563.415       -1285.979          51.000    21917342.526    89747904.374       -1002.162          44.000  
E33  26783500.431   140748351.052         371.073          46.000    26783500.017   107846119.124         284.261          50.000  
R12  25610862.697   136808720.513       -4647.736          34.000    25610862.969                       -3614.447          30.000  
R01  24838802.987   132777593.542        3786.948          40.000    24838804.214   103271468.828        2945.434          39.000  
R23  22281476.332   119190912.235        -108.639          50.000                                                                  
R24  24674485.384   131945631.524        1723.523          39.000    24674482.023   102624337.070        1340.219          40.000  
G32  25319258.092   133053618.839        2297.245          44.000    25319255.826   103678171.420        1790.130          43.000  
E21  28584846.387   150214434.479       -3639.723          44.000    28584848.349   115099403.340       -2788.953          45.000  
E13  28716027.581   150903715.847       -2384.135          38.000    28716029.147   115627952.609       -1826.873          43.000  
E31  27664807.435   145379485.314         552.292          41.000    27664810.535   111394753.950         423.156          45.000  
E07  27964276.377   146953284.854         991.683          44.000    27964277.757   112600581.812         759.790          49.000  
G18  26566783.515   139609364.272       -3156.559          38.000    26566777.063   108786863.412       -2459.670          35.000  
E26  25649744.280   134790574.526       -1208.531          48.000    25649742.243   103281237.660        -926.070          51.000  
E14  27820952.224   146200157.511       -1593.662          46.000    27820951.761   112023524.225       -1221.178          51.000  
> 2024 04 17 08 22 30.0060000  0 28                     
G08  24193841.134   127139517.659        2288.019          45.000    24193838.556    99069770.565        1783.101          44.000  
G16  23064233.613   121203405.658       -2375.459          47.000                                                                  
G26  24977660.016   131258493.937       -4005.630          43.000    24977659.840   102279352.068       -3120.948          43.000  
G27  22385216.502   117635086.422         733.714          51.000    22385212.789    91663754.482         571.746          49.000  
G23  23912176.820   125659475.804       -3453.807          48.000    23912171.642    97916441.222       -2691.324          43.000  
R08  22060708.259   118134106.538        1374.691          49.000    22060704.277    91882118.402        1069.186          51.000  
R22  23588223.822   125915689.758       -2331.829          47.000    23588220.912    97934251.827       -1813.770          50.000  
R14  24384471.625   129983048.350         105.580          40.000    24384476.124   101097847.106          82.148          42.000  
R07  23073110.882   123512191.139       -2419.950          51.000    23073106.378    96065074.926       -1882.151          42.000  
R13  23771688.792   126939371.895       -3461.831          37.000    23771686.857    98730643.867       -2692.492          40.000  
E08  29463522.892   154831966.655       -1171.940          42.000    29463522.623   118637381.446        -897.841          50.000  
G21  26179182.852   137572528.196        2016.050          40.000                                                                  
S31  40618950.932   213454113.687        -619.917          44.000  
S33  41573510.828   218470403.257        -619.279          42.000  
G10  21924743.027   115215434.027       -1305.594          51.000    21924739.540    89778193.186       -1017.492          44.000  
E33  26781389.371   140737260.118         368.381          46.000    26781389.495   107837620.908         282.203          50.000  
R12  25636957.594                1      -4644.592          29.000    25636958.863                3      -3612.631          25.000  
R01  24817556.615   132664022.221        3784.692          40.000    24817557.855   103183135.681        2943.663          39.000  
R23  22282096.290   119194230.915        -112.745          49.000                                                                  
R24  24664815.653   131893921.834        1723.821          40.000    24664813.762   102584118.524        1340.902          43.000  
G32  25306158.487   132984778.229        2291.942          45.000    25306156.150   103624529.417        1785.998          43.000  
E21  28605629.123   150323651.595       -3641.496          42.000    28605631.723   115183089.205       -2790.080          45.000  
E13  28729636.430   150975225.678       -2383.022          40.000    28729636.979   115682745.821       -1826.077          43.000  
E31  27661691.537   145363109.810         539.311          41.000    27661693.844   111382206.494         413.369          44.000  
E07  27958641.831   146923677.775         982.169          43.000    27958644.238   112577895.890         752.573          49.000  
G18  26584799.457   139704039.365       -3155.732          36.000    26584795.458   108860636.194       -2458.609          37.000  
E26  25656647.946   134826857.147       -1210.339          48.000    25656646.656   103309038.638        -927.439          52.000  
E14  27830035.868   146247891.889       -1588.469          46.000    27830035.254   112060099.910       -1217.308          51.000  
> 2024 04 17 08 23 00.0060000  0 28                     
G08  24180789.702   127070934.979        2284.197          44.000    24180787.856    99016329.599        1779.699          44.000  
G16  23077841.834   121274917.752       -2391.950          47.000                                                                  
G26  25000534.228   131378699.494       -4008.093          42.000    25000534.371   102373018.742       -3123.248          44.000  
G27  22381059.150   117613240.960         722.753          50.000    22381055.935    91646732.053         563.238          48.000  
G23  23931921.104   125763231.093       -3463.002          48.000    23931915.137    97997289.471       -2698.204          43.000  
R08  22053073.907   118093219.610        1351.311          49.000    22053067.691    91850317.456        1051.044          50.000  
R22  23601342.463   125985708.307       -2335.695          49.000    23601337.449    97988710.693       -1816.729          50.000  
R14  24383946.471   129980237.335          81.904          42.000    24383947.995   101095660.774          63.732          40.000  
R07  23086742.270   123585152.640       -2444.028          51.000    23086734.896    96121822.720       -1900.778          42.000  
R13  23791175.568   127043433.446       -3475.670          36.000    23791174.423    98811580.596       -2703.316          40.000  
E08  29470249.625   154867312.870       -1184.495          42.000    29470248.722   118664464.896        -907.570          50.000  
G21  26167671.981   137512038.019        2016.230          40.000                                                                  
S31  40622487.634   213472700.166        -619.273          44.000  
S33  41577045.381   218488978.169        -618.884          42.000  
G10  21932251.162   115254887.747       -1324.488          51.000    21932247.787    89808936.340       -1031.894          45.000  
E33  26779293.305   140726244.797         366.214          45.000    26779293.316   107829180.612         280.642          50.000  
R12  25663027.507                       -4639.966          28.000    25663069.448                3      -3607.761          24.000  
R01  24796324.570   132550517.195        3782.672          43.000    24796324.386   103094854.078        2942.251          40.000  
R23  22282738.541   119197671.447        -116.314          48.000                                                                  
R24  24655141.335   131842190.651        1725.016          37.000    24655140.507   102543883.102        1341.768          43.000  
G32  25293089.060   132916095.228        2287.128          47.000    25293086.588   103571010.228        1782.128          44.000  
E21  28626421.187   150432914.572       -3642.580          42.000    28626423.859   115266810.221       -2791.083          45.000  
E13  28743237.098   151046697.941       -2381.380          39.000    28743238.524   115737510.282       -1824.854          43.000  
E31  27658648.957   145347116.085         526.947          42.000    27658649.924   111369951.578         403.799          44.000  
E07  27953060.769   146894348.932         973.250          43.000    27953062.953   112555423.154         745.748          49.000  
G18  26602805.571   139798678.361       -3153.765          34.000    26602805.998   108934380.884       -2457.452          35.000  
E26  25663562.101   134863190.477       -1211.776          48.000    25663560.835   103336878.447        -928.404          52.000  
E14  27839089.536   146295466.080       -1582.853          46.000    27839088.050   112096552.847       -1212.850          50.000  
> 2024 04 17 08 23 30.0060000  0 28                     
G08  24167763.354   127002482.683        2279.650          43.000    24167761.672    98962990.203        1776.415          44.000  
G16  23091545.403   121346932.196       -2408.630          47.000                                                                  
G26  25023426.623   131498998.750       -4011.335          43.000    25023426.053   102466758.422       -3125.807          43.000  
G27  22376966.336   117591736.158         711.370          50.000    22376963.572    91629975.068         554.346          48.000  
G23  23951718.537   125867269.793       -3472.544          47.000    23951712.281    98078358.631       -2705.807          43.000  
R08  22045571.234   118053047.284        1327.168          50.000    22045565.756    91819072.346        1032.298          50.000  
R22  23614480.045   126055845.778       -2339.733          48.000    23614476.174    98043262.005       -1819.704          49.000  
R14  24383557.247   129978143.723          58.124          46.000    24383554.550   101094032.420          44.898          41.000  
R07  23100507.541   123658845.996       -2468.336          50.000    23100501.523    96179139.765       -1919.813          43.000  
R13  23810741.263   127147913.037       -3489.426          38.000    23810740.328    98892842.494       -2714.003          40.000  
E08  29477050.058   154903046.233       -1197.247          42.000    29477048.416   118691844.972        -917.455          50.000  
G21  26156160.691   137451543.134        2016.562          42.000                                                                  
S31  40626022.631   213491276.797        -618.895          44.000  
S33  41580578.244   218507543.341        -618.485          42.000  
G10  21939868.716   115294918.979       -1343.807          51.000    21939865.499    89840129.513       -1047.203          46.000  
E33  26777210.863   140715300.456         363.899          46.000    26777210.550   107820794.710         278.713          50.000  
R01  24775104.768   132437078.444        3780.547          43.000    24775103.441   103006624.047        2940.348          39.000  
R23  22283403.900   119201230.632        -120.367          49.000                                                                  
R24  24645460.476   131790433.355        1725.877          37.000    24645460.981   102503627.549        1342.066          42.000  
G32  25280048.975   132847569.135        2281.724          46.000    25280047.617   103517613.281        1778.187          45.000  
E21  28647220.632   150542217.480       -3644.118          41.000    28647223.198   115350561.819       -2792.182          45.000  
E13  28756828.867   151118128.706       -2379.963          38.000    28756831.210   115792242.941       -1823.707          43.000  
E31  27655677.709   145331500.988         514.432          43.000    27655678.262   111357986.776         394.154          44.000  
E07  27947533.244   146865295.956         963.955          44.000    27947533.833   112533161.798         738.638          48.000  
G18  26620807.038   139893277.123       -3152.816          34.000    26620806.509   109008094.256       -2456.832          35.000  
E26  25670484.530   134899570.031       -1213.236          48.000    25670483.731   103364753.673        -929.592          52.000  
E14  27848111.123   146342876.241       -1577.430          46.000    27848109.816   112132880.119       -1208.697          50.000  
R12                                                                  25689154.358                3      -3609.623          18.000  
> 2024 04 17 08 24 00.0060000  0 27                     
G08  24154761.437   126934157.300        2275.452          43.000    24154760.197    98909749.708        1772.909          45.000  
G16  23105342.976   121419441.015       -2425.287          47.000                                                                  
G26  25046335.099   131619382.968       -4014.030          44.000    25046334.172   102560564.329       -3127.987          42.000  
G27  22372938.440   117570568.522         699.931          50.000    22372935.386    91613480.803         545.335          48.000  
G23  23971568.091   125971583.511       -3481.534          46.000    23971563.390    98159642.046       -2713.094          43.000  
R08  22038202.759   118013587.400        1303.464          50.000    22038197.638    91788381.344        1013.642          51.000  
R22  23627641.813   126126096.993       -2343.660          47.000    23627636.216    98097901.830       -1822.833          49.000  
R14  24383296.784   129976762.733          33.982          44.000    24383297.135   101092958.281          26.539          43.000  
R07  23114409.895   123733262.748       -2492.632          50.000    23114401.309    96237019.516       -1938.865          40.000  
R13  23830383.174   127252800.044       -3503.089          36.000    23830382.134    98974421.219       -2724.558          41.000  
E08  29483921.465   154939160.779       -1210.204          42.000    29483920.701   118719517.157        -927.333          49.000  
G21  26144647.368   137391037.848        2017.079          40.000                                                                  
S31  40629555.109   213509838.435        -618.808          44.000  
S33  41584108.023   218526093.517        -617.852          42.000  
G10  21947594.518   115335520.485       -1362.714          51.000    21947591.353    89871767.069       -1061.941          45.000  
E33  26775140.492   140704420.860         361.536          46.000    26775139.884   107812458.414         277.058          50.000  
R01  24753895.079   132323704.288        3778.216          42.000    24753893.755   102918444.233        2938.572          39.000  
R23  22284090.713   119204903.663        -124.212          50.000                                                                  
R24  24635776.785   131738644.265        1727.186          38.000    24635774.906   102463347.167        1342.968          41.000  
G32  25267038.520   132779197.521        2276.365          46.000    25267036.683   103464336.743        1773.684          44.000  
E21  28668027.199   150651552.724       -3644.805          41.000    28668029.008   115434338.217       -2793.076          45.000  
E13  28770414.442   151189512.505       -2378.562          39.000    28770415.302   115846939.568       -1822.705          42.000  
E31  27652777.152   145316259.851         501.752          43.000    27652778.140   111346308.498         384.405          44.000  
E07  27942056.014   146836514.892         954.735          44.000    27942056.577   112511108.831         731.607          47.000  
G18  26638801.092   139987829.892       -3150.639          36.000    26638799.583   109081771.768       -2455.297          36.000  
E26  25677415.498   134935989.739       -1214.667          48.000    25677413.917   103392659.672        -930.729          52.000  
E14  27857100.489   146390117.044       -1571.812          46.000    27857099.440   112169077.604       -1204.384          50.000  
> 2024 04 17 08 24 30.0060000  0 27                     
G08  24141784.341   126865962.261        2271.000          43.000    24141783.060    98856610.737        1769.401          45.000  
G16  23119235.679   121492443.905       -2441.667          47.000                                                                  
G26  25069259.634   131739850.420       -4017.113          44.000    25069258.354   102654435.085       -3130.266          43.000  
G27  22368975.137   117549741.349         688.395          50.000    22368972.021    91597251.835         536.510          48.000  
G23  23991470.144   126076170.716       -3490.894          46.000    23991465.388    98241138.578       -2720.141          42.000  
R08  22030968.181   117974843.657        1279.373          50.000    22030962.684    91758247.326         995.090          51.000  
R22  23640824.022   126196463.920       -2347.571          48.000    23640818.341    98152631.665       -1825.892          49.000  
R14  24383171.494   129976095.471          10.175          45.000    24383172.851   101092439.309           7.901          42.000  
R07  23128445.450   123808401.530       -2516.714          49.000    23128439.209    96295460.724       -1957.385          44.000  
R13  23850099.711   127358091.504       -3516.279          34.000    23850100.689    99056314.568       -2735.220          42.000  
E08  29490866.757   154975657.551       -1223.038          42.000    29490865.961   118747482.208        -937.086          49.000  
G21  26133132.095   137330523.313        2017.213          41.000                                                                  
S31  40633084.570   213528386.329        -618.026          44.000  
S33  41587635.271   218544629.314        -617.836          42.000  
G10  21955429.364   115376691.955       -1381.929          51.000    21955425.843    89903848.706       -1076.862          45.000  
E33  26773083.047   140693606.663         359.318          46.000    26773081.803   107804172.236         275.399          50.000  
R01  24732698.906   132210399.958        3775.538          43.000    24732698.004   102830318.784        2936.524          39.000  
R23  22284800.104   119208692.164        -128.285          50.000                                                                  
R24  24626085.101   131686824.836        1727.914          42.000    24626081.643   102423043.094        1344.083          38.000  
G32  25254058.412   132710984.893        2271.001          46.000    25254055.209   103411184.069        1769.553          43.000  
E21  28688839.350   150760919.738       -3646.365          41.000    28688841.199   115518138.915       -2793.802          45.000  
E13  28783989.998   151260850.615       -2377.263          39.000    28783990.359   115901601.201       -1821.578          41.000  
E31  27649949.197   145301394.748         489.247          44.000    27649949.630   111334918.342         374.789          45.000  
E07  27936632.010   146808008.693         945.372          45.000    27936632.197   112489266.416         724.481          48.000  
G18  26656787.182   140082337.899       -3149.302          37.000    26656784.479   109155414.325       -2454.215          32.000  
E26  25684353.551   134972450.397       -1216.146          48.000    25684352.288   103420597.047        -931.893          52.000  
E14  27866057.542   146437189.904       -1566.411          46.000    27866057.129   112205146.418       -1200.278          50.000  
> 2024 04 17 08 25 00.0060000  0 28                     
G08  24128831.981   126797900.678        2266.319          43.000    24128831.422    98803575.778        1765.808          45.000  
G16  23133221.042   121565939.258       -2457.932          48.000                                                                  
G26  25092199.058   131860398.956       -4019.611          45.000    25092198.220   102748369.032       -3132.420          43.000  
G27  22365076.807   117529257.619         676.964          49.000    22365073.916    91581290.503         527.612          48.000  
G23  24011424.097   126181029.534       -3499.849          46.000    24011419.232    98322846.753       -2727.284          42.000  
R08  22023867.618   117936820.683        1255.338          50.000    22023862.318    91728673.919         976.365          50.000  
R22  23654027.056   126266948.097       -2351.478          46.000    23654022.550    98207452.689       -1829.037          49.000  
R14  24383182.633   129976142.771         -13.576          47.000    24383180.979   101092476.182         -10.542          42.000  
R07  23142616.554   123884260.495       -2540.636          48.000    23142610.290    96354462.233       -1976.326          43.000  
R13  23869894.483   127463783.917       -3529.155          34.000    23869892.791    99138519.747       -2745.341          41.000  
E08  29497885.205   155012537.119       -1235.947          42.000    29497883.583   118775740.595        -946.868          49.000  
G21  26121613.799   137270000.688        2017.369          41.000                                                                  
S31  40636611.480   213546921.024        -617.605          44.000  
S33  41591160.276   218563152.556        -617.451          42.000  
G10  21963372.961   115418432.704       -1400.955          51.000    21963369.612    89936373.928       -1091.615          46.000  
E33  26771037.069   140682858.170         357.208          45.000    26771036.548   107795936.418         273.572          50.000  
R01  24711517.602   132097170.483        3772.688          44.000    24711516.398   102742251.521        2934.502          40.000  
R23  22285529.708   119212597.818        -132.197          50.000                                                                  
R24  24616392.154   131634975.804        1728.791          45.000    24616385.868   102382716.111        1344.610          40.000  
G32  25241108.462   132642935.457        2265.348          46.000    25241105.434   103358158.605        1765.203          42.000  
E21  28709658.104   150870317.447       -3647.049          42.000    28709658.844   115601963.183       -2794.685          46.000  
E13  28797557.024   151332144.040       -2375.830          39.000    28797555.992   115956228.623       -1820.635          40.000  
E31  27647192.325   145286907.467         476.541          44.000    27647192.920   111323817.691         365.188          45.000  
E07  27931260.727   146779779.914         936.337          46.000    27931261.032   112467636.608         717.467          48.000  
G18  26674764.235   140176801.901       -3148.449          39.000    26674759.390                       -2452.799          31.000  
E26  25691299.562   135008952.502       -1217.416          48.000    25691298.293   103448566.193        -932.860          52.000  
E14  27874983.658   146484096.052       -1560.795          46.000    27874983.081   112241087.489       -1196.006          51.000  
R12                                                                  25767124.933                3      -3613.031          15.000  
> 2024 04 17 08 25 30.0060000  0 27                     
G08  24115905.821   126729973.686        2261.808          43.000    24115905.332    98750645.682        1762.395          45.000  
G16  23147300.458   121639923.487       -2474.237          48.000                                                                  
G26  25115153.221   131981024.585       -4022.261          45.000    25115152.203   102842363.019       -3134.281          43.000  
G27  22361244.123   117509118.371         665.411          49.000    22361241.209    91565597.567         518.634          48.000  
G23  24031429.083   126286156.134       -3508.700          47.000    24031423.430    98404763.571       -2734.013          42.000  
R08  22016901.637   117899519.627        1231.237          51.000    22016896.541    91699662.019         957.604          50.000  
R22  23667253.358   126337549.032       -2355.340          46.000    23667249.976    98262364.550       -1831.888          50.000  
R14  24383325.393   129976904.090         -37.373          46.000    24383324.391   101093068.332         -29.194          43.000  
R07  23156922.082   123960836.776       -2564.569          50.000    23156916.136    96414021.539       -1994.640          43.000  
R13  23889763.123   127569872.151       -3543.023          34.000    23889759.571    99221032.759       -2755.360          41.000  
E08  29504974.766   155049798.151       -1248.350          42.000    29504974.268   118804291.276        -956.601          49.000  
G21  26110094.786   137209468.645        2017.825          43.000                                                                  
S31  40640135.893   213565442.020        -617.248          44.000  
S33  41594682.367   218581661.435        -616.780          42.000  
G10  21971423.792   115460739.966       -1419.758          51.000    21971420.258    89969340.654       -1106.316          46.000  
E33  26769005.065   140672173.798         355.081          46.000    26769003.706   107787749.704         272.031          51.000  
R01  24690350.329   131984018.784        3770.515          45.000    24690348.904   102654244.762        2932.533          40.000  
R23  22286280.978   119216620.621        -136.034          49.000                                                                  
R24  24606690.323   131583095.850        1729.725          45.000    24606684.965   102342365.100        1345.377          40.000  
G32  25228191.074   132575051.466        2259.832          47.000    25228187.866   103305262.005        1761.061          43.000  
E21  28730481.020   150979742.970       -3648.088          41.000    28730481.805   115685808.716       -2795.210          46.000  
E13  28811114.053   151403391.894       -2374.243          38.000    28811114.712   116010821.121       -1818.968          40.000  
E31  27644506.839   145272797.822         463.881          44.000    27644507.841   111313006.406         355.560          46.000  
E07  27925940.784   146751829.196         927.006          45.000    27925942.396   112446219.845         710.344          49.000  
G18  26692731.051   140271220.684       -3146.432          37.000    26692725.418   109302595.677       -2451.859          31.000  
E26  25698253.339   135045494.570       -1218.769          48.000    25698251.956   103476565.964        -933.885          51.000  
E14  27883878.408   146530834.651       -1555.272          46.000    27883877.140   112276900.166       -1191.578          51.000  
> 2024 04 17 08 26 00.0060000  0 27                     
G08  24103004.914   126662179.019        2257.375          43.000    24103004.240    98697818.706        1758.818          45.000  
G16  23161470.362   121714389.406       -2490.565          47.000                                                                  
G26  25138121.591   132101719.775       -4024.698          45.000    25138119.799   102936411.211       -3135.938          43.000  
G27  22357476.814   117489321.183         653.824          49.000    22357473.903    91550171.190         509.470          48.000  
G23  24051483.818   126391543.296       -3517.551          46.000    24051479.123    98486883.403       -2740.793          43.000  
R08  22010070.676   117862939.378        1206.872          51.000    22010064.794    91671210.736         938.649          50.000  
R22  23680499.713   126408262.894       -2359.364          46.000    23680495.915    98317364.204       -1835.056          49.000  
R14  24383601.060   129978375.437         -61.282          46.000    24383601.053   101094212.671         -47.620          43.000  
R07  23171359.244   124038122.782       -2588.375          48.000    23171353.058    96474132.808       -2013.060          44.000  
R13  23909701.809   127676346.626       -3555.906          36.000    23909698.380    99303846.168       -2765.995          41.000  
E08  29512137.600   155087435.936       -1261.338          42.000    29512136.729   118833130.631        -966.375          49.000  
G21  26098573.928   137148922.583        2018.093          44.000                                                                  
S31  40643656.856   213583944.272        -616.680          44.000  
S33  41598200.907   218600151.612        -616.412          42.000  
G10  21979580.791   115503607.676       -1438.578          51.000    21979577.468    90002744.058       -1120.989          46.000  
E33  26766982.480   140661548.419         352.927          46.000    26766981.848   107779608.208         270.410          51.000  
R01  24669197.775   131870944.337        3767.532          46.000    24669196.586   102566298.041        2930.592          41.000  
R23  22287054.024   119220756.268        -140.053          50.000                                                                  
R24  24596981.582   131531180.702        1730.885          44.000    24596977.312   102301986.720        1345.983          41.000  
G32  25215304.317   132507331.707        2254.265          47.000    25215301.521   103252493.399        1756.683          44.000  
E21  28751307.387   151089189.911       -3648.780          40.000    28751308.894   115769670.680       -2795.932          46.000  
E13  28824663.966   151474589.818       -2372.548          39.000    28824662.947   116065375.376       -1818.125          40.000  
E31  27641892.097   145259062.199         451.407          43.000    27641894.047   111302481.702         345.877          46.000  
E07  27920674.779   146724153.689         917.477          46.000    27920675.609   112425013.967         703.087          48.000  
G18  26710687.918   140365589.847       -3145.242          36.000    26710685.897                       -2450.636          31.000  
E26  25705213.748   135082071.714       -1220.093          48.000    25705211.973   103504592.607        -934.788          51.000  
E14  27892740.131   146577401.483       -1549.600          46.000    27892738.608   112312581.249       -1187.369          51.000  
> 2024 04 17 08 26 30.0060000  0 27                     
G08  24090131.302   126594526.603        2252.431          42.000    24090130.386    98645102.558        1755.188          44.000  
G16  23175733.776   121789343.551       -2506.981          47.000                                                                  
G26  25161103.305   132222489.204       -4027.062          44.000    25161101.604   103030517.269       -3137.958          43.000  
G27  22353776.569   117469875.892         641.966          48.000    22353773.378    91535019.013         500.304          48.000  
G23  24071589.261   126497195.908       -3526.257          46.000    24071584.700    98569210.143       -2747.659          43.000  
R08  22003377.010   117827090.816        1182.493          52.000    22003370.402    91643328.525         919.719          49.000  
R22  23693768.550   126479098.073       -2363.351          44.000    23693765.073    98372458.182       -1838.247          49.000  
R14  24384010.315   129980564.123         -85.085          46.000    24384011.469   101095914.933         -66.271          42.000  
R07  23185930.629   124116123.542       -2612.279          48.000    23185925.275    96534800.076       -2031.550          46.000  
R13  23929714.871   127783210.680       -3569.020          37.000    23929710.259    99386962.613       -2775.966          41.000  
E08  29519372.830   155125457.860       -1274.189          40.000    29519372.028   118862264.289        -976.259          49.000  
G21  26087051.476   137088370.775        2018.284          44.000                                                                  
S31  40647175.729   213602435.481        -616.456          44.000  
S33  41601717.577   218618631.364        -615.838          42.000  
G10  21987846.671   115547041.845       -1457.536          51.000    21987842.289    90036588.861       -1135.752          45.000  
E33  26764972.822   140650989.227         350.605          46.000    26764972.319   107771517.435         268.597          51.000  
R01  24648061.378   131757959.019        3764.521          47.000    24648060.611   102478420.662        2927.659          40.000  
R23  22287850.079   119225013.716        -144.264          49.000                                                                  
R24  24587266.360   131479238.293        1731.544          44.000    24587263.691   102261587.102        1347.125          39.000  
G32  25202450.668   132439787.206        2248.358          47.000    25202447.836   103199861.349        1751.669          44.000  
E21  28772139.774   151198664.123       -3649.562          40.000    28772141.060   115853553.542       -2796.687          46.000  
E13  28838203.063   151545745.594       -2371.398          38.000    28838202.373   116119897.303       -1817.056          40.000  
E31  27639351.121   145245709.203         438.369          43.000    27639353.411   111292250.160         335.987          46.000  
E07  27915462.522   146696762.776         907.976          46.000    27915462.544   112404026.130         695.670          47.000  
G18  26728636.855   140459916.859       -3143.477          35.000    26728638.606                       -2449.791          29.000  
E26  25712181.933   135118691.272       -1221.632          47.000    25712180.537   103532651.753        -936.005          51.000  
E14  27901570.243   146623804.527       -1544.256          46.000    27901568.837   112348136.829       -1183.247          51.000  
> 2024 04 17 08 27 00.0060000  0 28                     
G08  24077284.977   126527016.843        2247.603          42.000    24077283.761    98592497.584        1751.394          45.000  
G16  23190088.706   121864781.333       -2522.725          47.000                                                                  
G26  25184097.515   132343328.104       -4029.058          44.000    25184096.379   103124677.474       -3139.662          42.000  
G27  22350142.936   117450782.661         630.369          49.000    22350140.177    91520141.188         491.154          47.000  
G23  24091743.684   126603109.466       -3534.932          46.000    24091739.777    98651740.186       -2754.577          44.000  
R08  21996819.523   117791974.675        1158.145          51.000    21996812.822    91616015.986         900.759          50.000  
R22  23707061.777   126550053.381       -2367.292          46.000    23707057.273    98427645.650       -1841.316          48.000  
R14  24384553.362   129983468.538        -108.876          47.000    24384554.948   101098173.889         -84.615          41.000  
R07  23200635.678   124194834.910       -2635.659          49.000    23200628.291    96596020.001       -2049.982          45.000  
R13  23949796.682   127890458.320       -3581.223          36.000    23949794.780    99470377.375       -2785.681          42.000  
E08  29526680.244   155163861.712       -1286.888          38.000    29526680.012   118891690.607        -985.907          49.000  
G21  26075527.296   137027810.895        2018.841          43.000                                                                  
S31  40650691.802   213620914.324        -615.945          44.000  
S33  41605231.574   218637098.541        -615.625          42.000  
G10  21996219.588   115591038.884       -1476.016          52.000    21996214.213    90070872.264       -1150.261          45.000  
E33  26762975.914   140640493.818         348.607          46.000    26762974.999   107763475.525         267.101          51.000  
R12  25870870.429                3      -4606.461          17.000                                                                  
R01  24626942.495   131645065.302        3761.321          46.000    24626941.219   102390614.490        2925.427          41.000  
R23  22288668.824   119229391.658        -148.078          49.000                                                                  
R24  24577547.463   131427266.361        1732.803          46.000    24577545.370   102221164.564        1347.626          41.000  
G32  25189629.907   132372419.366        2242.442          45.000    25189628.938   103147366.945        1747.380          45.000  
E21  28792976.578   151308161.887       -3650.311          40.000    28792977.185   115937454.429       -2797.104          45.000  
E13  28851736.155   151616857.588       -2369.730          37.000    28851735.093   116174385.645       -1816.044          41.000  
E31  27636883.487   145232737.722         425.880          44.000    27636885.186   111282310.990         326.258          46.000  
E07  27910303.475   146669656.239         898.657          46.000    27910304.409   112383256.213         688.534          47.000  
G18  26746576.223   140554199.927       -3142.524          34.000    26746565.390                3      -2449.262          24.000  
E26  25719158.274   135155350.941       -1222.776          47.000    25719156.795   103560741.647        -936.994          52.000  
E14  27910368.783   146670042.201       -1538.758          46.000    27910367.489   112383565.707       -1178.998          51.000  
> 2024 04 17 08 27 30.0060000  0 27                     
G08  24064463.411   126459637.394        2243.657          43.000    24064462.149    98539994.155        1748.214          45.000  
G16  23204532.706   121940685.196       -2538.005          47.000                                                                  
G26  25207102.241   132464218.852       -4030.543          44.000    25207100.761   103218878.077       -3140.687          42.000  
G27  22346574.823   117432029.032         619.334          49.000    22346571.431    91505527.965         482.641          47.000  
G23  24111944.331   126709266.582       -3542.852          45.000    24111940.840    98734460.008       -2760.594          45.000  
R08  21990395.877   117757579.333        1134.358          51.000    21990389.250    91589264.070         882.384          49.000  
R22  23720373.965   126621114.748       -2370.395          45.000    23720369.397    98482915.567       -1843.660          48.000  
R14  24385231.257   129987073.890        -131.988          48.000    24385231.099   101100978.044        -102.650          41.000  
R07  23215466.351   124274239.106       -2658.364          48.000    23215462.697    96657778.805       -2067.644          46.000  
R13  23969948.375   127998070.006       -3593.247          36.000    23969947.112    99554075.305       -2794.750          42.000  
E08  29534059.387   155202632.622       -1298.870          38.000    29534058.193   118921398.196        -994.958          50.000  
G21  26063998.143   136967228.498        2019.629          42.000                                                                  
S31  40654203.156   213639364.937        -614.385          44.000  
S33  41608740.417   218655537.316        -614.350          42.000  
G10  22004695.951   115635582.580       -1494.004          52.000    22004690.323    90105581.649       -1164.051          45.000  
E33  26760988.286   140630047.034         347.408          46.000    26760986.914   107755470.881         266.214          51.000  
R01  24605837.712   131532252.316        3758.913          46.000    24605836.602   102302871.149        2923.770          41.000  
R23  22289506.763   119233876.116        -151.368          49.000                                                                  
R24  24567820.608   131375250.460        1734.469          46.000    24567819.261   102180707.763        1349.026          42.000  
G32  25176841.160   132305216.940        2237.253          46.000    25176841.135   103095001.486        1743.222          46.000  
E21  28813815.476   151417666.768       -3650.445          40.000    28813814.600   116021360.773       -2796.900          43.000  
E13  28865257.937   151687911.265       -2367.763          39.000    28865255.997   116228829.350       -1814.119          41.000  
E31  27634486.163   145220134.108         413.793          45.000    27634486.769   111272653.669         317.198          46.000  
E07  27905197.116   146642821.254         889.835          46.000    27905198.086   112362694.349         681.843          47.000  
G18  26764506.634   140648424.366       -3139.948          32.000                                                                  
E26  25726139.356   135192035.841       -1223.370          47.000    25726137.840   103588850.863        -937.346          52.000  
E14  27919132.753   146716100.239       -1532.319          46.000    27919132.260   112418856.941       -1174.115          51.000  
> 2024 04 17 08 28 00.0060000  0 27                     
G08  24051668.086   126392394.696        2239.245          44.000    24051666.034    98487597.275        1744.799          45.000  
G16  23219066.150   122017057.886       -2553.478          47.000                                                                  
G26  25230117.436   132585162.704       -4032.287          43.000    25230116.258   103313120.040       -3142.276          42.000  
G27  22343071.777   117413621.219         607.787          49.000    22343068.647    91491184.231         473.607          48.000  
G23  24132192.516   126815668.703       -3550.676          46.000    24132188.297    98817370.718       -2766.677          43.000  
R08  21984109.504   117723911.383        1110.130          51.000    21984101.797    91563077.897         863.445          49.000  
R22  23733706.300   126692286.985       -2374.261          44.000    23733702.974    98538271.747       -1846.601          48.000  
R14  24386040.679   129991384.400        -155.461          47.000    24386038.700   101104330.738        -120.989          42.000  
R07  23230430.923   124354337.812       -2681.433          47.000    23230426.718    96720077.805       -2085.688          47.000  
R13  23990168.248   128106045.766       -3605.587          37.000    23990167.966    99638056.400       -2803.954          43.000  
E08  29541507.516   155241774.408       -1310.935          37.000    29541506.418   118951389.955       -1004.422          50.000  
G21  26052465.930   136906627.787        2020.261          42.000                                                                  
S31  40657709.874   213657793.319        -613.925          44.000  
S33  41612245.054   218673953.756        -613.484          42.000  
G10  22013276.576   115680675.347       -1512.314          52.000    22013271.221    90140718.874       -1178.446          45.000  
E33  26759010.355   140619652.515         345.597          46.000    26759008.957   107747506.283         264.859          51.000  
R01  24584750.159   131419528.468        3755.873          45.000    24584748.791   102215197.162        2921.208          41.000  
R23  22290365.650   119238472.119        -155.054          47.000                                                                  
R24  24558086.713   131323194.796        1735.820          47.000    24558083.669   102140220.064        1350.344          42.000  
G32  25164086.832   132238187.435        2231.488          46.000    25164085.223   103042770.725        1738.831          45.000  
E21  28834656.013   151527180.989       -3650.434          40.000    28834654.094   116105274.325       -2797.184          42.000  
E13  28878766.849   151758911.043       -2365.680          38.000    28878766.966   116283231.770       -1812.464          42.000  
E31  27632158.474   145207903.305         401.501          45.000    27632159.286   111263282.032         307.619          47.000  
E07  27900143.083   146616263.529         880.703          45.000    27900144.666   112342344.967         674.811          48.000  
G18  26782428.194   140742594.431       -3137.975          28.000                                                                  
E26  25733125.862   135228749.724       -1224.238          48.000    25733124.438   103616982.292        -938.024          52.000  
E14  27927863.765   146761983.082       -1526.506          46.000    27927863.646   112454013.913       -1169.553          51.000  
> 2024 04 17 08 28 30.0060000  0 26                     
G08  24038900.118   126325296.035        2233.968          44.000    24038897.418    98435312.619        1740.968          45.000  
G16  23233689.144   122093902.177       -2569.489          47.000                                                                  
G26  25253142.216   132706161.619       -4034.186          43.000    25253141.364   103407404.928       -3143.371          42.000  
G27  22339636.262   117395566.279         595.971          49.000    22339632.877    91477115.456         464.417          47.000  
G23  24152487.227   126922318.065       -3559.162          46.000    24152483.519    98900474.101       -2773.371          45.000  
R08  21977959.154   117690978.999        1085.390          50.000    21977951.815    91537463.863         844.161          49.000  
R22  23747062.208   126763575.738       -2378.292          46.000    23747057.464    98593718.570       -1849.662          49.000  
R14  24386980.879   129996405.244        -179.192          47.000    24386981.867   101108235.842        -139.505          44.000  
R07  23245524.376   124435133.179       -2704.755          49.000    23245518.136    96782918.646       -2103.804          46.000  
R13  24010457.712   128214386.134       -3617.202          36.000    24010456.839    99722321.132       -2813.415          43.000  
E08  29549027.342   155281291.709       -1323.670          36.000    29549026.257   118981669.420       -1014.060          50.000  
G21  26040932.082   136846013.532        2020.742          42.000                                                                  
S31  40661213.143   213676203.545        -613.294          44.000  
S33  41615745.975   218692351.198        -613.075          42.000  
G10  22021961.804   115726320.421       -1530.628          51.000    22021957.318    90176286.483       -1192.719          45.000  
E33  26757043.026   140609314.678         343.581          46.000    26757041.571   107739585.114         263.270          50.000  
R01  24563680.247   131306902.752        3752.463          45.000    24563679.074   102127599.469        2918.691          41.000  
R23  22291245.607   119243185.716        -159.101          48.000                                                                  
R24  24548345.078   131271104.475        1736.969          47.000    24548341.962   102099705.437        1351.028          43.000  
G32  25151366.497   132171339.147        2225.148          47.000    25151363.498   102990681.133        1733.941          44.000  
E21  28855497.452   151636707.746       -3651.156          39.000    28855496.290   116189197.471       -2797.479          42.000  
E13  28892269.038   151829862.025       -2364.418          38.000    28892268.742   116337596.766       -1811.542          43.000  
E31  27629902.886   145196051.116         388.801          45.000    27629904.064   111254200.494         297.907          47.000  
E07  27895142.910   146589989.742         871.083          45.000    27895144.735   112322213.126         667.389          47.000  
E26  25740119.424   135265497.207       -1225.446          48.000    25740117.297   103645139.472        -939.051          52.000  
E14  27936563.104   146807696.001       -1520.821          46.000    27936562.639   112489040.698       -1165.415          52.000  
> 2024 04 17 08 29 00.0060000  0 27                     
G08  24026159.860   126258347.099        2228.701          45.000    24026157.303    98383144.652        1736.522          45.000  
G16  23248401.937   122171218.901       -2585.457          47.000                                                                  
G26  25276177.525   132827216.109       -4036.587          42.000    25276176.547   103501733.132       -3145.259          41.000  
G27  22336268.656   117377869.745         583.413          50.000    22336265.316    91463325.967         454.575          47.000  
G23  24172828.487   127029215.358       -3567.587          45.000    24172824.560    98983770.717       -2780.107          44.000  
R08  21971947.094   117658788.381        1060.167          49.000    21971940.090    91512426.727         824.517          49.000  
R22  23760439.698   126834985.390       -2382.667          45.000    23760436.596    98649259.424       -1853.193          49.000  
R14  24388056.161   130002139.706        -203.446          47.000    24388058.750   101112695.976        -158.326          45.000  
R07  23260749.225   124516626.348       -2728.529          49.000    23260743.210    96846302.195       -2122.159          47.000  
R13  24030814.292   128323089.899       -3629.979          37.000    24030813.174    99806868.453       -2823.256          43.000  
E08  29556617.473   155321187.607       -1336.398          33.000    29556618.069   119012239.001       -1024.134          50.000  
G21  26029395.872   136785389.446        2020.591          42.000                                                                  
S31  40664713.491   213694598.139        -613.138          44.000  
S33  41619244.235   218710734.556        -612.924          42.000  
G10  22030753.118   115772519.528       -1549.491          51.000    22030748.936    90212285.794       -1207.482          45.000  
E33  26755087.402   140599036.433         341.489          46.000    26755085.785   107731709.604         261.476          50.000  
R01  24542631.104   131194383.014        3748.599          45.000    24542629.516   102040084.240        2915.856          40.000  
R23  22292150.233   119248020.946        -163.490          48.000                                                                  
R24  24538596.678   131218983.109        1737.441          45.000    24538596.095   102059166.659        1351.407          44.000  
G32  25138681.459   132104678.750        2218.302          47.000    25138679.145   102938738.005        1728.498          45.000  
E21  28876341.969   151746248.604       -3651.756          39.000    28876341.616   116273131.402       -2798.280          43.000  
E13  28905761.418   151900767.811       -2363.153          39.000    28905761.669   116391927.192       -1810.936          44.000  
E31  27627720.502   145184581.816         375.540          45.000    27627721.914   111245412.331         287.761          48.000  
E07  27890198.578   146564004.922         861.082          44.000    27890199.566   112302302.713         659.635          47.000  
E26  25747119.595   135302281.381       -1227.198          49.000    25747117.016   103673324.755        -940.274          52.000  
E14  27945230.613   146853242.711       -1515.802          47.000    27945230.027   112523940.122       -1161.484          52.000  
G18                                                                  26818238.094                       -2442.922          30.000  
> 2024 04 17 08 29 30.0060000  0 27                     
G08  24013452.187   126191568.181        2223.246          45.000    24013449.476    98331109.166        1732.413          44.000  
G16  23263207.357   122249023.260       -2601.646          46.000                                                                  
G26  25299226.927   132948341.191       -4038.575          42.000    25299226.429   103596116.351       -3147.066          42.000  
G27  22332973.516   117360551.671         570.989          50.000    22332969.809    91449831.354         444.946          48.000  
G23  24193220.769   127136375.942       -3576.354          45.000    24193216.405    99067272.406       -2786.745          44.000  
R08  21966078.502   117627360.428        1034.871          50.000    21966071.241    91487982.777         804.860          49.000  
R22  23773844.532   126906534.780       -2387.253          47.000    23773839.847    98704908.896       -1856.784          48.000  
R14  24389270.917   130008605.968        -227.724          49.000    24389271.167   101117725.304        -177.181          45.000  
R07  23276106.453   124598832.464       -2752.142          50.000    23276098.734    96910240.300       -2140.575          46.000  
R13  24051241.944   128432171.142       -3642.324          37.000    24051240.102    99891709.338       -2832.896          43.000  
E08  29564271.052                       -1349.847          27.000    29564285.529   119043112.192       -1034.169          50.000  
G21  26017861.132   136724773.466        2020.265          42.000                                                                  
S31  40668214.777   213712996.982        -613.348          44.000  
S33  41622742.866   218729120.929        -612.913          42.000  
G10  22039653.863   115819288.888       -1568.454          52.000    22039649.254    90248729.456       -1222.146          46.000  
E33  26753146.069   140588835.289         338.744          45.000    26753144.440   107723893.157         259.543          50.000  
R01  24521606.753   131081991.662        3744.322          46.000    24521604.455   101952668.836        2912.018          40.000  
R23  22293081.260   119252997.165        -168.252          50.000                                                                  
R24  24528847.451   131166849.138        1738.032          46.000    24528846.452   102018618.059        1351.753          44.000  
G32  25126035.955   132038227.606        2211.490          45.000    25126033.704   102886957.926        1723.072          44.000  
E21  28897193.119   151855819.682       -3653.057          40.000    28897192.402   116357088.493       -2799.047          43.000  
E13  28919248.598   151971646.616       -2362.083          39.000    28919249.894   116446236.908       -1809.845          44.000  
E31  27625614.276   145173514.190         362.222          45.000    27625615.957   111236931.960         277.600          48.000  
E07  27885312.762   146538328.759         850.845          44.000    27885313.833   112282628.791         651.852          47.000  
E26  25754128.956   135339119.905       -1228.906          48.000    25754127.040   103701551.698        -941.567          52.000  
E14  27953869.752   146898641.559       -1510.983          47.000    27953869.125   112558726.255       -1157.762          52.000  
G18                                                                  26836137.178   109889449.1561      -2442.379          32.000  
