     3.00           OBSERVATION DATA    M: Mixed            RINEX VERSION / TYPE
CONVBIN 2.4.3                           20240417 031442 UTC PGM / RUN BY / DATE 
format: u-blox UBX                                          COMMENT             
log: /home/regis/git/gnsspwv/obsdata/VERT00CHL/2024-04-17/VECOMMENT             
{self.marker}                                               MARKER NAME         
                                                            MARKER NUMBER       
GEODETIC                                                    MARKER TYPE         
{self.observer}     {self.institution}                      OBSERVER / AGENCY   
UNKNOWN             UBLOX-ZED-F9P                           REC # / TYPE / VERS 
UNKNOWN             TWIVSP6037L                             ANT # / TYPE        
  1713381.0000 -5047934.0000 -3490983.0000                  APPROX POSITION XYZ 
        0.0000        0.0000        0.0000                  ANTENNA: DELTA H/E/N
G    8 C1C L1C D1C S1C C2L L2L D2L S2L                      SYS / # / OBS TYPES 
R    8 C1C L1C D1C S1C C2C L2C D2C S2C                      SYS / # / OBS TYPES 
E    8 C1C L1C D1C S1C C7Q L7Q D7Q S7Q                      SYS / # / OBS TYPES 
S    4 C1C L1C D1C S1C                                      SYS / # / OBS TYPES 
  2024    04    17    03    00   00.4980000     GPS         TIME OF FIRST OBS   
  2024    04    17    03    14   30.4990000     GPS         TIME OF LAST OBS    
                                                            END OF HEADER       
> 2024 04 17 03 00 00.4980000  0 24                     
G11  23359892.955   122757092.8611      -3499.200          45.000    23359887.355    95654909.9831      -2726.740          41.000  
G12  21587151.786   113441250.3201      -2060.895          48.000    21587147.398    88395765.7011      -1605.875          46.000  
G20  23480438.720   123390502.7321         98.808          34.000                                                                  
G24  23987681.925                       -4407.632          26.000    23987692.489                       -3434.632          27.000  
R10  18926782.534   100890447.6311       -666.976          48.000                                                                  
R11  20678984.713   110502256.5921       2505.630          50.000    20678981.038    85946186.9491       1948.907          50.000  
R09  21003249.346   112156164.7491      -3437.895          50.000    21003246.092    87232562.3291      -2673.889          48.000  
R20  19169414.162   102507590.5721      -2547.267          42.000    19169411.960    79728181.8381      -1980.987          43.000  
G25  20048874.338   105357564.5661       -529.444          48.000    20048871.322    82096824.5511       -412.549          47.000  
G29  20145757.020   105866812.6711       -665.430          48.000    20145751.256    82493702.4651       -518.372          44.000  
S31  38271546.178   201118392.2251       -656.571          44.000  
S33  39225844.594   206133294.9241       -657.167          43.000  
R21  19578039.601   104766539.6671       1773.647          52.000    19578035.740    81485174.2361       1379.506          48.000  
G28  21217047.614   111496352.9611       1019.445          48.000    21217042.713    86880262.2881        794.551          47.000  
E15  23491439.148   123448470.8721       -887.828          47.000    23491440.608    94590463.7551       -680.336          52.000  
E21  25131504.828   132067000.3321       1143.305          45.000    25131505.999   101194226.9881        876.110          48.000  
E13  24201631.489   127180809.0831       1787.555          46.000    24201634.560    97450326.6411       1369.607          51.000  
E27  23212637.167   121983270.8441       -531.955          47.000    23212638.694    93467715.2191       -407.678          53.000  
E30  25670351.121   134898583.9931      -2246.268          45.000    25670349.662   103363857.6321      -1721.083          48.000  
E34  26722683.853   140428670.6801      -3135.680          45.000    26722684.501   107601214.4921      -2402.617          46.000  
G18  22655437.367   119055347.0871       2972.590          48.000    22655436.245    92770492.5001       2316.424          44.000  
G05  24101784.946   126655806.0401       1373.975          40.000    24101783.391    98692840.0481       1070.913          40.000  
G32                                                                  24316227.980                       -2391.302          25.000  
G31                                                                  23663864.705                        2003.255          29.000  
> 2024 04 17 03 00 30.4980000  0 24                     
G31  23649214.943   124277364.7631       2562.420          31.000    23649211.859                        1997.221          28.000  
G11  23379901.559   122862239.533       -3510.480          45.000    23379896.537    95736842.442       -2735.419          40.000  
G12  21598937.243   113503184.283       -2068.081          48.000    21598932.690    88444025.943       -1611.434          46.000  
G20  23479916.870   123387763.064          83.956          35.000                                                                  
R10  18930588.596   100910732.579        -685.314          48.000                                                                  
R11  20664933.705   110427170.084        2500.067          49.000    20664929.259    85887786.390        1944.542          50.000  
R09  21022600.375   112259498.647       -3451.152          49.000    21022598.551    87312933.086       -2684.174          49.000  
R20  19183763.087   102584321.346       -2567.933          42.000    19183761.518    79787861.314       -1997.262          44.000  
G25  20051921.388   105373578.359        -538.120          47.000    20051919.024    82109302.848        -419.314          47.000  
G29  20149587.184   105886942.382        -676.495          48.000    20149582.198    82509388.001        -527.264          44.000  
S31  38275293.496   201138085.684        -656.115          43.000  
S33  39229595.730   206153007.002        -656.741          43.000  
R21  19568154.652   104713638.274        1753.143          52.000    19568149.739    81444028.816        1363.456          48.000  
G28  21211274.383   111466014.980        1002.959          47.000    21211269.542    86856622.308         781.535          46.000  
E15  23496549.287   123475322.175        -902.127          47.000    23496550.073    94611038.157        -691.178          52.000  
E21  25124977.372   132032697.563        1143.466          44.000    25124978.637   101167943.097         876.139          49.000  
E13  24191452.729   127127322.136        1778.525          47.000    24191456.108    97409343.258        1362.788          51.000  
E27  23215687.075   121999295.707        -536.284          48.000    23215688.009    93479994.008        -410.972          53.000  
E30  25683183.582   134966032.783       -2250.271          44.000    25683185.021   103415539.217       -1724.235          49.000  
E34  26740604.312   140522845.702       -3142.586          45.000    26740605.280   107673374.597       -2408.011          45.000  
G18  22638483.645   118966258.531        2966.597          47.000    22638482.898    92701073.197        2311.568          45.000  
G05  24093954.359   126614659.700        1369.135          41.000    24093953.514    98660778.211        1066.681          39.000  
G24                                                                  24012857.992                3      -3435.712          25.000  
G32                                                                  24333751.858                3      -2389.148          24.000  
> 2024 04 17 03 01 00.4980000  0 24                     
G31  23634607.551   124200588.286        2555.440          32.000    23634603.069                        1991.292          28.000  
G11  23399973.333   122967717.479       -3521.401          46.000    23399968.026    95819033.014       -2743.842          38.000  
G12  21610763.239   113565328.540       -2075.044          48.000    21610758.767    88492450.012       -1616.784          47.000  
G20  23479482.204   123385464.096          69.252          36.000                                                                  
R10  18934496.898   100931567.692        -703.798          48.000                                                                  
R11  20650913.921   110352251.034        2494.481          51.000    20650908.704    85829516.085        1940.139          49.000  
R09  21042024.880   112363224.153       -3464.031          49.000    21042023.282    87393608.428       -2694.330          49.000  
R20  19198227.701   102661668.591       -2588.418          43.000    19198226.057    79848020.313       -2013.386          44.000  
G25  20055017.054   105389844.858        -546.499          49.000    20055014.495    82121978.056        -425.770          47.000  
G29  20153480.014   105907396.784        -687.256          48.000    20153474.737    82525326.502        -535.541          44.000  
S31  38279038.833   201157768.408        -655.779          44.000  
S33  39233344.460   206172708.054        -656.607          43.000  
R21  19558382.582   104661348.749        1732.786          52.000    19558378.171    81403359.282        1347.739          48.000  
G28  21205595.719   111436174.548         986.279          47.000    21205591.263    86833370.059         768.544          46.000  
E15  23501739.025   123502597.563        -916.278          47.000    23501740.359    94631937.496        -702.069          52.000  
E21  25118449.077   131998389.598        1143.678          44.000    25118449.667   101141655.226         876.243          49.000  
E13  24181325.365   127074097.632        1769.709          48.000    24181327.943    97368560.966        1356.048          51.000  
E27  23218760.743   122015447.717        -540.514          47.000    23218761.544    93492370.233        -414.197          53.000  
E30  25696040.543   135033600.253       -2254.148          43.000    25696042.472   103467311.691       -1727.216          48.000  
E34  26758563.729   140617224.564       -3149.415          45.000    26758564.958   107745690.904       -2413.137          46.000  
G18  22621564.506   118877350.580        2960.700          46.000    22621563.846    92631794.627        2306.726          45.000  
G05  24086155.122   126573671.624        1363.552          43.000    24086152.803    98628839.662        1062.540          38.000  
G24                                                                  24038027.549                3      -3435.344          23.000  
G32                                                                  24351299.443                3      -2395.677          26.000  
> 2024 04 17 03 01 30.4980000  0 24                     
G31  23620038.363   124124033.592        2548.195          34.000    23620034.771    96720106.429        1986.014          29.000  
G11  23420108.739   123073529.146       -3532.434          46.000    23420102.983    95901483.739       -2752.600          38.000  
G12  21622630.059   113627688.674       -2082.072          49.000    21622625.456    88541042.336       -1622.565          46.000  
G20  23479127.897   123383612.197          54.525          34.000                                                                  
R10  18938509.503   100952959.543        -722.113          48.000                                                                  
R11  20636926.538   110277508.088        2488.660          51.000    20636921.554    85771382.741        1935.644          49.000  
R09  21061523.701   112467345.601       -3477.187          49.000    21061522.315    87474591.750       -2704.398          50.000  
R20  19212807.911   102739634.627       -2608.996          43.000    19212806.575    79908660.586       -2029.285          44.000  
G25  20058161.349   105406370.392        -554.969          48.000    20058159.539    82134855.107        -432.367          48.000  
G29  20157434.469   105928179.876        -698.071          48.000    20157430.338    82541521.169        -543.927          45.000  
S31  38282782.877   201177443.730        -655.484          44.000  
S33  39237092.119   206192401.301        -656.149          43.000  
R21  19548726.353   104609678.073        1712.242          52.000    19548722.460    81363171.068        1331.619          48.000  
G28  21200012.693   111406838.660         969.646          47.000    21200009.080    86810510.963         755.554          47.000  
E15  23507010.226   123530301.658        -930.330          46.000    23507012.468    94653165.322        -712.876          52.000  
E21  25111920.004   131964082.100        1143.690          44.000    25111920.939   101115367.708         876.489          49.000  
E13  24171248.439   127021142.277        1760.929          48.000    24171250.387    97327984.890        1349.349          50.000  
E27  23221859.715   122031732.785        -544.754          48.000    23221860.404    93504848.426        -417.496          53.000  
E30  25708921.687   135101291.779       -2258.243          43.000    25708923.821   103519179.226       -1730.281          49.000  
E34  26776562.679   140711810.567       -3156.091          44.000    26776563.919   107818165.901       -2418.362          46.000  
G18  22604681.559   118788631.182        2954.327          47.000    22604679.839    92562662.949        2302.093          44.000  
G05  24078387.696   126532849.087        1358.478          44.000    24078384.634    98597030.151        1058.646          37.000  
G24                                                                  24063211.828                3      -3438.742          22.000  
G32                                                                  24368849.644                3      -2395.086          22.000  
> 2024 04 17 03 02 00.4980000  0 24                     
G31  23605511.792   124047697.396        2540.987          34.000    23605506.874    96660623.766        1980.244          31.000  
G11  23440305.175   123179666.055       -3543.197          47.000    23440300.609    95984187.850       -2761.097          39.000  
G12  21634536.504   113690259.403       -2089.121          48.000    21634531.967    88589798.739       -1627.846          46.000  
G20  23478862.352   123382203.649          38.970          37.000                                                                  
R10  18942626.843   100974904.203        -740.798          48.000                                                                  
R11  20622971.773   110202938.338        2482.812          50.000    20622966.925    85713384.106        1931.068          49.000  
R09  21081094.850   112571855.635       -3490.007          50.000    21081093.395    87555877.256       -2714.482          49.000  
R20  19227502.145   102818209.549       -2629.298          43.000    19227500.226    79969774.408       -2044.823          44.000  
G25  20061354.732   105423150.325        -563.521          49.000    20061352.517    82147930.391        -439.212          48.000  
G29  20161450.748   105949284.643        -708.746          48.000    20161446.528    82557966.473        -552.399          45.000  
S31  38286524.503   201197105.586        -655.074          44.000  
S33  39240836.959   206212080.839        -655.766          43.000  
R21  19539185.089   104558621.927        1691.688          52.000    19539181.524    81323460.821        1315.787          48.000  
G28  21194525.459   111378003.302         952.799          47.000    21194521.942    86788041.883         742.581          47.000  
E15  23512362.716   123558428.083        -944.470          46.000    23512364.865    94674716.764        -723.730          52.000  
E21  25105389.668   131929769.725        1143.808          43.000    25105391.034   101089076.479         876.469          48.000  
E13  24161222.479   126968451.729        1751.946          48.000    24161223.657    97287611.719        1342.434          50.000  
E27  23224983.710   122048145.877        -549.171          48.000    23224983.642    93517424.705        -420.775          53.000  
E30  25721826.765   135169101.856       -2262.174          44.000    25721827.788   103571137.585       -1733.443          49.000  
E34  26794599.870   140806595.970       -3162.690          45.000    26794601.095   107890793.703       -2423.409          46.000  
G18  22587834.049   118700097.279        2948.254          47.000    22587832.136    92493675.800        2297.295          44.000  
G05  24070650.371   126492189.739        1352.630          43.000    24070646.122    98565347.754        1053.728          33.000  
G24                                                                  24088401.449                3      -3434.516          22.000  
G32                                                                  24386415.456                3      -2388.963          22.000  
> 2024 04 17 03 02 30.4980000  0 24                     
G31  23591029.551   123971592.712        2532.613          34.000    23591026.182                        1973.835          32.000  
G11  23460565.885   123286135.792       -3554.614          47.000    23460560.912    96067151.309       -2769.742          37.000  
G12  21646486.150   113753051.863       -2096.821          49.000    21646480.942    88638727.932       -1633.918          46.000  
G20  23478680.184   123381250.170          24.520          35.000                                                                  
R10  18946850.184   100997413.538        -759.854          48.000                                                                  
R11  20609052.330   110128555.346        2476.103          51.000    20609047.079    85655530.709        1925.821          49.000  
R09  21100742.382   112676763.823       -3503.604          52.000    21100739.208    87637472.483       -2725.140          49.000  
R20  19242311.564   102897400.697       -2650.023          44.000    19242308.566    80031367.566       -2061.222          43.000  
G25  20064598.150   105440196.105        -572.835          48.000    20064596.288    82161212.828        -446.363          48.000  
G29  20165529.837   105970720.015        -720.117          47.000    20165524.755    82574669.330        -560.999          44.000  
S31  38290265.426   201216765.173        -655.266          44.000  
S33  39244581.600   206231758.053        -655.992          43.000  
R21  19529761.758   104508192.464        1670.370          52.000    19529756.918    81284237.993        1299.273          47.000  
G28  21189135.597   111349680.518         935.441          47.000    21189132.319    86765972.215         729.001          47.000  
E15  23517797.672   123586986.530        -959.247          47.000    23517799.338    94696599.243        -735.044          52.000  
E21  25098860.915   131895463.279        1143.371          43.000    25098862.438   101062789.788         876.018          48.000  
E13  24151247.971   126916037.744        1742.305          48.000    24151249.548    97247450.463        1335.076          51.000  
E27  23228132.437   122064698.020        -554.134          47.000    23228133.341    93530107.544        -424.653          53.000  
E30  25734754.626   135237041.071       -2266.889          45.000    25734756.112   103623194.904       -1736.954          48.000  
E34  26812676.111   140901589.174       -3169.910          45.000    26812677.781   107963580.719       -2428.910          45.000  
G18  22571023.771   118611761.927        2940.981          45.000    22571022.529    92424843.351        2291.835          44.000  
G05  24062946.039   126451706.563        1346.297          43.000    24062942.918    98533802.585        1049.108          36.000  
G24                                                                  24113593.328                3      -3436.089          21.000  
G32                                                                  24404006.145                3      -2397.559          20.000  
> 2024 04 17 03 03 00.4980000  0 24                     
G31  23576592.938   123895729.960        2524.556          35.000    23576590.683    96542207.724        1967.068          33.000  
G11  23480891.215   123392943.656       -3565.754          48.000    23480885.908    96150378.224       -2778.559          37.000  
G12  21658478.835   113816073.980       -2104.320          50.000    21658474.388    88687836.069       -1639.543          46.000  
G20  23478585.709                           8.637          28.000                                                                  
R10  18951180.491   101020497.596        -778.826          49.000                                                                  
R11  20595169.893   110054370.223        2469.902          51.000    20595164.387    85597831.209        1920.989          49.000  
R09  21120463.876   112782076.938       -3516.934          50.000    21120460.130    87719382.666       -2735.395          48.000  
R20  19257236.630   102977212.402       -2670.401          43.000    19257233.789    80093443.324       -2076.888          43.000  
G25  20067894.540   105457516.830        -581.821          49.000    20067891.876    82174709.508        -453.273          47.000  
G29  20169672.534   105992492.525        -731.110          47.000    20169667.781    82591634.956        -569.629          44.000  
S31  38294007.525   201236429.502        -655.293          44.000  
S33  39248326.895   206251441.746        -655.805          43.000  
R21  19520456.737   104458399.638        1649.387          52.000    19520451.945    81245510.317        1282.889          47.000  
G28  21183846.394   111321880.087         918.145          47.000    21183841.958    86744309.546         715.520          47.000  
E15  23523315.489   123615984.412        -973.618          47.000    23523317.326    94718818.436        -746.045          53.000  
E21  25092336.023   131861171.274        1143.027          43.000    25092336.717   101036514.141         875.864          48.000  
E13  24141327.917   126863909.816        1733.133          48.000    24141330.116    97207508.398        1327.951          51.000  
E27  23231309.788   122081397.980        -558.818          47.000    23231311.001    93542903.638        -428.238          53.000  
E30  25747709.799   135305117.715       -2271.379          45.000    25747710.420   103675357.469       -1740.320          48.000  
E34  26830793.479   140996796.272       -3176.849          45.000    26830794.999   108036531.655       -2434.187          44.000  
G18  22554253.551   118523635.841        2934.438          44.000    22554252.639    92356173.976        2286.468          45.000  
G05  24055277.838   126411410.035        1340.481          43.000    24055275.100    98502402.893        1044.503          37.000  
G24                                                                  24138793.808                3      -3439.052          18.000  
G32                                                                  24421595.504                3      -2408.706          21.000  
> 2024 04 17 03 03 30.4980000  0 24                     
G31  23562203.656   123820112.408        2516.407          35.000    23562201.331                        1961.644          31.000  
G11  23501279.890   123500087.335       -3576.617          48.000    23501274.779    96233866.831       -2787.108          38.000  
G12  21670515.681   113879326.907       -2111.855          50.000    21670511.019    88737124.075       -1645.635          47.000  
G20  23478580.939   123380739.589          -6.346          32.000                                                                  
R10  18955618.544   101044158.115        -797.955          48.000                                                                  
R11  20581325.264   109980386.684        2463.073          52.000    20581319.151    85540288.525        1915.733          49.000  
R09  21140260.156   112887794.178       -3530.429          51.000    21140256.741    87801607.126       -2745.819          48.000  
R20  19272276.179   103057641.379       -2690.970          42.000    19272274.331    80155999.229       -2092.699          43.000  
G25  20071242.514   105475114.107        -590.801          48.000    20071240.651    82188421.686        -460.352          48.000  
G29  20173879.154   106014601.237        -742.090          48.000    20173874.863    82608862.547        -578.235          44.000  
S31  38297750.582   201256099.752        -655.464          44.000  
S33  39252073.334   206271129.930        -656.336          42.000  
R21  19511270.093   104409245.296        1628.190          51.000    19511267.056    81207279.211        1266.431          48.000  
G28  21178655.860   111294604.101         900.694          47.000    21178651.286    86723055.571         701.945          47.000  
E15  23528917.170   123645421.598        -988.176          47.000    23528918.607    94741374.233        -757.152          53.000  
E21  25085813.909   131826894.637        1142.580          43.000    25085814.106   101010250.277         875.481          48.000  
E13  24131462.520   126812069.920        1723.552          47.000    24131465.341    97167787.022        1320.625          51.000  
E27  23234515.755   122098246.979        -563.762          47.000    23234516.982    93555813.917        -431.907          52.000  
E30  25760689.373   135373332.442       -2275.703          44.000    25760691.432   103727625.905       -1743.632          48.000  
E34  26848951.228   141092215.829       -3183.778          45.000    26848952.850   108109645.370       -2439.450          46.000  
G18  22537523.737   118435722.238        2927.329          45.000    22537523.403    92287670.183        2280.865          45.000  
G05  24047646.241   126371304.067        1334.072          43.000    24047643.575    98471151.683        1039.381          39.000  
G24                                                                  24163997.423                3      -3430.446          15.000  
G32                                                                  24439214.851                3      -2420.852          20.000  
> 2024 04 17 03 04 00.4980000  0 23                     
G31  23547859.792   123744735.475        2508.500          38.000    23547856.665                        1955.055          29.000  
G11  23521730.726   123607557.229       -3587.719          48.000    23521725.776    96317609.598       -2795.354          38.000  
G12  21682594.797   113942804.472       -2119.540          49.000    21682590.829    88786587.120       -1651.537          47.000  
G20  23478667.438   123381179.614         -21.814          34.000                                                                  
R10  18960163.962   101068389.623        -817.194          48.000                                                                  
R11  20567516.803   109906601.185        2456.324          50.000    20567511.014    85482899.845        1910.400          50.000  
R09  21160131.343   112993907.420       -3543.535          50.000    21160129.792    87884139.580       -2756.247          49.000  
R20  19287430.023   103138677.135       -2711.122          43.000    19287428.859    80219027.054       -2108.491          44.000  
G25  20074642.697   105492982.162        -599.953          48.000    20074640.496    82202344.868        -467.482          47.000  
G29  20178149.489   106037038.332        -753.235          48.000    20178144.293    82626346.020        -587.012          44.000  
S31  38301493.897   201275768.980        -655.441          44.000  
S33  39255819.640   206290817.096        -656.091          43.000  
R21  19502202.405   104360723.968        1606.865          51.000    19502198.659    81169540.478        1249.872          47.000  
G28  21173564.036   111267847.410         883.175          48.000    21173559.251    86702206.226         688.279          47.000  
E15  23534601.725   123675290.534       -1002.559          48.000    23534602.715    94764260.841        -768.286          53.000  
E21  25079293.704   131792626.932        1142.308          44.000    25079293.330   100983993.267         875.255          48.000  
E13  24121651.981   126760512.520        1714.034          48.000    24121654.257    97128282.115        1313.289          52.000  
E27  23237749.797   122115238.807        -568.621          47.000    23237750.509    93568833.647        -435.744          52.000  
E30  25773696.181   135441678.661       -2280.305          45.000    25773697.389   103779995.058       -1747.221          48.000  
E34  26867147.713   141187839.006       -3190.803          44.000    26867149.506   108182915.074       -2444.911          46.000  
G18  22520833.911   118348016.985        2920.279          43.000    22520833.661    92219328.711        2275.373          46.000  
G05  24040049.968   126331384.499        1327.489          44.000    24040046.912    98440045.776        1034.183          39.000  
G32                                                                  24456829.234                3      -2401.733          17.000  
> 2024 04 17 03 04 30.4980000  0 23                     
G31  23533562.622   123669598.491        2500.290          38.000    23533562.481                        1948.695          28.000  
G11  23542242.228   123715347.523       -3598.233          47.000    23542237.733    96401602.099       -2803.825          40.000  
G12  21694715.894   114006503.251       -2126.878          49.000    21694712.475    88836222.530       -1657.186          47.000  
G20  23478837.268   123382079.918         -37.582          37.000                                                                  
R10  18964817.033   101093190.502        -836.192          49.000                                                                  
R11  20553744.382   109833013.170        2449.642          50.000    20553739.598    85425664.756        1905.292          49.000  
R09  21180077.268   113100412.076       -3556.500          50.000    21180075.858    87966976.488       -2766.238          50.000  
R20  19302696.607   103220312.592       -2731.111          43.000    19302695.792    80282521.324       -2124.075          44.000  
G25  20078094.460   105511119.142        -608.895          49.000    20078091.988    82216477.608        -474.563          47.000  
G29  20182481.234   106059798.918        -764.032          48.000    20182475.518    82644081.572        -595.276          44.000  
S31  38305235.482   201295433.220        -655.154          44.000  
S33  39259565.193   206310499.318        -655.974          43.000  
R21  19493253.523   104312834.102        1585.846          52.000    19493248.128    81132292.894        1233.494          48.000  
G28  21168571.603   111241608.676         865.899          47.000    21168566.532    86681760.491         674.828          47.000  
E15  23540367.407   123705587.533       -1016.884          48.000    23540367.986    94787475.448        -779.186          53.000  
E21  25072773.958   131758365.668        1142.032          44.000    25072773.716   100957741.191         875.032          48.000  
E13  24111894.646   126709236.075        1704.544          48.000    24111896.166    97088992.470        1306.219          51.000  
E27  23241010.309   122132371.130        -573.191          47.000    23241010.575    93581961.033        -439.255          52.000  
E30  25786726.718   135510153.510       -2284.651          46.000    25786727.836   103832462.817       -1750.480          48.000  
E34  26885382.540   141283660.826       -3197.197          44.000    26885383.457   108256337.006       -2449.863          45.000  
G18  22504183.482   118260519.704        2913.253          45.000    22504183.589    92151149.302        2269.979          46.000  
G05  24032487.728   126291650.526        1321.344          41.000    24032484.820    98409084.407        1029.789          40.000  
G32                                                                  24474482.427                3      -2409.784          18.000  
> 2024 04 17 03 05 00.4980000  0 23                     
G31  23519310.497   123594703.474        2492.123          38.000    23519317.134                3       1943.162          24.000  
G11  23562814.092   123823454.726       -3608.829          47.000    23562810.308    96485841.493       -2812.170          41.000  
G12  21706879.304   114070423.219       -2134.449          49.000    21706875.588    88886030.300       -1663.234          46.000  
G20  23479098.049   123383441.060         -52.737          36.000                                                                  
R10  18969577.855   101118561.736        -855.299          49.000                                                                  
R11  20540010.036   109759624.910        2442.902          50.000    20540006.306    85368585.037        1900.001          49.000  
R09  21200094.739   113207306.363       -3569.681          50.000    21200093.360    88050116.435       -2776.364          49.000  
R20  19318074.441   103302544.491       -2750.930          43.000    19318073.552    80346479.460       -2139.455          44.000  
G25  20081597.373   105529525.360        -618.198          49.000    20081594.756    82230820.108        -481.575          47.000  
G29  20186873.582   106082881.160        -774.890          47.000    20186868.831    82662067.764        -603.650          45.000  
S31  38308976.551   201315092.039        -655.375          44.000  
S33  39263309.554   206330176.187        -656.006          43.000  
R21  19484422.631   104265576.360        1564.662          52.000    19484417.378    81095536.957        1216.882          48.000  
G28  21163676.845   111215888.745         848.660          47.000    21163671.964    86661719.020         661.234          47.000  
E15  23546213.067   123736311.136       -1031.272          48.000    23546214.384    94811016.944        -790.167          53.000  
E21  25066254.104   131724110.540        1141.795          43.000    25066255.021   100931493.810         874.862          48.000  
E13  24102190.188   126658241.219        1695.162          48.000    24102192.208    97049918.602        1298.840          51.000  
E27  23244296.724   122149643.950        -578.074          47.000    23244297.689    93595196.071        -442.965          52.000  
E30  25799781.262   135578756.460       -2288.994          45.000    25799782.586   103885028.684       -1753.848          48.000  
E34  26903653.638   141379678.601       -3203.814          44.000    26903655.006   108329909.088       -2454.972          44.000  
G18  22487573.962   118173232.460        2905.984          46.000    22487573.214    92083133.518        2264.483          46.000  
G05  24024961.569   126252104.898        1314.952          41.000    24024959.928    98378269.819        1024.540          40.000  
G32                                                                  24492114.951                3      -2422.990          16.000  
> 2024 04 17 03 05 30.4980000  0 22                     
G31  23505104.270   123520051.282        2484.566          37.000    23505135.604                3       1934.966          19.000  
G11  23583445.960   123931874.393       -3619.143          47.000    23583442.530    96570324.363       -2820.232          42.000  
G12  21719085.263   114134563.485       -2141.585          50.000    21719080.769    88936009.731       -1668.775          46.000  
G20  23479445.013   123385262.840         -68.570          38.000                                                                  
R10  18974443.502   101144502.537        -874.207          49.000                                                                  
R11  20526313.813   109686438.060        2436.110          50.000    20526310.790    85311661.978        1894.862          50.000  
R09  21220184.845   113314586.649       -3582.378          50.000    21220182.009    88133556.610       -2786.263          48.000  
R20  19333562.900   103385366.536       -2770.488          42.000    19333561.317    80410896.623       -2154.600          45.000  
G25  20085150.733   105548200.205        -626.973          49.000    20085148.437    82245371.959        -488.588          47.000  
G29  20191326.831   106106281.951        -785.162          48.000    20191322.400    82680302.191        -611.993          45.000  
S31  38312716.096   201334744.267        -654.769          44.000  
S33  39267052.548   206349846.600        -655.592          43.000  
R21  19475710.386   104218950.317        1543.673          52.000    19475702.965    81059272.321        1200.750          47.000  
G28  21158881.226   111190687.581         831.380          47.000    21158876.058    86642081.774         647.794          47.000  
E15  23552140.100   123767458.993       -1045.260          48.000    23552141.536    94834883.512        -800.913          53.000  
E21  25059735.883   131689860.394        1141.735          43.000    25059737.463   100905250.246         874.737          49.000  
E13  24092540.010   126607527.694        1685.789          48.000    24092541.202    97011060.279        1291.708          50.000  
E27  23247610.433   122167056.351        -582.661          47.000    23247611.304    93608538.053        -446.511          52.000  
E30  25812859.343   135647486.081       -2293.089          45.000    25812861.520   103937691.612       -1757.004          48.000  
E34  26921961.705   141475888.717       -3210.289          43.000    26921963.046   108403628.541       -2459.619          44.000  
G18  22471003.430   118086156.169        2899.051          45.000    22471002.981    92015282.154        2258.975          46.000  
G05  24017473.860   126212748.135        1308.636          43.000    24017470.436    98347602.393        1019.467          40.000  
> 2024 04 17 03 06 00.4980000  0 22                     
G31  23490944.351   123445645.090        2476.286          36.000    23490965.638                3       1930.244          19.000  
G11  23604136.696   124040604.269       -3629.485          47.000    23604132.965    96655048.985       -2828.114          42.000  
G12  21731333.221   114198924.820       -2149.014          50.000    21731327.834    88986161.398       -1674.493          45.000  
G20  23479880.763   123387546.994         -83.845          37.000                                                                  
R10  18979417.334   101171015.559        -893.190          49.000                                                                  
R11  20512657.280   109613456.197        2429.214          51.000    20512653.435    85254898.325        1889.616          50.000  
R09  21240348.182   113422252.573       -3595.176          50.000    21240345.771    88217296.757       -2796.244          49.000  
R20  19349160.436   103468775.451       -2789.916          43.000    19349159.287    80475770.244       -2169.917          44.000  
G25  20088755.938   105567145.296        -635.840          49.000    20088753.748    82260134.372        -495.441          47.000  
G29  20195840.226   106130000.318        -795.746          48.000    20195835.157    82698784.056        -620.160          45.000  
S31  38316454.258   201354389.496        -654.634          44.000  
S33  39270794.196   206369509.101        -655.152          42.000  
R21  19467114.322   104172958.087        1522.641          52.000    19467109.831    81023500.697        1184.261          49.000  
G28  21154184.452   111166007.254         814.219          46.000    21154180.011    86622850.365         634.418          47.000  
E15  23558148.216   123799030.886       -1059.314          48.000    23558149.504    94859074.978        -811.743          53.000  
E21  25053219.261   131655616.227        1141.365          43.000    25053220.890   100879011.258         874.637          49.000  
E13  24082943.377   126557097.350        1676.338          48.000    24082944.208    96972418.944        1284.527          50.000  
E27  23250950.828   122184609.492        -587.356          47.000    23250951.449    93621987.872        -450.088          52.000  
E30  25825961.967   135716343.058       -2297.277          44.000    25825963.978   103990452.138       -1760.262          48.000  
E34  26940306.019   141572289.702       -3216.441          43.000    26940307.614   108477494.249       -2464.557          44.000  
G18  22454473.838   117999294.078        2891.803          46.000    22454472.487    91947597.695        2253.435          45.000  
G05  24010019.936   126173582.722        1302.439          43.000    24010017.783    98317084.081        1015.112          41.000  
> 2024 04 17 03 06 30.4980000  0 22                     
G31  23476834.084   123371495.997        2467.398          37.000    23476857.893    96133754.8161       1922.515          29.000  
G11  23624887.819   124149650.252       -3640.113          45.000    23624883.467    96740019.901       -2836.540          44.000  
G12  21743623.975   114263516.180       -2156.896          49.000    21743618.922    89036492.337       -1680.850          45.000  
G20  23480405.148   123390304.508        -100.186          35.000                                                                  
R10  18984500.635   101198110.378        -912.900          49.000                                                                  
R11  20499041.134   109540691.672        2421.915          51.000    20499036.718    85198303.752        1883.618          50.000  
R09  21260583.851   113530311.642       -3608.428          50.000    21260583.048    88301342.656       -2806.606          51.000  
R20  19364869.178   103552776.776       -2809.767          43.000    19364868.479    80541104.617       -2185.289          45.000  
G25  20092414.024   105586370.465        -645.459          49.000    20092411.577    82275115.043        -503.125          47.000  
G29  20200415.070   106154043.683        -806.830          47.000    20200409.806    82717519.150        -628.619          44.000  
S31  38320193.141   201374036.374        -654.933          44.000  
S33  39274536.230   206389174.165        -655.677          43.000  
R21  19458639.407   104127609.987        1500.870          52.000    19458635.560    80988230.043        1167.339          48.000  
G28  21149589.346   111141858.121         796.226          47.000    21149584.518    86604032.881         620.338          48.000  
E15  23564238.147   123831034.795       -1073.841          48.000    23564239.471    94883597.484        -822.905          53.000  
E21  25046705.899   131621387.235        1140.855          44.000    25046707.453   100852783.912         874.039          49.000  
E13  24073402.379   126506960.352        1666.416          48.000    24073403.118    96934002.375        1276.875          50.000  
E27  23254319.722   122202312.864        -592.530          47.000    23254320.256    93635552.817        -454.019          52.000  
E30  25839092.416   135785336.382       -2301.992          45.000    25839093.546   104043317.113       -1763.770          48.000  
E34  26958687.647   141668888.339       -3222.923          42.000    26958689.578   108551511.420       -2469.791          43.000  
G18  22437987.701   117912657.606        2884.191          46.000    22437985.481    91880089.049        2247.382          45.000  
G05  24002606.492   126134621.377        1295.302          45.000    24002604.417    98286724.778        1009.254          42.000  
> 2024 04 17 03 07 00.4980000  0 23                     
G31  23462770.651   123297596.780        2458.980          36.000    23462780.194                        1916.839          31.000  
G11  23645696.256   124258999.886       -3649.561          43.000    23645691.773    96825227.463       -2844.203          44.000  
G12  21755957.491   114328327.891       -2164.001          50.000    21755952.226    89086994.959       -1686.215          44.000  
G20  23481017.341   123393526.638        -115.534          35.000                                                                  
R10  18989690.281   101225778.750        -931.786          49.000                                                                  
R11  20485463.690   109468137.228        2415.209          51.000    20485459.257    85141872.587        1878.446          50.000  
R09  21280891.552   113638752.476       -3620.998          51.000    21280889.260    88385685.482       -2816.301          49.000  
R20  19380685.516   103637356.630       -2828.908          42.000    19380685.369    80606888.963       -2200.178          44.000  
G25  20096124.195   105605867.151        -654.626          49.000    20096121.628    82290307.262        -509.894          47.000  
G29  20205050.091   106178400.885        -816.974          48.000    20205044.975    82736498.841        -636.627          44.000  
S31  38323930.268   201393675.517        -654.289          44.000  
S33  39278276.648   206408831.640        -655.068          43.000  
R21  19450284.063   104082897.131        1479.873          52.000    19450279.394    80953453.443        1151.018          48.000  
G28  21145093.185   111118231.998         778.908          47.000    21145088.702    86585622.927         607.024          48.000  
E15  23570408.694   123863460.285       -1087.838          48.000    23570409.977    94908443.001        -833.405          53.000  
E21  25040194.425   131587164.251        1140.630          44.000    25040195.018   100826561.152         874.127          49.000  
E13  24063915.202   126457108.370        1657.032          48.000    24063917.214    96895804.194        1269.742          50.000  
E27  23257715.092   122220157.493        -597.106          47.000    23257715.853    93649225.993        -457.482          52.000  
E30  25852244.944   135854456.492       -2306.016          44.000    25852246.057   104096279.282       -1766.954          47.000  
E34  26977104.959   141765673.027       -3229.108          42.000    26977106.581   108625671.145       -2474.193          42.000  
G18  22421542.185   117826239.782        2877.071          47.000    22421539.818    91812750.750        2241.841          44.000  
G05  23995229.227   126095856.207        1288.862          45.000    23995226.639    98256518.294        1004.590          40.000  
R22                                                                  24348414.564                3       2689.885          14.000  
> 2024 04 17 03 07 30.4980000  0 22                     
G31  23448754.545   123223942.677        2450.713          36.000    23448762.290    96018778.384        1909.256          32.000  
G11  23666560.632   124368643.066       -3659.637          42.000    23666555.839    96910663.667       -2851.635          44.000  
G12  21768331.395   114393353.339       -2171.241          50.000    21768326.006    89137664.133       -1691.577          44.000  
G20  23481716.838   123397207.439        -130.205          37.000                                                                  
R10  18994987.500   101254014.812        -950.662          49.000                                                                  
R11  20471924.935   109395788.966        2407.975          52.000    20471920.040    85085601.751        1873.026          50.000  
R09  21301269.603   113747565.993       -3633.407          51.000    21301265.979    88470318.145       -2825.832          48.000  
R20  19396608.126   103722503.702       -2847.711          42.000    19396607.707    80673114.471       -2215.044          44.000  
G25  20099884.874   105625629.006        -663.239          49.000    20099882.260    82305706.139        -516.803          47.000  
G29  20209742.975   106203063.321        -827.350          47.000    20209738.486    82755716.342        -644.592          45.000  
S31  38327664.475   201413299.434        -653.874          44.000  
S33  39282013.982   206428471.727        -654.670          43.000  
R21  19442045.711   104038813.473        1458.823          52.000    19442042.392    80919166.209        1134.689          48.000  
G28  21140696.017   111095123.072         761.616          48.000    21140691.254    86567615.992         593.405          48.000  
E15  23576657.155   123896299.174       -1101.575          48.000    23576659.119    94933605.302        -844.096          53.000  
E21  25033681.385   131552940.359        1140.744          43.000    25033682.644   100800337.715         874.090          50.000  
E13  24054481.753   126407535.375        1647.666          48.000    24054483.936    96857819.775        1262.574          51.000  
E27  23261136.402   122238136.689        -601.673          48.000    23261136.980    93663002.267        -461.022          52.000  
E30  25865419.992   135923696.174       -2310.129          43.000    25865421.973   104149333.080       -1770.003          48.000  
E34  26995556.153   141862634.355       -3234.979          41.000    26995557.833   108699966.232       -2478.752          43.000  
G18  22405138.009   117740035.865        2869.731          46.000    22405135.734    91745579.122        2236.138          45.000  
G05  23987889.110   126057283.902        1282.360          45.000    23987885.704    98226462.109         999.049          40.000  
> 2024 04 17 03 08 00.4980000  0 22                     
G31  23434785.201   123150537.238        2442.360          33.000    23434789.935    95961579.448        1903.281          32.000  
G11  23687480.772   124478578.113       -3669.603          41.000    23687475.126    96996327.370       -2859.196          43.000  
G12  21780746.159   114458594.279       -2178.532          50.000    21780741.231    89188501.222       -1697.489          44.000  
G20  23482505.299   123401349.330        -145.926          37.000                                                                  
R10  19000391.597   101282820.735        -970.066          49.000                                                                  
R11  20458424.981   109323651.322        2400.708          52.000    20458420.268    85029494.726        1867.374          50.000  
R09  21321716.554   113856752.149       -3646.026          51.000    21321713.159    88555240.640       -2835.842          48.000  
R20  19412636.900   103808215.520       -2866.586          42.000    19412636.547    80739779.224       -2229.773          44.000  
G25  20103695.938   105645658.321        -672.198          49.000    20103693.659    82321313.408        -523.798          47.000  
G29  20214493.616   106228030.372        -837.561          47.000    20214488.704    82775171.245        -652.741          44.000  
S31  38331395.706   201432907.920        -653.469          44.000  
S33  39285749.030   206448098.949        -654.276          43.000  
R21  19433925.789   103995361.442        1437.667          53.000    19433921.764    80885370.244        1118.216          48.000  
G28  21136397.253   111072534.053         744.064          47.000    21136393.025    86550014.188         579.739          48.000  
E15  23582984.980   123929551.950       -1115.568          48.000    23582986.882    94959084.719        -854.724          53.000  
E21  25027168.540   131518717.298        1140.615          43.000    25027170.329   100774114.904         873.925          50.000  
E13  24045101.891   126358243.937        1638.098          48.000    24045104.048    96820051.107        1255.171          51.000  
E27  23264583.972   122256252.375        -606.365          48.000    23264584.130    93676883.113        -464.570          52.000  
E30  25878619.382   135993056.917       -2314.295          43.000    25878620.771   104202479.616       -1773.214          47.000  
E34  27014040.806   141959771.655       -3241.141          40.000    27014042.270   108774396.103       -2483.229          43.000  
G18  22388774.329   117654049.745        2862.251          46.000    22388773.528    91678577.215        2230.374          45.000  
G05  23980586.492   126018907.706        1275.813          45.000    23980583.065    98196558.730         994.036          40.000  
> 2024 04 17 03 08 30.4980000  0 22                     
G31  23420861.265                        2434.476          30.000    23420867.947    95904584.395        1896.427          32.000  
G11  23708457.922   124588812.499       -3679.493          37.000    23708451.606    97082224.315       -2866.903          44.000  
G12  21793203.680   114524060.869       -2185.840          50.000    21793199.440    89239514.154       -1703.368          45.000  
G20  23483383.516   123405964.408        -161.831          36.000                                                                  
R10  19005904.532   101312208.163        -989.195          49.000                                                                  
R11  20444967.175   109251737.640        2393.466          52.000    20444962.322    84973561.920        1861.452          50.000  
R09  21342234.664   113966319.745       -3658.501          50.000    21342230.561    88640459.871       -2845.473          48.000  
R20  19428771.654   103894499.094       -2885.354          42.000    19428771.978    80806888.671       -2244.220          44.000  
G25  20107560.474   105665966.472        -681.525          49.000    20107557.947    82337137.955        -530.927          46.000  
G29  20219304.372   106253311.143        -847.791          47.000    20219299.002    82794870.556        -660.584          44.000  
S31  38335126.409   201452512.601        -653.129          44.000  
S33  39289483.021   206467720.938        -654.016          43.000  
R21  19425925.996   103952552.834        1416.339          53.000    19425921.794    80852074.745        1101.650          49.000  
G28  21132199.215   111050476.703         726.500          47.000    21132194.857    86532826.676         565.961          48.000  
E15  23589393.564   123963228.007       -1129.391          48.000    23589395.416    94984888.475        -865.337          54.000  
E21  25020658.297   131484505.835        1140.360          43.000    25020660.169   100747900.979         873.855          50.000  
E13  24035777.209   126309245.633        1628.518          48.000    24035779.830    96782507.039        1247.905          51.000  
E27  23268059.505   122274515.520        -611.015          48.000    23268059.533    93690876.953        -468.160          52.000  
E30  25891843.763   136062549.048       -2318.277          43.000    25891844.884   104255726.852       -1776.485          48.000  
E34  27032560.840   142057093.143       -3246.886          41.000    27032561.775   108848967.146       -2487.932          43.000  
G18  22372455.876   117568294.378        2854.805          46.000    22372454.777    91611755.102        2224.462          46.000  
G05  23973322.333   125980740.423        1268.701          43.000    23973319.358    98166818.114         988.746          40.000  
> 2024 04 17 03 09 00.4980000  0 23                     
G31  23406992.718   123004505.967        2425.427          30.000    23406996.619    95847789.002        1889.570          33.000  
G11  23729489.987   124699335.407       -3689.172          38.000    23729483.361    97168346.033       -2874.683          44.000  
G12  21805703.430   114589745.634       -2193.453          50.000    21805698.899    89290697.083       -1709.010          45.000  
G20  23484349.624   123411045.385        -177.917          34.000                                                                  
R10  19011525.603   101342170.343       -1008.718          49.000                                                                  
R22  23370782.309                3       3469.500          11.000                                                                  
R11  20431550.700   109180042.726        2385.824          52.000    20431545.711    84917799.226        1855.791          49.000  
R09  21362821.834   114076259.136       -3671.094          50.000    21362819.358    88725968.203       -2855.214          48.000  
R20  19445012.962   103981342.127       -2904.429          42.000    19445012.350    80874433.274       -2258.796          44.000  
G25  20111476.775   105686546.398        -690.857          49.000    20111474.671    82353174.293        -538.245          47.000  
G29  20224173.569   106278896.306        -858.344          48.000    20224167.809    82814807.068        -668.817          44.000  
S31  38338854.680   201472105.389        -653.153          43.000  
S33  39293214.361   206487331.560        -653.728          43.000  
R21  19418044.797   103910380.508        1394.828          52.000    19418040.032    80819274.134        1084.923          48.000  
G28  21128102.146   111028944.408         708.674          46.000    21128097.608    86516048.285         552.264          47.000  
E15  23595881.153   123997318.475       -1143.490          48.000    23595882.768    95011009.764        -876.132          54.000  
E21  25014147.989   131450298.409        1139.984          42.000    25014150.692   100721690.157         873.543          50.000  
E13  24026508.088   126260533.695        1618.690          48.000    24026509.974    96745182.412        1240.316          50.000  
E27  23271561.467   122292918.750        -616.029          47.000    23271561.814    93704978.142        -471.975          52.000  
E30  25905090.825   136132164.728       -2322.973          43.000    25905092.205   104309068.724       -1779.755          48.000  
E34  27051114.375   142154588.775       -3252.890          41.000    27051114.714   108923671.624       -2492.641          44.000  
G18  22356179.926   117482764.342        2846.862          47.000    22356178.452    91545108.556        2218.344          46.000  
G05  23966098.627   125942777.061        1261.694          44.000    23966095.196    98137236.379         982.917          40.000  
> 2024 04 17 03 09 30.4990000  0 21                     
G31  23393173.794                        2415.942          29.000    23393176.711    95791204.444        1882.489          32.000  
G11  23750580.601   124810162.254       -3699.465          37.000    23750573.108    97254704.607       -2882.757          44.000  
G12  21818247.701   114655665.227       -2201.498          50.000    21818243.724    89342062.985       -1715.383          45.000  
R10  19017257.547   101372724.411       -1028.575          49.000                                                                  
R11  20418177.425   109108582.646        2377.612          52.000    20418172.916    84862219.233        1849.310          50.000  
R09  21383483.612   114186587.598       -3684.277          50.000    21383480.774    88811779.179       -2865.625          49.000  
R20  19461360.144   104068758.560       -2923.568          42.000    19461359.282    80942423.849       -2273.885          43.000  
G25  20115448.085   105707414.496        -700.839          49.000    20115445.563    82369435.139        -545.953          46.000  
G29  20229103.191   106304799.791        -869.008          49.000    20229097.297    82834991.652        -677.205          44.000  
S31  38342583.483   201491700.428        -653.411          44.000  
S33  39296946.568   206506943.271        -654.035          43.000  
R21  19410284.599   103868859.056        1372.865          51.000    19410280.862    80786979.775        1067.694          48.000  
G28  21124107.918   111007952.495         690.325          47.000    21124103.343    86499690.968         537.924          48.000  
E15  23602449.458   124031838.277       -1158.140          48.000    23602451.662    95037460.030        -887.430          54.000  
E21  25007642.007   131416108.994        1139.180          42.000    25007644.621   100695493.124         872.711          50.000  
E13  24017295.793   126212122.460        1608.259          48.000    24017297.260    96708088.172        1232.293          50.000  
E27  23275093.527   122311478.013        -621.626          48.000    23275093.346    93719198.873        -476.281          52.000  
E30  25918364.076   136201920.994       -2327.818          43.000    25918366.506   104362518.350       -1783.652          48.000  
E34  27069702.440   142252274.482       -3259.575          40.000    27069703.820   108998521.697       -2497.537          45.000  
G18  22339949.561   117397474.015        2838.476          46.000    22339947.912    91478648.781        2212.002          46.000  
G05  23958916.645   125905033.368        1253.992          43.000    23958911.255    98107825.797         977.254          38.000  
> 2024 04 17 03 10 00.4990000  0 21                     
G31  23379419.794                        2406.322          29.000    23379412.696    95734843.641        1875.911          34.000  
G12  21830837.970   114721825.246       -2209.087          50.000    21830832.414    89393616.241       -1721.117          44.000  
R10  19023102.403   101403878.491       -1048.083          49.000                                                                  
R11  20404851.500   109037374.261        2369.726          52.000    20404847.158    84806834.966        1843.121          49.000  
R09  21404217.075   114297305.026       -3696.684          51.000    21404215.566    88897892.683       -2875.280          49.000  
R20  19477815.066   104156747.798       -2942.087          42.000    19477813.161    81010859.944       -2288.396          43.000  
G25  20119476.057   105728579.479        -710.089          49.000    20119473.020    82385927.341        -553.413          46.000  
G29  20234093.853   106331027.407        -879.155          48.000    20234088.233    82855428.793        -685.138          44.000  
S31  38346314.225   201511305.463        -653.216          44.000  
S33  39300680.788   206526566.333        -653.961          43.000  
R21  19402649.814   103828001.656        1351.273          52.000    19402646.305    80755201.858        1051.031          49.000  
G28  21120218.046   110987512.882         672.422          47.000    21120213.616    86483764.027         524.076          47.000  
E15  23609101.187   124066793.337       -1172.115          48.000    23609103.224    95064243.797        -898.052          54.000  
E21  25001142.536   131381949.464        1138.681          42.000    25001144.100   100669318.982         872.388          50.000  
E13  24008142.942   126164025.520        1598.502          48.000    24008144.822    96671234.758        1224.777          50.000  
E27  23278656.530   122330201.863        -626.555          47.000    23278656.516    93733545.735        -480.072          53.000  
E30  25931667.621   136271822.454       -2332.115          44.000    25931668.364   104416079.203       -1786.931          49.000  
E34  27088328.432   142350150.861       -3265.479          38.000    27088329.143   109073517.865       -2501.921          45.000  
G18  22323768.339   117312440.876        2830.490          46.000    22323766.677    91412389.443        2205.421          46.000  
G05  23951778.999   125867523.535        1246.806          44.000    23951773.218    98078597.491         971.367          39.000  
G11                                                                  23771720.871    97341299.150       -2890.110          44.000  
> 2024 04 17 03 10 30.4990000  0 21                     
G31  23365704.211   122787496.104        2398.326          31.000    23365699.539    95678690.337        1868.729          34.000  
G11  23792944.418                3      -3718.551          30.000    23792922.374    97428114.037       -2897.337          45.000  
G12  21843469.854   114788207.145       -2216.195          50.000    21843464.832    89445342.414       -1726.927          44.000  
R10  19029055.838   101435613.644       -1067.303          49.000                                                                  
R11  20391568.822   108966397.298        2362.262          51.000    20391564.743    84751630.698        1837.305          50.000  
R09  21425019.953   114408392.645       -3708.734          51.000    21425018.357    88984294.106       -2884.651          49.000  
R20  19494372.580   104245287.746       -2960.157          43.000    19494369.762    81079724.381       -2302.456          42.000  
G25  20123556.274   105750022.227        -719.269          49.000    20123553.650    82402635.965        -560.375          46.000  
G29  20239142.637   106357557.691        -889.140          49.000    20239137.111    82876101.787        -692.987          45.000  
S31  38350042.783   201530900.292        -652.601          44.000  
S33  39304412.912   206546178.824        -653.525          43.000  
R21  19395135.419   103787786.803        1330.004          52.000    19395131.116    80723923.685        1034.426          49.000  
G28  21116429.737   110967605.371         654.993          46.000    21116424.999    86468251.703         510.303          47.000  
E15  23615832.660   124102163.028       -1185.716          49.000    23615833.438    95091345.264        -908.483          53.000  
E21  24994643.612   131347798.274        1138.462          43.000    24994645.248   100643151.247         872.226          50.000  
E13  23999046.396   126116221.646        1588.742          48.000    23999048.070    96634605.904        1217.307          50.000  
E27  23282247.363   122349070.690        -631.247          48.000    23282247.164    93748003.688        -483.708          53.000  
E30  25944993.087   136341850.753       -2336.140          45.000    25944994.142   104469737.228       -1790.066          49.000  
E34  27106985.271   142448198.269       -3270.821          38.000    27106986.661   109148645.104       -2506.306          44.000  
G18  22307631.966   117227643.766        2822.838          46.000    22307629.794    91346313.988        2199.581          46.000  
G05  23944680.409   125830228.054        1239.908          43.000    23944676.775    98049536.177         965.973          40.000  
> 2024 04 17 03 11 00.4990000  0 22                     
G31  23352042.502   122715700.349        2388.348          33.000    23352036.831    95622745.616        1861.247          35.000  
G12  21856144.098   114854809.317       -2223.840          50.000    21856138.709    89497240.204       -1732.781          44.000  
R10  19035117.842   101467929.784       -1086.878          49.000                                                                  
R22  23293061.622                3       3451.434          25.000                                                                  
R11  20378329.877   108895653.457        2354.179          52.000    20378326.171    84696607.773        1830.820          50.000  
R09  21445892.019   114519847.206       -3721.228          49.000    21445889.838    89070980.931       -2894.438          49.000  
R20  19511031.485   104334373.028       -2978.702          42.000    19511029.252    81149012.908       -2316.454          42.000  
G25  20127688.768   105771742.353        -728.781          49.000    20127686.671    82419560.753        -567.879          46.000  
G29  20244248.098   106384387.692        -899.281          48.000    20244242.828    82897008.298        -700.802          46.000  
S31  38353769.563   201550483.947        -652.754          44.000  
S33  39308142.512   206565779.955        -653.340          42.000  
R21  19387740.312   103748213.902        1308.289          52.000    19387736.102    80693144.830        1017.517          49.000  
G28  21112742.311   110948229.937         637.086          47.000    21112737.764    86453153.999         496.429          47.000  
E15  23622641.219   124137945.072       -1199.479          48.000    23622642.503    95118762.690        -919.182          53.000  
E21  24988146.149   131313654.598        1138.060          43.000    24988147.714   100616989.259         871.997          50.000  
E13  23990005.356   126068710.718        1578.690          48.000    23990006.959    96598201.513        1209.726          50.000  
E27  23285864.886   122368083.792        -636.154          47.000    23285865.265    93762572.179        -487.501          53.000  
E30  25958342.691   136412004.516       -2340.565          45.000    25958344.675   104523491.410       -1793.470          49.000  
E34  27125674.218   142546413.315       -3276.436          37.000    27125676.411   109223900.811       -2510.637          44.000  
G18  22291540.724   117143083.969        2814.653          47.000    22291538.456    91280423.478        2193.240          46.000  
G05  23937625.213   125793149.043        1232.160          44.000    23937621.414    98020643.546         960.317          40.000  
G11                                                                  23814176.822    97515145.984       -2904.729          44.000  
> 2024 04 17 03 11 30.4990000  0 22                     
G31  23338432.125   122644166.645        2380.541          34.000    23338423.354    95567005.104        1855.159          34.000  
G11  23835474.521                1      -3736.267          30.000    23835482.514    97602386.644       -2911.178          45.000  
G12  21868858.358   114921624.990       -2230.255          49.000    21868853.628    89549304.365       -1737.998          44.000  
R10  19041287.747   101500819.894       -1105.520          49.000                                                                  
R11  20365133.579   108825138.067        2347.124          51.000    20365130.291    84641762.524        1825.555          51.000  
R09  21466831.293   114631659.329       -3732.584          51.000    21466829.499    89157945.831       -2903.064          50.000  
R20  19527790.855   104423992.281       -2995.582          42.000    19527788.431    81218716.783       -2329.809          42.000  
G25  20131873.473   105793733.047        -737.075          49.000    20131871.176    82436696.357        -574.367          46.000  
G29  20249408.422   106411507.946        -908.419          48.000    20249403.853    82918140.971        -707.857          45.000  
S31  38357492.637   201570047.763        -651.310          44.000  
S33  39311868.727   206585360.720        -651.936          43.000  
R21  19380463.851   103709276.077        1287.697          52.000    19380459.538    80662859.924        1001.523          50.000  
G28  21109155.439   110929380.075         620.000          46.000    21109150.831    86438465.834         482.987          47.000  
E15  23629526.862   124174130.710       -1212.377          48.000    23629528.291    95146489.349        -928.954          53.000  
E21  24981648.745   131279511.075        1138.547          43.000    24981650.202   100590827.382         872.459          50.000  
E13  23981018.694   126021486.121        1569.790          47.000    23981020.571    96562016.521        1203.024          51.000  
E27  23289509.173   122387234.030        -640.129          47.000    23289509.393    93777245.727        -490.481          53.000  
E30  25971714.609   136482276.124       -2343.825          44.000    25971717.274   104577335.870       -1795.844          50.000  
E34  27144394.345   142644786.180       -3281.361          36.000    27144396.128   109299277.399       -2513.972          45.000  
G18  22275493.824   117058756.262        2807.527          47.000    22275490.429    91214713.784        2187.623          45.000  
G05  23930609.355   125756280.844        1225.828          45.000    23930605.205    97991915.244         955.349          40.000  
R22                                                                  23273763.305                3       2679.774          18.000  
> 2024 04 17 03 12 00.4990000  0 22                     
G31  23324862.365   122572872.143        2372.343          33.000    23324855.561    95511450.961        1848.855          35.000  
G11  23856832.586                3      -3743.884          32.000    23856832.269    97689814.106       -2917.539          43.000  
G12  21881608.920   114988629.083       -2236.691          48.000    21881603.880    89601515.354       -1742.938          44.000  
G20  23492061.177   123451611.5351       -270.697          32.000                                                                  
R10  19047560.997   101534259.564       -1124.042          48.000                                                                  
R11  20351975.838   108754828.505        2340.002          51.000    20351972.732    84587077.322        1819.982          51.000  
R09  21487831.990   114743801.808       -3743.704          50.000    21487829.812    89245167.716       -2911.739          49.000  
R20  19544644.568   104514115.792       -3012.666          43.000    19544642.468    81288812.841       -2342.941          42.000  
G25  20136105.318   105815970.027        -745.447          49.000    20136102.424    82454023.868        -580.897          46.000  
G29  20254619.326   106438892.051        -917.377          48.000    20254614.697    82939479.263        -714.906          46.000  
S31  38361206.599   201589565.913        -650.043          44.000  
S33  39315585.969   206604896.315        -650.504          43.000  
R21  19373301.348   103670948.559        1267.192          52.000    19373297.259    80633049.694         985.660          49.000  
G28  21105663.712   110911031.771         603.035          46.000    21105659.888    86424168.465         470.024          47.000  
E15  23636483.970   124210693.694       -1225.309          47.000    23636485.941    95174505.154        -938.876          53.000  
E21  24975147.502   131245342.908        1139.001          43.000    24975148.355   100564646.615         872.852          50.000  
E13  23972081.774   125974523.822        1560.787          47.000    23972084.023    96526032.520        1195.931          51.000  
E27  23293174.668   122406496.769        -644.204          47.000    23293174.864    93792005.496        -493.583          53.000  
E30  25985104.105   136552640.329       -2347.036          43.000    25985106.602   104631251.290       -1798.591          49.000  
E34  27163137.687   142743289.527       -3285.498          33.000    27163140.842   109374753.985       -2517.671          45.000  
G18  22259486.479   116974637.915        2800.240          47.000    22259483.066    91149167.228        2181.966          45.000  
G05  23923628.576   125719599.925        1219.291          47.000    23923625.205    97963332.863         950.404          41.000  
> 2024 04 17 03 12 30.4990000  0 23                     
G31  23311335.088                        2364.376          30.000    23311333.731    95456085.828        1842.247          36.000  
G11  23878231.586                       -3751.678          35.000    23878228.199    97777426.617       -2923.553          43.000  
G12  21894394.847   115055822.138       -2242.967          48.000    21894390.553    89653873.590       -1747.700          45.000  
G20  23493650.861   123459964.546        -285.834          34.000                                                                  
R10  19053937.529   101568250.323       -1142.375          48.000                                                                  
R11  20338857.613   108684728.927        2333.056          51.000    20338854.475    84532555.487        1814.556          50.000  
R09  21508894.320   114856273.231       -3754.646          50.000    21508891.774    89332645.463       -2920.203          49.000  
R20  19561591.381   104604739.283       -3029.231          43.000    19561589.335    81359297.821       -2356.070          42.000  
G25  20140384.078   105838454.971        -753.730          49.000    20140381.062    82471544.617        -587.280          45.000  
G29  20259880.594   106466539.124        -926.002          49.000    20259875.514    82961022.459        -721.447          46.000  
S31  38364912.359   201609039.659        -648.712          43.000  
S33  39319294.809   206624387.212        -649.269          43.000  
R21  19366253.177   103633232.824        1246.857          52.000    19366248.555    80603715.298         969.801          48.000  
G28  21102267.921   110893187.024         586.207          46.000    21102264.310    86410263.490         456.807          48.000  
E15  23643513.329   124247633.711       -1237.750          48.000    23643515.655    95202809.865        -948.366          53.000  
E21  24968641.508   131211151.255        1140.058          44.000    24968641.673   100538447.892         873.429          50.000  
E13  23963194.986   125927825.677        1552.032          47.000    23963197.547    96490250.915        1189.248          51.000  
E27  23296861.758   122425873.375        -647.870          47.000    23296862.255    93806852.526        -496.459          53.000  
E30  25998512.386   136623097.906       -2350.167          44.000    25998513.525   104685238.224       -1800.800          48.000  
E34  27181907.139   142841922.094       -3289.971          34.000    27181909.993   109450329.545       -2521.035          44.000  
G18  22243519.316   116890732.181        2793.184          47.000    22243516.491    91083786.357        2176.427          45.000  
G05  23916685.206   125683111.023        1213.005          47.000    23916682.220    97934900.066         945.062          42.000  
R22                                                                  23235045.441                3       2672.927          23.000  
> 2024 04 17 03 13 00.4990000  0 22                     
G31  23297858.188   122431013.267        2356.110          33.000    23297860.389    95400911.736        1835.838          38.000  
G11  23899673.027   125593610.9421      -3759.400          38.000    23899668.324    97865222.305       -2929.528          42.000  
G12  21907217.268   115123204.825       -2249.193          48.000    21907212.992    89706379.564       -1752.696          44.000  
G20  23495326.096   123468763.059        -300.470          33.000                                                                  
R10  19060417.382   101602793.283       -1160.564          48.000                                                                  
R11  20325778.798   108614842.580        2325.903          50.000    20325776.274    84478199.472        1809.132          51.000  
R09  21530017.744   114969072.913       -3765.464          49.000    21530015.824    89420378.504       -2928.621          49.000  
R20  19578630.942   104695859.983       -3045.663          43.000    19578629.194    81430169.500       -2368.703          42.000  
G25  20144710.027   105861189.356        -762.080          49.000    20144707.272    82489259.722        -593.719          45.000  
G29  20265191.817   106494448.013        -934.606          49.000    20265186.540    82982769.658        -728.222          46.000  
S31  38368609.530   201628469.158        -647.062          44.000  
S33  39322995.195   206643833.660        -647.344          43.000  
R21  19359319.995   103596130.226        1226.514          53.000    19359314.893    80574857.782         953.992          49.000  
G28  21098968.661   110875847.512         569.589          47.000    21098964.190    86396752.193         443.849          47.000  
E15  23650615.362   124284950.310       -1250.284          48.000    23650616.826    95231403.119        -957.879          53.000  
E21  24962130.324   131176937.147        1140.741          43.000    24962130.905   100512231.943         874.108          50.000  
E13  23954358.756   125881393.372        1543.189          47.000    23954361.586    96454673.002        1182.480          51.000  
E27  23300571.022   122445364.955        -651.598          48.000    23300571.478    93821787.642        -499.341          53.000  
E30  26011938.169   136693649.419       -2353.373          44.000    26011938.520   104739297.162       -1803.178          47.000  
E34  27200701.669   142940682.227       -3294.085          35.000    27200703.598   109526002.880       -2524.012          44.000  
G18  22227593.270   116807042.148        2785.980          47.000    22227590.736    91018573.552        2170.938          45.000  
G05  23909778.484   125646815.913        1206.711          46.000    23909776.074    97906618.283         940.166          43.000  
> 2024 04 17 03 13 30.4990000  0 22                     
G31  23284434.233   122360461.712        2347.167          35.000    23284435.344    95345936.573        1828.970          38.000  
G11  23921159.848   125706522.012       -3767.702          39.000    23921153.505    97953204.945       -2936.435          40.000  
G12  21920077.352   115190785.005       -2256.302          47.000    21920073.314    89759039.444       -1758.096          44.000  
G20  23497087.748   123478015.993        -316.486          35.000                                                                  
R10  19067003.418   101637898.190       -1179.946          47.000                                                                  
R11  20312742.523   108545180.721        2317.911          51.000    20312739.298    84424018.058        1802.799          50.000  
R09  21551203.547   115082206.750       -3776.941          49.000    21551202.821    89508371.443       -2937.669          50.000  
R20  19595765.517   104787481.755       -3062.766          44.000    19595762.960    81501430.861       -2382.043          42.000  
G25  20149085.577   105884181.823        -771.146          49.000    20149082.458    82507175.945        -600.875          45.000  
G29  20270553.464   106522624.709        -943.984          49.000    20270548.547    83004725.570        -735.659          46.000  
S31  38372300.002   201647861.725        -646.263          44.000  
S33  39326688.902   206663242.701        -646.553          43.000  
R21  19352502.589   103559649.513        1205.236          53.000    19352497.473    80546483.966         937.349          48.000  
G28  21095767.505   110859022.174         551.794          47.000    21095762.023    86383641.555         429.895          47.000  
E15  23657789.680   124322650.120       -1263.456          48.000    23657790.776    95260290.002        -968.011          53.000  
E21  24955616.662   131142708.716        1140.789          43.000    24955617.452   100486005.015         874.092          50.000  
E13  23945576.555   125835235.779        1533.642          47.000    23945578.127    96419305.569        1175.123          51.000  
E27  23304303.009   122464979.819        -656.216          48.000    23304304.154    93836817.223        -502.786          54.000  
E30  26025383.307   136764302.551       -2357.051          45.000    26025383.777   104793433.998       -1806.094          48.000  
E34  27219521.338   143039575.629       -3299.438          35.000    27219522.406   109601778.329       -2527.744          43.000  
G18  22211710.693   116723578.062        2778.002          46.000    22211707.947    90953536.804        2164.647          45.000  
G05  23902910.836   125610726.137        1199.204          46.000    23902907.491    97878496.504         934.453          42.000  
> 2024 04 17 03 14 00.4990000  0 22                     
G31  23271066.234   122290184.916        2337.588          37.000    23271062.582    95291175.470        1821.575          39.000  
G11  23942694.168   125819686.603       -3777.070          41.000    23942687.992    98041385.091       -2943.084          39.000  
G12  21932977.982   115258579.745       -2263.746          48.000    21932974.818    89811866.476       -1763.924          45.000  
G20  23498937.482   123487740.479        -332.178          37.000                                                                  
R10  19073697.115   101673582.170       -1199.567          47.000                                                                  
R11  20299752.024   108475763.207        2309.504          50.000    20299748.645    84370026.698        1796.394          50.000  
R09  21572455.992   115195690.054       -3788.844          50.000    21572454.430    89596636.151       -2946.917          50.000  
R20  19612994.207   104879616.396       -3079.942          43.000    19612992.565    81573091.188       -2395.728          43.000  
G25  20153513.465   105907449.864        -780.437          49.000    20153510.232    82525306.888        -608.117          45.000  
G29  20275969.550   106551084.777        -953.600          50.000    20275964.357    83026902.278        -743.139          47.000  
S31  38375985.879   201667233.391        -645.552          43.000  
S33  39330378.294   206682632.154        -646.030          43.000  
R21  19345804.111   103523808.310        1183.754          52.000    19345799.724    80518607.540         920.582          48.000  
G28  21092667.042   110842728.720         533.948          48.000    21092661.407    86370945.383         415.994          47.000  
E15  23665039.245   124360748.696       -1276.910          48.000    23665040.688    95289482.436        -978.438          53.000  
E21  24949103.895   131108483.038        1140.522          43.000    24949104.300   100459780.204         873.845          49.000  
E13  23936848.405   125789370.608        1523.658          47.000    23936850.113    96384162.207        1167.402          50.000  
E27  23308062.560   122484735.194        -661.190          47.000    23308063.531    93851954.467        -506.605          54.000  
E30  26038849.801   136835073.964       -2361.165          44.000    26038851.519   104847661.467       -1809.358          48.000  
E34  27238367.565   143138616.751       -3304.294          35.000    27238369.508   109677667.010       -2531.639          44.000  
G18  22195874.323   116640358.987        2769.533          47.000    22195871.474    90888690.964        2158.038          44.000  
G05  23896085.872   125574860.922        1191.477          47.000    23896082.625    97850549.713         928.350          43.000  
> 2024 04 17 03 14 30.4990000  0 23                     
G31  23257747.796   122220198.351        2328.062          37.000    23257744.572    95236640.590        1813.969          40.000  
G11  23964277.776   125933115.304       -3784.932          40.000    23964272.245    98129771.114       -2949.401          39.000  
G12  21945922.595   115326602.879       -2271.156          47.000    21945917.588    89864871.498       -1769.831          43.000  
G20  23500879.706   123497951.194        -348.438          38.000                                                                  
R10  19080502.261   101709859.943       -1219.193          47.000                                                                  
R22  23157765.803                3       3413.913          25.000                                                                  
R11  20286810.714   108406607.223        2300.940          50.000    20286806.921    84316238.760        1789.526          50.000  
R09  21593776.339   115309534.406       -3800.729          51.000    21593773.873    89685181.712       -2956.167          49.000  
R20  19630321.533   104972274.605       -3097.345          43.000    19630320.448    81645158.714       -2408.843          42.000  
G25  20157996.712   105931008.020        -790.058          49.000    20157993.359    82543663.914        -615.812          45.000  
G29  20281441.651   106579839.702        -963.313          50.000    20281435.694    83049308.741        -750.623          46.000  
S31  38379670.930   201686597.679        -645.544          44.000  
S33  39334066.319   206702012.156        -646.064          43.000  
R21  19339228.786   103488621.230        1162.031          52.000    19339224.121    80491239.891         903.777          49.000  
G28  21089669.872   110826981.919         515.789          46.000    21089665.067    86358675.155         402.000          47.000  
E15  23672367.215   124399258.538       -1290.376          48.000    23672368.909    95318989.996        -988.793          53.000  
E21  24942593.918   131074274.203        1140.045          43.000    24942594.536   100433568.283         873.593          49.000  
E13  23928178.334   125743812.560        1513.535          47.000    23928180.273    96349254.159        1159.633          50.000  
E27  23311851.425   122504645.269        -666.209          48.000    23311852.284    93867210.256        -510.471          54.000  
E30  26052342.307   136905977.286       -2365.517          43.000    26052344.479   104901989.980       -1812.556          49.000  
E34  27257244.742   143237817.176       -3308.957          34.000    27257246.649   109753677.752       -2535.538          44.000  
G18  22180087.653   116557401.054        2760.953          47.000    22180084.651    90824048.620        2151.366          44.000  
G05  23889306.399   125539235.516        1183.539          46.000    23889303.495    97822789.756         922.291          42.000  
