     3.00           OBSERVATION DATA    M: Mixed            RINEX VERSION / TYPE
CONVBIN 2.4.3                           20240417 085941 UTC PGM / RUN BY / DATE 
format: u-blox UBX                                          COMMENT             
log: /home/regis/git/gnsspwv/obsdata/VERT00CHL/2024-04-17/VECOMMENT             
{self.marker}                                               MARKER NAME         
                                                            MARKER NUMBER       
GEODETIC                                                    MARKER TYPE         
{self.observer}     {self.institution}                      OBSERVER / AGENCY   
UNKNOWN             UBLOX-ZED-F9P                           REC # / TYPE / VERS 
UNKNOWN             TWIVSP6037L                             ANT # / TYPE        
  1713381.0000 -5047934.0000 -3490983.0000                  APPROX POSITION XYZ 
        0.0000        0.0000        0.0000                  ANTENNA: DELTA H/E/N
G    8 C1C L1C D1C S1C C2L L2L D2L S2L                      SYS / # / OBS TYPES 
R    8 C1C L1C D1C S1C C2C L2C D2C S2C                      SYS / # / OBS TYPES 
E    8 C1C L1C D1C S1C C7Q L7Q D7Q S7Q                      SYS / # / OBS TYPES 
S    4 C1C L1C D1C S1C                                      SYS / # / OBS TYPES 
  2024    04    17    08    45   00.0070000     GPS         TIME OF FIRST OBS   
  2024    04    17    08    59   30.0070000     GPS         TIME OF LAST OBS    
                                                            END OF HEADER       
> 2024 04 17 08 45 00.0070000  0 26                     
G08  23637704.651   124217008.0301       2010.455          48.000    23637702.424    96792491.6631       1566.549          46.000  
G16  23765345.470   124887779.1961      -3059.033          46.000                                                                  
G26  26017100.380   136720789.7361      -4058.221          36.000    26017099.491   106535688.4161      -3162.939          34.000  
G27  22268323.170   117020815.4411        149.444          50.000    22268319.680    91185102.0141        116.461          47.000  
G23  24847126.548   130572666.1631      -3799.227          46.000    24847121.569   101744900.7961      -2960.325          45.000  
R08  21856935.794   117042908.4261        211.321          51.000    21856928.642    91033409.5091        164.374          50.000  
R22  24202748.067   129196059.3081      -2539.981          45.000    24202745.274   100485650.0721      -1975.367          45.000  
R14  24494206.139   130567970.9161       -970.900          48.000    24494207.618   101552786.3871       -755.209          46.000  
R07  23814833.791   127482691.9651      -3432.309          50.000    23814829.825    99153241.9921      -2669.593          48.000  
R13  24714613.587                       -3951.214          29.000    24714610.995   102646878.2431      -3073.412          37.000  
E08  29838577.598   156802733.4721      -1747.123          36.000    29838575.804   120147569.0431      -1338.075          36.000  
G21  25660816.014   134848500.1611       2014.165          43.000                                                                  
S31  40776753.276   214283375.4681       -613.236          44.000  
S33  41731207.512   219299108.1441       -612.426          42.000  
G10  22367063.563   117539844.0111      -2120.301          49.000    22367060.314    91589421.9231      -1652.179          48.000  
E33  26699407.295   140306445.6961        271.288          46.000    26699407.297   107507517.4271        207.820          51.000  
R01  23885703.287   127682732.0801       3543.702          49.000    23885700.003    99308802.7221       2756.479          42.000  
R23  22335644.359   119480689.5211       -326.791          49.000                                                                  
R24  24225332.252   129543822.2491       1751.115          42.000    24225328.919   100756265.5831       1361.907          41.000  
G32  24756918.732   130098505.0631       1942.444          48.000    24756916.859   101375486.7321       1513.696          45.000  
E21  29544184.456                       -3648.865          28.000    29544200.925   118962334.7181      -2796.097          37.000  
E13  29334743.975   154155085.6141      -2334.658          39.000    29334743.434   118119261.7581      -1788.850          39.000  
E31  27598649.667   145031821.6641        -60.439          45.000    27598651.858   111128362.5241        -46.262          49.000  
E07  27764287.528   145902339.9811        509.274          45.000    27764288.539   111795313.3571        390.282          50.000  
E26  25975966.006   136504881.8741      -1276.589          48.000    25975963.973   104594798.0531       -978.255          52.000  
E14  28207758.705   148232834.5441      -1359.973          46.000    28207757.820   113581030.2271      -1042.114          53.000  
> 2024 04 17 08 45 30.0070000  0 27                     
G08  23626249.131   124156808.822        2003.004          48.000    23626246.885    96745583.203        1560.967          46.000  
G16  23782845.658   124979742.953       -3071.621          46.000                                                                  
G26  26040265.789   136842533.735       -4057.648          36.000    26040266.504   106630553.904       -3161.121          34.000  
G27  22267511.371   117016547.915         135.403          50.000    22267507.765    91181776.684         105.558          46.000  
G23  24868830.901   130686724.557       -3804.331          46.000    24868826.246   101833777.462       -2964.427          46.000  
R08  21855827.158   117036976.308         184.305          50.000    21855821.387    91028795.667         143.489          51.000  
R22  24217036.952   129272333.051       -2544.688          46.000    24217034.188   100544974.116       -1979.266          45.000  
R14  24499736.663   130597443.954        -993.758          49.000    24499735.927   101575709.880        -773.180          45.000  
R07  23834125.118   127585955.831       -3451.832          51.000    23834119.654    99233558.317       -2684.660          47.000  
R13  24736828.567                       -3957.815          29.000    24736830.671   102739158.922       -3078.521          38.000  
E08  29848583.774   156855322.219       -1758.467          33.000    29848583.834   120187864.333       -1347.657          37.000  
G21  25649316.755   134788072.872        2014.309          44.000                                                                  
S31  40780252.820   214301764.563        -612.667          44.000  
S33  41734704.475   219317484.888        -612.283          42.000  
G10  22379215.289   117603701.497       -2136.534          49.000    22379212.214    91639181.018       -1664.928          48.000  
E33  26697863.339   140298331.645         269.892          46.000    26697863.195   107501300.190         206.886          51.000  
R01  23865838.540   127576547.972        3535.378          47.000    23865835.879    99226215.107        2749.861          43.000  
R23  22337492.959   119490572.484        -331.970          50.000                                                                  
R24  24215507.795   129491284.061        1751.731          42.000    24215504.432   100715402.547        1362.676          42.000  
G32  24745858.171   130040381.934        1932.441          46.000    24745856.044   101330196.013        1506.063          44.000  
E21  29565018.556                       -3647.990          30.000    29565028.556   119046202.892       -2794.887          34.000  
E13  29348067.430   154225106.557       -2332.975          38.000    29348067.953   118172914.182       -1787.608          38.000  
E31  27599034.100   145033839.250         -73.803          45.000    27599035.616   111129908.464         -56.594          48.000  
E07  27761412.789   145887232.931         498.247          46.000    27761413.754   111783737.856         381.699          50.000  
E26  25983258.086   136543199.795       -1277.526          48.000    25983255.466   104624158.535        -978.833          52.000  
E14  28215508.233   148273562.067       -1354.786          46.000    28215507.953   113612237.047       -1038.079          53.000  
G18                                                                  27405724.200                3      -2414.931          24.000  
> 2024 04 17 08 46 00.0070000  0 27                     
G08  23614837.113   124096840.073        1995.055          47.000    23614834.856    96698854.343        1554.504          45.000  
G16  23800419.224   125072089.163       -3084.601          46.000                                                                  
G26  26063425.816   136964235.061       -4055.914          36.000    26063425.257                       -3161.823          32.000  
G27  22266779.814   117012704.238         121.031          50.000    22266776.265    91178781.639          94.191          47.000  
G23  24890564.448   130800939.930       -3809.841          45.000    24890559.487   101922776.467       -2968.602          45.000  
R08  21854871.041   117031854.860         157.131          51.000    21854865.434    91024812.336         122.237          51.000  
R22  24231352.458   129348750.383       -2549.729          46.000    24231349.935   100604409.810       -1983.156          45.000  
R14  24505394.789   130627603.475       -1016.854          49.000    24505393.000   101599167.270        -791.017          44.000  
R07  23853525.786   127689805.874       -3471.473          51.000    23853519.746    99314330.562       -2699.907          47.000  
R13  24759087.634                       -3965.671          29.000    24759089.576   102831601.495       -3084.154          37.000  
E08  29858659.380   156908269.131       -1771.115          35.000    29858658.906   120228434.041       -1357.225          35.000  
G21  25637816.834   134727638.340        2014.526          45.000                                                                  
S31  40783749.459   214320138.949        -612.283          44.000  
S33  41738198.570   219335846.126        -611.790          43.000  
G10  22391458.119   117668041.794       -2152.760          48.000    22391455.942    91689316.330       -1677.529          48.000  
E33  26696327.549   140290259.683         268.313          46.000    26696327.007   107495115.204         205.570          51.000  
R01  23846021.445   127470611.854        3527.103          47.000    23846019.096    99143820.437        2743.024          43.000  
R23  22339369.341   119500611.303        -337.306          49.000                                                                  
R24  24205680.351   129438723.352        1752.315          45.000    24205674.640   100674522.047        1362.780          41.000  
G32  24734852.950   129982557.693        1922.609          45.000    24734852.219   101285138.232        1497.931          44.000  
E21  29585840.202   155474745.349       -3646.019          32.000    29585848.087   119130033.621       -2793.688          35.000  
E13  29361384.629   154295089.829       -2332.298          38.000    29361385.239   118226537.674       -1786.859          37.000  
E31  27599494.943   145036258.693         -87.571          46.000    27599495.879   111131762.324         -67.059          48.000  
E07  27758602.778   145872464.120         486.594          46.000    27758603.398   111772421.515         372.834          50.000  
E26  25990554.135   136581545.055       -1278.666          48.000    25990552.564   104653539.978        -979.806          52.000  
E14  28223228.408   148314134.072       -1349.962          46.000    28223228.470   113643324.699       -1034.297          53.000  
G18                                                                  27423416.188                3      -2416.449          14.000  
> 2024 04 17 08 46 30.0070000  0 26                     
G08  23603470.878   124037109.371        1987.274          47.000    23603468.546    96652310.958        1548.607          45.000  
G16  23818065.821   125164819.612       -3097.261          46.000                                                                  
G26  26086577.328   137085896.036       -4054.521          37.000    26086575.933   106820186.986       -3159.932          33.000  
G27  22266130.053   117009291.318         106.694          50.000    22266126.868    91176122.231          83.260          47.000  
G23  24912329.165   130915314.854       -3814.965          46.000    24912324.943   102011899.746       -2972.696          46.000  
R08  21854066.324   117027550.273         130.000          50.000    21854061.624    91021464.359         101.171          51.000  
R22  24245696.145   129425317.044       -2554.578          45.000    24245693.522   100663961.688       -1986.800          45.000  
R14  24511180.909   130658453.473       -1039.703          49.000    24511180.347   101623161.677        -808.632          45.000  
R07  23873035.769   127794243.614       -3490.787          51.000    23873030.539    99395559.877       -2715.065          48.000  
R13  24781387.822                1      -3971.781          28.000    24781385.808   102924206.578       -3089.480          35.000  
E08  29868798.081                       -1782.705          30.000    29868803.806   120269281.484       -1366.150          36.000  
G21  25626315.988   134667201.534        2014.763          45.000                                                                  
S31  40787243.957   214338502.687        -611.894          44.000  
S33  41741690.507   219354196.288        -611.193          43.000  
G10  22403793.706   117732867.733       -2168.745          49.000    22403792.153    91739830.056       -1689.949          48.000  
E33  26694801.665   140282234.484         266.828          47.000    26694799.632   107488966.041         204.535          51.000  
R01  23826252.037   127364933.620        3518.431          47.000    23826250.319    99061626.317        2736.660          44.000  
R23  22341276.755   119510811.806        -342.518          49.000                                                                  
R24  24195847.167   129386145.776        1753.131          42.000    24195843.003   100633628.458        1363.309          42.000  
G32  24723907.169   129925040.729        1912.204          45.000    24723907.166   101240319.854        1490.053          44.000  
E21  29606659.410   155584105.659       -3644.238          35.000    29606658.913   119213829.219       -2792.319          37.000  
E13  29374696.124   154365040.728       -2330.934          38.000    29374696.013   118280136.426       -1786.252          36.000  
E31  27600032.789   145039085.441        -100.814          46.000    27600033.678   111133928.296         -77.272          48.000  
E07  27755857.138   145858039.944         475.160          45.000    27755858.415   111761369.239         364.157          50.000  
E26  25997857.565   136619922.625       -1279.629          48.000    25997855.415   104682946.169        -980.437          52.000  
E14  28230920.311   148354556.033       -1344.652          46.000    28230920.491   113674297.382       -1030.282          53.000  
> 2024 04 17 08 47 00.0070000  0 26                     
G08  23592151.953   123977627.763        1978.561          47.000    23592149.420    96605961.695        1541.454          45.000  
G16  23835785.673   125257940.917       -3110.335          45.000                                                                  
G26  26109720.152   137207522.366       -4053.320          37.000    26109720.505   106914960.825       -3158.320          33.000  
G27  22265564.220   117006319.448          91.646          49.000    22265561.118    91173806.505          71.333          47.000  
G23  24934125.572   131029855.298       -3820.781          47.000    24934121.164   102101152.040       -2977.180          46.000  
R08  21853417.807   117024072.888         102.054          50.000    21853411.638    91018759.721          79.413          50.000  
R22  24260068.897   129502042.567       -2560.025          47.000    24260066.055   100723637.069       -1991.271          44.000  
R14  24517099.151   130690001.126       -1063.203          50.000    24517098.791   101647698.698        -826.988          44.000  
R07  23892655.684   127899274.029       -3510.814          50.000    23892650.527    99477250.222       -2730.643          49.000  
R13  24803724.287                       -3979.698          27.000    24803720.742   103016977.028       -3094.948          36.000  
E08  29879018.342   157015258.001       -1795.610          31.000    29879018.640   120310412.599       -1375.648          36.000  
G21  25614816.822   134606771.546        2014.251          45.000                                                                  
S31  40790737.779   214356863.932        -612.040          44.000  
S33  41745182.052   219372544.821        -611.450          42.000  
G10  22416224.205   117798185.520       -2185.357          49.000    22416221.730    91790727.029       -1702.976          48.000  
E33  26693284.523   140274264.120         264.791          47.000    26693282.886   107482858.922         202.904          51.000  
R01  23806533.038   127259526.043        3509.019          47.000    23806531.152    98979642.709        2729.499          43.000  
R23  22343216.184   119521184.064        -348.592          50.000                                                                  
R24  24186013.095   129333560.534        1752.940          44.000    24186009.079   100592728.830        1363.617          42.000  
G32  24713023.434   129867842.771        1901.219          46.000    24713022.232   101195750.057        1481.544          43.000  
E21  29627462.477   155693426.960       -3643.131          36.000    29627461.612   119297594.960       -2791.596          36.000  
E13  29388000.673   154434968.152       -2330.847          37.000    29388004.259   118333717.177       -1785.631          38.000  
E31  27600649.233   145042328.356        -114.897          46.000    27600650.958   111136413.159         -88.095          48.000  
E07  27753180.323   145843970.215         463.152          46.000    27753181.712   111750588.552         354.855          51.000  
E26  26005167.289   136658340.881       -1281.343          48.000    26005166.279   104712383.549        -981.808          53.000  
E14  28238585.632   148394836.853       -1340.287          46.000    28238585.672   113705161.930       -1026.967          53.000  
> 2024 04 17 08 47 30.0070000  0 26                     
G08  23580880.823   123918396.726        1969.958          47.000    23580878.323    96559807.667        1534.996          46.000  
G16  23853579.503   125351447.983       -3123.575          46.000                                                                  
G26  26132858.210   137329110.407       -4052.389          38.000    26132857.474   107009704.818       -3158.105          33.000  
G27  22265082.943   117003789.405          76.900          50.000    22265079.896    91171835.047          59.908          47.000  
G23  24955953.381   131144557.709       -3826.128          48.000    24955948.995   102190530.539       -2981.425          47.000  
R08  21852923.967   117021422.187          74.471          51.000    21852916.763    91016698.089          58.016          50.000  
R22  24274472.808   129578926.415       -2565.496          45.000    24274468.036   100783435.637       -1995.007          41.000  
R14  24523147.468   130722244.067       -1086.402          50.000    24523148.202   101672776.492        -845.128          46.000  
R07  23912386.477   128004892.884       -3530.450          51.000    23912381.107    99559398.181       -2745.965          49.000  
R13  24826098.956                       -3985.943          27.000    24826096.561   103109908.959       -3101.013          35.000  
G21  25603318.471   134546347.164        2013.828          45.000                                                                  
S31  40794231.317   214375222.353        -611.917          44.000  
S33  41748673.057   219390890.275        -611.646          42.000  
G10  22428747.309   117863991.747       -2201.757          49.000    22428743.799    91842004.581       -1715.534          48.000  
E33  26691777.723   140266347.182         262.983          47.000    26691776.256   107476792.727         201.466          51.000  
R01  23786865.489   127154392.239        3499.736          46.000    23786863.494    98897872.030        2722.034          43.000  
R23  22345186.687   119531728.417        -354.409          49.000                                                                  
R24  24176178.014   129280967.230        1753.131          44.000    24176174.016   100551822.968        1363.578          43.000  
G32  24702200.988   129810966.039        1890.543          47.000    24702198.769   101151430.552        1473.017          42.000  
E21  29648257.705   155802706.546       -3642.007          34.000    29648256.704   119381328.748       -2790.900          35.000  
E13  29401304.368   154504871.353       -2329.744          39.000    29401306.854   118387279.411       -1785.529          38.000  
E31  27601345.641   145045986.804        -128.904          45.000    27601347.094   111139216.395         -98.758          48.000  
E07  27750570.443   145830255.187         451.143          46.000    27750571.775   111740079.662         345.720          51.000  
E26  26012485.406   136696798.665       -1282.490          48.000    26012484.412   104741851.213        -982.796          52.000  
E14  28246223.290   148434975.902       -1335.668          45.000    28246223.768   113735917.839       -1023.421          53.000  
E08                                                                  29889304.048   120351825.902       -1384.872          36.000  
> 2024 04 17 08 48 00.0070000  0 26                     
G08  23569660.395   123859433.016        1960.563          47.000    23569657.663    96513861.975        1527.856          45.000  
G16  23871448.926   125445353.277       -3137.154          46.000                                                                  
G26  26155990.738   137450671.700       -4051.764          35.000    26155989.877                       -3156.157          32.000  
G27  22264688.685   117001717.240          61.143          50.000    22264685.985    91170220.391          47.562          47.000  
G23  24977813.822   131259433.856       -3832.509          48.000    24977808.599   102280044.413       -2986.371          47.000  
R08  21852585.113   117019614.443          45.929          50.000    21852578.340    91015292.094          35.718          49.000  
R22  24288906.773   129655983.956       -2571.938          42.000    24288903.705   100843369.241       -2000.344          42.000  
R14  24529329.915   130755195.288       -1110.617          51.000    24529330.332   101698405.223        -863.738          46.000  
R07  23932228.380   128111110.461       -3550.892          50.000    23932223.926    99642011.809       -2761.801          51.000  
R13  24848507.197                3      -3993.738          26.000    24848513.521   103203009.812       -3106.314          35.000  
E08  29899655.735   157123731.6371      -1820.557          31.000    29899660.800   120393531.782       -1395.451          34.000  
G21  25591823.829   134485943.159        2012.681          45.000                                                                  
S31  40797726.884   214393592.639        -612.828          44.000  
S33  41752166.027   219409246.732        -612.663          42.000  
G10  22441364.749   117930298.283       -2218.820          49.000    22441361.197    91893672.033       -1728.988          47.000  
E33  26690283.445   140258497.509         260.275          46.000    26690282.529   107470778.061         199.465          51.000  
R01  23767252.424   127049550.990        3489.456          47.000    23767250.986    98816328.902        2713.889          44.000  
R23  22347192.871   119542460.497        -361.277          49.000                                                                  
R24  24166342.680   129228380.772        1752.205          42.000    24166339.473   100510922.440        1363.118          42.000  
G32  24691442.825   129754428.037        1878.678          47.000    24691439.937   101107374.954        1463.677          42.000  
E21  29669047.300   155911956.889       -3641.887          32.000    29669046.352   119465040.104       -2790.872          34.000  
E13  29414604.743   154574765.044       -2329.935          39.000    29414606.641   118440834.289       -1785.113          37.000  
E31  27602123.753   145050075.306        -143.818          45.000    27602124.931   111142349.162        -110.231          48.000  
E07  27748030.825   145816910.391         438.456          46.000    27748032.091   111729854.463         335.987          50.000  
E26  26019814.687   136735310.184       -1284.869          48.000    26019813.217   104771360.044        -984.547          53.000  
E14  28253837.744   148474987.856       -1331.840          45.000    28253837.765   113766576.350       -1020.585          53.000  
> 2024 04 17 08 48 30.0070000  0 26                     
G08  23558493.414   123800750.189        1951.360          47.000    23558490.522    96468135.122        1520.590          45.000  
G16  23889395.853   125539664.568       -3150.587          46.000                                                                  
G26  26179119.326   137572214.550       -4051.218          33.000    26179119.115                       -3155.916          30.000  
G27  22264384.350   117000115.694          45.420          50.000    22264381.140    91168972.425          35.374          48.000  
G23  24999708.077   131374492.217       -3838.317          47.000    24999704.604   102369700.275       -2990.992          47.000  
R08  21852407.500   117018661.628          17.349          51.000    21852400.569    91014551.027          13.533          50.000  
R22  24303375.123   129733227.003       -2578.288          41.000    24303375.052   100903447.183       -2005.203          43.000  
R14  24535645.603   130788863.818       -1134.454          50.000    24535646.287   101724591.836        -882.264          46.000  
R07  23952184.404   128217934.585       -3571.085          49.000    23952178.472    99725097.223       -2777.446          50.000  
R13  24870963.294                       -4000.901          26.000    24870973.065   103296285.065       -3112.268          37.000  
E08  29910090.248   157178553.344       -1833.935          32.000    29910093.212   120435537.970       -1404.639          33.000  
G21  25580334.725   134425570.251        2011.840          45.000                                                                  
S31  40801226.689   214411984.259        -613.350          44.000  
S33  41755663.369   219427624.529        -613.270          42.000  
G10  22454079.529   117997113.830       -2235.777          50.000    22454076.147    91945736.123       -1742.210          48.000  
E33  26688805.033   140250725.729         257.625          46.000    26688803.660   107464823.085         197.440          51.000  
R01  23747698.217   126945017.505        3479.019          48.000    23747695.522    98735025.151        2706.010          44.000  
R23  22349236.082   119553392.559        -367.861          50.000                                                                  
R24  24156514.371   129175812.810        1751.955          45.000    24156509.675   100470036.342        1362.497          43.000  
G32  24680750.411   129698242.909        1866.886          47.000    24680748.019   101063594.372        1454.832          42.000  
E21  29689836.803                       -3640.753          30.000    29689832.809   119548736.102       -2790.152          32.000  
E13  29427907.471   154644660.440       -2330.064          40.000    29427907.331   118494390.561       -1785.421          38.000  
E31  27602985.657   145054605.187        -158.571          45.000    27602986.889   111145820.130        -121.480          48.000  
E07  27745564.857   145803948.124         425.385          47.000    27745565.352   111719922.357         326.051          50.000  
E26  26027154.598   136773886.247       -1287.027          48.000    26027154.114   104800918.338        -986.215          53.000  
E14  28261430.648   148514884.082       -1328.153          46.000    28261429.652   113797146.198       -1017.681          53.000  
> 2024 04 17 08 49 00.0070000  0 26                     
G08  23547379.550   123742347.748        1941.943          47.000    23547376.895    96422626.750        1513.278          45.000  
G16  23907418.634   125634375.474       -3163.864          46.000                                                                  
G27  22264168.619   116998983.446          29.838          50.000    22264165.542    91168090.175          23.173          48.000  
G23  25021636.742   131489727.287       -3844.301          46.000    25021632.740   102459493.824       -2995.582          47.000  
R08  21852389.075   117018561.826         -11.067          51.000    21852382.553    91014473.414          -8.577          50.000  
R22  24317881.518   129810653.005       -2583.913          42.000    24317880.291   100963667.491       -2010.001          44.000  
R14  24542094.759   130823245.498       -1158.010          50.000    24542095.099   101751333.112        -900.775          45.000  
R07  23972251.169   128325358.387       -3590.764          46.000    23972246.617    99808649.084       -2792.892          50.000  
R13  24893468.166                       -4008.443          31.000    24893470.782   103389728.523       -3116.995          34.000  
E08  29920592.023   157233763.249       -1846.394          31.000    29920599.951   120477841.735       -1415.545          33.000  
G21  25568851.424   134365226.085        2010.829          45.000                                                                  
S31  40804730.245   214430395.616        -614.072          44.000  
S33  41759164.227   219446022.687        -613.742          42.000  
G10  22466890.514   118064432.938       -2252.363          50.000    22466886.735    91998192.571       -1755.109          48.000  
E33  26687340.754   140243028.341         255.233          46.000    26687338.869   107458925.106         195.624          51.000  
R01  23728201.095   126840793.103        3468.854          49.000    23728197.311    98653961.787        2698.189          43.000  
R23  22351316.713   119564523.010        -374.533          50.000                                                                  
R24  24146687.122   129123261.086        1751.382          44.000    24146682.213   100429162.837        1362.078          43.000  
G32  24670126.292   129642410.892        1855.084          47.000    24670123.336   101020088.961        1445.591          43.000  
E21  29710619.446                       -3638.842          28.000    29710613.712                       -2788.722          29.000  
E13  29441206.668   154714554.935       -2330.147          37.000    29441208.409   118547946.050       -1785.046          40.000  
E31  27603931.323   145059573.703        -172.888          46.000    27603932.641   111149627.203        -132.618          49.000  
E07  27743170.057   145791366.528         413.102          46.000    27743170.952   111710281.955         316.493          50.000  
E26  26034507.497   136812523.761       -1288.947          48.000    26034506.473   104830523.714        -987.668          52.000  
E14  28268999.731   148554661.935       -1323.794          46.000    28268999.134   113827625.343       -1014.395          53.000  
G26                                                                  26202242.340                3      -3155.320          25.000  
> 2024 04 17 08 49 30.0070000  0 26                     
G08  23536316.545   123684211.960        1933.562          46.000    23536314.192    96377326.187        1506.698          45.000  
G16  23925513.305   125729467.196       -3175.703          46.000                                                                  
G27  22264039.464   116998306.087          15.389          49.000    22264036.567    91167562.379          11.922          47.000  
G23  25043595.352   131605120.312       -3848.598          46.000    25043590.685   102549410.448       -2998.840          47.000  
R08  21852526.347   117019299.695         -38.193          51.000    21852519.555    91015047.306         -29.688          50.000  
R22  24332420.252   129888246.392       -2588.985          44.000    24332416.334   101024017.928       -2013.873          43.000  
R14  24548675.875   130858321.652       -1180.500          50.000    24548674.997   101778614.547        -918.042          45.000  
R07  23992427.658   128433361.679       -3609.368          48.000    23992423.040    99892651.663       -2807.267          51.000  
R13  24916006.474   133050030.0281      -4013.579          32.000    24916006.088   103483323.975       -3122.299          35.000  
E08  29931170.733   157289344.193       -1858.349          32.000    29931175.621                3      -1423.304          30.000  
G21  25557370.792   134304894.187        2011.161          44.000                                                                  
S31  40808234.614   214448810.512        -613.458          44.000  
S33  41762665.945   219464423.929        -613.261          42.000  
G10  22479792.682   118132237.009       -2267.751          51.000    22479789.231    92051026.934       -1767.135          48.000  
E33  26685886.604   140235388.780         254.042          46.000    26685885.226   107453071.451         194.654          51.000  
R01  23708758.268   126736865.543        3459.629          48.000    23708755.193    98573129.321        2690.832          43.000  
R23  22353432.405   119575836.619        -379.862          51.000                                                                  
R24  24136857.941   129070709.650        1752.109          45.000    24136854.122   100388289.499        1362.644          43.000  
G32  24659566.589   129586918.980        1844.346          46.000    24659563.473   100976848.533        1437.420          43.000  
E13  29454505.601   154784432.567       -2328.746          37.000    29454505.398   118601488.627       -1784.416          39.000  
E31  27604957.353   145064964.939        -186.410          46.000    27604958.938   111153758.151        -142.741          49.000  
E07  27740844.858   145779150.692         401.405          46.000    27740846.378   111700921.806         307.665          50.000  
E26  26041869.170   136851206.424       -1289.805          48.000    26041867.304   104860163.681        -988.292          52.000  
E14  28276543.981   148594305.613       -1318.840          46.000    28276542.975   113858001.678       -1010.564          53.000  
E21                                                                  29731387.021                       -2787.196          28.000  
G26                                                                  26225348.902                3      -3157.955          23.000  
> 2024 04 17 08 50 00.0070000  0 26                     
G08  23525301.346   123626325.852        1925.419          47.000    23525298.992    96332220.166        1500.154          46.000  
G16  23943676.804   125824917.111       -3187.623          47.000                                                                  
G27  22263993.435   116998065.793           0.715          49.000    22263990.769    91167375.156           0.534          48.000  
G23  25065579.565   131720649.285       -3853.329          47.000    25065575.327   102639433.022       -3002.398          47.000  
R08  21852816.924   117020856.146         -65.595          51.000    21852810.071    91016257.902         -50.922          50.000  
R22  24346981.822   129965987.993       -2593.943          42.000    24346979.379   101084483.572       -2017.397          44.000  
R14  24555382.299   130894071.356       -1202.873          50.000    24555382.082   101806419.855        -935.577          46.000  
R07  24012706.520   128541920.832       -3627.801          48.000    24012701.764    99977086.533       -2821.749          50.000  
R13  24938575.233                       -4020.599          32.000    24938572.014   103577052.394       -3125.933          35.000  
E08  29941821.576   157345275.900       -1869.887          32.000    29941820.656   120563296.3521      -1432.917          32.000  
G21  25545888.937   134244555.813        2011.283          45.000                                                                  
S31  40811735.649   214467208.201        -612.970          44.000  
S33  41766164.217   219482808.138        -612.370          42.000  
G10  22492783.736   118200504.123       -2283.315          51.000    22492780.187    92104222.076       -1779.065          48.000  
E33  26684438.576   140227787.082         252.754          45.000    26684438.643   107447246.803         193.771          51.000  
R01  23689368.872   126633219.652        3450.093          48.000    23689366.239    98492515.918        2683.347          43.000  
R23  22355578.219   119587314.762        -385.405          51.000                                                                  
R24  24127026.955   129018139.200        1752.775          46.000    24127023.337   100347401.404        1363.139          44.000  
G32  24649068.003   129531750.791        1833.406          47.000    24649065.389   100933860.370        1428.797          43.000  
E13  29467795.076   154854274.166       -2327.324          35.000    29467794.405   118655003.614       -1783.183          38.000  
E31  27606059.918   145070759.617        -199.856          46.000    27606061.777   111158198.243        -153.050          49.000  
E07  27738587.005   145767282.293         389.859          47.000    27738587.886   111691827.873         298.802          50.000  
E26  26049235.547   136889914.586       -1290.731          48.000    26049233.303   104889823.202        -988.947          52.000  
E14  28284058.487   148633795.983       -1313.644          46.000    28284057.757   113888260.551       -1006.617          52.000  
E21                                                                  29752147.794                       -2785.920          27.000  
G26                                                                  26248452.876                3      -3152.454          22.000  
> 2024 04 17 08 50 30.0070000  0 26                     
G08  23514334.375   123568693.847        1916.869          48.000    23514332.263    96287312.148        1493.521          46.000  
G16  23961907.457   125920724.571       -3199.528          46.000                                                                  
G27  22264032.086   116998266.159         -14.138          50.000    22264028.814    91167531.276         -11.058          48.000  
G23  25087590.245   131836313.632       -3857.614          47.000    25087585.500   102729561.108       -3006.058          47.000  
R08  21853261.427   117023233.973         -93.023          51.000    21853254.587    91018107.350         -72.294          51.000  
R22  24361574.025   130043880.294       -2599.070          40.000    24361571.217   101145066.457       -2021.425          42.000  
R14  24562214.984   130930494.559       -1225.360          51.000    24562216.472   101834748.968        -953.110          47.000  
R07  24033091.272   128651033.852       -3646.314          49.000    24033085.523   100061952.195       -2836.048          51.000  
R13  24961175.397   133291214.484       -4025.315          35.000    24961170.899   103670911.839       -3130.730          35.000  
E08  29952531.109                       -1882.197          30.000    29952530.426   120606422.574       -1441.850          32.000  
G21  25534406.572   134184213.440        2011.450          45.000                                                                  
S31  40815233.668   214485591.156        -612.380          44.000  
S33  41769659.593   219501178.445        -612.114          42.000  
G10  22505861.844   118269233.710       -2298.658          50.000    22505858.819    92157777.621       -1791.280          48.000  
E33  26682999.083   140220224.765         251.467          45.000    26682999.524   107441452.327         192.712          51.000  
R01  23670033.911   126529861.259        3440.272          48.000    23670031.037    98412126.093        2675.885          43.000  
R23  22357754.909   119598960.512        -391.030          50.000                                                                  
R24  24117192.412   128965552.114        1753.263          46.000    24117189.001   100306500.418        1363.482          44.000  
G32  24638633.329   129476911.473        1822.441          47.000    24638630.881   100891128.459        1420.154          44.000  
E13  29481080.239   154924082.024       -2326.342          35.000    29481079.747   118708492.746       -1782.297          40.000  
E31  27607239.566   145076959.859        -213.356          46.000    27607241.581   111162949.102        -163.447          49.000  
E07  27736395.060   145755764.422         378.192          46.000    27736396.006   111683002.538         289.725          50.000  
E26  26056606.767   136928650.042       -1291.699          48.000    26056604.327   104919503.638        -989.723          52.000  
E14  28291544.420   148673135.359       -1308.748          45.000    28291543.655   113918403.717       -1002.771          52.000  
E21                                                                  29772896.370                       -2784.004          25.000  
G26                                                                  26271561.781                3      -3153.031          19.000  
> 2024 04 17 08 51 00.0070000  0 26                     
G08  23503419.060   123511331.409        1907.288          48.000    23503416.760    96242614.177        1486.268          46.000  
G16  23980209.163   126016899.171       -3212.144          46.000                                                                  
G27  22264156.358   116998921.773         -29.672          49.000    22264153.749    91168042.178         -23.198          48.000  
G23  25109628.241   131952123.857       -3862.953          47.000    25109623.128   102819802.823       -3010.060          46.000  
R08  21853861.413   117026447.169        -121.315          51.000    21853855.331    91020606.521         -94.363          51.000  
R22  24376196.597   130121937.248       -2604.741          40.000    24376194.213   101205777.425       -2025.977          42.000  
R14  24569175.969   130967602.593       -1248.512          51.000    24569177.630   101863610.703        -971.019          46.000  
R07  24053580.462   128760710.117       -3665.331          48.000    24053573.549   100147255.933       -2850.827          50.000  
R13  24983806.480   133412068.201       -4031.814          33.000    24983801.509   103764909.190       -3135.110          34.000  
E08  29963309.536                       -1894.239          31.000    29963309.578   120649827.546       -1451.766          33.000  
G21  25522925.192   134123879.555        2011.136          45.000                                                                  
S31  40818731.757   214503973.148        -612.664          44.000  
S33  41773155.417   219519546.293        -612.553          42.000  
G10  22519030.543   118338436.330       -2314.690          50.000    22519026.922    92211701.736       -1803.594          47.000  
E33  26681569.556   140212714.402         249.129          45.000    26681570.463   107435697.643         190.996          51.000  
R01  23650755.677   126426807.677        3429.790          49.000    23650752.747    98331973.352        2667.640          43.000  
R23  22359965.554   119610788.211        -397.573          49.000                                                                  
R24  24107358.005   128912962.206        1752.715          47.000    24107355.445   100265597.234        1363.411          46.000  
G32  24628261.842   129422417.059        1810.363          46.000    24628260.187   100848665.334        1410.643          43.000  
E13  29494359.202   154993869.253       -2325.409          34.000    29494358.872   118761966.155       -1782.343          39.000  
E31  27608499.227   145083578.841        -227.892          46.000    27608500.926   111168020.805        -174.490          49.000  
E07  27734272.940   145744611.240         365.474          46.000    27734273.163   111674456.609         280.165          50.000  
E26  26063985.235   136967425.629       -1293.314          49.000    26063983.372   104949214.830        -991.042          52.000  
E14  28299004.068   148712337.057       -1304.709          45.000    28299003.382   113948441.388        -999.625          52.000  
E21                                                                  29793634.466                3      -2782.095          22.000  
G26                                                                  26294654.148                3      -3153.891          18.000  
> 2024 04 17 08 51 30.0070000  0 25                     
G08  23492555.972   123454248.404        1898.136          47.000    23492554.399    96198133.957        1479.105          46.000  
G16  23998581.862   126113445.331       -3224.472          47.000                                                                  
G27  22264369.652   117000041.712         -45.148          49.000    22264366.947    91168914.868         -35.175          48.000  
G23  25131694.631   132068084.756       -3867.958          45.000    25131690.464   102910161.946       -3013.870          47.000  
R08  21854618.702   117030504.006        -149.315          51.000    21854612.880    91023761.851        -116.173          50.000  
R22  24390851.911   130200166.958       -2610.879          42.000    24390848.366   101266622.775       -2030.450          41.000  
R14  24576267.198   131005401.267       -1271.498          51.000    24576268.075   101893009.628        -988.831          47.000  
R07  24074173.078   128870953.141       -3684.271          48.000    24074168.365   100233000.468       -2865.473          50.000  
R13  25006472.194   133533102.054       -4037.219          35.000    25006466.345   103859046.634       -3140.055          35.000  
E08  29974159.187   157515223.686       -1907.133          31.000    29974159.726   120693516.209       -1461.095          35.000  
G21  25511446.747   134063561.779        2010.211          45.000                                                                  
S31  40822230.563   214522360.159        -612.968          44.000  
S33  41776652.098   219537921.167        -612.648          42.000  
G10  22532290.541   118408116.841       -2330.744          50.000    22532286.657    92265998.225       -1815.990          47.000  
E33  26680152.956   140205262.918         247.401          45.000    26680152.667   107429988.070         189.555          51.000  
R01  23631536.120   126324070.868        3419.104          46.000    23631533.806    98252066.967        2659.224          43.000  
R23  22362212.851   119622806.581        -403.819          50.000                                                                  
R24  24097526.445   128860377.730        1752.637          48.000    24097522.128   100224698.271        1363.104          46.000  
G32  24617960.019   129368278.135        1798.544          47.000    24617957.484   100806479.177        1401.676          43.000  
E13  29507636.110   155063643.780       -2325.760          32.000    29507636.457   118815429.761       -1781.976          39.000  
E31  27609840.158   145090624.149        -242.081          46.000    27609841.643   111173419.162        -185.364          49.000  
E07  27732221.207   145733831.241         353.009          46.000    27732221.983   111666196.632         270.526          50.000  
E26  26071373.088   137006248.633       -1294.981          49.000    26071371.186   104978962.331        -992.260          52.000  
E14  28306439.031   148751408.782       -1300.214          45.000    28306438.360   113978379.484        -996.246          52.000  
E21                                                                  29814366.550                3      -2779.457          25.000  
> 2024 04 17 08 52 00.0070000  0 25                     
G08  23481747.600   123397451.904        1888.215          48.000    23481746.319    96153876.970        1471.418          46.000  
G16  24017024.912   126210364.694       -3236.871          46.000                                                                  
G27  22264671.923   117001632.122         -60.958          49.000    22264669.694    91170154.160         -47.468          48.000  
G23  25153790.710   132184198.348       -3873.016          44.000    25153786.086   103000640.092       -3017.871          47.000  
R08  21855534.829   117035410.322        -177.665          51.000    21855528.311    91027577.895        -138.175          49.000  
R22  24405539.359   130278574.586       -2616.282          42.000    24405536.082   101327606.556       -2035.172          43.000  
R14  24583489.094   131043893.284       -1294.678          51.000    24583489.055   101922947.850       -1006.919          48.000  
R07  24094873.940   128981764.122       -3703.211          50.000    24094868.669   100319186.766       -2880.323          48.000  
R13  25029172.234   133654315.821       -4043.491          36.000    25029166.468   103953324.006       -3144.701          36.000  
E08  29985080.487                       -1919.395          28.000    29985079.361                       -1470.782          30.000  
G21  25499972.781   134003265.061        2009.595          45.000                                                                  
S31  40825731.306   214540757.930        -613.665          44.000  
S33  41780150.199   219556304.067        -612.977          42.000  
G10  22545642.008   118478277.324       -2346.693          50.000    22545637.942    92320668.729       -1828.571          47.000  
E33  26678747.665   140197874.445         245.082          46.000    26678746.608   107424326.783         187.880          51.000  
R01  23612376.944   126221659.486        3408.197          46.000    23612375.702    98172413.761        2650.739          43.000  
R23  22364495.745   119635021.939        -410.493          50.000                                                                  
R24  24087693.086   128807803.790        1752.161          47.000    24087689.931   100183807.424        1362.774          45.000  
G32  24607727.139   129314502.336        1786.489          47.000    24607722.940   100764575.983        1392.207          42.000  
E13  29520915.305   155133410.359       -2325.430          34.000    29520913.590   118868887.276       -1781.935          41.000  
E31  27611262.697   145098100.420        -256.367          46.000    27611264.429   111179147.758        -196.431          49.000  
E07  27730241.669   145723430.114         340.346          46.000    27730243.351   111658226.980         260.716          51.000  
E26  26078770.940   137045123.472       -1296.800          48.000    26078768.909   105008749.556        -993.638          53.000  
E14  28313850.425   148790355.477       -1296.190          45.000    28313849.716   114008221.781        -993.226          52.000  
E21                                                                  29835082.297                3      -2781.077          22.000  
> 2024 04 17 08 52 30.0070000  0 25                     
G08  23470993.459   123340938.585        1879.387          48.000    23470991.625    96109840.643        1464.297          46.000  
G16  24035537.316   126307648.298       -3248.443          45.000                                                                  
G27  22265063.301   117003688.847         -76.050          49.000    22265060.722    91171756.815         -59.428          48.000  
G23  25175913.724   132300456.462       -3877.512          45.000    25175909.432   103091230.803       -3021.362          47.000  
R08  21856608.901   117041160.351        -205.408          51.000    21856601.032    91032050.149        -159.913          49.000  
R22  24420258.878   130357154.974       -2621.969          41.000    24420258.126   101388724.564       -2039.319          44.000  
R14  24590839.243   131083070.549       -1317.056          51.000    24590837.820   101953419.026       -1024.313          47.000  
R07  24115678.756   129093132.943       -3721.382          49.000    24115673.657   100405806.876       -2894.307          49.000  
R13  25051903.434   133775699.432       -4049.029          34.000    25051898.840   104047733.506       -3149.147          37.000  
E08  29996073.364                       -1931.074          28.000    29996072.502   120781747.560       -1479.419          33.000  
G21  25488501.673   133942983.419        2009.399          45.000                                                                  
S31  40829233.468   214559159.911        -613.125          44.000  
S33  41783649.434   219574692.718        -612.801          42.000  
G10  22559082.221   118548909.439       -2361.964          49.000    22559079.052    92375706.782       -1840.460          47.000  
E33  26677353.053   140190542.734         243.630          47.000    26677351.274   107418709.013         186.668          51.000  
R01  23593279.569   126119572.136        3397.733          47.000    23593278.060    98093012.524        2642.512          43.000  
R23  22366814.822   119647429.102        -416.610          49.000                                                                  
R24  24077861.151   128755235.046        1752.512          46.000    24077859.329   100142920.678        1362.935          45.000  
G32  24597562.400   129261087.000        1774.611          47.000    24597558.468   100722953.693        1382.728          41.000  
E13  29534187.439   155203163.497       -2324.510          36.000    29534186.621   118922334.475       -1781.185          40.000  
E31  27612765.815   145106002.076        -270.234          46.000    27612767.900   111185202.270        -207.055          49.000  
E07  27728334.542   145713403.210         328.246          46.000    27728335.615   111650544.052         251.507          51.000  
E26  26086176.504   137084044.241       -1297.918          48.000    26086175.006   105038571.975        -994.521          52.000  
E14  28321236.891   148829171.726       -1291.477          45.000    28321236.036   114037964.107        -989.565          52.000  
E21                                                                  29855793.989                3      -2782.426          21.000  
> 2024 04 17 08 53 00.0070000  0 25                     
G08  23460290.819   123284696.135        1870.105          48.000    23460288.855    96066015.381        1457.271          46.000  
G16  24054115.897   126405278.270       -3260.048          45.000                                                                  
G27  22265541.119   117006198.633         -91.288          49.000    22265538.464    91173712.505         -71.073          48.000  
G23  25198060.173   132416841.681       -3881.669          44.000    25198056.043   103181920.581       -3024.576          46.000  
R08  21857837.039   117047739.566        -233.175          51.000    21857830.080    91037167.331        -181.416          50.000  
R22  24435011.011   130435893.699       -2627.206          44.000    24435007.389   101449965.774       -2043.437          42.000  
R14  24598314.012   131122916.405       -1339.420          51.000    24598313.587   101984410.186       -1041.962          48.000  
R07  24136583.838   129205040.598       -3739.343          50.000    24136578.605   100492846.170       -2908.349          48.000  
R13  25074663.481   133897233.259       -4053.876          34.000    25074658.832   104142259.764       -3153.037          38.000  
E08  30007135.576                       -1943.120          27.000    30007129.009                       -1488.948          31.000  
G21  25477030.812   133882702.150        2009.242          46.000                                                                  
S31  40832732.972   214577551.461        -613.097          44.000  
S33  41787146.642   219593070.957        -612.671          42.000  
G10  22572609.325   118619995.911       -2377.123          50.000    22572606.725    92431098.863       -1852.282          47.000  
E33  26675965.318   140183252.572         242.073          47.000    26675963.910   107413123.075         185.570          51.000  
R01  23574241.342   126017797.456        3387.018          48.000    23574238.197    98013854.484        2634.319          43.000  
R23  22369168.036   119660014.278        -422.469          49.000                                                                  
R24  24068028.123   128702656.931        1752.663          45.000    24068025.934   100102026.617        1363.129          44.000  
G32  24587464.428   129208020.337        1762.998          47.000    24587460.390   100681603.072        1373.688          41.000  
E13  29547453.676   155272888.697       -2323.970          35.000    29547455.244   118975760.297       -1780.237          40.000  
E31  27614347.013   145114314.391        -284.085          45.000    27614349.686   111191571.438        -217.582          49.000  
E07  27726494.060   145703736.758         315.958          45.000    27726495.846   111643137.331         242.157          51.000  
E26  26093588.895   137122996.000       -1299.036          48.000    26093587.158   105068418.136        -995.438          53.000  
E14  28328595.705   148867843.036       -1286.843          45.000    28328594.758   114067595.381        -986.028          52.000  
E21                                                                  29876497.448                3      -2778.963          23.000  
> 2024 04 17 08 53 30.0070000  0 25                     
G08  23449639.966   123228725.884        1861.178          47.000    23449638.149    96022402.239        1450.355          45.000  
G16  24072759.736   126503250.500       -3271.435          45.000                                                                  
G27  22266104.966   117009161.919        -106.244          49.000    22266102.396    91176021.579         -82.787          48.000  
G23  25220230.985   132533350.398       -3885.503          44.000    25220227.884   103272706.565       -3027.616          48.000  
R08  21859220.455   117055148.054        -260.639          51.000    21859214.053    91042929.531        -202.826          50.000  
R22  24449793.436   130514790.132       -2632.432          45.000    24449787.474   101511329.716       -2047.491          44.000  
R14  24605913.623   131163427.444       -1361.294          50.000    24605913.680   102015918.727       -1058.765          47.000  
R07  24157588.230   129317481.682       -3756.822          49.000    24157584.238   100580300.306       -2921.986          47.000  
R13  25097449.583   134018911.280       -4058.512          32.000    25097445.830   104236898.277       -3156.402          38.000  
E08  30018256.953   157746941.054       -1954.344          29.000    30018253.751   120871065.918       -1497.774          32.000  
G21  25465558.866   133822421.217        2009.504          45.000                                                                  
S31  40836230.365   214595931.485        -612.405          44.000  
S33  41790641.407   219611437.397        -611.915          42.000  
G10  22586222.653   118691532.998       -2392.055          50.000    22586219.634    92486842.055       -1863.849          47.000  
E33  26674585.579   140176002.370         240.938          47.000    26674584.149   107407567.744         184.703          51.000  
R01  23555261.760   125916338.700        3376.732          48.000    23555258.008    97934942.163        2626.686          43.000  
R23  22371554.117   119672777.944        -428.456          49.000                                                                  
R24  24058194.784   128650069.064        1753.165          47.000    24058191.687   100061125.005        1363.517          45.000  
G32  24577433.275   129155304.355        1751.344          48.000    24577428.737   100640525.711        1364.490          41.000  
E13  29560719.108   155342585.083       -2322.639          37.000    29560717.882   119029164.050       -1779.869          39.000  
E31  27616007.393   145123036.299        -297.509          46.000    27616009.312   111198254.462        -227.980          49.000  
E07  27724724.332   145694430.725         304.373          46.000    27724724.873   111636006.747         233.137          51.000  
E26  26101006.219   137161977.491       -1299.816          48.000    26101005.244   105098287.065        -995.932          53.000  
E14  28335926.634   148906368.565       -1281.620          45.000    28335925.863   114097114.969        -982.122          52.000  
E21                                                                  29897181.151                3      -2780.163          19.000  
> 2024 04 17 08 54 00.0070000  0 25                     
G08  23439039.443   123173021.067        1851.970          47.000    23439037.487    95978995.934        1442.926          45.000  
G16  24091466.118   126601553.000       -3282.811          46.000                                                                  
G27  22266753.733   117012571.015        -121.472          48.000    22266750.845    91178678.039         -94.660          47.000  
G23  25242424.218   132649970.860       -3889.725          44.000    25242418.661   103363579.672       -3030.859          47.000  
R08  21860756.937   117063375.777        -288.352          51.000    21860750.102    91049328.864        -224.208          50.000  
R22  24464599.737   130593835.458       -2637.831          42.000    24464596.181   101572809.402       -2051.627          44.000  
R14  24613635.548   131204592.280       -1383.677          49.000    24613635.526   102047935.808       -1076.102          48.000  
R07  24178690.220   129430443.698       -3774.507          50.000    24178686.661   100668159.658       -2935.627          47.000  
R13  25120257.969   134140719.844       -4063.456          29.000    25120256.492   104331638.348       -3159.979          38.000  
E08  30029447.657   157805738.560       -1966.174          31.000    30029442.291                       -1506.973          30.000  
G21  25454085.242   133762131.318        2009.337          44.000                                                                  
S31  40839723.855   214614290.008        -611.978          44.000  
S33  41794132.348   219629782.735        -611.640          42.000  
G10  22599919.985   118763508.927       -2406.750          51.000    22599916.253    92542927.223       -1875.551          47.000  
E33  26673211.759   140168782.448         239.629          47.000    26673210.079   107402035.623         183.627          51.000  
R01  23536339.553   125815190.819        3365.943          48.000    23536336.863    97856271.675        2617.870          43.000  
R23  22373972.387   119685711.770        -434.406          49.000                                                                  
R24  24048359.185   128597462.641        1753.406          49.000    24048354.731   100020208.952        1363.704          46.000  
G32  24567466.732   129102932.848        1739.593          48.000    24567462.380   100599716.778        1355.376          41.000  
E13  29573976.028   155412243.789       -2322.186          35.000    29573973.500   119082538.858       -1778.819          39.000  
E31  27617744.308   145132158.659        -311.267          47.000    27617744.978   111205244.341        -238.452          49.000  
E07  27723020.988   145685476.937         292.164          46.000    27723020.834   111629146.052         223.890          51.000  
E26  26108428.201   137200979.343       -1300.935          47.000    26108427.178   105128171.604        -996.827          53.000  
E14  28343227.939   148944739.504       -1276.954          45.000    28343227.623   114126516.084        -978.360          52.000  
E21                                                                  29917844.201                3      -2772.765          18.000  
> 2024 04 17 08 54 30.0070000  0 25                     
G08  23428490.855   123117588.183        1842.935          47.000    23428488.669    95935801.499        1436.119          45.000  
G16  24110234.846   126700186.463       -3293.493          46.000                                                                  
G27  22267488.127   117016431.445        -136.337          48.000    22267485.492    91181686.195        -106.358          47.000  
G23  25264639.056   132766704.608       -3893.028          45.000    25264632.931   103454541.026       -3033.707          47.000  
R08  21862448.179   117072428.140        -315.701          51.000    21862440.645    91056369.615        -245.558          50.000  
R22  24479433.749   130673034.471       -2642.873          38.000    24479431.736   101634408.574       -2055.400          44.000  
R14  24621480.862   131246413.090       -1405.159          50.000    24621481.781   102080463.051       -1092.800          48.000  
R07  24199890.307   129543925.880       -3791.502          51.000    24199885.828   100756423.580       -2949.036          45.000  
R13  25143090.911                       -4066.897          29.000    25143092.094   104426479.400       -3163.123          38.000  
E08  30040700.891   157864877.910       -1977.158          29.000    30040696.021                       -1514.994          31.000  
G21  25442611.443   133701836.336        2009.857          44.000                                                                  
S31  40843214.601   214632631.923        -611.296          44.000  
S33  41797620.136   219648111.118        -610.758          43.000  
G10  22613699.856   118835925.146       -2421.327          50.000    22613696.298    92599355.448       -1886.750          48.000  
E33  26671844.038   140161596.359         238.899          47.000    26671842.459   107396529.426         182.979          51.000  
R01  23517478.099   125714361.881        3355.352          49.000    23517474.682    97777849.204        2609.805          44.000  
R23  22376422.961   119698821.177        -440.053          51.000                                                                  
R24  24038518.894   128544842.391        1754.114          49.000    24038514.591    99979282.100        1364.357          47.000  
G32  24557567.669   129050912.888        1727.974          47.000    24557563.471   100559181.734        1346.550          41.000  
E13  29587225.711   155481869.077       -2320.373          33.000    29587223.311   119135888.042       -1778.189          39.000  
E31  27619556.646   145141685.547        -324.389          46.000    27619557.863   111212544.189        -248.598          48.000  
E07  27721383.609   145676880.372         280.482          46.000    27721384.997   111622559.113         214.934          51.000  
E26  26115855.100   137240005.436       -1301.420          48.000    26115853.588   105158074.720        -997.179          53.000  
E14  28350501.819   148982960.096       -1271.717          45.000    28350501.058   114155802.021        -974.420          52.000  
E21                                                                  29938504.606                3      -2773.601          23.000  
> 2024 04 17 08 55 00.0070000  0 25                     
G08  23417992.279   123062418.046        1834.437          47.000    23417990.209    95892811.813        1429.539          45.000  
G16  24129064.763   126799136.067       -3303.788          46.000                                                                  
G27  22268307.011   117020733.129        -151.035          49.000    22268304.219    91185038.175        -117.677          48.000  
G23  25286871.192   132883537.513       -3896.397          43.000    25286864.968   103545579.624       -3035.980          46.000  
R08  21864290.472   117082293.647        -342.676          51.000    21864282.771    91064042.776        -266.501          50.000  
R22  24494298.282   130752375.757       -2647.118          40.000    24494294.800   101696118.554       -2058.877          44.000  
R14  24629446.976   131288875.930       -1426.328          50.000    24629446.899   102113489.677       -1109.341          47.000  
R07  24221184.379   129657912.900       -3808.260          52.000    24221178.689   100845080.161       -2961.947          45.000  
R13  25165944.805   134384710.524       -4070.441          28.000    25165948.400   104521409.044       -3165.830          38.000  
E08  30052018.991                       -1987.791          27.000    30052013.693   121006999.901       -1524.195          33.000  
G21  25431135.175   133641524.714        2010.542          44.000                                                                  
S31  40846699.486   214650945.272        -610.194          44.000  
S33  41801102.311   219666410.745        -609.667          43.000  
G10  22627561.143   118908767.408       -2435.230          50.000    22627557.912    92656115.693       -1897.737          47.000  
E33  26670480.208   140154432.095         238.287          47.000    26670479.165   107391039.941         182.495          51.000  
R01  23498673.018   125613844.153        3345.017          48.000    23498670.158    97699668.804        2601.766          43.000  
R23  22378904.929   119712095.548        -445.442          51.000                                                                  
R24  24028673.693   128492197.064        1754.878          49.000    24028670.175    99938335.780        1365.000          47.000  
G32  24547733.712   128999235.858        1716.547          48.000    24547730.451   100518913.960        1337.430          42.000  
E13  29600468.101   155551449.515       -2319.072          35.000    29600462.361   119189202.944       -1776.778          36.000  
E31  27621443.557   145151605.370        -337.372          46.000    27621445.899   111220145.116        -258.651          49.000  
E07  27719814.274   145668630.546         268.897          46.000    27719815.227   111616237.830         206.119          51.000  
E26  26123283.847   137279044.049       -1301.788          47.000    26123282.211   105187987.429        -997.452          53.000  
E14  28357744.160   149021019.101       -1266.339          46.000    28357743.411   114184964.126        -970.234          52.000  
E21                                                                  29959138.951                3      -2763.472          21.000  
> 2024 04 17 08 55 30.0070000  0 25                     
G08  23407546.086   123007524.817        1824.923          47.000    23407544.368    95850037.907        1421.929          45.000  
G16  24147956.058   126898409.550       -3314.886          47.000                                                                  
G27  22269212.461   117025489.213        -166.422          49.000    22269209.098    91188744.212        -129.615          47.000  
G23  25309124.266   133000478.716       -3900.011          42.000    25309118.383   103636702.648       -3039.052          46.000  
R08  21866286.405   117092983.633        -370.437          51.000    21866280.144    91072357.206        -288.182          50.000  
R22  24509190.715   130831871.871       -2652.886          38.000    24509187.662   101757948.870       -2063.153          45.000  
R14  24637534.372   131331990.162       -1448.353          49.000    24637534.641   102147022.912       -1126.488          47.000  
R07  24242572.819   129772412.640       -3825.519          52.000    24242568.622   100934135.544       -2975.428          44.000  
R13  25188824.713                       -4074.521          29.000    25188826.771   104616432.641       -3169.108          37.000  
E08  30063394.726   157984154.548       -1999.625          28.000    30063394.262   121052826.881       -1532.269          32.000  
G21  25419658.190   133581208.494        2010.257          46.000                                                                  
S31  40850180.953   214669241.228        -609.878          44.000  
S33  41804581.406   219684693.052        -609.467          43.000  
G10  22641504.918   118982044.790       -2450.167          50.000    22641501.945    92713214.976       -1909.206          47.000  
E33  26669122.957   140147300.795         236.935          47.000    26669122.319   107385575.725         181.461          51.000  
R01  23479929.545   125513653.859        3333.844          47.000    23479927.126    97621743.036        2592.941          43.000  
R23  22381418.486   119725547.549        -451.705          50.000                                                                  
R24  24018825.108   128439539.287        1755.108          48.000    24018822.698    99897379.773        1365.185          47.000  
G32  24537967.827   128947916.403        1704.370          48.000    24537964.987   100478924.795        1328.126          43.000  
E13  29613700.543   155620997.075       -2318.068          36.000    29613697.586   119242492.686       -1776.248          38.000  
E31  27623409.440   145161929.803        -351.258          46.000    27623410.771   111228056.029        -269.073          49.000  
E07  27718312.966   145660740.038         256.580          46.000    27718313.697   111610191.877         196.671          51.000  
E26  26130716.561   137318106.689       -1302.715          47.000    26130715.366   105217918.564        -998.279          52.000  
E14  28364958.269   149058928.493       -1261.553          46.000    28364957.387   114214011.593        -966.612          52.000  
E21                                                                  29979757.217                3      -2760.279          18.000  
> 2024 04 17 08 56 00.0070000  0 25                     
G08  23397156.564   122952927.683        1815.330          46.000    23397154.573    95807494.711        1414.276          45.000  
G16  24166911.604   126998022.068       -3325.824          46.000                                                                  
G27  22270207.578   117030717.875        -182.293          50.000    22270204.189    91192818.506        -141.979          47.000  
G23  25331400.497   133117542.494       -3904.129          42.000    25331394.866   103727921.162       -3042.178          46.000  
R08  21868439.810   117104516.682        -398.315          52.000    21868433.820    91081327.374        -309.937          50.000  
R22  24524114.826   130911540.271       -2658.681          37.000    24524112.334   101819913.217       -2067.598          46.000  
R14  24645747.133   131375770.713       -1470.312          49.000    24645748.009   102181074.411       -1143.637          46.000  
R07  24264061.220   129887437.770       -3842.778          52.000    24264057.074   101023599.550       -2988.770          44.000  
R13  25211729.688                       -4079.229          27.000    25211730.295   104711560.078       -3172.231          35.000  
E08  30074849.650                       -2011.518          27.000    30074843.560   121098926.229       -1541.154          34.000  
G21  25408182.809   133520904.665        2010.026          46.000                                                                  
S31  40853662.183   214687537.077        -609.770          44.000  
S33  41808060.299   219702974.728        -609.380          43.000  
G10  22655534.230   119055771.470       -2464.977          49.000    22655531.792    92770664.346       -1920.695          48.000  
E33  26667775.565   140140218.793         235.253          47.000    26667774.922   107380149.265         180.290          51.000  
R01  23461252.865   125413811.737        3322.329          47.000    23461251.064    97544088.099        2583.915          44.000  
R23  22383970.129   119739196.073        -458.182          50.000                                                                  
R24  24008979.123   128386886.595        1755.097          48.000    24008975.764    99856427.727        1365.053          46.000  
G32  24528274.363   128896974.328        1691.825          48.000    24528271.875   100439229.691        1318.373          44.000  
E13  29626928.065   155690528.776       -2318.261          32.000    29626928.933   119295770.212       -1775.468          38.000  
E31  27625453.462   145172675.581        -365.251          46.000    27625455.295   111236289.809        -279.792          49.000  
E07  27716882.939   145653226.543         244.210          46.000    27716883.756   111604434.832         187.147          51.000  
E26  26138157.737   137357210.014       -1304.111          47.000    26138156.338   105247880.848        -999.265          52.000  
E14  28372147.261   149096705.307       -1256.964          46.000    28372145.896   114242957.483        -963.151          52.000  
E21                                                                  30000360.783                3      -2764.489          15.000  
> 2024 04 17 08 56 30.0070000  0 25                     
G08  23386824.803   122898634.113        1804.536          46.000    23386822.932    95765188.053        1406.240          44.000  
G16  24185932.094   127097974.719       -3337.308          46.000                                                                  
G27  22271294.292   117036425.594        -198.414          50.000    22271290.229    91197266.100        -154.660          47.000  
G23  25353700.596   133234731.363       -3908.410          42.000    25353695.290   103819237.150       -3045.483          46.000  
R08  21870752.814   117116897.175        -426.851          52.000    21870746.045    91090956.666        -331.927          50.000  
R22  24539074.179   130991386.789       -2664.531          43.000    24539070.863   101882016.027       -2072.439          46.000  
R14  24654086.055   131420220.512       -1492.772          49.000    24654086.702   102215646.468       -1161.124          46.000  
R07  24285648.351   130002989.641       -3860.532          53.000    24285643.478   101113473.247       -3002.595          45.000  
R13  25234667.489                1      -4083.842          28.000    25234659.625   104806791.681       -3176.357          34.000  
E08  30086365.166                       -2023.393          27.000    30086359.917   121145300.918       -1550.761          31.000  
G21  25396709.961   133460618.227        2009.216          45.000                                                                  
S31  40857144.757   214705836.944        -610.095          44.000  
S33  41811539.961   219721260.699        -609.721          43.000  
G10  22669650.012   119129949.703       -2480.170          49.000    22669647.508    92828465.584       -1932.667          48.000  
E33  26666437.671   140133190.689         233.295          47.000    26666437.601   107374764.107         178.846          51.000  
R01  23442642.630   125314327.389        3310.087          47.000    23442641.260    97466711.451        2574.469          45.000  
R23  22386559.465   119753047.224        -465.149          50.000                                                                  
R24  23999133.896   128334244.864        1754.481          46.000    23999131.289    99815484.201        1364.686          45.000  
G32  24518653.235   128846417.644        1678.689          48.000    24518651.929   100399834.916        1308.123          44.000  
E13  29640157.102                       -2317.221          30.000    29640158.526   119349039.802       -1775.499          39.000  
E31  27627579.086   145183847.680        -379.565          46.000    27627580.919   111244850.245        -290.828          48.000  
E07  27715526.892   145646096.128         231.087          46.000    27715526.563   111598971.297         177.182          51.000  
E26  26145607.778   137396358.879       -1305.764          47.000    26145606.156   105277878.026       -1000.496          52.000  
E14  28379311.196   149134354.904       -1252.659          46.000    28379310.386   114271805.902        -959.938          52.000  
E21                                                                  30020956.369                3      -2769.127          20.000  
> 2024 04 17 08 57 00.0070000  0 25                     
G08  23376550.303   122844641.111        1794.717          47.000    23376548.368    95723115.607        1398.528          44.000  
G16  24205015.324   127198258.625       -3348.396          46.000                                                                  
G27  22272470.521   117042608.330        -214.171          50.000    22272466.994    91202083.826        -166.911          47.000  
G23  25376023.206   133352037.447       -3912.267          41.000    25376017.998   103910644.427       -3048.458          46.000  
R08  21873221.344   117130120.130        -454.880          51.000    21873215.332    91101241.228        -353.741          50.000  
R22  24554064.249   131071406.257       -2670.330          41.000    24554061.117   101944253.406       -2076.967          47.000  
R14  24662549.464   131465331.577       -1514.885          51.000    24662550.001   102250732.803       -1178.245          47.000  
R07  24307330.960   130119058.547       -3877.609          53.000    24307325.167   101203749.061       -3015.910          45.000  
R13  25257608.073                       -4087.670          28.000    25257612.113   104902119.556       -3179.254          34.000  
E08  30097942.524                1      -2034.580          27.000    30097945.295                       -1559.209          31.000  
G21  25385240.208   133400344.117        2008.854          45.000                                                                  
S31  40860626.776   214724135.733        -609.971          44.000  
S33  41815019.660   219739546.369        -609.606          43.000  
G10  22683850.737   119204571.463       -2494.808          50.000    22683847.708    92886612.438       -1944.106          48.000  
E33  26665109.929   140126210.516         231.719          47.000    26665109.264   107369415.683         177.595          51.000  
R01  23424098.471   125215199.356        3298.306          48.000    23424096.922    97389611.895        2565.464          45.000  
R23  22389186.969   119767096.564        -471.732          50.000                                                                  
R24  23989290.811   128281609.043        1754.395          48.000    23989287.619    99774545.269        1364.411          44.000  
G32  24509105.758   128796243.703        1666.029          48.000    24509103.859   100360738.369        1298.246          44.000  
E13  29653386.690   155829555.693       -2317.001          32.000    29653386.103   119402297.310       -1774.901          41.000  
E31  27629786.695   145195440.635        -393.430          47.000    27629786.531   111253733.156        -301.548          48.000  
E07  27714240.851   145639344.250         218.720          45.000    27714241.762   111593797.800         167.498          51.000  
E26  26153065.255   137435547.739       -1307.101          47.000    26153063.734   105307905.861       -1001.573          52.000  
E14  28386450.149   149171872.165       -1248.426          45.000    28386449.540   114300552.904        -956.719          52.000  
E21                                                                  30041539.205                3      -2767.805          15.000  
> 2024 04 17 08 57 30.0070000  0 24                     
G08  23366335.081   122790957.303        1784.087          47.000    23366332.554    95681284.071        1390.413          44.000  
G16  24224162.065   127298877.319       -3359.879          46.000                                                                  
G27  22273738.932   117049273.686        -230.400          50.000    22273734.937    91207277.600        -179.500          47.000  
G23  25398368.736   133469464.283       -3916.542          40.000    25398363.311   104002145.870       -3051.762          45.000  
R08  21875848.931   117144191.814        -483.330          52.000    21875842.968    91112185.890        -375.822          50.000  
R22  24569087.652   131151605.469       -2676.458          40.000    24569085.359   102006630.601       -2081.727          47.000  
R14  24671137.626   131511108.071       -1537.106          52.000    24671137.707   102286336.693       -1195.567          47.000  
R07  24329110.111   130235646.538       -3895.106          53.000    24329104.586   101294428.615       -3029.471          46.000  
R13  25280585.807                       -4091.414          28.000    25280589.145   104997545.161       -3182.198          34.000  
G21  25373774.188   133340089.043        2008.016          45.000                                                                  
S31  40864110.055   214742439.787        -610.583          44.000  
S33  41818499.950   219757837.067        -609.952          42.000  
G10  22698136.095   119279640.246       -2509.964          49.000    22698132.800    92945107.591       -1955.838          48.000  
E33  26663791.720   140119283.990         229.907          47.000    26663791.037   107364108.383         176.087          51.000  
R01  23405622.972   125116437.846        3285.720          48.000    23405620.966    97312797.431        2555.487          45.000  
R23  22391851.795   119781351.680        -478.800          49.000                                                                  
R24  23979451.463   128228986.281        1753.714          49.000    23979447.025    99733616.489        1363.890          45.000  
G32  24499633.130   128746461.834        1652.619          48.000    24499629.861   100321947.328        1287.881          43.000  
E13  29666614.140   155899052.013       -2316.582          32.000    29666610.876   119455547.730       -1774.881          42.000  
E31  27632074.210   145207460.518        -407.974          47.000    27632073.687   111262943.199        -312.555          48.000  
E07  27713028.518   145632977.969         205.532          44.000    27713030.573   111588919.752         157.618          51.000  
E26  26160531.535   137474782.562       -1308.677          47.000    26160529.954   105337968.920       -1002.816          52.000  
E14  28393566.251   149209263.508       -1244.433          46.000    28393565.013   114329203.419        -953.514          52.000  
E08                                                                  30109597.313                       -1568.420          26.000  
> 2024 04 17 08 58 00.0070000  0 24                     
G08  23356177.985   122737578.838        1774.136          48.000    23356175.249    95639690.492        1382.498          45.000  
G16  24243371.323   127399821.383       -3370.373          46.000                                                                  
G27  22275097.895   117056416.739        -246.093          50.000    22275093.796    91212843.619        -191.767          46.000  
G23  25420734.736   133587003.227       -3919.754          39.000    25420730.657   104093734.692       -3054.517          46.000  
R08  21878634.445   117159106.197        -511.226          52.000    21878627.508    91123785.981        -397.704          49.000  
R22  24584142.978   131231978.654       -2681.937          42.000    24584140.980   102069143.108       -2086.169          46.000  
R14  24679847.737   131557540.677       -1558.748          51.000    24679847.909   102322450.900       -1212.391          47.000  
R07  24350984.453   130352743.525       -3911.707          52.000    24350978.314   101385504.020       -3042.494          46.000  
R13  25303571.083                3      -4091.730          24.000    25303587.123   105093059.981       -3185.005          32.000  
G21  25362309.935   133279846.765        2007.701          44.000                                                                  
S31  40867592.637   214760742.040        -610.000          44.000  
S33  41821980.152   219776124.863        -609.679          43.000  
G10  22712504.091   119355147.077       -2524.176          50.000    22712501.582    93003944.098       -1966.938          49.000  
E33  26662482.937   140112404.427         228.424          48.000    26662481.599   107358837.056         175.095          51.000  
R01  23387215.673   125018040.648        3273.731          48.000    23387213.091    97236266.292        2546.190          44.000  
R23  22394552.826   119795807.789        -485.346          50.000                                                                  
R24  23969612.459   128176370.602        1753.633          49.000    23969607.781    99692693.246        1363.864          45.000  
G32  24490233.905   128697068.632        1639.911          49.000    24490231.247   100283459.171        1277.851          44.000  
E13  29679837.431                       -2316.026          28.000    29679831.292   119508786.465       -1774.277          40.000  
E31  27634441.235   145219900.942        -421.789          47.000    27634441.339   111272475.506        -323.100          48.000  
E07  27711889.348   145626991.945         192.982          44.000    27711891.252   111584333.094         147.975          51.000  
E26  26168004.954   137514057.029       -1309.848          47.000    26168003.524   105368062.362       -1003.761          53.000  
E14  28400656.144   149246522.955       -1239.950          46.000    28400655.381   114357752.890        -950.146          52.000  
E08                                                                  30121318.076                3      -1578.602          25.000  
> 2024 04 17 08 58 30.0070000  0 24                     
G08  23346078.090   122684504.752        1764.018          47.000    23346075.943    95598334.086        1374.761          45.000  
G16  24262641.573   127501083.522       -3380.771          47.000                                                                  
G27  22276547.208   117064035.472        -261.912          50.000    22276543.563    91218780.312        -203.938          47.000  
G23  25443120.195   133704648.449       -3923.255          38.000    25443117.891   104185406.239       -3056.970          46.000  
R08  21881576.431   117174859.777        -539.109          51.000    21881569.955    91136038.768        -419.290          50.000  
R22  24599233.268   131312522.808       -2687.691          44.000    24599229.034   102131788.572       -2090.353          46.000  
R14  24688681.537   131604624.207       -1580.313          51.000    24688681.366   102359071.388       -1229.117          49.000  
R07  24372953.076   130470341.434       -3928.173          52.000    24372946.729   101476969.019       -3055.190          48.000  
R13  25326588.762                3      -4100.462          19.000    25326604.041   105188657.527       -3187.588          32.000  
G21  25350848.045   133219613.580        2007.646          45.000                                                                  
S31  40871074.455   214779038.854        -609.888          44.000  
S33  41825459.411   219794408.284        -609.358          43.000  
G10  22726954.732   119431085.947       -2538.459          49.000    22726951.904    93063117.251       -1978.016          49.000  
E33  26661182.098   140105567.974         227.276          48.000    26661180.377   107353598.761         174.159          50.000  
R01  23368877.477   124920008.668        3261.541          49.000    23368874.105    97160019.249        2536.878          44.000  
R23  22397292.603   119810462.477        -491.794          49.000                                                                  
R24  23959773.726   128123759.553        1753.655          48.000    23959768.521    99651773.627        1363.731          45.000  
G32  24480907.827   128648063.672        1627.013          47.000    24480905.041   100245273.500        1267.816          44.000  
E13  29693056.860                1      -2314.707          27.000    29693049.887   119562011.087       -1773.953          41.000  
E31  27636887.834   145232758.445        -435.383          47.000    27636888.445   111282327.388        -333.545          49.000  
E07  27710822.156   145621383.679         180.673          44.000    27710823.861   111580035.888         138.416          51.000  
E26  26175485.360   137553367.581       -1310.827          47.000    26175484.216   105398183.444       -1004.418          53.000  
E14  28407719.793   149283647.425       -1235.114          45.000    28407719.918   114386198.938        -946.349          52.000  
E08                                                                  30133100.998                3      -1587.719          22.000  
> 2024 04 17 08 59 00.0070000  0 24                     
G08  23336034.655   122631726.924        1754.046          48.000    23336033.105    95557208.558        1366.885          46.000  
G16  24281968.557   127602650.523       -3390.836          46.000                                                                  
G27  22278085.323   117072120.701        -277.441          50.000    22278082.825    91225080.516        -216.099          47.000  
G23  25465526.199   133822386.845       -3926.223          40.000    25465523.064   104277150.421       -3059.405          46.000  
R08  21884673.651   117191441.551        -566.627          52.000    21884667.039    91148935.722        -440.693          50.000  
R22  24614349.279   131393227.755       -2692.845          42.000    24614348.170   102194559.060       -2094.531          46.000  
R14  24697632.618   131652345.231       -1601.372          50.000    24697633.888   102396187.671       -1245.605          49.000  
R07  24395011.585   130588425.744       -3944.324          51.000    24395005.881   101568812.376       -3067.875          48.000  
R13  25349635.519                       -4102.222          26.000    25349638.802   105284326.413       -3190.502          33.000  
G21  25339386.160   133159379.546        2007.642          45.000                                                                  
S31  40874553.287   214797320.927        -609.189          45.000  
S33  41828935.740   219812676.644        -608.829          43.000  
G10  22741484.384   119507443.556       -2552.362          48.000    22741482.358    93122616.687       -1988.800          49.000  
E33  26659887.495   140098763.602         226.055          48.000    26659885.482   107348385.043         173.247          51.000  
R01  23350605.460   124822334.602        3249.573          48.000    23350602.467    97084050.571        2527.619          44.000  
R23  22400067.532   119825306.108        -498.021          48.000                                                                  
R24  23949932.970   128071142.838        1753.911          46.000    23949928.454    99610849.577        1364.177          46.000  
G32  24471653.695   128599439.227        1614.163          46.000    24471650.675   100207384.312        1257.705          42.000  
E13  29706268.568                       -2314.444          29.000    29706262.078   119615213.730       -1773.225          40.000  
E31  27639412.241   145246022.373        -449.115          47.000    27639412.516   111292490.661        -344.038          49.000  
E07  27709825.698   145616143.444         168.359          45.000    27709826.769   111576020.694         129.016          51.000  
E26  26182970.670   137592703.538       -1311.779          47.000    26182969.365   105428324.011       -1005.098          53.000  
E14  28414756.617   149320626.694       -1230.252          45.000    28414756.824   114414533.717        -942.692          52.000  
E08                                                                  30144953.621                3      -1590.060          22.000  
> 2024 04 17 08 59 30.0070000  0 24                     
G08  23326049.923   122579259.902        1743.154          48.000    23326048.993    95516325.218        1358.264          45.000  
G16  24301355.212   127704531.179       -3401.579          45.000                                                                  
G27  22279714.819   117080685.849        -293.908          50.000    22279712.590    91231754.662        -229.153          47.000  
G23  25487951.320   133940227.972       -3930.022          41.000    25487948.124   104368974.701       -3062.575          47.000  
R08  21887925.998   117208863.994        -595.234          51.000    21887920.515    91162486.549        -462.982          49.000  
R22  24629501.726   131474106.208       -2699.383          45.000    24629498.293   102257464.586       -2099.572          46.000  
R14  24706706.001   131700713.545       -1623.496          50.000    24706707.697   102433807.388       -1262.806          48.000  
R07  24417163.183   130707004.586       -3961.284          50.000    24417158.038   101661040.346       -3081.064          49.000  
R13  25372683.255                3      -4105.333          25.000    25372693.376                       -3193.065          28.000  
G21  25327925.884   133099156.847        2006.586          45.000                                                                  
S31  40878031.520   214815598.949        -609.780          44.000  
S33  41832410.606   219830940.794        -609.059          43.000  
G10  22756096.466   119584229.279       -2567.122          49.000    22756094.114    93182449.716       -2000.398          49.000  
E33  26658600.842   140092002.980         224.261          48.000    26658599.130   107343204.853         171.786          51.000  
R01  23332401.821   124725035.044        3236.499          47.000    23332400.573    97008373.196        2517.123          44.000  
R23  22402880.886   119840352.248        -505.410          48.000                                                                  
R24  23940094.357   128018533.631        1752.864          48.000    23940090.833    99569931.379        1363.379          46.000  
G32  24462476.579   128551210.284        1600.434          48.000    24462473.865   100169803.360        1246.908          43.000  
E13  29719473.509                       -2314.073          29.000    29719471.840   119668403.862       -1773.334          40.000  
E31  27642015.149   145259704.620        -463.539          47.000    27642016.044   111302974.470        -355.089          49.000  
E07  27708902.135   145611284.304         155.083          45.000    27708902.279   111572297.465         118.955          51.000  
E26  26190462.416   137632076.889       -1313.458          46.000    26190462.087   105458493.222       -1006.484          53.000  
E14  28421768.733   149357473.091       -1226.601          46.000    28421768.486   114442766.695        -939.837          52.000  
E08                                                                  30156866.664                3      -1604.949          23.000  
