     3.00           OBSERVATION DATA    M: Mixed            RINEX VERSION / TYPE
CONVBIN 2.4.3                           20240417 125942 UTC PGM / RUN BY / DATE 
format: u-blox UBX                                          COMMENT             
log: /home/regis/git/gnsspwv/obsdata/VERT00CHL/2024-04-17/VECOMMENT             
{self.marker}                                               MARKER NAME         
                                                            MARKER NUMBER       
GEODETIC                                                    MARKER TYPE         
{self.observer}     {self.institution}                      OBSERVER / AGENCY   
UNKNOWN             UBLOX-ZED-F9P                           REC # / TYPE / VERS 
UNKNOWN             TWIVSP6037L                             ANT # / TYPE        
  1713381.0000 -5047934.0000 -3490983.0000                  APPROX POSITION XYZ 
        0.0000        0.0000        0.0000                  ANTENNA: DELTA H/E/N
G    8 C1C L1C D1C S1C C2L L2L D2L S2L                      SYS / # / OBS TYPES 
R    8 C1C L1C D1C S1C C2C L2C D2C S2C                      SYS / # / OBS TYPES 
E    8 C1C L1C D1C S1C C7Q L7Q D7Q S7Q                      SYS / # / OBS TYPES 
S    4 C1C L1C D1C S1C                                      SYS / # / OBS TYPES 
  2024    04    17    12    45   00.0120000     GPS         TIME OF FIRST OBS   
  2024    04    17    12    59   30.0130000     GPS         TIME OF LAST OBS    
                                                            END OF HEADER       
> 2024 04 17 12 45 00.0120000  0 23                     
G31  26812935.909   140902949.7501         90.104          47.000    26812936.251   109794479.0081         70.249          43.000  
E19  26993641.268   141852482.6831       -720.407          42.000    26993641.821   108692167.4321       -551.820          46.000  
G19  27999487.249   147138191.8341       1548.651          34.000                                                                  
G28  27378494.043                1      -1631.634          31.000    27378501.424   112110316.5851      -1271.277          37.000  
R18  25056412.694   133752814.0991       2803.620          49.000    25056414.189   104029904.3181       2180.466          48.000  
R03  24313388.480   130151354.9261       1061.285          52.000    24313384.098   101229031.1361        825.440          49.000  
R17  22835624.015   122198230.2781       -602.357          52.000    22835620.203    95042845.4411       -468.365          50.000  
R02  23418710.579   124966731.1621      -2339.191          51.000    23418709.270    97196344.6931      -1819.334          48.000  
G03  24684494.762   129717849.3601       -272.429          49.000    24684494.617   101078831.4561       -212.202          46.000  
G21  23980015.415   126015799.2111      -2802.464          48.000                                                                  
S31  42484341.883   223256767.2151       -729.887          44.000  
S33  43437540.294   228265890.9511       -729.355          42.000  
E33  27766994.418   145916603.5151      -1929.298          47.000    27766996.124   111806198.3671      -1478.145          54.000  
R01  26471293.938   141504142.2281      -4161.860          33.000    26471305.563   110058763.4651      -3237.199          43.000  
R24  25010901.058   133744556.4071      -4321.851          51.000    25010901.044   104023489.0311      -3361.493          48.000  
G02  23867999.259   125427164.1731      -1832.213          47.000                                                                  
G09  27603306.736   145056363.1411       2609.138          41.000    27603308.697   113030960.8181       2033.170          35.000  
E12  27838039.004   146289808.1911        669.233          44.000    27838038.126   112092213.7461        512.741          49.000  
G04  24481432.127   128650757.3781       1262.494          48.000    24481430.024   100247278.2311        983.606          47.000  
E10  29248520.383   153701963.3731       1503.478          45.000    29248522.679   117771629.9701       1152.014          49.000  
E04  29722505.768   156192821.1681       1760.625          40.000    29722510.505   119680213.4741       1349.148          47.000  
E26  31447190.780   165256189.3781      -3238.074          39.000    31447201.954   126624971.9681      -2481.091          44.000  
G17  25767640.550   135409621.5021        305.208          48.000    25767638.231   105514137.5811        237.924          43.000  
> 2024 04 17 12 45 30.0120000  0 23                     
G31  26812465.171   140900469.672          74.785          47.000    26812465.025   109792546.443          58.181          43.000  
E19  26997787.063   141874265.362        -732.329          43.000    26997787.105   108708858.018        -561.128          47.000  
G19  27990680.097                        1535.957          25.000                                                                  
G28  27387861.078   143924048.9901      -1649.548          32.000    27387868.736   112148666.983       -1285.492          38.000  
R18  25040690.234   133668886.865        2791.162          49.000    25040691.508   103964627.595        2171.003          47.000  
R03  24307484.831   130119748.477        1045.441          53.000    24307480.523   101204448.363         813.049          50.000  
R17  22839072.213   122216682.666        -628.216          51.000    22839068.507    95057197.233        -488.647          49.000  
R02  23431897.053   125037096.665       -2352.278          51.000    23431897.225    97251073.342       -1829.599          49.000  
G03  24686062.969   129726090.923        -277.629          48.000    24686063.040   101085253.394        -216.348          46.000  
G21  23996067.171   126100147.473       -2821.051          49.000                                                                  
S31  42488508.791   223278662.109        -729.866          44.000  
S33  43441704.126   228287773.528        -729.543          43.000  
E33  27778034.569   145974624.496       -1939.253          46.000    27778037.026   111850655.920       -1485.996          54.000  
R01  26494649.412   141628982.157       -4161.705          37.000    26494659.345   110155860.938       -3236.566          42.000  
R24  25035187.329   133874426.636       -4336.646          51.000    25035188.052   104124499.023       -3372.976          48.000  
G02  23878510.479   125482402.733       -1850.882          47.000                                                                  
G09  27588428.965   144978181.631        2602.747          40.000    27588431.985   112970040.303        2027.314          36.000  
E12  27834238.137   146269835.334         661.844          44.000    27834237.701   112076909.813         507.289          49.000  
G04  24474269.605   128613116.991        1246.606          47.000    24474267.287   100217948.045         971.320          47.000  
E10  29239945.560   153656903.813        1500.117          45.000    29239948.023   117737103.812        1149.387          49.000  
E04  29712474.255   156140103.453        1753.372          40.000    29712478.757   119639819.396        1343.567          46.000  
E26  31465691.905   165353401.928       -3243.106          41.000    31465701.805   126699459.103       -2485.018          45.000  
G17  25765957.756   135400774.948         284.087          48.000    25765956.013   105507244.080         221.258          44.000  
> 2024 04 17 12 46 00.0120000  0 22                     
G31  26812083.281   140898460.828          58.997          47.000    26812082.580   109790981.080          45.928          43.000  
E19  27002004.365   141896426.076        -745.148          43.000    27002004.341   108725838.275        -571.115          47.000  
G28  27397338.261   143973818.959       -1668.756          37.000    27397337.480   112187448.729       -1300.018          34.000  
R18  25025039.969   133585341.423        2778.309          49.000    25025040.413   103899647.849        2160.835          48.000  
R03  24301670.317   130088626.308        1029.187          52.000    24301666.627   101180242.231         800.415          50.000  
R17  22842668.340   122235925.063        -654.682          52.000    22842663.807    95072163.485        -509.294          49.000  
R02  23445160.250   125107867.721       -2365.949          52.000    23445160.056    97306117.427       -1840.192          49.000  
G03  24687663.176   129734499.412        -283.154          48.000    24687662.997   101091805.416        -220.755          46.000  
G21  24012226.604   126185067.340       -2840.345          49.000                                                                  
S31  42492679.177   223300579.128        -731.226          44.000  
S33  43445873.179   228309678.590        -730.580          42.000  
E33  27789136.418   146032958.431       -1949.776          47.000    27789137.574   111895353.268       -1494.029          54.000  
R01  26518008.295   141753812.148       -4161.367          33.000    26518011.241   110252950.621       -3236.358          42.000  
R24  25059559.466   134004750.405       -4351.736          51.000    25059559.105   104225861.766       -3384.638          47.000  
G02  23889131.444   125538213.343       -1869.915          48.000                                                                  
G09  27573593.579   144900214.369        2595.178          40.000    27573595.702   112909286.594        2022.186          38.000  
E12  27830482.059   146250094.645         654.017          44.000    27830481.250   112061783.801         501.019          49.000  
G04  24467199.735   128575966.560        1230.078          47.000    24467197.783   100188999.658         958.472          47.000  
E10  29231392.141   153611957.714        1496.287          44.000    29231395.012   117702664.578        1146.387          49.000  
E04  29702483.341   156087608.433        1746.200          40.000    29702488.500   119599595.982        1337.723          45.000  
E26  31484220.563   165450773.577       -3248.492          41.000    31484231.532   126774068.149       -2489.134          46.000  
G17  25764396.488   135392572.298         262.469          48.000    25764394.931   105500852.327         204.602          44.000  
> 2024 04 17 12 46 30.0120000  0 22                     
G31  26811792.303   140896934.893          42.581          45.000    26811791.958   109789792.004          33.176          43.000  
E19  27006295.278   141918974.228        -758.041          43.000    27006295.693   108743115.381        -580.864          48.000  
G28  27406917.478   144024152.030       -1686.926          35.000    27406914.229   112226669.139       -1314.081          33.000  
R18  25009463.191   133502192.429        2764.844          50.000    25009463.530   103834976.418        2150.432          48.000  
R03  24295948.367   130057998.913        1012.567          51.000    24295945.695   101156420.937         787.561          50.000  
R17  22846413.734   122255968.623        -681.552          52.000    22846409.735    95087752.875        -530.062          49.000  
R02  23458500.621   125179052.262       -2379.824          52.000    23458499.828    97361483.138       -1850.910          49.000  
G03  24689296.749   129743084.730        -289.315          48.000    24689296.882   101098495.240        -225.464          46.000  
G21  24028496.417   126270567.840       -2859.705          48.000                                                                  
S31  42496856.336   223322528.894        -732.419          44.000  
S33  43450047.293   228331616.611        -731.709          42.000  
E33  27800297.048   146091615.717       -1960.744          46.000    27800299.819   111940298.382       -1502.332          54.000  
R01  26541363.805   141878640.671       -4161.173          37.000    26541362.946   110350039.180       -3236.276          41.000  
R24  25084015.851   134135535.167       -4367.214          50.000    25084016.067   104327583.043       -3396.562          47.000  
G02  23899862.810   125594605.908       -1889.709          48.000                                                                  
G09  27558799.804   144822473.105        2587.585          39.000    27558801.798   112848709.064        2015.991          38.000  
E12  27826771.813   146230597.917         645.689          44.000    27826771.112   112046844.695         494.825          49.000  
G04  24460225.893   128539317.248        1213.080          47.000    24460224.231   100160441.740         945.294          47.000  
E10  29222862.400   153567136.693        1492.009          44.000    29222866.001   117668321.193        1143.176          49.000  
E04  29692539.966   156035347.312        1738.016          42.000    29692543.874   119559551.723        1331.682          45.000  
E26  31502783.446   165548313.909       -3254.304          42.000    31502793.050   126848806.425       -2493.574          46.000  
G17  25762960.713   135385024.960         240.718          48.000    25762958.329   105494971.205         187.515          44.000  
> 2024 04 17 12 47 00.0120000  0 22                     
G31  26811594.893   140895898.245          26.048          45.000    26811593.287   109788984.189          20.210          43.000  
E19  27010660.488   141941914.153        -771.628          43.000    27010660.724   108760692.685        -591.289          48.000  
G28  27416600.086   144075052.518       -1706.305          33.000    27416605.684   112266331.890       -1330.310          32.000  
R18  24993962.401   133419448.906        2750.909          49.000    24993962.678   103770620.376        2139.662          47.000  
R03  24290321.192   130027870.889         995.496          53.000    24290318.484   101132988.037         774.310          51.000  
R17  22850310.199   122276819.501        -708.788          52.000    22850306.199    95103970.158        -551.351          49.000  
R02  23471918.524   125250651.546       -2393.944          53.000    23471916.260    97417171.418       -1861.854          48.000  
G03  24690964.653   129751851.570        -295.780          48.000    24690965.293   101105326.517        -230.452          46.000  
G21  24044878.354   126356652.851       -2879.628          48.000                                                                  
S31  42501039.966   223344515.672        -733.983          44.000  
S33  43454229.049   228353590.608        -733.589          42.000  
E33  27811521.235   146150601.469       -1971.958          45.000    27811524.586   111985495.173       -1511.073          54.000  
R01  26564718.591   142003470.745       -4161.570          37.000    26564715.577   110447128.889       -3236.267          42.000  
R24  25108560.043   134266782.802       -4382.970          51.000    25108560.774   104429664.353       -3408.904          48.000  
G02  23910705.783   125651584.917       -1909.595          49.000                                                                  
G09  27544050.585   144744964.447        2579.449          39.000    27544052.843   112788312.756        2010.089          40.000  
E12  27823110.177   146211351.329         637.030          45.000    27823108.837   112032097.290         488.078          49.000  
G04  24453348.397   128503175.009        1195.990          48.000    24453346.548   100132278.926         932.037          47.000  
E10  29214358.778   153522447.120        1486.927          45.000    29214361.843   117634078.520        1139.489          49.000  
E04  29682641.575   155983325.823        1729.781          43.000    29682644.597   119519691.079        1325.236          46.000  
E26  31521377.740   165646027.093       -3260.205          43.000    31521387.324   126923677.096       -2498.142          45.000  
G17  25761650.346   135378138.304         218.218          48.000    25761646.764   105489604.948         169.882          43.000  
> 2024 04 17 12 47 30.0120000  0 22                     
G31  26811491.918   140895359.816           9.863          44.000    26811490.937   109788564.559           7.710          43.000  
E19  27015101.325   141965252.273        -784.380          43.000    27015101.996   108778575.114        -601.103          48.000  
G28  27426398.359   144126527.305       -1725.421          37.000    27426393.909   112306441.917       -1344.421          33.000  
R18  24978540.042   133337122.619        2737.319          49.000    24978540.204   103706588.861        2129.001          47.000  
R03  24284786.699   129998249.721         979.022          52.000    24284784.119   101109949.338         761.542          50.000  
R17  22854359.037   122298486.372        -735.696          51.000    22854355.429    95120822.104        -572.202          49.000  
R02  23485414.472   125322670.783       -2407.500          52.000    23485412.956    97473186.287       -1872.488          47.000  
G03  24692669.508   129760807.130        -301.639          49.000    24692669.284   101112304.821        -235.163          46.000  
G21  24061372.858   126443328.396       -2898.909          49.000                                                                  
S31  42505232.645   223366547.523        -735.084          44.000  
S33  43458419.518   228375609.334        -734.763          42.000  
E33  27822809.734   146209923.250       -1982.864          46.000    27822813.184   112030949.435       -1519.264          54.000  
R01  26588069.405   142128308.036       -4161.154          34.000    26588069.615   110544224.255       -3236.293          42.000  
R24  25133193.116   134398498.112       -4398.145          52.000    25133193.183   104532109.406       -3420.724          48.000  
G02  23921662.085   125709157.723       -1928.878          49.000                                                                  
G09  27529347.688   144667697.443        2571.710          38.000    27529349.212   112728104.770        2003.809          40.000  
E12  27819496.500   146192363.934         628.708          45.000    27819495.711   112017548.476         481.639          49.000  
G04  24446568.491   128467548.207        1179.047          47.000    24446567.074   100104517.771         918.738          48.000  
E10  29205881.586   153477897.811        1482.699          45.000    29205884.422   117599943.327        1136.158          49.000  
E04  29672788.822   155931552.280        1721.761          43.000    29672792.564   119480020.425        1319.352          47.000  
E26  31540005.777   165743919.777       -3265.887          42.000    31540016.106   126998685.341       -2502.508          46.000  
G17  25760467.234   135371920.597         196.266          47.000    25760463.837   105484759.941         152.870          42.000  
> 2024 04 17 12 48 00.0120000  0 22                     
G31  26811482.436   140895309.378          -6.599          44.000    26811481.921   109788525.204          -5.225          44.000  
E19  27019615.763   141988976.450        -797.546          43.000    27019616.603   108796753.322        -610.857          48.000  
G28  27436300.123   144178564.215       -1743.378          35.000    27436300.442   112346989.977       -1358.972          36.000  
R18  24963194.176   133255205.904        2723.613          49.000    24963194.538   103642875.880        2118.341          47.000  
R03  24279345.574   129969123.388         962.549          51.000    24279342.798   101087295.517         748.595          50.000  
R17  22858557.505   122320958.699        -762.557          50.000    22858554.652    95138300.520        -593.066          48.000  
R02  23498986.321   125395094.950       -2421.028          52.000    23498985.643    97529516.120       -1883.116          48.000  
G03  24694407.403   129769939.562        -307.544          49.000    24694407.166   101119420.963        -239.537          46.000  
G21  24077976.751   126530581.709       -2918.213          49.000                                                                  
S31  42509431.391   223388611.675        -736.156          44.000  
S33  43462615.892   228397660.998        -735.720          42.000  
E33  27834161.315   146269569.650       -1993.719          47.000    27834163.572   112076652.442       -1527.686          54.000  
R01  26611417.869   142253138.948       -4160.774          37.000    26611422.645   110641314.592       -3236.394          43.000  
R24  25157908.655   134530665.750       -4413.193          52.000    25157909.552   104634906.258       -3432.501          49.000  
G02  23932728.517   125767312.521       -1948.242          49.000                                                                  
G09  27514688.165   144590662.229        2564.014          37.000    27514689.692   112668077.381        1997.723          40.000  
E12  27815930.830   146173625.632         620.219          45.000    27815929.482   112003190.504         475.356          49.000  
G04  24439884.675   128432426.297        1162.244          47.000    24439883.655   100077150.018         905.554          48.000  
E10  29197428.811   153433478.706        1478.351          45.000    29197431.709   117565907.898        1132.681          49.000  
E04  29662980.709   155880016.019        1713.779          43.000    29662985.659   119440531.614        1313.225          47.000  
E26  31558665.861   165841979.686       -3271.613          42.000    31558676.808   127073821.811       -2506.890          44.000  
G17  25759408.091   135366361.166         174.268          46.000    25759406.718   105480427.873         135.976          43.000  
> 2024 04 17 12 48 30.0120000  0 22                     
G31  26811565.372   140895747.287         -22.625          43.000    26811565.375   109788866.399         -17.746          44.000  
E19  27024203.292   142013084.388        -809.826          42.000    27024204.089   108815225.588        -620.336          48.000  
G28  27446306.769   144231161.202       -1762.799          34.000    27446310.393   112387974.527       -1373.023          36.000  
R18  24947925.796   133173701.459        2709.947          49.000    24947926.096   103579483.555        2107.642          47.000  
R03  24273997.395   129940489.867         946.363          52.000    24273992.747   101065025.000         736.017          49.000  
R17  22862907.562   122344235.971        -789.231          50.000    22862905.093    95156405.016        -613.842          49.000  
R02  23512633.682   125467919.848       -2434.011          52.000    23512633.210    97586157.641       -1893.151          48.000  
G03  24696178.714   129779247.287        -313.017          49.000    24696178.348   101126673.679        -243.916          46.000  
G21  24094688.686   126618410.185       -2937.128          47.000                                                                  
S31  42513636.313   223410708.104        -736.926          44.000  
S33  43466818.283   228419744.808        -736.429          42.000  
E33  27845572.962   146329539.402       -2004.256          47.000    27845575.333   112122603.206       -1535.738          54.000  
R01  26634768.393   142377960.050       -4160.413          38.000    26634773.950   110738397.399       -3236.101          43.000  
R24  25182707.572   134663281.342       -4427.856          51.000    25182709.212   104738051.492       -3443.772          48.000  
G02  23943905.182   125826047.413       -1967.287          49.000                                                                  
G09  27500070.853   144513859.017        2556.299          35.000    27500074.255   112608230.728        1992.249          40.000  
E12  27812411.772   146155136.454         612.290          45.000    27812411.113   111989023.433         469.137          49.000  
G04  24433297.368   128397808.757        1145.874          48.000    24433296.066   100050175.296         892.688          48.000  
E10  29189001.859   153389189.809        1474.109          46.000    29189003.794   117531972.220        1129.654          49.000  
E04  29653219.540   155828716.500        1706.068          44.000    29653223.613   119401224.208        1307.286          48.000  
E26  31577356.773   165940204.731       -3276.782          43.000    31577369.157   127149084.764       -2510.775          47.000  
G17  25758476.140   135361459.534         152.297          47.000    25758473.745   105476608.349         118.826          42.000  
> 2024 04 17 12 49 00.0120000  0 22                     
G31  26811742.637   140896675.824         -39.258          46.000    26811742.219   109789589.868         -30.579          45.000  
E19  27028863.203   142037576.285        -823.039          42.000    27028864.825   108833992.061        -630.557          48.000  
G28  27456418.783   144284318.603       -1781.549          33.000    27456425.462   112429395.771       -1387.866          37.000  
R18  24932735.269   133092614.617        2695.715          49.000    24932736.271   103516416.020        2096.610          48.000  
R03  24268739.847   129912350.149         929.719          51.000    24268736.479   101043138.567         723.034          49.000  
R17  22867408.428   122368320.123        -816.380          50.000    22867406.095    95175137.073        -634.984          48.000  
R02  23526355.827   125541143.355       -2447.492          52.000    23526354.770    97643109.196       -1903.601          47.000  
G03  24697983.528   129788731.002        -319.311          49.000    24697982.767   101134063.566        -248.771          46.000  
G21  24111511.031   126706813.234       -2956.538          48.000                                                                  
S31  42517847.448   223432837.263        -738.348          44.000  
S33  43471026.966   228441860.608        -738.009          43.000  
E33  27857047.218   146389833.592       -2015.363          47.000    27857048.946   112168802.568       -1544.226          54.000  
R01  26658117.028   142502770.345       -4160.567          39.000    26658122.652   110835471.698       -3235.534          42.000  
R24  25207591.229   134796342.870       -4442.980          51.000    25207593.383   104841543.623       -3455.650          49.000  
G02  23955192.416   125885363.124       -1987.087          49.000                                                                  
G09  27485498.839   144437290.379        2548.126          35.000    27485503.199   112548566.927        1985.693          40.000  
E12  27808941.051   146136898.783         603.451          44.000    27808940.572   111975049.072         462.519          49.000  
G04  24426806.915   128363697.475        1128.467          48.000    24426803.993   100023595.054         879.340          47.000  
E10  29180599.428   153345033.520        1469.463          47.000    29180601.178   117498138.158        1125.951          49.000  
E04  29643502.857   155777655.482        1697.992          44.000    29643506.722   119362099.547        1301.049          48.000  
E26  31596079.183   166038595.110       -3282.665          41.000    31596092.503   127224474.415       -2515.162          45.000  
G17  25757668.715   135357216.805         130.260          47.000    25757665.742   105473302.271         101.560          42.000  
> 2024 04 17 12 49 30.0120000  0 23                     
G31  26812016.114   140898110.387         -56.398          45.000    26812015.680   109790707.681         -44.050          45.000  
E19  27033599.624   142062465.407        -836.354          41.000    27033601.235   108853062.890        -640.874          48.000  
G19  27923135.911   146737001.6011       1420.955          28.000                                                                  
G28  27466644.139   144338179.8031      -1801.202          32.000    27466649.554   112471264.059       -1402.972          37.000  
R18  24917626.582   133011963.726        2681.024          49.000    24917627.909   103453687.558        2085.300          48.000  
R03  24263578.215   129884717.943         912.500          51.000    24263575.054   101021646.863         709.667          49.000  
R17  22872064.223   122393226.441        -844.006          51.000    22872059.257    95194508.604        -656.473          47.000  
R02  23540155.053   125614776.820       -2461.378          53.000    23540153.393    97700379.583       -1914.374          48.000  
G03  24699824.356   129798404.504        -325.739          49.000    24699824.139   101141601.312        -253.906          46.000  
G21  24128446.232   126795803.794       -2976.197          48.000                                                                  
S31  42522067.232   223455012.878        -739.919          45.000  
S33  43475243.908   228464022.233        -739.510          43.000  
E33  27868584.121   146450466.412       -2026.823          46.000    27868587.310   112215261.388       -1553.034          54.000  
R01  26681465.685   142627582.065       -4160.585          38.000    26681471.250   110932547.182       -3235.823          43.000  
R24  25232560.364   134929861.171       -4458.292          51.000    25232562.456   104945391.006       -3467.596          49.000  
G02  23966593.038   125945273.658       -2006.970          48.000                                                                  
G09  27470976.669   144360971.950        2539.917          38.000    27470980.028   112489098.101        1978.742          40.000  
E12  27805521.753   146118928.190         594.649          45.000    27805520.957   111961279.354         455.542          48.000  
G04  24420414.897   128330107.366        1110.870          48.000    24420412.302    99997420.921         865.698          47.000  
E10  29172224.916   153301025.287        1464.373          47.000    29172226.872   117464417.546        1122.043          50.000  
E04  29633834.792   155726847.917        1689.148          43.000    29633838.282   119323169.082        1294.449          48.000  
E26  31614835.906   166137164.142       -3288.713          34.000    31614849.918   127300000.985       -2519.881          40.000  
G17  25756989.545   135353647.796         107.662          47.000    25756986.309   105470521.194          83.858          43.000  
> 2024 04 17 12 50 00.0120000  0 23                     
G31  26812386.226   140900057.766         -73.637          45.000    26812386.860   109792225.079         -57.195          45.000  
E19  27038412.057   142087756.174        -849.906          41.000    27038414.038   108872441.483        -651.012          48.000  
G19  27915062.025                        1405.697          28.000                                                                  
G28  27476981.853   144392489.382       -1820.343          37.000    27476984.550   112513582.983       -1418.213          37.000  
R18  24902600.845   132931758.254        2665.912          49.000    24902602.300   103391305.531        2073.481          48.000  
R03  24258511.546   129857598.527         895.384          52.000    24258508.897   101000553.974         696.416          50.000  
R17  22876873.609   122418960.935        -871.746          52.000    22876869.164    95214524.252        -678.023          49.000  
R02  23554030.752   125688822.543       -2475.172          52.000    23554031.557    97757970.611       -1925.051          49.000  
G03  24701702.006   129808272.801        -332.231          48.000    24701701.851   101149290.868        -258.886          46.000  
G21  24145494.022   126885385.612       -2996.041          49.000                                                                  
S31  42526297.087   223477240.349        -741.807          44.000  
S33  43479471.479   228486236.474        -741.276          43.000  
E33  27880187.617   146511443.157       -2038.324          46.000    27880190.885   112261983.725       -1561.851          54.000  
R01  26704815.242   142752399.130       -4160.600          40.000    26704820.845   111029626.779       -3236.223          41.000  
R24  25257614.674   135063838.757       -4473.663          51.000    25257616.885   105049595.575       -3479.540          48.000  
G02  23978107.688   126005783.519       -2027.122          48.000                                                                  
G09  27456503.214   144284910.547        2530.939          40.000    27456505.527   112429829.503        1972.107          39.000  
E12  27802153.825   146101231.273         585.267          44.000    27802153.093   111947719.341         448.386          48.000  
G04  24414123.686   128297044.507        1093.170          47.000    24414120.601    99971657.636         851.868          47.000  
E10  29163880.452   153257171.830        1459.018          48.000    29163881.890   117430815.519        1117.943          49.000  
E04  29624214.482   155676299.787        1680.574          42.000    29624218.869   119284437.445        1287.692          47.000  
E26  31633630.815                       -3294.683          29.000    31633642.675   127375667.944       -2524.906          36.000  
G17  25756439.767   135350758.205          84.802          47.000    25756437.139   105468269.509          66.166          43.000  
> 2024 04 17 12 50 30.0120000  0 22                     
G31  26812855.250   140902520.907         -90.527          44.000    26812855.640   109794144.389         -70.716          46.000  
E19  27043301.363   142113449.595        -863.160          41.000    27043303.226   108892128.609        -661.353          48.000  
G28  27487429.754   144447378.511       -1839.191          39.000    27487430.095   112556353.551       -1433.051          38.000  
R18  24887660.182   132852004.471        2650.888          49.000    24887660.757   103329274.810        2061.699          47.000  
R03  24253542.079   129830993.435         878.399          51.000    24253539.271   100979861.132         683.098          50.000  
R17  22881838.215   122445526.379        -899.330          52.000    22881834.639    95235186.199        -699.552          49.000  
R02  23567984.291   125763279.587       -2488.718          52.000    23567984.619    97815881.603       -1935.679          49.000  
G03  24703617.015   129818337.688        -338.660          48.000    24703616.790   101157133.578        -263.914          45.000  
G21  24162653.389   126975559.351       -3015.632          48.000                                                                  
S31  42530536.698   223499521.231        -743.510          45.000  
S33  43483708.919   228508503.535        -743.322          43.000  
E33  27891857.875   146572765.955       -2049.925          47.000    27891860.520   112308971.223       -1570.741          55.000  
R01  26728166.273   142877221.537       -4160.614          40.000    26728171.913   111126710.557       -3236.419          42.000  
R24  25282754.162   135198274.139       -4488.810          49.000    25282756.194   105154156.228       -3491.227          48.000  
G02  23989736.431   126066894.184       -2046.998          47.000                                                                  
G09  27442079.447   144209109.823        2522.290          42.000    27442081.417   112370764.059        1965.277          40.000  
E12  27798839.093   146083811.556         575.913          44.000    27798838.032   111934371.719         441.302          48.000  
G04  24407931.699   128264511.792        1075.470          47.000    24407929.715    99946307.479         838.123          47.000  
E10  29155565.532   153213476.594        1453.962          48.000    29155566.941   117397334.735        1114.046          50.000  
E04  29614645.879   155626013.959        1671.913          42.000    29614649.685   119245906.805        1280.988          47.000  
G17  25756020.420   135348550.727          62.229          49.000    25756016.921   105466549.373          48.488          43.000  
E26                                                                  31652469.898   127451476.199       -2529.342          32.000  
> 2024 04 17 12 51 00.0120000  0 22                     
G31  26813422.149   140905505.114        -108.199          45.000    26813423.162   109796469.704         -84.386          45.000  
E19  27048267.892   142139548.700        -876.893          41.000    27048269.731   108912126.567        -671.882          48.000  
G28  27497984.382   144502850.205       -1858.923          42.000    27497985.577   112599578.086       -1448.602          37.000  
R18  24872805.894   132772710.233        2635.323          50.000    24872805.851   103267601.515        2049.683          47.000  
R03  24248669.311   129804905.766         860.819          52.000    24248665.908   100959570.724         669.479          50.000  
R17  22886958.354   122472927.794        -927.398          52.000    22886954.465    95256498.338        -721.297          48.000  
R02  23582014.651   125838148.727       -2502.611          52.000    23582014.616    97874113.085       -1946.482          49.000  
G03  24705570.658   129828602.651        -345.428          48.000    24705570.527   101165132.207        -269.314          46.000  
G21  24179925.372   127066327.249       -3035.500          49.000                                                                  
S31  42534787.894   223521859.990        -745.702          45.000  
S33  43487956.933   228530828.529        -745.256          43.000  
E33  27903593.242   146634438.571       -2061.794          46.000    27903596.628   112356226.760       -1579.736          55.000  
R01  26751518.498   143002051.371       -4161.211          42.000    26751524.171   111223800.038       -3236.260          42.000  
R24  25307980.758   135333168.185       -4504.133          49.000    25307982.087   105259073.613       -3503.122          47.000  
G02  24001481.020   126128609.052       -2067.348          48.000                                                                  
G09  27427706.061   144133575.042        2513.086          42.000    27427708.069   112311905.880        1958.447          40.000  
E12  27795577.823   146066674.141         566.381          44.000    27795576.811   111921240.412         434.126          48.000  
G04  24401843.382   128232513.793        1057.550          47.000    24401840.864    99921373.943         824.084          48.000  
E10  29147281.741   153169944.750        1448.080          48.000    29147283.258   117363979.138        1109.675          50.000  
E04  29605127.762   155575995.012        1662.878          43.000    29605131.324   119207580.634        1274.043          47.000  
G17  25755730.585   135347029.684          39.085          47.000    25755728.007   105465364.101          30.334          44.000  
E26                                                                  31671332.434   127527428.099       -2534.367          29.000  
> 2024 04 17 12 51 30.0130000  0 23                     
G31  26814091.584   140909013.136        -125.754          47.000    26814090.583   109799203.188         -97.952          44.000  
E19  27053313.037   142166054.576        -890.309          42.000    27053313.436   108932436.199        -682.233          47.000  
G28  27508652.004   144558906.560       -1878.341          40.000    27508653.096   112643258.176       -1463.212          37.000  
R18  24858037.856   132693878.008        2619.745          49.000    24858038.221   103206287.555        2037.604          48.000  
R03  24243891.935   129779335.433         843.626          52.000    24243889.213   100939682.656         656.245          50.000  
R17  22892236.132   122501167.448        -955.299          52.000    22892231.500    95278462.435        -742.907          48.000  
R11  28108185.828                3        360.953          19.000                                                                  
R02  23596123.082   125913430.528       -2516.166          53.000    23596122.503    97932665.506       -1957.009          49.000  
G03  24707562.637   129839068.800        -352.179          48.000    24707562.154   101173287.584        -274.396          46.000  
G21  24197310.610   127157691.645       -3055.406          47.000                                                                  
S31  42539050.086   223544257.372        -747.513          45.000  
S33  43492216.656   228553212.602        -747.288          43.000  
E33  27915396.336   146696464.125       -2073.371          46.000    27915399.895   112403752.731       -1588.679          55.000  
R01  26774873.593   143126891.552       -4161.334          43.000    26774878.674   111320897.597       -3236.693          42.000  
R24  25333293.854   135468523.104       -4519.308          50.000    25333294.195   105364349.426       -3514.972          47.000  
G02  24013339.936   126190930.890       -2087.540          48.000                                                                  
G09  27413383.275   144058306.229        2504.469          43.000    27413385.062   112253254.945        1951.582          40.000  
E12  27792370.674   146049820.934         556.878          44.000    27792369.824   111908326.899         426.781          48.000  
G04  24395855.704   128201051.160        1039.763          47.000    24395853.678    99896857.607         810.056          47.000  
E10  29139028.765   153126577.235        1442.596          48.000    29139030.914   117330749.475        1105.334          50.000  
E04  29595660.182   155526243.025        1653.796          43.000    29595663.939   119169458.995        1267.240          47.000  
G17  25755571.750   135346196.421          16.147          47.000    25755569.487   105464714.750          12.781          43.000  
E26                                                                  31690231.809                       -2539.117          27.000  
> 2024 04 17 12 52 00.0130000  0 22                     
G31  26814860.495   140913050.437        -143.293          47.000    26814858.567   109802349.078        -111.746          44.000  
E19  27058434.817   142192968.987        -903.772          42.000    27058435.148   108953058.883        -692.653          47.000  
G28  27519430.073   144615547.513       -1897.477          41.000    27519431.278   112687393.799       -1478.747          37.000  
R18  24843358.763   132615521.914        2604.224          49.000    24843359.603   103145343.929        2025.433          48.000  
R03  24239212.732   129754288.688         826.337          52.000    24239209.716   100920201.832         642.794          49.000  
R17  22897670.695   122530249.152        -983.287          52.000    22897664.900    95301081.491        -764.702          47.000  
R02  23610307.244   125989121.569       -2529.633          52.000    23610307.273    97991536.261       -1967.468          48.000  
G03  24709593.301   129849739.806        -359.033          49.000    24709592.987   101181602.594        -279.639          46.000  
G21  24214810.347   127249650.181       -3074.992          48.000                                                                  
S31  42543324.030   223566717.160        -749.656          44.000  
S33  43496487.608   228575657.961        -749.124          43.000  
E33  27927265.804   146758843.172       -2084.942          45.000    27927270.231   112451549.572       -1597.685          55.000  
R01  26798228.993   143251737.033       -4161.503          43.000    26798233.111   111417999.282       -3236.750          39.000  
R24  25358690.271   135604331.179       -4534.337          50.000    25358692.164   105469977.697       -3526.789          48.000  
G02  24025314.570   126253859.718       -2107.561          47.000                                                                  
G09  27399112.707   143983314.576        2495.423          44.000    27399113.981   112194819.963        1944.274          40.000  
E12  27789219.946   146033259.006         547.248          45.000    27789218.369   111895636.554         419.436          48.000  
G04  24389971.346   128170131.405        1021.827          46.000    24389969.948    99872764.273         796.296          47.000  
E10  29130808.144   153083383.021        1437.052          46.000    29130811.247   117297652.574        1101.178          50.000  
E04  29586245.450   155476766.665        1644.800          43.000    29586248.913   119131548.595        1260.198          47.000  
G17  25755546.331   135346055.766          -6.688          48.000    25755543.178   105464605.135          -5.307          44.000  
E26                                                                  31709166.657                3      -2543.301          23.000  
> 2024 04 17 12 52 30.0130000  0 23                     
G31  26815729.160   140917616.883        -160.816          46.000    26815727.617   109805907.316        -125.413          44.000  
E19  27063633.991   142220290.407        -917.340          42.000    27063634.303   108973993.439        -702.833          47.000  
G19  27876032.965                3       1329.456          24.000                                                                  
G28  27530320.999   144672772.790       -1917.066          44.000    27530323.184   112731984.738       -1493.984          37.000  
R18  24828768.829   132537642.006        2588.244          48.000    24828770.370   103084770.648        2013.062          48.000  
R03  24234631.700   129729761.971         809.031          53.000    24234627.907   100901125.481         629.326          49.000  
R17  22903262.195   122560172.909       -1011.342          51.000    22903257.525    95324355.440        -786.535          47.000  
R02  23624568.757   126065219.853       -2543.192          53.000    23624567.806    98050723.702       -1978.011          49.000  
G03  24711662.433   129860614.367        -365.759          48.000    24711662.050   101190076.237        -285.065          46.000  
G21  24232423.236   127342202.311       -3094.852          48.000                                                                  
S31  42547609.694   223589238.163        -751.634          45.000  
S33  43500771.305   228598165.487        -751.141          43.000  
E33  27939203.464   146821576.307       -2096.767          45.000    27939208.073   112499617.719       -1606.623          55.000  
R01  26821586.187   143376588.567       -4161.740          44.000    26821589.279   111515105.686       -3236.851          40.000  
R24  25384170.909   135740592.337       -4549.387          49.000    25384172.990   105575958.392       -3538.474          47.000  
G02  24037405.060   126317395.526       -2127.897          48.000                                                                  
G09  27384894.518   143908597.687        2486.016          43.000    27384896.050   112136599.107        1936.996          40.000  
E12  27786123.455   146016987.819         537.715          45.000    27786121.937   111883168.999         411.997          48.000  
G04  24384190.805   128139752.770        1003.746          47.000    24384189.662    99849092.595         782.171          48.000  
E10  29122620.711   153040360.635        1431.363          46.000    29122624.412   117264687.328        1096.793          50.000  
E04  29576882.091   155427563.619        1635.793          43.000    29576885.818   119093847.602        1253.390          47.000  
G17  25755650.220   135346606.889         -29.716          49.000    25755647.507   105465034.539         -23.164          43.000  
E26                                                                  31728139.546                3      -2558.710          19.000  
> 2024 04 17 12 53 00.0130000  0 23                     
G31  26816696.441   140922704.512        -178.082          45.000    26816695.237   109809871.657        -138.859          44.000  
E19  27068908.708   142248008.885        -930.544          42.000    27068909.106   108995232.219        -712.980          47.000  
G19  27868461.347                3       1313.000          25.000                                                                  
G28  27541319.538   144730572.210       -1936.202          43.000    27541323.641   112777023.062       -1509.024          36.000  
R18  24814267.878   132460232.888        2572.448          49.000    24814269.028   103024563.578        2000.763          49.000  
R03  24230144.278   129705746.012         792.037          52.000    24230141.214   100882446.390         616.150          50.000  
R17  22909009.516   122590929.862       -1039.067          51.000    22909005.722    95348277.446        -808.230          48.000  
R02  23638903.620   126141713.022       -2556.270          53.000    23638901.703    98110218.308       -1988.183          47.000  
G03  24713769.032   129871682.998        -372.113          49.000    24713768.251   101198701.110        -290.057          46.000  
G21  24250147.015   127435337.384       -3114.208          48.000                                                                  
S31  42551905.125   223611811.471        -753.331          44.000  
S33  43505063.824   228620723.615        -752.812          43.000  
E33  27951207.676   146884654.346       -2108.150          45.000    27951211.607   112547950.141       -1615.376          55.000  
R01  26844939.647   143501434.841       -4161.435          43.000    26844944.996   111612208.009       -3236.562          40.000  
R24  25409735.253   135877293.735       -4564.042          50.000    25409737.806   105682281.495       -3549.828          48.000  
G02  24049610.362   126381528.500       -2147.728          49.000                                                                  
G09  27370726.499   143834147.751        2477.472          41.000    27370729.806   112078586.234        1930.531          41.000  
E12  27783080.708   146000999.492         528.275          45.000    27783079.541   111870918.180         404.707          48.000  
G04  24378512.091   128109906.731         986.194          48.000    24378510.007    99825835.936         768.297          48.000  
E10  29114464.821   152997502.292        1425.814          45.000    29114468.839   117231847.788        1092.566          49.000  
E04  29567570.526   155378625.404        1627.018          44.000    29567573.321   119056349.538        1246.632          47.000  
G17  25755884.808   135347841.284         -52.620          48.000    25755882.360   105465996.354         -40.918          43.000  
E26                                                                  31747142.185                3      -2547.883          20.000  
> 2024 04 17 12 53 30.0130000  0 23                     
G31  26817761.509   140928303.138        -195.068          44.000    26817760.633   109814234.192        -151.993          44.000  
E19  27074256.627   142276112.110        -943.292          42.000    27074257.327   109016765.813        -722.618          48.000  
G19  27861027.484   146410604.6871       1298.145          31.000                                                                  
G28  27552425.115   144788933.495       -1954.611          43.000    27552428.010   112822499.202       -1523.462          38.000  
R18  24799854.380   132383287.402        2557.098          50.000    24799854.762   102964717.072        1988.873          49.000  
R03  24225750.993   129682228.410         775.616          52.000    24225748.928   100864154.907         603.229          51.000  
R17  22914911.459   122622508.939       -1066.241          51.000    22914907.634    95372838.907        -829.378          48.000  
R02  23653309.139   126218586.573       -2568.792          52.000    23653307.984    98170008.768       -1997.939          47.000  
G03  24715910.027   129882934.128        -378.198          49.000    24715909.353   101207468.192        -294.647          46.000  
G21  24267977.504   127529042.598       -3133.015          47.000                                                                  
S31  42556208.594   223634425.069        -754.529          44.000  
S33  43509364.400   228643322.981        -754.135          42.000  
E33  27963274.753   146948065.907       -2119.240          46.000    27963278.671   112596538.121       -1623.828          55.000  
R01  26868291.419   143626262.418       -4160.770          43.000    26868297.114   111709295.758       -3235.742          40.000  
R24  25435380.148   136014420.634       -4577.907          52.000    25435381.271   105788935.522       -3560.646          48.000  
G02  24061925.763   126446246.955       -2167.110          48.000                                                                  
G09  27356607.526   143759955.058        2468.883          41.000    27356612.162   112020773.852        1923.500          41.000  
E12  27780090.284   145985284.141         519.349          45.000    27780089.269   111858876.508         397.845          48.000  
G04  24372932.233   128080582.660         968.716          48.000    24372929.489    99802986.002         754.806          48.000  
E10  29106338.636   152954798.063        1420.953          45.000    29106342.450   117199126.342        1088.788          49.000  
E04  29558307.147   155329941.444        1618.620          44.000    29558308.965   119019046.261        1240.270          46.000  
G17  25756247.650   135349747.634         -74.795          48.000    25756245.215   105467481.787         -58.512          43.000  
E26                                                                  31766180.422                3      -2573.038          18.000  
> 2024 04 17 12 54 00.0130000  0 23                     
G31  26818925.449   140934415.246        -211.901          46.000    26818923.829   109818996.861        -164.933          43.000  
E19  27079677.106   142304600.547        -955.645          41.000    27079678.648   109038594.557        -732.209          48.000  
G19  27853657.798                        1283.051          24.000                                                                  
G28  27563639.248   144847857.114       -1973.311          44.000    27563639.920   112868413.489       -1537.885          36.000  
R18  24785527.578   132306810.840        2541.730          50.000    24785527.708   102905235.305        1976.843          48.000  
R03  24221451.679   129659210.041         759.277          52.000    24221448.945   100846251.704         590.495          50.000  
R17  22920966.530   122654912.420       -1093.507          51.000    22920964.080    95398041.522        -850.553          48.000  
R02  23667785.349   126295839.024       -2580.968          52.000    23667785.801    98230093.907       -2007.405          49.000  
G03  24718086.552   129894368.908        -383.966          49.000    24718086.015   101216378.357        -299.188          46.000  
G21  24285917.623   127623317.853       -3151.772          46.000                                                                  
S31  42560519.856   223657080.732        -755.525          44.000  
S33  43513672.884   228665964.332        -754.955          42.000  
E33  27975406.347   147011812.356       -2130.124          47.000    27975408.939   112645382.710       -1632.127          55.000  
R01  26891640.323   143751071.260       -4159.609          44.000    26891645.922   111806368.940       -3235.227          40.000  
R24  25461102.597   136151971.071       -4591.692          51.000    25461104.547   105895919.026       -3571.307          49.000  
G02  24074352.504   126511551.353       -2186.206          49.000                                                                  
G09  27342538.535   143686022.399        2460.369          42.000    27342541.754   111963164.053        1917.003          40.000  
E12  27777152.411   145969844.418         510.456          45.000    27777151.091   111847046.041         391.114          48.000  
G04  24367451.324   128051782.537         951.543          47.000    24367449.317    99780544.357         741.387          48.000  
E10  29098242.674   152912250.769        1415.905          45.000    29098245.978   117166525.134        1085.013          49.000  
E04  29549091.038   155281513.754        1610.324          44.000    29549093.480   118981939.379        1233.943          46.000  
G17  25756738.453   135352326.993         -97.060          47.000    25756736.796   105469491.616         -75.574          43.000  
E26                                                                  31785250.756                3      -2561.516          21.000  
> 2024 04 17 12 54 30.0130000  0 23                     
G31  26820185.474   140941038.164        -229.331          46.000    26820184.669   109824157.543        -178.669          44.000  
E19  27085169.707   142333469.202        -968.642          40.000    27085172.512   109060714.650        -742.288          49.000  
G28  27574957.484   144907338.077       -1991.975          44.000    27574957.751   112914762.141       -1552.532          36.000  
R18  24771288.281   132230803.440        2525.732          50.000    24771289.081   102846118.447        1964.398          48.000  
R03  24217243.800   129636686.383         742.539          52.000    24217240.431   100828733.240         577.562          49.000  
R17  22927175.487   122688136.191       -1121.158          51.000    22927172.829    95423882.177        -872.048          48.000  
R02  23682332.523   126373463.155       -2593.586          52.000    23682332.790    98290468.163       -2017.221          48.000  
G03  24720297.176   129905983.086        -390.155          49.000    24720295.740   101225428.320        -304.163          46.000  
G21  24303965.261   127718157.605       -3170.741          47.000                                                                  
S31  42564838.049   223679774.002        -757.015          44.000  
S33  43517988.692   228688643.504        -756.611          42.000  
E33  27987599.417   147075889.662       -2141.401          46.000    27987602.325   112694480.820       -1640.860          55.000  
R01  26914984.045   143875855.555       -4158.980          45.000    26914989.733   111903423.057       -3234.797          38.000  
R24  25486903.471   136289937.566       -4605.902          52.000    25486905.368   106003226.086       -3582.225          48.000  
G02  24086890.630   126577437.210       -2205.880          49.000                                                                  
G09  27328518.843   143612347.252        2451.593          42.000    27328521.425   111905754.895        1910.246          40.000  
E12  27774265.856   145954677.858         500.892          44.000    27774265.147   111835424.879         383.885          48.000  
G04  24362069.826   128023503.007         934.014          47.000    24362068.435    99758508.352         727.659          48.000  
E10  29090175.391   152869857.777        1410.487          46.000    29090178.934   117134042.161        1080.859          49.000  
E04  29539924.453   155233339.075        1601.438          44.000    29539926.235   118945026.346        1227.152          46.000  
G17  25757356.117   135355576.658        -119.436          47.000    25757355.735   105472023.794         -93.319          44.000  
E26                                                                  31804352.308                3      -2570.969          21.000  
R04                                                                  27981558.314                3       2074.422          13.000  
> 2024 04 17 12 55 00.0130000  0 22                     
E11  30372136.185                3       1896.191          25.000                                                                  
G31  26821546.030   140948187.198        -246.754          44.000    26821544.711   109829728.169        -192.160          44.000  
E19  27090738.438   142362731.302        -981.652          41.000    27090740.940   109083136.201        -752.143          49.000  
G28  27586384.367   144967389.583       -2010.937          44.000    27586386.141   112961555.347       -1567.090          37.000  
R18  24757140.976   132155283.570        2509.479          49.000    24757141.614   102787380.789        1951.746          49.000  
R03  24213131.807   129614671.381         725.738          52.000    24213127.888   100811610.443         564.496          48.000  
R17  22933540.096   122722195.390       -1148.925          51.000    22933537.113    95450372.584        -893.586          48.000  
R02  23696951.617   126451470.258       -2606.283          52.000    23696951.694    98351140.262       -2027.082          49.000  
G03  24722543.289   129917790.647        -396.527          48.000    24722542.071   101234628.946        -308.942          45.000  
G21  24322122.704   127813574.398       -3189.913          47.000                                                                  
S31  42569166.185   223702519.509        -758.877          43.000  
S33  43522313.936   228711373.659        -758.312          43.000  
E33  27999857.820   147140311.962       -2152.930          46.000    27999861.557   112743843.268       -1649.604          55.000  
R01  26938326.136   144000627.689       -4158.546          46.000    26938331.346   112000467.710       -3234.428          37.000  
R24  25512785.327   136428331.418       -4619.922          52.000    25512785.340   106110865.520       -3593.203          48.000  
G02  24099541.837   126643918.020       -2225.532          49.000                                                                  
G09  27314551.062   143538945.318        2442.307          42.000    27314553.561   111848558.667        1903.321          40.000  
E12  27771434.730   145939799.944         491.351          45.000    27771434.152   111824024.885         376.502          49.000  
G04  24356789.616   127995758.920         916.130          46.000    24356788.977    99736889.557         713.927          48.000  
E10  29082140.534   152827634.743        1404.790          46.000    29082144.062   117101689.435        1076.439          49.000  
E04  29530808.021   155185432.300        1592.622          43.000    29530809.467   118908318.601        1220.306          46.000  
G17  25758105.513   135359510.617        -142.267          48.000    25758104.235   105475089.165        -111.025          44.000  
> 2024 04 17 12 55 30.0130000  0 22                     
E11  30361326.472                3       1894.810          25.000                                                                  
G31  26823006.110   140955861.808        -264.342          45.000    26823004.986   109835708.372        -205.985          43.000  
E19  27096381.098   142392384.201        -994.892          40.000    27096383.919   109105857.181        -762.160          49.000  
G28  27597919.959   145028009.178       -2029.834          45.000    27597921.754   113008791.189       -1581.580          39.000  
R18  24743085.525   132080254.055        2492.950          50.000    24743086.382   102729024.502        1938.959          49.000  
R03  24209113.374   129593162.750         708.760          52.000    24209109.340   100794881.487         551.227          48.000  
R17  22940061.438   122757088.734       -1176.788          51.000    22940057.052    95477511.786        -915.262          47.000  
R02  23711641.415   126529856.028       -2618.857          52.000    23711641.108    98412106.884       -2036.977          48.000  
G03  24724826.690   129929789.849        -402.777          49.000    24724826.041   101243978.929        -314.093          46.000  
G21  24340389.228   127909564.523       -3208.990          47.000                                                                  
S31  42573504.254   223725314.418        -760.459          44.000  
S33  43526649.462   228734154.078        -760.079          42.000  
E33  28012182.788   147205077.683       -2164.263          46.000    28012186.375   112793468.847       -1658.478          55.000  
R01  26961664.543   144125384.389       -4158.150          45.000    26961670.167   112097500.289       -3234.083          39.000  
R24  25538743.918   136567147.764       -4634.010          52.000    25538744.000   106218833.557       -3604.207          47.000  
G02  24112305.370   126710991.662       -2245.421          49.000                                                                  
G09  27300634.816   143465816.509        2433.204          41.000    27300636.964   111791575.243        1896.317          40.000  
E12  27768658.466   145925210.528         481.610          45.000    27768657.852   111812845.948         368.996          48.000  
G04  24351611.856   127968549.363         898.223          46.000    24351610.766    99715687.294         699.951          48.000  
E10  29074137.954   152785581.570        1398.953          46.000    29074141.602   117069466.867        1071.945          49.000  
E04  29521741.928   155137792.580        1583.693          44.000    29521743.064   118871815.489        1213.529          44.000  
G17  25758984.765   135364127.575        -165.099          48.000    25758982.970   105478686.758        -128.627          44.000  
> 2024 04 17 12 56 00.0130000  0 23                     
E11  30350522.309                3       1893.458          26.000                                                                  
G31  26824568.297   140964066.685        -282.089          48.000    26824566.561   109842101.717        -219.796          43.000  
E19  27102098.525   142422430.514       -1007.946          40.000    27102101.550   109128879.623        -772.360          49.000  
G19  27825069.615   146221765.6301       1220.764          30.000                                                                  
G28  27609564.067   145089199.224       -2048.962          45.000    27609566.688   113056471.608       -1596.454          42.000  
R18  24729123.909   132005722.284        2476.251          51.000    24729123.912   102671055.347        1925.757          48.000  
R03  24205190.269   129572163.126         691.676          52.000    24205185.993   100778548.414         537.910          48.000  
R17  22946738.447   122792820.090       -1204.854          51.000    22946734.104    95505302.763        -937.295          47.000  
R02  23726401.860   126608621.101       -2631.640          52.000    23726401.107    98473368.503       -2046.880          48.000  
G03  24727147.029   129941983.944        -409.589          49.000    24727147.162   101253480.762        -319.269          46.000  
G21  24358764.816   128006130.143       -3228.317          47.000                                                                  
S31  42577852.559   223748163.823        -762.387          44.000  
S33  43530994.110   228756987.650        -761.783          43.000  
E33  28024573.269   147270190.225       -2176.042          46.000    28024577.127   112843360.157       -1667.377          55.000  
R01  26985000.758   144250127.392       -4157.644          46.000    26985005.945   112194522.212       -3233.667          38.000  
R24  25564783.135   136706386.666       -4648.204          52.000    25564782.493   106327130.263       -3615.227          47.000  
G02  24125182.681   126778660.878       -2265.416          50.000                                                                  
G09  27286771.204   143392965.709        2423.666          41.000    27286772.375   111734808.507        1888.446          38.000  
E12  27765938.559   145910914.441         471.787          45.000    27765937.563   111801891.757         361.608          49.000  
G04  24346536.409   127941878.330         880.303          46.000    24346535.657    99694904.657         685.874          49.000  
E10  29066168.630   152743703.130        1393.261          46.000    29066172.451   117037378.173        1067.465          49.000  
E04  29512728.162   155090424.089        1574.687          43.000    29512729.573   118835520.178        1206.591          45.000  
G17  25759993.886   135369431.162        -188.121          48.000    25759992.086   105482819.374        -146.583          43.000  
> 2024 04 17 12 56 30.0130000  0 21                     
G31  26826228.997   140972795.233        -299.568          46.000    26826228.644   109848903.125        -233.425          43.000  
E19  27107890.503   142452861.210       -1020.638          41.000    27107892.234   109152196.598        -782.163          49.000  
G28  27621316.050   145150950.863       -2067.725          44.000    27621318.986   113104589.550       -1611.053          43.000  
R18  24715253.230   131931684.363        2459.692          51.000    24715254.701   102613470.306        1913.049          49.000  
R03  24201360.607   129551664.264         675.048          52.000    24201357.131   100762604.844         524.968          49.000  
R17  22953570.845   122829381.667       -1232.424          51.000    22953566.071    95533739.475        -958.645          47.000  
R02  23741232.061   126687754.039       -2643.768          53.000    23741230.051    98534916.274       -2056.241          47.000  
G03  24729503.321   129954364.864        -415.741          49.000    24729503.289   101263128.179        -323.975          47.000  
G21  24377248.126   128103261.593       -3247.040          46.000                                                                  
S31  42582209.194   223771058.606        -763.804          43.000  
S33  43535348.097   228779867.666        -763.380          42.000  
E33  28037029.015   147335641.657       -2187.412          46.000    28037031.787   112893511.141       -1675.954          54.000  
R01  27008332.892   144374847.156       -4156.811          46.000    27008336.887   112291526.065       -3233.201          38.000  
R24  25590898.119   136846036.496       -4661.677          51.000    25590898.981   106435746.583       -3625.815          48.000  
G02  24138171.813   126846916.887       -2284.920          50.000                                                                  
G09  27272959.818   143320386.590        2414.893          41.000    27272961.163   111678253.395        1881.677          38.000  
E12  27763273.230   145896905.228         462.197          45.000    27763271.860   111791157.400         354.021          49.000  
G04  24341562.599   127915738.557         862.709          47.000    24341561.795    99674536.001         672.106          48.000  
E10  29058232.124   152701993.050        1387.546          46.000    29058235.292   117005418.485        1063.219          49.000  
E04  29503764.149   155043319.676        1565.914          43.000    29503765.807   118799427.194        1199.724          45.000  
G17  25761131.774   135375413.628        -210.663          47.000    25761130.025   105487480.961        -164.083          43.000  
> 2024 04 17 12 57 00.0130000  0 21                     
G31  26827989.223   140982050.015        -317.083          46.000    26827990.035   109856114.623        -247.257          43.000  
E19  27113755.059   142483677.286       -1033.439          41.000    27113755.921   109175808.862        -791.942          48.000  
G28  27633173.850   145213264.722       -2086.340          44.000    27633176.278   113153145.677       -1625.708          42.000  
R18  24701477.293   131858146.263        2443.072          50.000    24701478.749   102556274.026        1900.000          49.000  
R03  24197625.616   129531666.889         658.422          52.000    24197622.272   100747051.299         512.015          50.000  
R17  22960558.464   122866775.636       -1260.102          51.000    22960553.872    95562823.605        -980.148          47.000  
R02  23756129.602   126767253.697       -2655.934          53.000    23756129.350    98596749.258       -2065.674          49.000  
G03  24731895.532   129966934.216        -421.948          49.000    24731895.292   101272922.424        -328.839          47.000  
G21  24395839.563   128200959.024       -3265.919          47.000                                                                  
S31  42586574.781   223794000.460        -765.344          44.000  
S33  43539711.002   228802793.576        -764.777          42.000  
E33  28049548.752   147401433.645       -2198.580          46.000    28049552.090   112943923.076       -1684.709          55.000  
R01  27031660.339   144499543.751       -4155.944          47.000    27031664.726   112388511.864       -3232.648          38.000  
R24  25617089.427   136986095.988       -4675.330          50.000    25617091.287   106544681.494       -3636.328          48.000  
G02  24151272.729   126915760.945       -2304.489          50.000                                                                  
G09  27259201.352   143248082.305        2405.667          42.000    27259201.901   111621912.422        1874.676          39.000  
E12  27760662.869   145883186.033         452.575          45.000    27760661.251   111780645.239         346.819          49.000  
G04  24336689.459   127890132.372         844.855          47.000    24336688.564    99654583.099         658.338          48.000  
E10  29050327.711   152660454.514        1381.818          47.000    29050330.703   116973590.241        1058.875          49.000  
E04  29494849.998   154996481.719        1556.899          43.000    29494853.092   118763538.398        1192.894          45.000  
G17  25762399.931   135382076.708        -233.173          46.000    25762397.147   105492672.950        -181.910          42.000  
> 2024 04 17 12 57 30.0130000  0 21                     
G31  26829850.773   140991831.364        -334.453          46.000    26829850.518   109863736.390        -260.727          42.000  
E19  27119692.313   142514876.894       -1045.921          41.000    27119692.723   109199715.024        -801.543          48.000  
G28  27645138.265   145276138.995       -2105.023          43.000    27645140.561   113202138.467       -1640.186          42.000  
R18  24687795.178   131785111.258        2426.404          51.000    24687797.104   102499469.027        1887.140          49.000  
R03  24193983.359   129512169.958         641.855          52.000    24193980.691   100731887.005         499.328          51.000  
R17  22967702.357   122905001.460       -1287.790          51.000    22967698.674    95592554.730       -1001.685          48.000  
R02  23771095.639   126847116.470       -2667.869          52.000    23771095.771    98658864.649       -2075.066          49.000  
G03  24734322.754   129979690.996        -427.985          48.000    24734322.790   101282862.717        -333.502          47.000  
G21  24414537.971   128299220.263       -3284.505          46.000                                                                  
S31  42590949.329   223816989.421        -766.921          43.000  
S33  43544082.435   228825766.143        -766.152          43.000  
E33  28062134.034   147467565.347       -2209.802          47.000    28062136.785   112994595.292       -1693.184          55.000  
R01  27054983.642   144624214.844       -4155.013          47.000    27054986.603   112485477.903       -3231.722          34.000  
R24  25643356.817   137126560.922       -4688.620          50.000    25643359.081   106653931.771       -3646.650          48.000  
G02  24164484.635   126985191.549       -2323.848          49.000                                                                  
G09  27245495.186   143176053.503        2396.536          40.000    27245495.761   111565786.161        1867.107          39.000  
E12  27758106.686   145869757.405         442.971          45.000    27758106.072   111770355.736         339.467          49.000  
G04  24331918.872   127865059.499         827.104          47.000    24331917.238    99635045.765         644.462          47.000  
E10  29042456.072   152619088.159        1376.168          47.000    29042458.711   116941893.924        1054.502          49.000  
E04  29485988.350   154949910.123        1548.261          43.000    29485990.850   118727853.697        1186.242          46.000  
G17  25763797.291   135389420.126        -256.111          47.000    25763794.860   105498395.051        -199.164          43.000  
> 2024 04 17 12 58 00.0130000  0 23                     
G31  26831812.167   141002134.982        -352.081          46.000    26831811.165   109871765.080        -274.310          42.000  
E19  27125700.561   142546453.789       -1058.772          41.000    27125701.844   109223910.274        -811.254          48.000  
G28  27657208.342   145339567.412       -2123.315          43.000    27657210.819   113251563.021       -1654.608          44.000  
R18  24674207.308   131712578.274        2409.375          51.000    24674209.220   102443054.491        1874.091          49.000  
R03  24190433.831   129493166.551         625.268          53.000    24190430.254   100717106.551         486.340          50.000  
R17  22974999.462   122944053.854       -1315.394          51.000    22974996.787    95622928.723       -1023.111          49.000  
R02  23786128.614   126927334.058       -2679.743          52.000    23786128.478    98721256.034       -2084.198          49.000  
G03  24736784.656   129992629.895        -433.972          49.000    24736784.667   101292944.938        -338.312          46.000  
G21  24433342.297   128398037.943       -3303.027          46.000                                                                  
S31  42595331.396   223840019.252        -768.100          44.000  
S33  43548461.841   228848780.610        -767.764          43.000  
E33  28074782.085   147534031.450       -2221.124          47.000    28074784.785   113045523.766       -1701.837          55.000  
R01  27078299.935   144748853.359       -4153.924          47.000    27078304.269   112582418.593       -3230.990          36.000  
R12  28247094.505                1       2110.898          29.000    28247093.663                3       1641.977          29.000  
R24  25669698.760   137267422.349       -4701.901          49.000    25669701.313   106763490.406       -3657.057          48.000  
G02  24177806.700   127055202.632       -2343.292          49.000                                                                  
G09  27231840.857   143104296.466        2387.476          42.000    27231840.998   111509871.614        1860.268          40.000  
E12  27755606.399   145856615.608         433.300          45.000    27755605.008   111760285.998         332.023          49.000  
G04  24327248.217   127840515.295         809.479          48.000    24327246.483    99615920.367         630.792          47.000  
E10  29034616.549   152577890.312        1370.511          47.000    29034619.308   116910326.733        1050.142          49.000  
E04  29477175.071   154903600.414        1539.512          43.000    29477178.225   118692369.652        1179.602          46.000  
G17  25765324.232   135397438.705        -278.517          48.000    25765321.322   105504643.251        -217.073          43.000  
R11                                                                  28091253.913                3         73.186          26.000  
> 2024 04 17 12 58 30.0130000  0 23                     
G31  26833871.952   141012958.957        -369.250          46.000    26833871.037   109880199.295        -287.719          42.000  
E19  27131779.680   142578403.766       -1070.999          40.000    27131782.031   109248391.367        -820.581          48.000  
G28  27669383.693   145403545.626       -2141.437          41.000    27669385.015   113301416.024       -1668.628          43.000  
R18  24660714.160   131640548.129        2392.828          52.000    24660715.436   102387031.058        1861.060          50.000  
R03  24186973.399   129474654.111         609.269          51.000    24186971.566   100702707.948         473.838          49.000  
R17  22982450.500   122983929.816       -1342.760          50.000    22982449.671    95653943.301       -1044.433          49.000  
R02  23801226.799   127007900.595       -2691.063          52.000    23801227.027    98783918.814       -2093.007          49.000  
G03  24739280.907   130005747.541        -439.960          48.000    24739280.671   101303166.436        -342.682          46.000  
G21  24452251.687   128497407.156       -3321.187          47.000                                                                  
S31  42599721.522   223863086.271        -769.244          45.000  
S33  43552848.853   228871832.240        -768.795          43.000  
E33  28087493.289   147600828.749       -2231.697          46.000    28087495.947   113096706.006       -1710.073          55.000  
R01  27101608.677   144873454.636       -4152.511          45.000    27101613.634   112679330.282       -3230.080          37.000  
R12  28235247.789   150828093.2491       2106.084          35.000    28235250.012                2       1638.128          28.000  
R24  25696113.005   137408673.751       -4714.644          49.000    25696115.708   106873352.344       -3666.894          48.000  
G02  24191239.229   127125790.378       -2362.291          49.000                                                                  
G09  27218236.492   143032809.511        2378.544          40.000    27218238.100   111454167.547        1853.353          41.000  
E12  27753159.305   145843758.817         424.069          45.000    27753158.358   111750434.647         324.901          48.000  
G04  24322678.207   127816497.120         792.094          48.000    24322676.876    99597204.848         617.112          47.000  
E10  29026808.978   152536859.212        1365.197          48.000    29026811.065   116878887.308        1046.037          49.000  
E04  29468412.832   154857550.046        1531.053          42.000    29468415.995   118657084.355        1172.990          47.000  
G17  25766978.100   135406129.111        -300.609          48.000    25766975.707   105511414.939        -234.195          44.000  
R11                                                                  28090789.914                3         56.310          25.000  
> 2024 04 17 12 59 00.0130000  0 22                     
G31  26836028.945   141024293.586        -386.000          46.000    26836028.068   109889031.418        -300.870          42.000  
E19  27137928.332   142610715.158       -1082.670          40.000    27137930.796   109273149.388        -829.719          49.000  
G28  27681660.720   145468061.835       -2159.583          41.000    27681661.640   113351688.255       -1682.605          42.000  
R18  24647312.819   131569013.951        2376.349          52.000    24647314.748   102331393.353        1848.230          50.000  
R03  24183605.206   129456620.131         593.376          52.000    24183603.447   100688681.501         461.534          50.000  
R17  22990054.236   123024618.369       -1369.524          51.000    22990052.162    95685589.863       -1065.146          48.000  
R02  23816387.746   127088801.600       -2702.010          51.000    23816387.873    98846841.740       -2101.625          48.000  
G03  24741809.085   130019033.081        -445.459          48.000    24741808.694   101313518.750        -347.101          46.000  
G21  24471264.752   128597315.593       -3339.076          47.000                                                                  
S31  42604116.488   223886181.522        -770.129          44.000  
S33  43557240.885   228894910.723        -769.625          43.000  
E33  28100264.304   147667946.380       -2242.475          46.000    28100268.294   113148133.703       -1718.200          55.000  
R01  27124908.302   144998005.848       -4150.503          45.000    27124914.058   112776203.004       -3227.970          39.000  
R12  28223433.863   150765001.330        2100.146          34.000    28223441.837   117261309.2451       1633.512          36.000  
R24  25722599.652   137550301.027       -4726.966          50.000    25722601.209   106983506.644       -3676.459          48.000  
G02  24204779.058   127196943.220       -2381.071          48.000                                                                  
G09  27204684.142   142961583.226        2369.889          41.000    27204684.453   111398666.581        1846.883          40.000  
E12  27750765.171   145831177.693         415.133          46.000    27750764.400   111740794.516         318.101          48.000  
G04  24318205.562   127792994.706         775.011          48.000    24318204.222    99578891.250         603.844          47.000  
E10  29019030.210   152495985.641        1360.199          47.000    29019032.844   116847568.581        1042.086          49.000  
E04  29459696.315   154811748.989        1522.791          42.000    29459700.470   118621990.027        1166.852          47.000  
G17  25768757.142   135415480.933        -322.659          48.000    25768755.425   105518702.024        -251.226          44.000  
> 2024 04 17 12 59 30.0130000  0 24                     
G31  26838284.021   141036139.819        -403.587          46.000    26838281.781   109898262.168        -314.245          42.000  
E19  27144146.226   142643387.054       -1094.922          40.000    27144148.167   109298183.648        -838.968          49.000  
G19  27778467.701                        1112.396          28.000                                                                  
G28  27694040.433   145533114.793       -2177.313          40.000    27694041.107   113402378.707       -1696.698          43.000  
R18  24634005.597   131497979.970        2359.350          52.000    24634007.691   102276144.675        1835.101          49.000  
R03  24180326.888   129439064.214         577.144          52.000    24180323.359   100675026.883         448.929          50.000  
R17  22997810.960   123066119.514       -1396.962          52.000    22997806.118    95717868.449       -1086.307          47.000  
R19  28533810.485                3       3109.508          14.000                                                                  
R02  23831610.532   127170034.513       -2713.282          51.000    23831610.823    98910022.792       -2110.324          49.000  
G03  24744369.249   130032486.346        -451.111          48.000    24744368.704   101324001.756        -351.556          46.000  
G21  24490377.490   128697761.186       -3357.025          46.000                                                                  
S31  42608516.664   223909303.291        -771.116          44.000  
S33  43561637.338   228918016.222        -770.644          42.000  
E33  28113095.528   147735384.209       -2253.400          44.000    28113101.234   113199806.736       -1726.550          55.000  
R01  27148199.259   145122505.409       -4149.109          46.000    27148204.817   112873035.547       -3227.371          40.000  
R12  28211650.907                        2094.753          28.000    28211659.318   117212363.619        1629.832          37.000  
R24  25749154.168   137692300.515       -4739.492          51.000    25749156.041   107093950.387       -3686.334          48.000  
G02  24218426.137   127268660.300       -2399.936          48.000                                                                  
G09  27191179.138   142890619.011        2360.824          39.000    27191179.137   111343369.837        1839.906          39.000  
E12  27748424.608   145818873.639         405.418          46.000    27748422.938   111731366.680         310.825          48.000  
G04  24313831.335   127770008.541         757.493          48.000    24313829.717    99560979.919         590.424          47.000  
E10  29011282.144   152455271.089        1354.452          47.000    29011285.400   116816371.682        1037.859          49.000  
E04  29451028.915   154766197.925        1514.083          42.000    29451032.366   118587087.245        1160.137          47.000  
G17  25770662.479   135425493.682        -344.962          48.000    25770660.998   105526504.137        -268.806          44.000  
