     3.00           OBSERVATION DATA    M: Mixed            RINEX VERSION / TYPE
CONVBIN 2.4.3                           20240417 112942 UTC PGM / RUN BY / DATE 
format: u-blox UBX                                          COMMENT             
log: /home/regis/git/gnsspwv/obsdata/VERT00CHL/2024-04-17/VECOMMENT             
{self.marker}                                               MARKER NAME         
                                                            MARKER NUMBER       
GEODETIC                                                    MARKER TYPE         
{self.observer}     {self.institution}                      OBSERVER / AGENCY   
UNKNOWN             UBLOX-ZED-F9P                           REC # / TYPE / VERS 
UNKNOWN             TWIVSP6037L                             ANT # / TYPE        
  1713381.0000 -5047934.0000 -3490983.0000                  APPROX POSITION XYZ 
        0.0000        0.0000        0.0000                  ANTENNA: DELTA H/E/N
G    8 C1C L1C D1C S1C C2L L2L D2L S2L                      SYS / # / OBS TYPES 
R    8 C1C L1C D1C S1C C2C L2C D2C S2C                      SYS / # / OBS TYPES 
E    8 C1C L1C D1C S1C C7Q L7Q D7Q S7Q                      SYS / # / OBS TYPES 
S    4 C1C L1C D1C S1C                                      SYS / # / OBS TYPES 
  2024    04    17    11    15   00.0100000     GPS         TIME OF FIRST OBS   
  2024    04    17    11    29   30.0100000     GPS         TIME OF LAST OBS    
                                                            END OF HEADER       
> 2024 04 17 11 15 00.0100000  0 23                     
G08  24036986.553   126315246.0601      -2950.156          49.000    24036983.471    98427481.7551      -2298.960          45.000  
G31  27953715.917   146897794.5691       1654.835          41.000    27953716.151   114465787.7451       1289.580          42.000  
E19  27461799.107   144312691.1801       1556.488          44.000    27461797.594   110577268.9501       1192.549          47.000  
G27  26170209.828   137525337.2881      -4246.286          43.000    26170210.380   107162643.0171      -3308.649          43.000  
G28  27309163.097   143510610.6401       1210.586          46.000    27309161.153   111826430.6021        943.359          45.000  
R17  24156530.279   129266701.6461       2610.676          52.000    24156525.777   100540553.5191       2030.570          50.000  
R02  22747265.617   121383797.7021       1285.054          53.000    22747261.383    94409627.0421        999.418          49.000  
G03  25005822.429   131406469.3501        981.174          46.000    25005819.094   102394648.0221        764.538          44.000  
G21  22892853.150   120302770.9331        521.807          47.000                                                                  
S31  41808104.788   219703182.1471       -600.458          45.000  
S33  42761701.993   224714421.6161       -599.847          43.000  
E33  26653246.069   140063871.9111       -393.609          47.000    26653245.301   107321650.6291       -301.603          53.000  
R01  22727759.483   121492866.3621      -2690.343          50.000    22727755.443    94494464.7171      -2092.605          46.000  
R23  25394746.139   135844775.2641      -3734.588          49.000                                                                  
R24  22409854.189   119835659.3431       -685.308          53.000    22409849.409    93205476.5851       -533.093          49.000  
G02  23620804.058   124128186.4181       1085.114          47.000                                                                  
G32  25814712.229   135657235.5831      -3339.871          46.000    25814709.101   105706961.9181      -2602.343          45.000  
E12  28986279.460   152323885.1931       1335.773          43.000    28986275.793   116715736.7811       1023.329          44.000  
G04  26975340.849   141756357.7361       3186.078          43.000    26975338.342   110459439.4301       2482.599          43.000  
E07  30182470.898                1      -3048.514          27.000    30182479.586   121532320.0651      -2335.645          50.000  
E26  28689993.725   150767173.3141      -2122.263          44.000    28689995.859   115523039.9161      -1626.033          50.000  
E14  29684355.317   155992391.4081       -580.975          44.000    29684356.246   119526659.0441       -445.136          48.000  
E31                                                                  30719862.850                3      -2206.885          22.000  
> 2024 04 17 11 15 30.0100000  0 23                     
G08  24053871.179   126403976.317       -2965.604          49.000    24053868.287    98496622.126       -2310.755          45.000  
G31  27944265.517   146848130.957        1655.404          43.000    27944265.496   114427088.873        1289.813          41.000  
E19  27452939.931   144266135.755        1546.905          44.000    27452938.667   110541596.567        1185.323          47.000  
G27  26194465.224   137652796.670       -4251.616          43.000    26194465.092   107261961.808       -3312.971          43.000  
G28  27302275.002   143474414.835        1201.913          46.000    27302273.165   111798226.045         936.608          45.000  
R17  24141910.493   129188471.148        2604.198          51.000    24141906.892   100479707.534        2025.430          50.000  
R02  22740099.775   121345561.378        1263.747          53.000    22740095.969    94379887.601         982.923          48.000  
G03  25000241.181   131377142.816         973.665          46.000    25000238.708   102371796.131         758.696          44.000  
G21  22889911.867   120287313.812         508.475          48.000                                                                  
S31  41811529.804   219721180.799        -599.768          45.000  
S33  42765124.404   224732406.279        -599.590          43.000  
E33  26655505.705   140075744.666        -398.363          47.000    26655504.644   107330747.859        -305.190          53.000  
R01  22742903.762   121573828.844       -2707.588          49.000    22742901.912    94557435.462       -2105.856          46.000  
R23  25415722.497   135956984.241       -3746.437          48.000                                                                  
R24  22413751.498   119856500.627        -704.549          52.000    22413746.965    93221686.404        -547.923          49.000  
G02  23614637.418   124095778.445        1075.067          47.000                                                                  
G32  25833813.217   135757614.391       -3352.548          44.000    25833811.389   105785179.050       -2612.634          44.000  
E12  28978650.710   152283796.498        1336.095          42.000    28978647.390   116685019.389        1023.823          44.000  
G04  26957158.845   141660809.590        3183.398          44.000    26957156.258   110384986.210        2480.707          43.000  
E26  28702120.485   150830903.536       -2127.092          44.000    28702122.934   115571872.022       -1629.812          50.000  
E14  29687668.239   156009796.131        -579.649          45.000    29687668.616   119539995.024        -444.092          48.000  
E31                                                                  30736333.832                3      -2210.312          26.000  
E07                                                                  30199897.126   121602452.611       -2340.152          50.000  
> 2024 04 17 11 16 00.0100000  0 24                     
G08  24070847.486   126493185.258       -2981.766          49.000    24070844.437    98566135.498       -2323.423          44.000  
G31  27934817.167   146798476.503        1654.582          45.000    27934816.972   114388397.041        1289.366          41.000  
E19  27444138.621   144219885.485        1536.309          44.000    27444137.717   110506158.013        1177.091          47.000  
G27  26218754.999   137780441.201       -4258.007          42.000    26218755.338   107361424.881       -3318.044          43.000  
G28  27295440.641   143438499.259        1192.261          46.000    27295439.624   111770239.855         928.962          46.000  
R17  24127331.218   129110453.278        2596.730          51.000    24127327.313   100419026.919        2019.701          50.000  
R02  22733058.091   121307986.995        1241.069          52.000    22733055.020    94350663.058         965.314          49.000  
G03  24994706.538   131348059.285         965.185          45.000    24994704.823   102349133.592         752.018          45.000  
G21  22887050.754   120272276.798         493.974          48.000                                                                  
S31  41814956.554   219739186.964        -600.523          45.000  
S33  42768548.415   224750400.107        -600.182          43.000  
E33  26657795.534   140087781.079        -404.199          47.000    26657795.069   107339970.506        -309.780          52.000  
R01  22758148.981   121655324.761       -2725.639          48.000    22758147.354    94620821.111       -2119.962          46.000  
R23  25436768.749   136069568.309       -3759.320          47.000                                                                  
R24  22417760.469   119877937.785        -724.745          52.000    22417755.566    93238359.674        -563.765          49.000  
G02  23608531.807   124063692.064        1064.008          48.000                                                                  
G32  25852990.454   135858397.369       -3366.439          42.000    25852989.279   105863711.126       -2623.190          44.000  
E12  28971022.555   152243712.219        1335.674          42.000    28971019.839   116654305.396        1023.445          44.000  
G04  26938995.456   141565357.779        3179.895          44.000    26938992.703   110310608.073        2477.759          44.000  
E26  28714281.145   150894800.221       -2132.895          45.000    28714282.488   115620831.699       -1634.375          50.000  
E14  29690977.701   156027186.772        -579.702          46.000    29690978.353   119553320.210        -444.348          49.000  
E31                                                                  30752806.088                3      -2211.805          25.000  
E07                                                                  30217353.446   121672740.496       -2345.696          50.000  
R03                                                                  26986957.573                3       2527.690          17.000  
> 2024 04 17 11 16 30.0100000  0 24                     
G08  24087914.889   126582878.395       -2997.942          49.000    24087912.794    98636026.181       -2336.181          44.000  
G31  27925371.324   146748841.815        1654.096          44.000    27925370.800   114349720.622        1289.194          41.000  
E19  27435397.828   144173949.636        1525.983          44.000    27435396.829   110470960.361        1169.185          47.000  
G27  26243081.252   137908275.930       -4264.597          42.000    26243081.213   107461036.124       -3322.829          42.000  
G28  27288661.187   143402874.578        1182.728          45.000    27288660.277   111742480.351         921.267          46.000  
R17  24112793.890   129032659.294        2589.319          52.000    24112789.259   100358520.436        2013.920          50.000  
R02  22726143.092   121271083.773        1218.833          53.000    22726139.177    94321960.520         947.948          49.000  
G03  24989220.058   131319226.218         956.798          46.000    24989218.342   102326666.198         745.526          46.000  
G21  22884271.530   120257669.974         479.600          48.000                                                                  
S31  41818386.042   219757208.989        -601.112          45.000  
S33  42771975.145   224768406.678        -600.474          43.000  
E33  26660119.776   140099989.958        -409.876          47.000    26660118.286   107349325.281        -314.076          52.000  
R01  22773495.866   121737358.839       -2743.403          49.000    22773493.712    94684625.305       -2133.885          46.000  
R23  25457886.236   136182533.540       -3771.968          47.000                                                                  
R24  22421882.713   119899980.260        -744.872          52.000    22421878.526    93255503.761        -579.406          50.000  
G02  23602489.735   124031937.394        1052.780          48.000                                                                  
G32  25872247.317   135959589.596       -3379.746          41.000    25872246.326   105942562.056       -2633.761          44.000  
E12  28963396.114   152203640.838        1335.688          41.000    28963394.749   116623601.290        1023.406          44.000  
G04  26920851.976   141470012.747        3175.909          44.000    26920849.108   110236313.129        2474.902          44.000  
E26  28726474.065   150958871.689       -2138.580          46.000    28726474.626   115669925.278       -1638.685          50.000  
E14  29694286.471   156044571.368        -579.301          46.000    29694286.944   119566640.739        -443.853          49.000  
E31                                                                  30769288.652                3      -2214.039          25.000  
E07                                                                  30234849.228   121743188.380       -2350.879          50.000  
R03                                                                  26670141.509                2       2660.303          27.000  
> 2024 04 17 11 17 00.0100000  0 24                     
G08  24105074.668   126673050.427       -3013.432          49.000    24105071.679    98706290.024       -2348.029          45.000  
G31  27915930.555   146699226.787        1653.812          43.000    27915929.018   114311059.521        1289.046          41.000  
E19  27426716.147   144128326.667        1515.797          44.000    27426715.344   110436002.451        1161.446          47.000  
G27  26267442.620   138036295.160       -4270.074          42.000    26267441.402   107560791.166       -3327.345          41.000  
G28  27281937.316   143367540.777        1173.276          45.000    27281936.550   111714947.479         914.124          46.000  
R17  24098298.507   128955089.716        2582.206          52.000    24098293.474   100298188.503        2008.263          49.000  
R02  22719351.613   121234849.465        1196.847          52.000    22719349.582    94293778.238         930.937          50.000  
G03  24983781.042   131290640.294         949.093          47.000    24983778.447   102304391.416         739.552          46.000  
G21  22881573.369   120243492.863         465.743          48.000                                                                  
S31  41821817.770   219775243.323        -600.976          44.000  
S33  42775404.579   224786427.804        -600.750          43.000  
E33  26662475.809   140112369.442        -415.217          48.000    26662474.275   107358810.774        -318.138          52.000  
R01  22788941.821   121819924.364       -2760.663          49.000    22788939.236    94748842.863       -2147.142          46.000  
R23  25479074.918   136295876.143       -3784.095          47.000    25479748.398                3      -3102.828          13.000  
R24  22426117.950   119922626.787        -764.713          52.000    22426113.797    93273117.660        -594.770          49.000  
G02  23596509.615   124000513.463        1042.243          48.000                                                                  
G32  25891581.394   136061185.522       -3392.669          43.000    25891579.046   106021727.569       -2643.667          44.000  
E12  28955772.656   152163580.271        1335.591          41.000    28955771.327   116592905.456        1023.367          44.000  
G04  26902728.288   141374774.158        3173.132          45.000    26902726.059   110162101.158        2472.504          45.000  
E26  28738699.490   151023115.418       -2144.096          47.000    28738700.205   115719150.851       -1642.832          50.000  
E14  29697593.131   156061947.341        -578.833          46.000    29697593.324   119579954.652        -443.474          48.000  
E31                                                                  30785775.250                3      -2210.996          20.000  
E07                                                                  30252384.282   121813792.801       -2355.824          50.000  
R03                                                                  26650934.564                1       2655.220          26.000  
> 2024 04 17 11 17 30.0100000  0 24                     
G08  24122322.134   126763685.419       -3029.350          49.000    24122319.995    98776914.593       -2360.544          46.000  
G31  27906490.924   146649620.266        1652.896          43.000    27906489.262   114272405.059        1287.776          41.000  
E19  27418091.883   144083004.214        1505.271          45.000    27418090.597   110401274.812        1153.378          47.000  
G27  26291836.104   138164482.512       -4276.095          43.000    26291834.747   107660677.254       -3332.100          41.000  
G28  27275266.545   143332487.169        1163.260          44.000    27275265.777   111687632.931         906.537          44.000  
R03  26631740.243                1       3405.841          28.000    26631741.572   110881547.7091       2648.936          32.000  
R17  24083842.737   128877734.058        2574.444          52.000    24083837.489   100238022.959        2002.292          50.000  
R02  22712684.747   121199271.646        1174.431          52.000    22712682.455    94266106.565         913.453          49.000  
G03  24978385.109   131262287.555         940.872          47.000    24978382.786   102282298.340         732.929          45.000  
G21  22878954.940   120229734.072         451.260          48.000                                                                  
S31  41825249.340   219793275.969        -601.711          45.000  
S33  42778833.789   224804447.125        -600.751          43.000  
E33  26664862.035   140124906.976        -420.908          48.000    26664860.395   107368417.391        -322.584          53.000  
R01  22804483.503   121903004.095       -2778.231          49.000    22804480.749    94813460.369       -2160.898          46.000  
R23  25500331.374   136409580.659       -3796.664          48.000                                                                  
R24  22430463.761   119945865.184        -784.896          52.000    22430459.231    93291191.891        -610.506          49.000  
G02  23590590.517   123969408.742        1031.109          47.000                                                                  
G32  25910988.884   136163168.874       -3406.313          42.000    25910985.015   106101194.913       -2654.264          42.000  
E12  28948149.894   152123517.670        1335.021          41.000    28948147.487   116562208.068        1022.984          44.000  
G04  26884623.489   141279631.112        3169.489          45.000    26884621.202   110087963.653        2469.562          45.000  
E07  30269950.049   159069623.6901      -3081.550          30.000    30269954.979   121884542.081       -2360.995          49.000  
E26  28750954.534   151087518.303       -2149.847          47.000    28750955.020   115768498.360       -1647.316          49.000  
E14  29700895.887   156079301.329        -578.520          46.000    29700895.675   119593251.731        -443.227          48.000  
E31                                                                  30802262.347                3      -2211.013          20.000  
> 2024 04 17 11 18 00.0100000  0 24                     
G08  24139658.657   126854788.157       -3044.604          49.000    24139656.590    98847903.609       -2372.439          46.000  
G31  27897055.332   146600032.642        1652.607          44.000    27897053.230   114233765.264        1287.802          40.000  
E19  27409525.459   144037990.885        1495.221          44.000    27409524.611   110366784.024        1145.776          47.000  
G27  26316262.785   138292842.450       -4281.390          43.000    26316261.149   107760697.745       -3336.352          42.000  
G28  27268651.173   143297723.717        1153.757          44.000    27268649.371   111660544.506         899.187          42.000  
R03  26612675.560   142459646.8011       3398.684          33.000    26612673.064   110802154.755        2643.960          32.000  
R17  24069428.970   128800603.139        2567.208          52.000    24069424.012   100178032.179        1996.740          49.000  
R02  22706141.218   121164358.239        1152.678          52.000    22706139.261    94238951.645         896.501          49.000  
G03  24973035.780   131234174.814         932.881          46.000    24973032.546   102260392.240         726.989          45.000  
G21  22876418.436   120216402.713         437.139          49.000                                                                  
S31  41828682.872   219811315.839        -601.431          45.000  
S33  42782263.984   224822473.121        -601.128          43.000  
E33  26667278.990   140137610.808        -426.248          48.000    26667278.257   107378151.429        -326.542          53.000  
R01  22820121.774   121986602.101       -2795.253          49.000    22820120.130    94878480.993       -2173.940          46.000  
R23  25521655.605   136523653.009       -3808.534          47.000                                                                  
R24  22434921.609   119969704.014        -804.676          52.000    22434917.031    93309733.134        -625.814          49.000  
G02  23584733.535   123938632.624        1020.415          47.000                                                                  
G32  25930471.645   136265543.957       -3419.032          43.000    25930468.531   106180967.548       -2664.273          44.000  
E12  28940527.701   152083460.929        1335.384          41.000    28940524.762   116531515.192        1023.038          44.000  
G04  26866538.461   141184593.413        3166.034          45.000    26866536.067   110013908.205        2467.041          45.000  
E07  30287550.420                       -3087.473          31.000    30287563.144   121955440.425       -2365.713          50.000  
E26  28763243.174   151152087.910       -2155.055          47.000    28763241.470   115817973.627       -1651.259          48.000  
E14  29704196.299   156096640.755        -577.588          46.000    29704195.608   119606537.664        -442.634          48.000  
E31                                                                  30818753.017                3      -2205.863          20.000  
> 2024 04 17 11 18 30.0100000  0 24                     
G08  24157081.881   126946347.455       -3060.134          49.000    24157079.683    98919248.460       -2384.533          46.000  
G31  27887622.998   146550458.050        1651.532          45.000    27887619.433   114195135.687        1287.019          41.000  
E19  27401017.262   143993279.353        1484.676          44.000    27401016.708   110332524.471        1137.825          47.000  
G27  26340720.431   138421363.471       -4287.142          43.000    26340718.702   107860843.767       -3340.841          43.000  
G28  27262090.066   143263244.654        1143.906          45.000    27262087.939   111633677.583         891.438          43.000  
R03  26593646.532                        3391.583          30.000    26593650.362   110722928.300        2637.536          34.000  
R17  24055056.347   128723691.793        2559.472          52.000    24055051.524   100118212.185        1990.706          50.000  
R02  22699722.148   121130101.299        1130.422          52.000    22699718.924    94212307.295         879.242          48.000  
G03  24967729.811   131206292.960         924.891          45.000    24967727.032   102238666.079         720.618          45.000  
G21  22873961.743   120203492.134         422.788          48.000                                                                  
S31  41832114.788   219829353.183        -601.616          45.000  
S33  42785693.512   224840496.483        -601.387          43.000  
E33  26669726.243   140150473.263        -431.930          47.000    26669725.923   107388007.021        -330.969          53.000  
R01  22835855.698   122070705.638       -2812.273          49.000    22835853.577    94943894.777       -2187.279          46.000  
R23  25543047.878   136638082.530       -3820.773          48.000                                                                  
R24  22439490.969   119994136.352        -824.809          53.000    22439485.547    93328736.004        -641.563          49.000  
G02  23578938.572   123908178.377        1009.164          47.000                                                                  
G32  25950025.007   136368299.398       -3432.057          44.000    25950022.096   106261036.635       -2674.312          44.000  
E12  28932905.293   152043402.120        1334.609          42.000    28932901.820   116500820.727        1022.729          44.000  
G04  26848472.143   141089655.005        3162.518          45.000    26848469.928   109939930.124        2464.282          45.000  
E07  30305200.566   159254865.192       -3093.975          35.000    30305205.750   122026479.931       -2370.658          49.000  
E26  28775560.075   151216815.914       -2160.772          47.000    28775558.638   115867570.280       -1655.632          47.000  
E14  29707491.038   156113957.243        -577.411          46.000    29707491.340   119619806.004        -442.418          49.000  
E31                                                                  30835245.728                3      -2231.519          13.000  
> 2024 04 17 11 19 00.0100000  0 23                     
G08  24174593.258   127038374.634       -3075.497          48.000    24174592.616    98990957.851       -2396.464          46.000  
G31  27878194.039   146500912.553        1651.018          45.000    27878192.052   114156528.781        1286.524          42.000  
E19  27392568.869   143948884.597        1474.554          44.000    27392568.800   110298507.688        1129.745          47.000  
G27  26365210.234   138550056.432       -4292.675          43.000    26365208.739   107961123.771       -3345.164          43.000  
G28  27255587.371   143229066.475        1134.062          44.000    27255584.596   111607045.208         883.659          43.000  
R03  26574661.641                        3384.030          30.000    26574664.200   110643880.917        2631.860          35.000  
R17  24040727.746   128647017.019        2551.787          53.000    24040723.030   100058576.189        1984.661          50.000  
R02  22693428.469   121096515.813        1108.239          52.000    22693425.149    94186185.211         861.836          48.000  
G03  24962470.948   131178655.259         916.936          46.000    24962467.486   102217130.177         714.527          45.000  
G21  22871588.246   120191018.379         408.578          48.000                                                                  
S31  41835549.420   219847401.877        -601.799          45.000  
S33  42789125.517   224858531.199        -601.587          43.000  
E33  26672206.899   140163509.083        -437.542          48.000    26672206.560   107397995.441        -335.225          53.000  
R01  22851685.528   122155325.442       -2829.228          49.000    22851684.088    95009710.099       -2200.501          47.000  
R23  25564508.036   136752881.897       -3832.737          47.000                                                                  
R24  22444173.356   120019177.555        -844.994          52.000    22444168.396    93348212.450        -657.178          49.000  
G02  23573208.107   123878061.933         998.242          47.000                                                                  
G32  25969652.748   136471446.203       -3444.726          46.000    25969651.497   106341410.630       -2684.076          43.000  
E12  28925284.207   152003355.771        1334.610          42.000    28925281.487   116470135.795        1022.662          44.000  
G04  26830427.941   140994832.186        3158.752          44.000    26830425.007   109866042.114        2461.438          44.000  
E07  30322878.916   159347774.323       -3100.532          34.000    30322886.125   122097669.820       -2375.581          48.000  
E26  28787909.467   151281716.493       -2166.313          46.000    28787908.986   115917299.149       -1659.909          48.000  
E14  29710784.433   156131264.663        -576.805          46.000    29710784.866   119633067.388        -441.945          49.000  
> 2024 04 17 11 19 30.0100000  0 23                     
G08  24192193.148   127130858.002       -3090.329          49.000    24192191.223    99063022.737       -2408.264          46.000  
G31  27868768.914   146451389.757        1650.140          44.000    27868769.090   114117939.570        1286.048          43.000  
E19  27384179.824   143904798.701        1464.167          44.000    27384179.165   110264727.532        1121.990          47.000  
G27  26389729.883   138678909.317       -4297.797          42.000    26389728.738   108061528.392       -3349.001          42.000  
G28  27249139.618   143195182.687        1124.394          44.000    27249136.954   111580642.229         876.049          43.000  
R03  26555717.061   142154743.467        3376.414          34.000    26555716.908   110565007.432        2625.709          34.000  
R17  24026442.137   128570573.117        2544.212          52.000    24026437.975    99999119.777        1978.767          50.000  
R02  22687259.197   121063593.070        1086.279          53.000    22687255.397    94160578.600         844.881          48.000  
G03  24957256.284   131151252.050         909.327          46.000    24957253.207   102195777.001         708.413          46.000  
G21  22869295.894   120178974.111         394.229          48.000                                                                  
S31  41838984.195   219865452.946        -601.747          45.000  
S33  42792558.178   224876568.155        -601.348          43.000  
E33  26674719.251   140176710.036        -442.936          48.000    26674718.557   107408110.387        -339.331          53.000  
R01  22867609.529   122240448.528       -2845.834          49.000    22867607.990    95075916.884       -2213.518          46.000  
R23  25586035.894   136868040.181       -3844.572          48.000                                                                  
R24  22448969.219   120044819.994        -864.914          53.000    22448964.239    93368156.506        -672.691          49.000  
G02  23567539.968   123848276.045         987.353          47.000                                                                  
G32  25989352.583   136574972.358       -3457.134          46.000    25989352.608   106422080.236       -2694.064          43.000  
E12  28917664.166   151963313.342        1334.608          42.000    28917661.758   116439453.880        1022.568          45.000  
G04  26812404.545   140900118.324        3155.267          44.000    26812400.827   109792239.021        2458.582          43.000  
E07  30340595.528   159440868.848       -3106.546          37.000    30340601.485   122169001.731       -2380.064          47.000  
E26  28800291.528   151346780.720       -2171.505          46.000    28800291.924   115967153.428       -1663.899          49.000  
E14  29714074.439   156148554.060        -576.099          46.000    29714074.940   119646314.985        -441.425          49.000  
> 2024 04 17 11 20 00.0100000  0 23                     
G08  24209878.204   127223796.940       -3105.590          49.000    24209876.362    99135442.613       -2420.003          45.000  
G31  27859350.842   146401894.567        1649.165          44.000    27859350.126   114079371.856        1285.116          43.000  
E19  27375849.664   143861024.914        1453.815          44.000    27375849.305   110231186.529        1113.985          47.000  
G27  26414279.551   138807921.218       -4302.754          40.000    26414278.893   108162056.915       -3352.886          42.000  
G28  27242748.106   143161598.001        1114.354          45.000    27242746.511   111554472.325         868.255          43.000  
R03  26536818.170   142053563.160        3368.780          36.000    26536814.049   110486311.551        2620.041          34.000  
R17  24012200.954   128494365.392        2536.141          52.000    24012196.732    99939847.026        1972.633          50.000  
R02  22681214.477   121031335.599        1064.131          53.000    22681209.578    94135489.421         827.618          48.000  
G03  24952086.816   131124084.831         901.337          47.000    24952083.870   102174607.673         702.439          46.000  
G21  22867086.505   120167363.391         379.738          48.000                                                                  
S31  41842420.313   219883507.513        -602.053          45.000  
S33  42795991.231   224894609.536        -601.705          43.000  
E33  26677263.041   140190078.990        -448.528          48.000    26677262.354   107418354.065        -343.690          53.000  
R01  22883627.665   122326073.344       -2862.544          48.000    22883625.922    95142513.889       -2226.409          46.000  
R23  25607630.894   136983558.164       -3856.660          49.000                                                                  
R24  22453877.390   120071066.692        -885.103          53.000    22453872.804    93388570.538        -688.347          49.000  
G02  23561935.334   123818824.440         976.063          47.000                                                                  
G32  26009124.466   136678876.980       -3469.847          45.000    26009123.832   106503044.759       -2704.086          41.000  
E12  28910046.115   151923277.555        1334.256          43.000    28910043.513   116408777.024        1022.497          45.000  
G04  26794402.777   140805517.898        3151.416          44.000    26794399.562   109718524.307        2455.774          43.000  
E07  30358347.622   159534148.906       -3112.667          40.000    30358352.359   122240475.806       -2384.754          47.000  
E26  28812702.261   151412010.940       -2177.150          44.000    28812704.557   116017134.860       -1668.159          49.000  
E14  29717360.881   156165827.491        -575.679          46.000    29717362.003   119659550.353        -441.040          49.000  
> 2024 04 17 11 20 30.0100000  0 23                     
G08  24227649.534   127317186.637       -3120.591          48.000    24227648.157    99208213.703       -2431.672          46.000  
G31  27849937.846   146352427.293        1648.399          44.000    27849936.137   114040825.925        1284.268          41.000  
E19  27367578.795   143817561.940        1443.548          44.000    27367578.596   110197883.683        1106.175          47.000  
G27  26438858.737   138937087.080       -4308.174          40.000    26438858.886   108262705.373       -3356.738          43.000  
G28  27236414.309   143128312.970        1104.391          44.000    27236412.902   111528535.889         860.621          43.000  
R03  26517959.615   141952610.785        3360.754          34.000    26517956.578   110407792.978        2614.035          33.000  
R17  23998004.050   128418395.133        2528.447          52.000    23997999.477    99880758.993        1966.557          48.000  
R02  22675293.556   120999741.887        1042.131          53.000    22675289.851    94110916.489         810.452          48.000  
G03  24946961.869   131097150.818         894.041          47.000    24946958.661   102153620.077         696.613          46.000  
G21  22864959.866   120156186.191         365.463          47.000                                                                  
S31  41845856.557   219901564.023        -602.137          45.000  
S33  42799424.401   224912652.020        -601.351          43.000  
E33  26679838.657   140203614.685        -453.868          48.000    26679838.181   107428725.506        -347.764          52.000  
R01  22899739.295   122412194.084       -2878.932          50.000    22899736.666    95209496.621       -2239.256          46.000  
R23  25629293.123   137099431.655       -3868.335          48.000                                                                  
R24  22458897.622   120097916.928        -905.107          52.000    22458892.609    93409453.980        -703.829          48.000  
G02  23556394.080   123789707.238         964.982          47.000                                                                  
G32  26028968.383   136783155.001       -3482.124          47.000    26028968.292   106584300.216       -2713.403          42.000  
E12  28902429.106   151883246.888        1334.398          43.000    28902426.152   116378104.104        1022.440          45.000  
G04  26776423.148   140711031.226        3147.791          43.000    26776419.310   109644898.256        2452.643          43.000  
E07  30376133.478   159627610.519       -3118.616          41.000    30376137.549   122312089.035       -2389.476          45.000  
E26  28825146.955   151477405.192       -2182.418          44.000    28825148.608   116067242.003       -1672.279          49.000  
E14  29720644.467   156183082.951        -574.802          45.000    29720645.259   119672771.949        -440.448          48.000  
> 2024 04 17 11 21 00.0100000  0 23                     
G08  24245505.984   127411020.894       -3135.266          48.000    24245504.350    99281331.204       -2443.006          46.000  
G31  27840528.806   146302986.718        1647.381          42.000    27840527.905   114002300.765        1283.684          40.000  
E19  27359366.539   143774407.488        1433.554          43.000    27359366.814   110164817.250        1098.243          47.000  
G27  26463466.434   139066400.295       -4312.923          40.000    26463466.599   108363468.674       -3360.633          43.000  
G28  27230137.267   143095326.564        1094.581          45.000    27230136.295   111502832.181         852.766          43.000  
R03  26499142.434   141851885.627        3353.678          40.000    26499139.341   110329451.034        2608.576          36.000  
R17  23983851.689   128342661.965        2520.519          52.000    23983846.690    99821855.355        1960.224          49.000  
R02  22669496.578   120968809.074        1020.029          53.000    22669493.531    94086857.587         793.423          48.000  
G03  24941878.957   131070445.903         886.221          46.000    24941877.248   102132810.982         690.700          46.000  
G21  22862914.984   120145441.124         350.967          48.000                                                                  
S31  41849292.390   219919619.117        -601.956          45.000  
S33  42802857.461   224930692.969        -601.458          43.000  
E33  26682446.196   140217314.456        -459.429          48.000    26682445.047   107439222.653        -351.946          52.000  
R01  22915941.089   122498803.076       -2895.056          50.000    22915938.243    95276859.085       -2251.593          46.000  
R23  25651019.829   137215655.298       -3880.049          46.000                                                                  
R24  22464031.287   120125368.305        -925.121          53.000    22464026.854    93430804.962        -719.469          49.000  
G02  23550916.746   123760922.578         953.837          48.000                                                                  
G32  26048881.374   136887799.967       -3494.325          47.000    26048880.501   106665841.603       -2723.082          41.000  
E12  28894812.220   151843218.292        1334.273          43.000    28894809.092   116347432.773        1022.301          45.000  
G04  26758464.098   140616657.218        3143.683          43.000    26758461.217   109571359.971        2449.725          43.000  
E07  30393952.139   159721248.264       -3124.203          42.000    30393956.779   122383837.230       -2393.725          46.000  
E26  28837623.565   151542960.142       -2187.885          45.000    28837623.384   116117472.280       -1676.446          49.000  
E14  29723925.081   156200316.915        -574.094          46.000    29723925.133   119685977.070        -439.880          48.000  
> 2024 04 17 11 21 30.0100000  0 23                     
G08  24263445.355   127505296.810       -3149.939          48.000    24263444.337    99354792.863       -2454.470          46.000  
G31  27831126.065   146253575.687        1646.293          41.000    27831124.903   113963798.580        1282.988          40.000  
E19  27351214.085   143731562.638        1422.731          44.000    27351213.639   110131988.001        1090.253          47.000  
G27  26488102.332   139195857.748       -4317.841          42.000    26488101.752   108464344.358       -3364.342          42.000  
G28  27223917.929   143062641.282        1084.243          45.000    27223916.070   111477363.067         844.899          43.000  
R03  26480368.073   141751390.237        3345.782          43.000    26480365.780   110251287.893        2601.858          38.000  
R17  23969743.553   128267168.952        2512.183          52.000    23969739.225    99763138.479        1953.979          49.000  
R02  22663823.565   120938537.376         997.724          53.000    22663821.096    94063312.897         776.062          49.000  
G03  24936841.262   131043969.275         878.490          46.000    24936839.488   102112179.786         684.491          47.000  
G21  22860952.720   120135129.678         336.266          48.000                                                                  
S31  41852727.353   219937671.889        -601.937          45.000  
S33  42806290.243   224948731.729        -601.457          43.000  
E33  26685084.691   140231178.907        -465.183          48.000    26685083.516   107449845.998        -356.340          53.000  
R01  22932232.993   122585896.615       -2911.311          49.000    22932230.675    95344598.451       -2264.356          45.000  
R23  25672811.292   137332227.233       -3891.803          46.000                                                                  
R24  22469278.121   120153421.739        -945.457          53.000    22469272.671    93452624.235        -735.223          48.000  
G02  23545503.680   123732472.136         942.498          48.000                                                                  
G32  26068864.062   136992808.706       -3506.591          46.000    26068862.420   106747666.420       -2732.425          40.000  
E12  28887195.463   151803192.321        1333.721          43.000    28887192.145   116316763.455        1021.902          45.000  
G04  26740527.055   140522398.115        3139.673          43.000    26740524.362   109497911.255        2446.564          43.000  
E07  30411804.105   159815060.179       -3130.167          43.000    30411808.524   122455718.859       -2398.500          46.000  
E26  28850128.914   151608675.792       -2193.360          45.000    28850129.358   116167825.690       -1680.664          50.000  
E14  29727200.310   156217529.250        -573.581          46.000    29727200.708   119699165.599        -439.497          49.000  
> 2024 04 17 11 22 00.0100000  0 23                     
G08  24281468.240   127600006.833       -3164.330          48.000    24281467.679    99428592.770       -2465.610          47.000  
G31  27821728.499   146204191.610        1645.829          42.000    27821727.296   113925317.486        1282.492          40.000  
E19  27343119.521   143689023.350        1412.938          44.000    27343118.747   110099392.920        1082.537          47.000  
G27  26512763.957   139325451.567       -4322.003          43.000    26512762.626   108565326.327       -3367.817          41.000  
G28  27217753.945   143030254.836        1074.654          42.000    27217751.911   111452126.826         837.519          42.000  
R03  26461636.671   141651121.782        3338.438          41.000    26461633.898   110173301.149        2596.617          41.000  
R17  23955679.991   128191914.661        2504.449          51.000    23955676.314    99704607.311        1947.998          50.000  
R02  22658274.543   120908922.130         976.124          53.000    22658271.373    94040278.761         759.269          48.000  
G03  24931845.629   131017715.361         871.397          47.000    24931843.110   102091722.140         679.032          47.000  
G21  22859072.401   120125248.879         321.999          48.000                                                                  
S31  41856161.377   219955717.385        -601.489          45.000  
S33  42809721.805   224966763.307        -600.936          43.000  
E33  26687753.693   140245204.066        -470.175          48.000    26687752.640   107460592.477        -360.314          53.000  
R01  22948614.662   122673466.133       -2926.968          49.000    22948612.457    95412708.004       -2276.289          45.000  
R23  25694667.112   137449140.888       -3902.662          46.000                                                                  
R24  22474636.400   120182073.589        -965.073          53.000    22474630.379    93474908.970        -750.611          48.000  
G02  23540152.687   123704353.102         931.804          49.000                                                                  
G32  26088914.405   137098173.381       -3518.000          46.000    26088913.592   106829768.619       -2740.899          41.000  
E12  28879577.938   151763164.650        1333.949          42.000    28879575.112   116286092.818        1022.242          45.000  
G04  26722612.207   140428251.488        3136.267          43.000    26722609.202   109424550.169        2443.799          43.000  
E07  30429687.712   159909039.517       -3135.343          43.000    30429692.404   122527728.746       -2402.438          46.000  
E26  28862662.246   151674547.429       -2198.322          44.000    28862664.888   116218298.658       -1684.520          50.000  
E14  29730471.050   156234715.136        -572.541          46.000    29730471.184   119712333.857        -438.711          49.000  
> 2024 04 17 11 22 30.0100000  0 23                     
G08  24299572.367   127695138.652       -3178.257          49.000    24299570.613    99502721.345       -2476.533          47.000  
G31  27812334.464   146154827.702        1644.830          44.000    27812333.919   113886852.092        1281.630          41.000  
E19  27335081.432   143646781.212        1402.718          44.000    27335080.307   110067025.518        1074.878          47.000  
G27  26537448.768   139455169.205       -4326.232          43.000    26537446.793   108666404.798       -3371.031          41.000  
G28  27211646.708   142998160.196        1064.868          44.000    27211645.210   111427118.010         829.578          42.000  
R03  26442946.940   141551072.363        3330.946          41.000    26442943.736   110095484.851        2590.828          43.000  
R17  23941660.766   128116892.505        2496.509          52.000    23941657.140    99646256.689        1941.736          49.000  
R02  22652845.033   120879954.336         954.474          53.000    22652842.613    94017748.234         742.321          48.000  
G03  24926889.670   130991674.042         864.202          47.000    24926887.376   102071430.163         673.443          46.000  
G21  22857273.310   120115790.919         307.893          48.000                                                                  
S31  41859592.303   219973745.646        -601.036          44.000  
S33  42813149.672   224984778.158        -600.356          43.000  
E33  26690451.632   140259381.124        -475.487          48.000    26690450.407   107471455.351        -364.329          53.000  
R01  22965083.054   122761497.791       -2942.293          49.000    22965081.001    95481176.992       -2288.210          46.000  
R23  25716584.222   137566384.358       -3913.957          47.000                                                                  
R24  22480104.868   120211315.273        -984.873          52.000    22480099.267    93497652.439        -765.987          48.000  
G02  23534863.702   123676557.629         920.839          49.000                                                                  
G32  26109030.517   137203881.517       -3529.465          46.000    26109028.420   106912138.473       -2750.286          41.000  
E12  28871958.110   151723126.388        1334.271          41.000    28871956.327   116255414.080        1022.541          45.000  
G04  26704716.594   140334210.203        3132.642          42.000    26704713.783   109351271.154        2441.150          42.000  
E07  30447600.773   160003174.861       -3140.704          43.000    30447605.766   122599858.183       -2406.549          45.000  
E26  28875225.785   151740565.763       -2203.363          44.000    28875227.747   116268884.006       -1688.295          50.000  
E14  29733734.608   156251865.029        -571.434          47.000    29733734.514   119725474.531        -437.804          49.000  
> 2024 04 17 11 23 00.0100000  0 23                     
G08  24317759.085   127790706.491       -3192.687          49.000    24317756.177    99577189.669       -2487.855          46.000  
G31  27802949.153   146105503.613        1643.523          44.000    27802948.724   113848417.693        1280.602          42.000  
E19  27327103.091   143604854.132        1392.323          44.000    27327101.739   110034899.538        1066.865          46.000  
G27  26562159.933   139585024.680       -4330.703          44.000    26562158.223   108767590.660       -3374.777          42.000  
G28  27205598.313   142966376.984        1054.397          43.000    27205597.856   111402351.854         821.521          42.000  
R03  26424302.204   141451262.423        3323.310          40.000    26424296.985   110017854.780        2584.741          43.000  
R17  23927689.187   128042123.155        2488.153          52.000    23927684.446    99588102.682        1935.272          49.000  
R02  22647540.619   120851651.389         932.444          52.000    22647537.686    93995734.808         725.186          48.000  
G03  24921978.082   130965861.641         856.749          47.000    24921975.089   102051316.564         667.533          46.000  
G21  22855557.645   120106774.675         293.201          49.000                                                                  
S31  41863023.189   219991774.135        -601.021          44.000  
S33  42816577.981   225002792.399        -600.525          42.000  
E33  26693182.075   140273727.996        -480.970          48.000    26693180.719   107482448.345        -368.549          53.000  
R01  22981640.675   122850005.522       -2958.075          49.000    22981638.701    95550016.271       -2300.724          46.000  
R23  25738567.071   137683973.521       -3925.293          48.000                                                                  
R24  22485686.962   120241165.146       -1005.037          52.000    22485681.176    93520868.954        -781.752          48.000  
G02  23529639.963   123649105.045         909.379          49.000                                                                  
G32  26129214.687   137309947.070       -3541.423          47.000    26129212.638   106994786.809       -2759.543          41.000  
E12  28864340.028   151683095.073        1334.469          41.000    28864338.972   116224740.668        1022.437          46.000  
G04  26686844.373   140240293.638        3128.546          41.000    26686842.535   109278089.357        2437.482          42.000  
E07  30465546.470   160097481.334       -3146.382          43.000    30465551.477   122672118.742       -2410.874          44.000  
E26  28887820.766   151806747.941       -2208.814          44.000    28887821.332   116319594.867       -1692.429          50.000  
E14  29736995.382   156268995.969        -570.704          48.000    29736994.644   119738600.683        -437.242          48.000  
> 2024 04 17 11 23 30.0100000  0 23                     
G08  24336024.669   127886696.844       -3206.500          48.000    24336023.006    99651987.273       -2498.684          46.000  
G31  27793569.220   146056211.133        1642.679          44.000    27793569.107   113810007.964        1279.832          43.000  
E19  27319182.111   143563232.650        1382.356          44.000    27319181.413   110003007.708        1059.229          46.000  
G27  26586894.279   139715004.309       -4334.613          43.000    26586893.112   108868873.202       -3377.335          43.000  
G28  27199607.122   142934897.005        1044.100          42.000    27199607.083   111377822.010         813.583          42.000  
R03  26405699.818   141351683.135        3315.411          38.000    26405693.804   109940404.042        2578.784          42.000  
R17  23913762.865   127967599.056        2480.078          52.000    23913757.751    99530139.431        1928.998          49.000  
R02  22642359.803   120824002.898         910.727          53.000    22642356.872    93974230.368         708.390          48.000  
G03  24917107.429   130940266.796         849.658          48.000    24917104.337   102031372.497         662.158          45.000  
G21  22853924.850   120098191.541         279.041          48.000                                                                  
S31  41866451.836   220009791.943        -600.396          44.000  
S33  42820004.270   225020797.079        -599.992          42.000  
E33  26695942.879   140288234.754        -486.203          48.000    26695941.282   107493563.843        -372.491          53.000  
R01  22998283.745   122938974.256       -2973.272          49.000    22998281.446    95619214.087       -2312.433          45.000  
R23  25760612.991   137801895.446       -3936.233          49.000                                                                  
R24  22491380.580   120271613.492       -1024.952          52.000    22491376.130    93544550.938        -797.185          49.000  
G02  23524478.932   123621985.767         898.344          48.000                                                                  
G32  26149463.588   137416356.388       -3552.540          48.000    26149461.075   107077703.042       -2768.318          42.000  
E12  28856721.454   151643060.742        1334.649          40.000    28856720.798   116194064.923        1022.589          46.000  
G04  26668994.738   140146493.547        3124.725          41.000    26668992.259   109204998.285        2434.920          41.000  
E07  30483522.815   160191946.371       -3151.398          43.000    30483527.822   122744500.827       -2414.648          43.000  
E26  28900443.802   151873083.351       -2213.655          45.000    28900444.996   116370423.178       -1696.218          50.000  
E14  29740249.577   156286097.285        -569.454          48.000    29740248.806   119751704.136        -436.280          48.000  
> 2024 04 17 11 24 00.0100000  0 23                     
G08  24354370.929   127983105.823       -3220.745          48.000    24354369.728    99727111.040       -2509.763          47.000  
G31  27784195.760   146006951.668        1641.176          45.000    27784194.857   113771624.003        1278.773          43.000  
E19  27311319.704   143521916.399        1371.726          44.000    27311319.122   109971349.757        1051.212          46.000  
G27  26611651.554   139845103.879       -4338.891          43.000    26611650.197   108970249.241       -3380.937          42.000  
G28  27193675.225   142903721.609        1033.786          43.000    27193674.268   111353529.486         805.555          42.000  
R03  26387139.846   141252335.441        3307.545          39.000    26387135.781   109863133.547        2572.436          43.000  
R17  23899882.697   127893322.418        2471.521          53.000    23899877.080    99472368.653        1922.302          49.000  
R02  22637301.570   120797007.920         888.685          53.000    22637298.380    93953234.235         691.152          49.000  
G03  24912278.022   130914887.684         842.176          49.000    24912275.089   102011596.502         656.313          45.000  
G21  22852374.276   120090042.032         264.217          49.000                                                                  
S31  41869878.050   220027797.078        -600.021          44.000  
S33  42823428.013   225038787.738        -599.907          42.000  
E33  26698733.515   140302901.033        -491.947          48.000    26698732.192   107504801.568        -376.881          53.000  
R01  23015013.309   123028399.144       -2988.747          49.000    23015008.727    95688766.743       -2324.590          44.000  
R23  25782718.137   137920147.004       -3947.398          45.000                                                                  
R24  22497186.078   120302660.083       -1045.185          52.000    22497181.968    93568698.218        -812.917          49.000  
G02  23519382.017   123595201.186         887.012          49.000                                                                  
G32  26169777.442   137523105.274       -3564.228          48.000    26169775.448   107160883.811       -2777.420          42.000  
E12  28849102.904   151603022.776        1334.075          41.000    28849101.899   116163386.398        1022.525          46.000  
G04  26651168.120   140052811.115        3120.594          42.000    26651164.275   109131998.923        2431.315          40.000  
E07  30501528.543   160286566.895       -3157.089          43.000    30501534.111   122817002.031       -2418.955          44.000  
E26  28913097.000   151939571.019       -2219.110          45.000    28913097.224   116421368.126       -1700.345          50.000  
E14  29743498.289   156303167.785        -568.815          47.000    29743497.352   119764783.979        -435.862          48.000  
> 2024 04 17 11 24 30.0100000  0 24                     
G08  24372799.423   128079948.660       -3235.477          48.000    24372798.389    99802572.898       -2521.138          47.000  
G31  27774832.216   145957745.972        1639.113          44.000    27774831.974   113733281.905        1277.195          43.000  
E19  27303519.184   143480924.582        1360.587          44.000    27303518.630   109939940.398        1042.739          46.000  
G27  26636434.277   139975338.489       -4343.752          43.000    26636432.576   109071730.493       -3384.502          41.000  
G28  27187804.910   142872871.433        1022.546          44.000    27187803.710   111329490.395         797.089          43.000  
R03  26368629.573   141153240.622        3298.741          41.000    26368624.524   109786059.629        2565.770          42.000  
R17  23886052.607   127819315.060        2462.268          52.000    23886046.829    99414807.313        1915.112          50.000  
R02  22632368.630   120770684.984         866.051          53.000    22632365.952    93932760.777         673.586          49.000  
G03  24907493.306   130889741.766         834.069          49.000    24907490.523   101992002.207         649.919          46.000  
G21  22850909.630   120082346.129         248.739          49.000                                                                  
S31  41873305.749   220045807.970        -600.768          44.000  
S33  42826852.694   225056784.508        -600.421          42.000  
E33  26701558.891   140317745.808        -498.028          48.000    26701557.192   107516176.069        -381.615          53.000  
R01  23031830.246   123118295.503       -3004.631          49.000    23031825.986    95758686.046       -2336.749          44.000  
R23  25804887.613   138038745.063       -3959.333          46.000                                                                  
R24  22503108.114   120334324.636       -1066.052          52.000    22503103.971    93593326.134        -829.100          49.000  
G02  23514352.889   123568770.975         874.939          49.000                                                                  
G32  26190159.165   137630208.854       -3576.123          47.000    26190157.182   107244340.966       -2786.616          43.000  
E12  28841487.439   151562999.823        1333.617          42.000    28841485.842   116132719.405        1021.884          47.000  
G04  26633367.519   139959266.914        3115.636          42.000    26633362.670   109059107.255        2427.622          39.000  
E07  30519567.351   160381359.142       -3162.857          43.000    30519572.519   122889634.815       -2423.315          44.000  
E10  30750819.791                        1627.520          27.000                                                                  
E26  28925781.694   152006229.192       -2224.968          46.000    28925781.878   116472443.756       -1704.855          50.000  
E14  29746744.578   156320225.645        -568.806          47.000    29746743.748   119777854.124        -435.681          48.000  
> 2024 04 17 11 25 00.0100000  0 24                     
G08  24391309.910   128177221.008       -3249.451          48.000    24391309.218    99878369.419       -2531.885          47.000  
G31  27765479.689   145908595.116        1637.773          44.000    27765479.159   113694982.545        1276.075          43.000  
E19  27295780.445   143440256.541        1350.308          43.000    27295779.909   109908779.111        1034.764          46.000  
G27  26661241.336   140105703.570       -4347.356          43.000    26661240.238   109173313.451       -3387.572          40.000  
G28  27181997.158   142842347.384        1012.278          46.000    27181995.052   111305705.424         788.721          44.000  
R03  26350164.623   141054399.142        3290.740          37.000    26350159.380   109709182.762        2559.509          41.000  
R17  23872273.014   127745578.739        2453.552          52.000    23872267.115    99357456.793        1908.258          50.000  
R02  22627561.782   120745032.867         844.066          53.000    22627559.161    93912809.088         656.498          50.000  
G03  24902751.794   130864826.776         826.765          48.000    24902749.443   101972587.856         644.182          46.000  
G21  22849530.850   120075104.181         234.002          48.000                                                                  
S31  41876733.995   220063823.428        -600.169          44.000  
S33  42830278.140   225074786.628        -599.780          42.000  
E33  26704416.954   140332768.261        -503.537          48.000    26704415.947   107527686.704        -385.785          54.000  
R01  23048734.202   123208657.062       -3019.556          48.000    23048731.544    95828967.195       -2348.447          45.000  
R23  25827123.134   138157686.009       -3970.247          47.000                                                                  
R24  22509144.862   120366606.145       -1086.163          52.000    22509140.014    93618433.906        -845.018          49.000  
G02  23509390.505   123542695.201         863.502          49.000                                                                  
G32  26210607.351   137737662.554       -3587.316          48.000    26210604.035   107328070.923       -2795.387          42.000  
E12  28833873.596   151522990.999        1333.728          41.000    28833872.395   116102063.227        1021.848          47.000  
G04  26615593.405   139865861.714        3111.291          42.000    26615588.339   108986323.896        2424.377          39.000  
E07  30537637.800   160476319.710       -3168.001          42.000    30537642.706   122962396.594       -2427.460          43.000  
E10  30741517.878                        1628.801          28.000                                                                  
E26  28938498.817   152073056.408       -2230.187          46.000    28938498.755   116523648.912       -1708.833          50.000  
E14  29749987.821   156337269.184        -567.670          47.000    29749987.570   119790913.299        -434.966          48.000  
> 2024 04 17 11 25 30.0100000  0 24                     
G08  24409899.923   128274911.469       -3263.110          48.000    24409899.444    99954491.752       -2542.612          48.000  
G31  27756134.960   145859492.930        1635.953          44.000    27756133.913   113656721.121        1274.711          41.000  
E19  27288101.850   143399904.861        1339.790          43.000    27288101.234   109877860.248        1026.710          46.000  
G27  26686071.391   140236187.632       -4351.318          41.000    26686070.854   109274989.090       -3390.442          39.000  
G28  27176249.531   142812143.486        1001.571          46.000    27176246.932   111282169.918         780.545          43.000  
R03  26331746.423   140955804.540        3282.645          39.000    26331741.035   109632497.935        2553.092          38.000  
R17  23858543.300   127672107.943        2444.788          52.000    23858537.245    99300312.783        1901.379          50.000  
R02  22622878.134   120720042.985         822.104          53.000    22622875.889    93893372.492         639.375          49.000  
G03  24898052.671   130840133.449         819.604          48.000    24898051.200   101953346.264         638.596          46.000  
G21  22848237.987   120068309.545         219.270          48.000                                                                  
S31  41880161.037   220081832.794        -600.162          44.000  
S33  42833702.456   225092781.181        -599.681          42.000  
E33  26707308.523   140347960.765        -509.173          48.000    26707307.076   107539327.638        -390.056          54.000  
R01  23065722.905   123299471.738       -3034.542          47.000    23065720.741    95899600.755       -2360.107          45.000  
R23  25849421.524   138276959.203       -3981.199          49.000                                                                  
R24  22515295.715   120399497.146       -1106.426          52.000    22515290.951    93644015.761        -860.518          49.000  
G02  23504494.363   123516967.290         851.879          48.000                                                                  
G32  26231119.553   137845454.837       -3598.593          49.000    26231117.710   107412064.727       -2804.047          44.000  
E12  28826261.465   151482988.516        1333.499          41.000    28826260.171   116071411.897        1021.667          47.000  
G04  26597844.288   139772589.459        3106.865          42.000    26597840.238   108913644.155        2421.181          40.000  
E07  30555738.710   160571438.186       -3172.950          42.000    30555744.174   123035279.361       -2431.243          44.000  
E10  30732202.942                        1631.406          28.000    30732204.014   123745856.8841       1249.830          32.000  
E26  28951244.717   152140044.298       -2235.335          45.000    28951246.204   116574977.169       -1712.832          49.000  
E14  29753226.666   156354289.980        -566.763          47.000    29753226.382   119803955.057        -434.355          48.000  
> 2024 04 17 11 26 00.0100000  0 24                     
G08  24428568.960   128373015.857       -3276.897          48.000    24428567.727   100030936.630       -2553.484          47.000  
G31  27746800.189   145810440.701        1633.921          43.000    27746800.345   113618498.559        1273.591          42.000  
E19  27280483.249   143359868.768        1329.247          43.000    27280482.533   109847183.205        1018.511          46.000  
G27  26710923.261   140366786.337       -4355.212          41.000    26710923.544   109376754.042       -3393.671          40.000  
G28  27170562.666   142782260.850         990.720          47.000    27170560.845   111258884.767         771.924          44.000  
R03  26313375.424   140857457.903        3274.279          39.000    26313369.022   109556005.975        2546.678          36.000  
R17  23844864.233   127598904.914        2435.565          52.000    23844857.557    99243377.029        1894.281          50.000  
R02  22618319.826   120695714.439         799.944          53.000    22618316.391    93874450.234         622.145          48.000  
G03  24893395.270   130815659.813         812.004          48.000    24893393.702   101934275.835         632.737          46.000  
G21  22847029.747   120061962.661         204.115          48.000                                                                  
S31  41883587.106   220099837.688        -600.256          44.000  
S33  42837125.886   225110771.634        -599.889          42.000  
E33  26710231.436   140363322.714        -514.873          48.000    26710230.650   107551098.426        -394.562          54.000  
R01  23082794.567   123390734.133       -3049.576          48.000    23082792.853    95970582.534       -2371.996          45.000  
R23  25871779.871   138396561.341       -3992.282          48.000                                                                  
R24  22521560.467   120432997.454       -1126.840          51.000    22521556.305    93670071.503        -876.425          49.000  
G02  23499664.787   123491588.067         840.074          49.000                                                                  
G32  26251695.421   137953581.322       -3609.817          49.000    26251693.933   107496318.971       -2812.863          45.000  
E12  28818650.644   151442991.557        1332.983          41.000    28818649.052   116040764.803        1021.402          47.000  
G04  26580119.908   139679451.147        3102.282          42.000    26580117.176   108841068.816        2417.105          41.000  
E07  30573868.708   160666711.315       -3178.360          42.000    30573874.626   123108280.615       -2435.321          45.000  
E26  28964021.255   152207191.611       -2240.954          44.000    28964023.995   116626427.584       -1717.032          49.000  
E14  29756460.765   156371286.627        -566.111          46.000    29756460.527   119816978.324        -433.721          47.000  
E10                                                                  30722885.265                        1251.460          31.000  
> 2024 04 17 11 26 30.0100000  0 24                     
G08  24447316.507   128471536.603       -3290.698          48.000    24447315.012   100107705.948       -2564.281          46.000  
G31  27737476.897   145761446.346        1632.360          43.000    27737476.909   113580321.076        1272.184          41.000  
E19  27272925.662   143320154.969        1318.537          43.000    27272924.974   109816753.093        1010.341          46.000  
G27  26735797.730   140497501.791       -4358.887          42.000    26735798.468   109478609.963       -3396.686          40.000  
G28  27164939.169   142752707.301         979.702          46.000    27164937.820   111235855.983         763.381          46.000  
R03  26295050.121   140759366.518        3265.457          37.000    26295042.324   109479712.533        2540.110          36.000  
R17  23831235.953   127525978.496        2426.465          52.000    23831229.932    99186656.449        1887.244          50.000  
R02  22613884.789   120672052.680         777.750          52.000    22613882.273    93856046.611         604.932          49.000  
G03  24888780.957   130791410.492         804.697          48.000    24888779.005   101915380.164         627.040          45.000  
G21  22845908.554   120056070.590         189.022          47.000                                                                  
S31  41887013.155   220117840.355        -599.625          44.000  
S33  42840549.331   225128760.656        -599.237          42.000  
E33  26713188.360   140378860.254        -520.697          48.000    26713187.556   107563003.729        -398.973          54.000  
R01  23099951.512   123482446.287       -3064.466          48.000    23099949.389    96041914.090       -2383.321          47.000  
R23  25894200.601   138516495.948       -4003.194          48.000                                                                  
R24  22527939.266   120467113.013       -1147.329          51.000    22527935.610    93696605.747        -892.416          49.000  
G02  23494903.154   123466564.612         828.263          48.000                                                                  
G32  26272334.856   138062044.305       -3620.910          49.000    26272334.511   107580835.398       -2821.452          45.000  
E12  28811042.646   151403006.062        1332.716          41.000    28811040.254   116010126.486        1021.278          47.000  
G04  26562423.093   139586454.521        3097.519          42.000    26562420.713   108768603.815        2413.848          41.000  
E07  30592028.952   160762142.540       -3183.554          42.000    30592034.966   123181402.986       -2439.238          45.000  
E26  28976831.990   152274503.761       -2246.416          45.000    28976833.320   116678004.295       -1721.183          49.000  
E14  29759691.197   156388264.442        -565.458          46.000    29759691.812   119829987.172        -433.264          48.000  
E10                                                                  30713553.195                        1253.663          27.000  
> 2024 04 17 11 27 00.0100000  0 24                     
G08  24466140.638   128570458.232       -3304.152          48.000    24466139.146   100184787.616       -2574.656          46.000  
G31  27728162.886   145712499.939        1630.557          44.000    27728162.508   113542180.969        1270.730          41.000  
E19  27265427.944   143280751.693        1308.186          43.000    27265427.029   109786560.912        1002.427          46.000  
G27  26760692.511   140628318.629       -4362.274          43.000    26760692.708   109580544.901       -3399.225          40.000  
G28  27159375.766   142723472.612         969.111          45.000    27159374.602   111213075.688         755.168          46.000  
R03  26276771.676   140661520.463        3257.311          39.000    26276764.593   109403609.967        2533.218          38.000  
R17  23817657.910   127453319.059        2417.505          52.000    23817651.782    99130143.486        1880.249          50.000  
R02  22609573.293   120649044.772         755.966          52.000    22609570.689    93838151.513         588.112          49.000  
G03  24884206.753   130767372.133         797.603          49.000    24884204.450   101896648.911         621.577          46.000  
G21  22844871.919   120050622.711         174.068          46.000                                                                  
S31  41890436.333   220135828.929        -599.434          44.000  
S33  42843969.935   225146735.678        -599.120          42.000  
E33  26716176.122   140394561.566        -526.145          48.000    26716175.564   107575034.544        -403.155          54.000  
R01  23117189.446   123574591.170       -3078.807          49.000    23117187.611    96113582.264       -2394.515          46.000  
R23  25916680.139   138636748.467       -4013.804          47.000                                                                  
R24  22534432.109   120501832.159       -1167.386          51.000    22534428.591    93723609.468        -907.982          50.000  
G02  23490207.270   123441885.890         816.846          48.000                                                                  
G32  26293035.623   138170828.129       -3631.509          49.000    26293035.308   107665601.864       -2829.745          45.000  
E12  28803433.920   151363020.107        1332.803          41.000    28803431.200   115979487.830        1021.280          48.000  
G04  26544751.070   139493589.273        3093.347          41.000    26544749.003   108696241.237        2410.389          42.000  
E07  30610216.639   160857717.368       -3188.351          41.000    30610222.172   123254635.435       -2443.050          44.000  
E26  28989670.536   152341968.248       -2251.461          46.000    28989671.223   116729697.732       -1725.091          49.000  
E14  29762915.941   156405210.793        -564.435          45.000    29762917.276   119842971.873        -432.439          49.000  
E10                                                                  30704236.563                1       1255.718          26.000  
> 2024 04 17 11 27 30.0100000  0 24                     
G08  24485041.303   128669782.485       -3317.159          49.000    24485040.231   100262183.042       -2584.860          46.000  
G31  27718859.460   145663608.764        1629.017          44.000    27718858.207   113504083.927        1269.336          40.000  
E19  27257989.563   143241664.377        1297.895          43.000    27257988.994   109756610.850         994.489          46.000  
G27  26785606.115   140759238.348       -4365.436          44.000    26785606.011   109682560.042       -3401.752          38.000  
G28  27153875.094   142694563.924         958.345          45.000    27153873.750   111190549.396         746.944          46.000  
R03  26258539.907   140563926.577        3249.005          42.000    26258535.508   109327703.463        2526.962          39.000  
R17  23804130.772   127380934.687        2408.429          52.000    23804124.914    99073844.482        1873.273          49.000  
R02  22605384.009   120626695.544         734.233          51.000    22605382.814    93820768.748         571.146          49.000  
G03  24879673.454   130743548.696         790.665          48.000    24879670.886   101878085.135         616.200          45.000  
G21  22843920.467   120045624.958         159.296          46.000                                                                  
S31  41893857.929   220153808.836        -598.928          44.000  
S33  42847388.662   225164700.825        -598.600          42.000  
E33  26719195.592   140410432.120        -531.778          48.000    26719195.701   107587195.034        -407.380          54.000  
R01  23134508.091   123667169.627       -3092.957          49.000    23134506.327    96185587.650       -2405.672          46.000  
R23  25939219.491   138757321.320       -4024.237          45.000                                                                  
R24  22541039.010   120537160.331       -1187.530          50.000    22541034.926    93751086.875        -923.565          49.000  
G02  23485578.417   123417558.838         805.256          49.000                                                                  
G32  26313797.347   138279934.442       -3641.891          49.000    26313798.323   107750619.599       -2837.809          47.000  
E12  28795825.673   151323039.014        1332.626          40.000    28795823.024   115948852.903        1021.225          47.000  
G04  26527105.823   139400862.532        3088.819          41.000    26527104.317   108623986.587        2406.755          43.000  
E07  30628432.003   160953438.545       -3193.011          42.000    30628437.459   123327980.034       -2446.701          44.000  
E26  29002539.107   152409589.816       -2256.479          46.000    29002539.358   116781511.534       -1728.995          48.000  
E14  29766135.896   156422130.308        -563.350          45.000    29766137.110   119855936.022        -431.634          49.000  
E10                                                                  30694870.644                        1256.665          24.000  
> 2024 04 17 11 28 00.0100000  0 24                     
G08  24504021.636   128769524.061       -3331.803          48.000    24504020.753   100339903.654       -2596.262          47.000  
G31  27709570.703   145614792.928        1625.893          44.000    27709568.738   113466045.619        1266.909          41.000  
E19  27250615.425   143202911.492        1286.191          43.000    27250614.732   109726917.057         985.391          46.000  
G27  26810541.605   140890275.601       -4370.093          43.000    26810541.027   109784666.738       -3405.017          38.000  
G28  27148439.420   142666001.268         946.026          44.000    27148438.919   111168292.763         737.251          46.000  
R03  26240360.587   140466605.046        3239.420          42.000    26240354.954   109252008.854        2519.429          41.000  
R17  23790659.951   127308847.099        2397.766          51.000    23790653.752    99017776.311        1864.868          49.000  
R02  22601323.495   120605023.108         710.953          52.000    22601321.351    93803912.378         552.917          49.000  
G03  24875184.230   130719957.103         782.486          48.000    24875181.128   101859702.018         609.551          45.000  
G21  22843059.007   120041097.110         142.939          46.000                                                                  
S31  41897280.518   220171795.890        -599.613          44.000  
S33  42850809.063   225182673.551        -599.516          42.000  
E33  26722251.936   140426490.330        -538.517          48.000    26722251.614   107599499.312        -412.571          54.000  
R01  23151911.256   123760195.944       -3108.295          50.000    23151908.837    96257941.391       -2417.716          46.000  
R23  25961822.109   138878230.481       -4036.047          44.000                                                                  
R24  22547762.446   120573116.360       -1209.158          51.000    22547759.437    93779052.609        -940.327          50.000  
G02  23481019.944   123393602.419         792.223          49.000                                                                  
G32  26334624.512   138389377.851       -3653.930          49.000    26334623.440   107835900.013       -2847.228          45.000  
E12  28788220.685   151283080.925        1331.594          39.000    28788219.103   115918235.623        1020.166          47.000  
G04  26509491.270   139308294.308        3082.854          43.000    26509489.234   108551855.444        2402.302          43.000  
E07  30646678.460   161049321.839       -3198.740          41.000    30646683.680   123401448.820       -2451.112          45.000  
E26  29015439.662   152477386.178       -2262.873          45.000    29015440.706   116833459.295       -1734.005          48.000  
E14  29769353.620   156439040.566        -563.657          45.000    29769355.227   119868893.083        -431.975          49.000  
E10                                                                  30685489.232                1       1257.985          28.000  
> 2024 04 17 11 28 30.0100000  0 24                     
G08  24523081.394   128869682.552       -3345.121          48.000    24523080.742   100417949.121       -2606.603          47.000  
G31  27700296.913   145566057.808        1623.293          45.000    27700294.345   113428070.191        1265.162          40.000  
E19  27243305.501   143164496.591        1275.163          43.000    27243304.799   109697482.204         977.121          46.000  
G27  26835499.683   141021429.903       -4373.419          44.000    26835499.856   109886864.633       -3407.672          40.000  
G28  27143069.818   142637789.607         934.716          42.000    27143070.606   111146309.657         728.482          46.000  
R03  26222230.501   140369560.083        3230.769          42.000    26222226.472   109176529.346        2512.563          43.000  
R17  23777245.950   127237061.910        2388.165          52.000    23777239.005    98961943.332        1857.495          49.000  
R02  22597388.799   120584029.916         688.707          52.000    22597386.619    93787584.287         535.770          48.000  
G03  24870738.928   130696599.146         775.085          48.000    24870736.665   101841500.966         603.938          45.000  
G21  22842288.034   120037043.339         127.622          47.000                                                                  
S31  41900705.795   220189793.085        -599.787          44.000  
S33  42854231.492   225200657.975        -599.286          42.000  
E33  26725344.379   140442739.540        -544.506          49.000    26725343.694   107611949.938        -417.170          54.000  
R01  23169396.550   123853668.985       -3122.745          49.000    23169394.559    96330642.559       -2428.875          46.000  
R23  25984487.051   138999476.969       -4046.763          45.000                                                                  
R24  22554604.415   120609703.581       -1229.730          51.000    22554601.828    93807509.267        -956.464          50.000  
G02  23476532.395   123370021.072         780.132          49.000                                                                  
G32  26355515.465   138499157.846       -3664.466          49.000    26355514.426   107921442.657       -2855.502          45.000  
E12  28780621.957   151243149.276        1330.811          39.000    28780620.250   115887638.564        1019.759          47.000  
G04  26491906.803   139215889.459        3077.672          43.000    26491905.418   108479851.600        2398.358          43.000  
E07  30664955.572   161145367.883       -3203.830          41.000    30664960.983   123475042.288       -2454.961          46.000  
E10  30676118.425                3       1645.077          25.000    30676107.517                        1259.383          28.000  
E26  29028375.186   152545359.965       -2268.417          45.000    29028376.264   116885542.959       -1738.149          48.000  
E14  29772571.015   156455944.094        -562.896          46.000    29772571.939   119881844.979        -431.322          49.000  
> 2024 04 17 11 29 00.0100000  0 24                     
G08  24542216.914   128970241.218       -3358.726          47.000    24542216.059   100496306.403       -2617.130          46.000  
G31  27691035.284   145517391.981        1620.694          44.000    27691034.859   113390148.756        1262.804          41.000  
E19  27236057.001   143126406.664        1264.181          43.000    27236056.635   109668296.367         968.584          47.000  
G27  26860477.402   141152684.356       -4376.843          44.000    26860477.120   109989140.555       -3410.712          40.000  
G28  27137766.652   142609917.562         923.232          43.000    27137766.082   111124591.130         719.250          45.000  
R03  26204152.223   140272780.571        3221.310          43.000    26204147.976   109101256.264        2505.637          45.000  
R17  23763885.069   127165568.601        2378.088          51.000    23763878.543    98906337.346        1849.567          49.000  
R02  22593579.288   120563702.066         666.389          52.000    22593576.960    93771773.692         518.341          49.000  
G03  24866335.699   130673460.280         767.667          48.000    24866333.939   101823470.642         598.194          46.000  
G21  22841604.718   120033451.613         111.816          46.000                                                                  
S31  41904129.870   220207787.546        -599.822          44.000  
S33  42857652.792   225218638.033        -599.484          42.000  
E33  26728470.726   140459166.708        -550.805          49.000    26728469.654   107624536.913        -421.938          54.000  
R01  23186962.723   123947570.503       -3137.250          48.000    23186960.383    96403676.989       -2440.139          45.000  
R23  26007214.754   139121043.972       -4057.816          48.000                                                                  
R24  22561562.472   120646908.578       -1250.658          51.000    22561558.789    93836446.425        -972.819          49.000  
G02  23472114.029   123346802.969         767.702          49.000                                                                  
G32  26376467.543   138609257.515       -3675.292          49.000    26376464.297   108007234.430       -2863.934          44.000  
E12  28773026.118   151203230.685        1330.219          40.000    28773023.965   115857051.513        1019.341          47.000  
G04  26474351.397   139123636.513        3072.408          43.000    26474349.904   108407966.143        2394.126          42.000  
E07  30683260.578   161241560.935       -3208.752          40.000    30683265.991   123548748.395       -2458.906          46.000  
E26  29041340.962   152613497.425       -2274.033          45.000    29041342.432   116937752.024       -1742.480          48.000  
E14  29775784.528   156472826.999        -562.437          47.000    29775784.981   119894781.086        -430.989          49.000  
E10                                                                  30666716.401                        1260.954          30.000  
> 2024 04 17 11 29 30.0100000  0 24                     
G08  24561427.419   129071192.778       -3371.350          47.000    24561427.241   100574969.835       -2626.969          47.000  
G31  27681788.159   145468793.426        1619.012          45.000    27681785.833   113352279.745        1261.823          40.000  
E19  27228869.218   143088638.424        1253.722          43.000    27228869.521   109639357.039         960.697          46.000  
G27  26885472.723   141284031.710       -4379.413          43.000    26885471.663   110091488.836       -3412.457          40.000  
G28  27132527.815   142582383.191         912.541          44.000    27132526.281   111103135.739         710.935          44.000  
R03  26186121.741   140176264.065        3213.193          42.000    26186118.561   109026187.763        2499.050          46.000  
R17  23750578.872   127094366.011        2368.872          52.000    23750572.546    98850957.485        1842.365          49.000  
R02  22589893.723   120544034.703         644.871          52.000    22589891.994    93756476.840         501.603          49.000  
G03  24861974.017   130650535.479         760.958          49.000    24861971.577   101805607.092         592.967          46.000  
G21  22841008.745   120030319.268          96.905          47.000                                                                  
S31  41907552.361   220225772.622        -598.938          44.000  
S33  42861072.716   225236609.384        -598.767          42.000  
E33  26731629.697   140475768.266        -555.987          49.000    26731628.963   107637257.528        -426.020          54.000  
R01  23204608.416   124041892.275       -3150.613          50.000    23204605.454    96477038.272       -2450.542          46.000  
R23  26029999.505   139242925.437       -4067.644          48.000                                                                  
R24  22568633.660   120684727.866       -1270.527          50.000    22568631.750    93865861.336        -988.210          49.000  
G02  23467764.324   123323945.658         756.190          49.000                                                                  
G32  26397477.803   138719669.515       -3685.314          48.000    26397475.615   108093269.563       -2871.797          45.000  
E12  28765431.661   151163321.591        1330.422          40.000    28765429.650   115826471.745        1019.418          47.000  
G04  26456825.054   139031533.609        3068.009          44.000    26456822.589   108336197.552        2390.750          41.000  
E07  30701592.439   161337894.809       -3213.099          41.000    30701597.698   123622562.411       -2462.175          46.000  
E26  29054338.051   152681794.309       -2278.984          46.000    29054338.937   116990083.248       -1746.208          48.000  
E14  29778991.653   156489684.930        -561.149          46.000    29778992.944   119907698.046        -430.048          49.000  
E10                                                                  30657312.788   123444303.3151       1262.993          31.000  
