     3.00           OBSERVATION DATA    M: Mixed            RINEX VERSION / TYPE
CONVBIN 2.4.3                           20240417 011442 UTC PGM / RUN BY / DATE 
format: u-blox UBX                                          COMMENT             
log: /home/regis/git/gnsspwv/obsdata/VERT00CHL/2024-04-17/VECOMMENT             
{self.marker}                                               MARKER NAME         
                                                            MARKER NUMBER       
GEODETIC                                                    MARKER TYPE         
{self.observer}     {self.institution}                      OBSERVER / AGENCY   
UNKNOWN             UBLOX-ZED-F9P                           REC # / TYPE / VERS 
UNKNOWN             TWIVSP6037L                             ANT # / TYPE        
  1713381.0000 -5047934.0000 -3490983.0000                  APPROX POSITION XYZ 
        0.0000        0.0000        0.0000                  ANTENNA: DELTA H/E/N
G    8 C1C L1C D1C S1C C2L L2L D2L S2L                      SYS / # / OBS TYPES 
R    8 C1C L1C D1C S1C C2C L2C D2C S2C                      SYS / # / OBS TYPES 
E    8 C1C L1C D1C S1C C7Q L7Q D7Q S7Q                      SYS / # / OBS TYPES 
S    4 C1C L1C D1C S1C                                      SYS / # / OBS TYPES 
  2024    04    17    01    00   00.4950000     GPS         TIME OF FIRST OBS   
  2024    04    17    01    14   30.4950000     GPS         TIME OF LAST OBS    
                                                            END OF HEADER       
> 2024 04 17 01 00 00.4950000  0 23                     
G06  21810030.098   114612461.6171      -1494.741          40.000    21810027.957    89308419.5201      -1164.806          34.000  
G11  21191761.936   111363454.2561        558.081          46.000    21191760.948    86776740.5631        434.805          48.000  
G12  19671256.398   103373148.0111       -837.121          48.000    19671252.613    80550489.6041       -652.283          45.000  
G24  19203014.365   100912501.7131      -1930.957          51.000    19203012.737    78633119.2671      -1504.498          46.000  
R10  19979894.870   106504091.6001       1510.770          45.000                                                                  
R18  21372535.046   114088045.7391      -4280.339          48.000    21372534.281    88735139.6281      -3329.137          46.000  
R09  18508011.003    98831740.7491       -488.826          50.000    18508007.613    76869124.7261       -380.259          51.000  
R16  20998926.526   112172491.2851      -2815.546          47.000    20998924.904    87245280.0991      -2189.777          44.000  
R20  19667861.962   105172933.4051       3005.175          40.000    19667865.084    81801205.6911       2337.258          42.000  
G25  20238738.879   106355279.2821        596.464          47.000    20238737.803    82874256.9831        464.943          43.000  
G29  21297158.666   111917350.8191       2325.986          44.000    21297160.429    87208378.9531       1812.677          41.000  
S31  37304723.337   196037640.0511       -731.536          44.000  
S33  38258054.619   201047433.8911       -732.284          43.000  
E07  23945633.276   125835135.0771      -3187.453          45.000    23945640.115    96419155.7991      -2442.310          50.000  
R19  18832749.027   100742513.5851      -1590.836          43.000    18832746.003    78355277.2141      -1237.283          50.000  
R07  21318709.995   114120683.3821      -4033.580          48.000    21318717.056    88760543.1101      -3137.053          41.000  
R08  21028214.985   112605130.7251      -1692.324          48.000    21028213.318    87581767.8711      -1316.267          47.000  
E15  24412563.183   128288923.2751       1869.659          44.000    24412571.752    98299356.6621       1432.542          49.000  
E27  22907296.090   120378670.7141          1.958          46.000    22907299.209    92238209.7831          1.467          51.000  
E30  23047594.174   121115920.9001      -1688.425          49.000    23047594.502    92803116.6411      -1293.745          51.000  
E34  24206377.307   127205375.3571       -219.964          44.000    24206379.758    97469073.4631       -168.590          48.000  
G32  21762137.159   114360790.0731         37.808          47.000    21762138.343    89112321.2481         29.576          43.000  
E02                                                                  26721471.499                       -1935.321          28.000  
> 2024 04 17 01 00 30.4950000  0 23                     
G06  21818623.867   114657621.480       -1515.472          38.000    21818620.373    89343609.152       -1181.128          35.000  
G11  21188626.346   111346978.299         540.407          46.000    21188625.493    86763902.284         421.218          48.000  
G12  19676054.328   103398358.244        -843.340          48.000    19676049.841    80570133.976        -657.196          46.000  
G24  19214088.950   100970700.004       -1948.816          51.000    19214087.398    78678468.560       -1518.536          45.000  
R10  19971401.380   106458817.431        1507.539          45.000                                                                  
R18  21396636.182   114216697.993       -4296.288          48.000    21396635.350    88835202.509       -3341.563          46.000  
R09  18510785.280    98846556.926        -498.675          51.000    18510782.216    76880648.437        -387.865          51.000  
R16  21014762.711   112257083.347       -2823.894          48.000    21014762.192    87311073.837       -2196.289          46.000  
R20  19651046.818   105083019.223        2989.314          40.000    19651049.951    81731272.792        2325.025          42.000  
G25  20235347.741   106337458.453         591.827          47.000    20235346.515    82860370.738         460.930          43.000  
G29  21283912.937   111847744.003        2314.546          44.000    21283914.294    87154140.281        1803.470          41.000  
S31  37308904.656   196059613.430        -733.142          45.000  
S33  38262239.428   201069425.729        -734.069          43.000  
E07  23963853.866   125930881.421       -3195.458          46.000    23963860.367    96492519.752       -2448.567          50.000  
R19  18841752.208   100790677.774       -1619.646          43.000    18841750.199    78392738.299       -1259.885          50.000  
R07  21341343.019   114241837.993       -4043.280          46.000    21341349.184    88854773.986       -3144.697          43.000  
R08  21037766.036   112656269.113       -1716.626          50.000    21037764.132    87621542.152       -1335.067          48.000  
E15  24401911.508   128232944.235        1862.650          45.000    24401919.368    98256463.986        1427.145          50.000  
E27  22907296.201   120378670.696          -1.684          46.000    22907299.329    92238209.812          -1.294          51.000  
E30  23057242.881   121166623.632       -1691.440          49.000    23057243.056    92841966.813       -1296.112          51.000  
E34  24207678.150   127212214.594        -235.798          44.000    24207681.347    97474314.013        -180.589          48.000  
G32  21761979.415   114359963.903          17.277          46.000    21761979.470    89111677.517          13.589          41.000  
E02                                                                  26735896.505                       -1936.555          29.000  
> 2024 04 17 01 01 00.4950000  0 23                     
G06  21827332.522   114703388.979       -1535.487          38.000    21827329.485    89379272.185       -1196.495          37.000  
G11  21185590.611   111331028.629         523.025          45.000    21185590.029    86751474.122         407.556          48.000  
G12  19680886.109   103423752.386        -849.326          48.000    19680882.191    80589921.658        -661.882          46.000  
G24  19225265.128   101029432.781       -1966.522          50.000    19225264.001    78724234.334       -1532.446          46.000  
R10  19962924.288   106413631.795        1504.830          45.000                                                                  
R18  21420825.779   114345824.175       -4311.768          48.000    21420825.202    88935633.984       -3353.742          47.000  
R09  18513613.943    98861664.111        -508.286          50.000    18513611.247    76892398.466        -395.316          51.000  
R16  21030645.271   112341922.624       -2831.878          49.000    21030642.911    87377059.945       -2202.797          44.000  
R20  19634321.167   104993578.601        2973.571          41.000    19634323.919    81661708.198        2313.005          42.000  
G25  20231982.400   106319777.220         587.276          47.000    20231981.840    82846593.249         457.649          44.000  
G29  21270732.621   111778484.910        2302.883          45.000    21270734.013    87100172.602        1794.357          41.000  
S31  37313094.584   196081632.222        -734.450          45.000  
S33  38266432.461   201091462.828        -734.896          43.000  
E07  23982118.212   126026866.023       -3203.226          46.000    23982125.660    96566066.269       -2454.332          50.000  
R19  18850917.950   100839710.073       -1648.725          42.000    18850915.868    78430874.581       -1282.322          49.000  
R07  21364029.652   114363277.903       -4052.580          47.000    21364036.970    88949226.681       -3152.007          43.000  
R08  21047451.213   112708135.497       -1740.814          50.000    21047449.263    87661882.662       -1353.929          48.000  
E15  24391298.255   128177174.402        1855.670          44.000    24391306.601    98213731.614        1421.944          50.000  
E27  22907316.651   120378775.643          -5.025          47.000    22907319.184    92238290.282          -3.850          51.000  
E30  23066907.551   121217413.225       -1694.038          49.000    23066908.070    92880883.534       -1298.084          51.000  
E34  24209068.647   127219522.697        -251.158          44.000    24209072.311    97479913.809        -192.418          48.000  
G32  21761937.458   114359746.356          -2.582          45.000    21761937.513    89111508.059          -2.089          41.000  
E02                                                                  26750326.181                3      -1937.365          24.000  
> 2024 04 17 01 01 30.4950000  0 23                     
G06  21836156.229   114749758.147       -1555.845          35.000    21836154.465    89415404.120       -1211.742          39.000  
G11  21182655.330   111315601.766         505.934          47.000    21182654.770    86739453.329         394.183          48.000  
G12  19685751.563   103449324.526        -855.103          47.000    19685748.201    80609848.007        -666.140          45.000  
G24  19236541.879   101088694.209       -1983.990          50.000    19236541.035    78770412.043       -1545.923          45.000  
R10  19954464.089   106368530.153        1502.284          44.000                                                                  
R18  21445102.274   114475414.116       -4327.108          48.000    21445102.011    89036426.191       -3365.348          47.000  
R09  18516497.739    98877058.054        -517.653          52.000    18516493.837    76904371.595        -402.645          50.000  
R16  21046572.613   112427004.201       -2839.766          49.000    21046572.084    87443234.441       -2208.643          47.000  
R20  19617683.752   104904610.727        2958.052          40.000    19617686.508    81592511.293        2300.499          43.000  
G25  20228642.771   106302229.884         583.220          47.000    20228643.294    82832920.102         454.473          44.000  
G29  21257618.545   111709569.983        2291.906          45.000    21257618.656    87046473.085        1785.607          40.000  
S31  37317292.262   196103690.722        -735.463          45.000  
S33  38270633.246   201113538.432        -736.125          43.000  
E07  24000428.251   126123081.289       -3210.724          46.000    24000435.030    96639789.514       -2460.057          50.000  
R19  18860244.860   100889603.209       -1676.913          42.000    18860242.284    78469680.394       -1304.401          49.000  
R07  21386766.952   114484992.102       -4061.309          46.000    21386776.802    89043892.706       -3158.689          45.000  
R08  21057271.160   112760722.340       -1764.587          50.000    21057269.285    87702783.526       -1372.431          48.000  
E15  24380723.676   128121610.234        1849.012          44.000    24380732.750    98171156.852        1416.809          50.000  
E27  22907356.406   120378979.640          -8.122          48.000    22907357.921    92238446.660          -6.226          51.000  
E30  23076587.979   121268284.170       -1696.741          49.000    23076588.320    92919862.579       -1300.053          51.000  
E34  24210546.017   127227294.704        -266.381          43.000    24210551.203    97485869.060        -204.109          48.000  
G32  21762010.811   114360132.123         -22.444          46.000    21762012.075    89111808.713         -17.723          43.000  
E02                                                                  26764761.216                       -1937.341          28.000  
> 2024 04 17 01 02 00.4950000  0 23                     
G06  21845091.393   114796710.814       -1574.328          36.000    21845089.622    89451990.694       -1226.923          41.000  
G11  21179817.227   111300682.124         489.186          47.000    21179815.643    86727827.762         381.271          47.000  
G12  19690648.944   103475056.829        -860.101          48.000    19690644.898    80629899.206        -670.205          45.000  
G24  19247916.448   101148466.468       -2000.641          50.000    19247916.065    78816987.816       -1558.923          46.000  
R10  19946015.631   106323495.583        1500.232          44.000                                                                  
R18  21469461.735   114605445.807       -4341.367          47.000    21469460.934    89137561.978       -3376.747          48.000  
R09  18519430.746    98892721.782        -526.284          51.000    18519427.148    76916554.498        -409.241          50.000  
R16  21062540.371   112512310.368       -2846.925          47.000    21062542.512    87509583.627       -2214.222          47.000  
R20  19601131.266   104816101.281        2943.159          40.000    19601134.965    81523670.965        2288.727          44.000  
G25  20225326.007   106284798.695         579.541          47.000    20225326.031    82819337.434         451.524          44.000  
G29  21244566.658   111640983.367        2281.086          45.000    21244567.640    86993029.369        1777.554          41.000  
S31  37321493.782   196125770.649        -735.883          45.000  
S33  38274838.536   201135637.693        -736.672          43.000  
E07  24018777.728   126219507.526       -3217.404          46.000    24018784.477    96713674.415       -2465.286          50.000  
R19  18869729.810   100940337.527       -1704.696          44.000    18869727.167    78509140.471       -1325.952          49.000  
R07  21409551.802   114606958.207       -4069.234          46.000    21409560.558    89138754.572       -3164.938          45.000  
R08  21067222.597   112814008.737       -1787.503          50.000    21067219.827    87744228.525       -1390.320          48.000  
E15  24370187.207   128066236.208        1842.932          46.000    24370195.032    98128727.792        1412.035          50.000  
E27  22907410.252   120379264.742         -10.548          48.000    22907412.003    92238665.183          -8.137          51.000  
E30  23086280.082   121319218.739       -1698.666          49.000    23086280.855    92958890.403       -1301.522          51.000  
E34  24212111.869   127235513.610        -281.111          44.000    24212115.344    97492166.745        -215.369          48.000  
G32  21762196.374   114361103.826         -41.814          47.000    21762197.058    89112565.926         -32.654          42.000  
E02                                                                  26779197.966                       -1937.778          30.000  
> 2024 04 17 01 02 30.4950000  0 23                     
G06  21854135.861                       -1594.867          31.000    21854137.180    89489038.035       -1242.741          41.000  
G11  21177076.535   111286279.962         471.061          48.000    21177074.514    86716605.426         367.084          47.000  
G12  19695577.785   103500957.103        -866.333          48.000    19695573.780    80650081.279        -675.064          46.000  
G24  19259390.140   101208757.548       -2018.591          51.000    19259389.419    78863967.854       -1573.016          46.000  
R10  19937581.641   106278537.862        1497.103          45.000                                                                  
R18  21493904.623   114735923.517       -4356.840          46.000    21493903.442    89239044.614       -3388.665          47.000  
R09  18522416.204    98908665.372        -536.315          50.000    18522413.414    76928955.065        -417.212          51.000  
R16  21078554.552   112597850.231       -2855.441          46.000    21078555.924    87576114.597       -2220.858          47.000  
R20  19584667.688   104728063.657        2926.148          41.000    19584671.019    81455197.538        2276.187          43.000  
G25  20222032.481   106267491.806         574.631          47.000    20222032.314    82805851.613         447.776          44.000  
G29  21231578.050   111572734.408        2269.109          45.000    21231579.551    86939848.743        1768.354          39.000  
S31  37325701.041   196147881.173        -737.979          45.000  
S33  38279049.464   201157766.023        -738.158          43.000  
E07  24037167.733   126316150.941       -3225.175          46.000    24037175.098    96787725.741       -2471.247          50.000  
R19  18879372.497   100991920.247       -1733.735          43.000    18879369.926    78549260.406       -1348.448          49.000  
R07  21432385.079   114729180.136       -4078.499          47.000    21432392.104    89233815.508       -3172.071          44.000  
R08  21077304.250   112868000.694       -1811.603          49.000    21077302.821    87786222.257       -1409.217          48.000  
E15  24359689.115   128011062.725        1835.502          47.000    24359695.096    98086452.341        1406.433          49.000  
E27  22907481.113   120379638.903         -14.149          48.000    22907482.956    92238951.935         -10.854          51.000  
E30  23095985.810   121370225.219       -1701.519          48.000    23095987.034    92997973.302       -1303.779          51.000  
E34  24213763.622   127244188.286        -297.066          45.000    24213765.870    97498813.640        -227.584          48.000  
G32  21762495.516   114362669.922         -62.505          47.000    21762494.903    89113786.309         -48.643          43.000  
E02                                                                  26793636.350                3      -1948.249          21.000  
> 2024 04 17 01 03 00.4950000  0 23                     
G06  21863297.711                       -1613.564          26.000    21863297.272    89526549.248       -1257.876          41.000  
G11  21174435.633   111272401.944         454.242          47.000    21174433.555    86705791.504         354.078          47.000  
G12  19700538.898   103527029.820        -871.557          48.000    19700535.566    80670397.728        -679.066          46.000  
G24  19270961.886   101269571.773       -2035.376          50.000    19270960.863    78911355.539       -1586.078          45.000  
R10  19929163.248   106233662.415        1494.943          45.000                                                                  
R18  21518430.647   114866847.746       -4371.143          46.000    21518429.757    89340874.609       -3399.775          46.000  
R09  18525455.364    98924895.036        -545.182          50.000    18525452.207    76941578.155        -424.038          51.000  
R16  21094612.561   112683628.806       -2862.973          48.000    21094612.410    87642831.172       -2226.801          45.000  
R20  19568293.818   104640506.480        2911.114          41.000    19568296.935    81387097.822        2264.121          44.000  
G25  20218763.585   106250313.710         570.967          47.000    20218763.310    82792466.167         445.060          44.000  
G29  21218655.426   111504829.510        2258.224          44.000    21218657.495    86886936.230        1759.390          40.000  
S31  37329915.357   196170026.413        -738.417          44.000  
S33  38283266.709   201179929.617        -738.907          43.000  
E07  24055599.842   126413014.117       -3231.855          47.000    24055607.891    96861945.453       -2476.430          50.000  
R19  18889174.854   101044354.465       -1761.439          44.000    18889171.617    78590042.649       -1370.114          49.000  
R07  21455265.422   114851657.951       -4086.434          46.000    21455271.650    89329075.449       -3178.284          44.000  
R08  21087517.680   112922700.260       -1834.661          47.000    21087517.253    87828766.335       -1426.911          47.000  
E15  24349228.631   127956096.456        1829.112          47.000    24349234.655    98044335.643        1401.666          49.000  
E27  22907570.155   120380106.451         -16.685          48.000    22907571.974    92239310.237         -12.692          51.000  
E30  23105707.028   121421308.252       -1703.604          49.000    23105707.854    93037114.850       -1305.309          51.000  
E34  24215501.183   127253323.901        -311.700          45.000    24215503.816    97505813.737        -238.854          47.000  
G32  21762907.328   114364835.224         -81.824          47.000    21762907.082    89115473.635         -63.593          44.000  
E02                                                                  26808077.968                3      -1932.876          25.000  
> 2024 04 17 01 03 30.4950000  0 23                     
G11  21171891.785   111259030.451         437.449          48.000    21171888.994    86695372.310         340.893          47.000  
G12  19705529.473   103553255.182        -876.522          48.000    19705525.549    80690833.115        -682.804          45.000  
G24  19282630.272   101330889.236       -2052.136          50.000    19282629.169    78959135.353       -1599.097          45.000  
R10  19920756.507   106188850.910        1492.838          43.000                                                                  
R18  21543036.520   114998194.305       -4384.859          45.000    21543035.568    89443033.108       -3410.443          47.000  
R09  18528544.871    98941391.860        -554.188          51.000    18528541.509    76954409.077        -431.113          51.000  
R16  21110711.590   112769626.727       -2870.034          48.000    21110711.985    87709718.367       -2232.325          46.000  
R20  19552007.356   104553414.098        2895.595          42.000    19552010.053    81319359.595        2252.004          44.000  
G25  20215516.251   106233244.639         567.291          48.000    20215515.581    82779165.659         442.225          45.000  
G29  21205794.336   111437250.348        2247.244          44.000    21205797.368    86834277.548        1751.233          39.000  
S31  37334132.165   196192186.679        -738.750          44.000  
S33  38287487.210   201202107.518        -739.031          43.000  
E07  24074070.306   126510075.375       -3238.379          47.000    24074078.040    96936316.936       -2481.312          50.000  
R19  18899131.613   101097618.337       -1788.873          43.000    18899128.013    78631470.150       -1391.357          48.000  
R07  21478188.341   114974366.811       -4093.944          44.000    21478196.502    89424515.080       -3183.944          45.000  
R08  21097861.664   112978084.985       -1857.316          48.000    21097859.751    87871843.371       -1444.585          47.000  
E15  24338804.843   127901319.803        1822.964          46.000    24338811.273    98002364.250        1396.759          50.000  
E27  22907672.713   120380647.415         -19.115          48.000    22907674.854    92239724.799         -14.564          51.000  
E30  23115439.254   121472448.118       -1705.378          49.000    23115439.514    93076299.968       -1306.743          51.000  
E34  24217323.202   127262901.414        -326.201          44.000    24217326.246    97513152.435        -250.149          47.000  
G32  21763429.710   114367580.270        -101.066          47.000    21763430.678    89117612.706         -78.758          44.000  
E02                                                                  26822523.707                       -1938.189          31.000  
G06                                                                  21872566.971    89564508.685       -1272.710          40.000  
> 2024 04 17 01 04 00.4950000  0 23                     
G06  21881937.473   114990389.4481      -1651.879          29.000    21881945.572    89602914.715       -1287.280          41.000  
G11  21169442.211   111246165.990         420.796          47.000    21169440.390    86685348.189         327.920          46.000  
G12  19710548.851   103579631.304        -881.301          49.000    19710543.994    80711385.994        -686.747          44.000  
G24  19294393.886   101392708.086       -2068.628          50.000    19294393.340    79007305.857       -1612.000          46.000  
R10  19912360.123   106144102.396        1491.039          42.000                                                                  
R18  21567720.175   115129957.752       -4398.602          45.000    21567719.010    89545515.791       -3421.226          48.000  
R09  18531684.146    98958155.988        -562.879          50.000    18531680.946    76967447.853        -437.888          50.000  
R16  21126852.173   112855842.665       -2877.065          49.000    21126851.377    87776775.172       -2237.619          45.000  
R20  19535807.073   104466789.302        2880.263          41.000    19535810.264    81251985.025        2240.006          44.000  
G25  20212288.423   106216283.022         563.948          48.000    20212287.609    82765948.886         439.492          44.000  
G29  21192996.736   111369997.555        2236.705          46.000    21192999.024    86781873.145        1742.891          38.000  
S31  37338351.473   196214360.361        -739.013          44.000  
S33  38291709.890   201224298.464        -739.372          43.000  
E07  24092578.283   126607331.152       -3244.659          48.000    24092585.461    97010837.464       -2486.250          50.000  
R19  18909243.336   101151708.920       -1816.413          43.000    18909238.905    78673540.653       -1412.856          47.000  
R07  21501154.428   115097300.585       -4101.169          46.000    21501161.417    89520129.554       -3189.661          44.000  
R08  21108332.586   113034150.461       -1879.839          49.000    21108330.512    87915449.873       -1462.057          48.000  
E15  24328416.501   127846733.399        1816.716          45.000    24328423.594    97960538.634        1391.966          50.000  
E27  22907788.776   120381260.001         -21.203          47.000    22907791.269    92240194.258         -16.324          51.000  
E30  23125181.233   121523643.392       -1707.103          49.000    23125181.705    93115527.513       -1308.014          51.000  
E34  24219229.019   127272919.942        -340.875          43.000    24219232.537    97520829.029        -261.140          47.000  
G32  21764061.839   114370903.757        -120.082          46.000    21764062.977    89120202.478         -93.569          44.000  
E02                                                                  26836965.746   108061338.5901      -1938.367          29.000  
> 2024 04 17 01 04 30.4950000  0 23                     
G06  21891431.006   115040250.344       -1671.645          34.000    21891434.091    89641767.369       -1302.381          41.000  
G11  21167090.800   111233811.131         403.446          46.000    21167088.199    86675721.162         314.122          45.000  
G12  19715597.024   103606158.716        -886.619          49.000    19715591.794    80732056.747        -691.096          44.000  
G24  19306253.382   101455028.753       -2085.645          49.000    19306252.020    79055867.361       -1625.098          45.000  
R10  19903977.371   106099419.010        1488.330          43.000                                                                  
R18  21592480.746   115262134.269       -4412.604          47.000    21592480.093    89648319.746       -3432.008          48.000  
R09  18534874.673    98975189.137        -572.163          51.000    18534871.121    76980695.881        -445.015          50.000  
R16  21143034.023   112942278.298       -2884.813          49.000    21143032.038    87844002.855       -2243.555          45.000  
R20  19519696.578   104380636.996        2864.041          41.000    19519699.222    81184977.972        2227.274          44.000  
G25  20209081.039   106199429.412         560.133          48.000    20209080.709    82752816.297         436.383          45.000  
G29  21180261.790   111303073.162        2225.359          46.000    21180263.668    86729724.636        1733.722          39.000  
S31  37342573.464   196236547.764        -739.786          44.000  
S33  38295935.396   201246503.940        -740.202          43.000  
E07  24111121.867   126704780.074       -3251.355          47.000    24111129.655    97085505.971       -2491.211          50.000  
R19  18919509.349   101206625.338       -1844.204          44.000    18919505.098    78716253.477       -1434.414          48.000  
R07  21524161.357   115220455.323       -4108.732          47.000    21524166.650    89615915.981       -3195.732          43.000  
R08  21118929.675   113090895.405       -1902.834          49.000    21118927.758    87959584.810       -1479.930          48.000  
E15  24318065.613   127792339.905        1810.045          46.000    24318072.709    97918860.857        1386.843          50.000  
E27  22907919.169   120381944.586         -23.873          47.000    22907921.627    92240718.861         -18.279          51.000  
E30  23134934.181   121574894.693       -1709.234          49.000    23134934.534    93154797.994       -1309.560          51.000  
E34  24221219.569   127283380.657        -356.165          43.000    24221222.953    97528844.475        -272.816          47.000  
G32  21764804.167   114374806.407        -139.650          45.000    21764805.505    89123243.570        -108.841          44.000  
E02                                                                  26851408.514                       -1937.998          30.000  
> 2024 04 17 01 05 00.4950000  0 23                     
G06  21901029.639   115090677.194       -1690.376          35.000    21901028.919    89681061.128       -1317.554          39.000  
G11  21164835.959   111221961.413         386.491          47.000    21164834.055    86666487.742         301.183          46.000  
G12  19720672.432   103632830.403        -891.471          49.000    19720667.438    80752839.890        -694.711          44.000  
G24  19318206.993   101517844.382       -2102.051          50.000    19318205.750    79104814.599       -1637.994          46.000  
R10  19895606.875   106054795.153        1486.414          43.000                                                                  
R18  21617317.744   115394713.275       -4426.022          48.000    21617316.658    89751436.776       -3442.378          48.000  
R09  18538113.058    98992486.513        -580.986          51.000    18538110.266    76994149.430        -451.939          50.000  
R16  21159253.837   113028927.331       -2891.868          49.000    21159253.500    87911396.461       -2249.171          47.000  
R20  19503672.820   104294954.586        2847.962          41.000    19503675.806    81118336.355        2215.482          44.000  
G25  20205892.997   106182677.336         556.688          48.000    20205892.759    82739762.804         433.723          45.000  
G29  21167586.850   111236472.573        2214.568          46.000    21167590.042    86677828.455        1725.264          39.000  
S31  37346797.125   196258742.956        -739.948          44.000  
S33  38300162.084   201268716.811        -740.510          43.000  
E07  24129700.995   126802413.657       -3257.534          48.000    24129709.138    97160315.975       -2496.019          51.000  
R19  18929928.198   101262359.017       -1871.370          44.000    18929925.020    78759601.958       -1455.483          49.000  
R07  21547208.275   115343820.006       -4115.504          49.000    21547213.808    89711865.684       -3200.922          46.000  
R08  21129651.243   113148309.675       -1924.866          48.000    21129648.862    88004240.332       -1497.140          47.000  
E15  24307750.746   127738135.103        1803.671          46.000    24307757.274    97877327.611        1382.108          50.000  
E27  22908062.646   120382694.458         -26.051          48.000    22908064.285    92241293.498         -19.902          51.000  
E30  23144696.632   121626195.635       -1710.749          49.000    23144696.818    93194106.528       -1310.855          51.000  
E34  24223293.732   127294277.663        -370.354          43.000    24223297.134    97537194.221        -283.896          47.000  
G32  21765655.319   114379281.941        -158.711          44.000    21765656.277    89126731.056        -123.597          43.000  
E02                                                                  26865852.065   108177649.591       -1938.348          34.000  
> 2024 04 17 01 05 30.4950000  0 23                     
G06  21910735.117   115141673.788       -1709.702          38.000    21910733.350    89720798.730       -1332.107          39.000  
G11  21162678.675   111210622.980         369.322          47.000    21162676.536    86657652.730         287.818          47.000  
G12  19725776.058   103659650.455        -896.532          48.000    19725771.490    80773738.670        -698.584          44.000  
G24  19330254.920   101581158.840       -2118.939          50.000    19330254.356    79154150.523       -1651.154          46.000  
R10  19887248.088   106010236.536        1483.864          44.000                                                                  
R18  21642230.054   115527694.849       -4439.541          48.000    21642228.710    89854866.912       -3453.069          47.000  
R09  18541402.685    99010053.992        -590.193          51.000    18541400.116    77007813.050        -459.097          50.000  
R16  21175515.901   113115794.497       -2899.338          48.000    21175514.611    87978959.790       -2255.099          45.000  
R20  19487739.290   104209750.696        2831.910          41.000    19487742.012    81052066.960        2202.717          44.000  
G25  20202724.524   106166030.860         553.038          47.000    20202724.186    82726791.616         430.801          45.000  
G29  21154975.451   111170201.355        2203.410          47.000    21154978.487    86626188.887        1716.857          40.000  
S31  37351022.897   196280949.333        -740.660          44.000  
S33  38304391.058   201290941.998        -741.078          43.000  
E07  24148315.941   126900234.026       -3263.889          48.000    24148323.915    97235269.105       -2500.955          51.000  
R19  18940499.801   101318912.216       -1898.953          43.000    18940496.633    78803587.842       -1476.991          48.000  
R07  21570292.892   115467394.014       -4122.807          49.000    21570300.531    89807978.165       -3206.715          45.000  
R08  21140497.238   113206395.592       -1947.566          48.000    21140494.993    88049418.263       -1514.930          47.000  
E15  24297472.417   127684125.185        1796.901          46.000    24297478.752    97835943.711        1376.809          49.000  
E27  22908218.407   120383513.523         -28.531          48.000    22908219.953    92241921.167         -21.943          51.000  
E30  23154468.979   121677550.427       -1712.869          50.000    23154469.300    93233456.334       -1312.483          51.000  
E34  24225451.556   127305615.705        -385.564          43.000    24225454.737    97545881.865        -295.338          47.000  
G32  21766616.514   114384334.622        -178.200          45.000    21766617.336    89130668.272        -138.865          43.000  
E02                                                                  26880292.943   108235802.205       -1938.843          32.000  
> 2024 04 17 01 06 00.4950000  0 23                     
G06  21920547.819   115193246.251       -1728.633          37.000    21920548.228    89760985.088       -1346.851          40.000  
G11  21160620.109   111199804.723         351.763          47.000    21160617.210    86649223.060         274.158          46.000  
G12  19730908.739   103686625.437        -901.840          48.000    19730905.436    80794758.164        -702.674          45.000  
G24  19342399.601   101644978.775       -2135.718          49.000    19342399.218    79203880.302       -1664.221          46.000  
R10  19878903.408   105965751.729        1481.333          43.000                                                                  
R18  21667217.626   115661081.997       -4453.074          47.000    21667216.332    89958612.447       -3463.450          45.000  
R09  18544744.638    99027899.505        -599.654          51.000    18544741.791    77021692.897        -466.338          51.000  
R16  21191818.771   113202887.396       -2906.898          48.000    21191819.343    88046698.619       -2260.844          45.000  
R20  19471897.271   104125036.852        2815.515          42.000    19471899.885    80986178.669        2189.807          44.000  
G25  20199577.456   106149496.987         549.120          47.000    20199578.315    82713908.154         428.015          45.000  
G29  21142429.147   111104267.930        2192.170          46.000    21142431.237    86574812.502        1708.086          38.000  
S31  37355252.085   196303174.881        -741.243          45.000  
S33  38308623.608   201313184.591        -741.804          43.000  
E07  24166967.580   126998246.152       -3270.205          48.000    24166974.805    97310369.167       -2505.674          51.000  
R19  18951226.449   101376290.978       -1926.431          43.000    18951223.169    78848215.802       -1498.275          48.000  
R07  21593416.957   115591180.068       -4129.809          48.000    21593424.137    89904255.549       -3212.078          44.000  
R08  21151470.159   113265157.104       -1969.890          47.000    21151468.330    88095121.644       -1532.163          47.000  
E15  24287232.246   127630319.258        1790.068          45.000    24287239.135    97794716.098        1371.683          48.000  
E27  22908388.608   120384408.538         -31.152          48.000    22908390.047    92242607.021         -23.855          51.000  
E30  23164252.679   121728966.130       -1714.962          49.000    23164253.218    93272852.789       -1313.968          50.000  
E34  24227692.919   127317402.254        -400.467          41.000    24227696.964    97554913.210        -306.763          47.000  
G32  21767689.528   114389971.526        -197.623          46.000    21767689.731    89135060.688        -153.839          44.000  
E02                                                                  26894736.874   108293959.640       -1938.748          33.000  
> 2024 04 17 01 06 30.4950000  0 23                     
G06  21930470.582   115245393.390       -1748.118          38.000    21930470.527    89801619.272       -1361.904          38.000  
G11  21158660.839   111189507.881         334.426          46.000    21158658.331    86641199.696         260.542          47.000  
G12  19736071.621   103713754.368        -907.009          48.000    19736068.151    80815897.616        -706.787          45.000  
G24  19354640.667   101709303.096       -2152.557          50.000    19354640.247    79254003.142       -1677.393          46.000  
R10  19870571.474   105921341.044        1479.266          41.000                                                                  
R18  21692280.544   115794869.726       -4466.305          45.000    21692279.713    90062669.582       -3473.632          43.000  
R09  18548138.322    99046024.291        -608.921          50.000    18548135.835    77035789.996        -473.513          50.000  
R16  21208165.331   113290205.794       -2914.367          49.000    21208166.398    88114612.857       -2266.807          46.000  
R20  19456148.014   104040817.331        2798.871          42.000    19456150.741    80920674.849        2176.990          44.000  
G25  20196452.889   106133075.023         545.548          47.000    20196453.295    82701111.873         425.150          45.000  
G29  21129946.329   111038672.970        2180.839          46.000    21129949.452    86523699.867        1699.187          40.000  
S31  37359484.839   196325418.695        -741.683          44.000  
S33  38312859.790   201335445.209        -742.387          43.000  
E07  24185653.480   127096447.347       -3276.671          46.000    24185662.128    97385614.120       -2510.704          51.000  
R19  18962106.168   101434492.155       -1953.712          43.000    18962102.789    78893483.446       -1519.668          48.000  
R07  21616580.426   115715172.637       -4136.680          48.000    21616588.543    90000693.527       -3217.268          44.000  
R08  21162568.447   113324590.755       -1992.357          47.000    21162568.020    88141347.806       -1549.544          47.000  
E15  24277031.642   127576718.783        1783.185          45.000    24277038.919    97753645.913        1366.259          48.000  
E27  22908572.374   120385378.570         -33.653          48.000    22908574.661    92243350.352         -25.808          51.000  
E30  23174048.293   121780442.144       -1716.874          49.000    23174048.508    93312295.465       -1315.660          50.000  
E34  24230022.315   127329637.201        -415.337          43.000    24230025.366    97564288.115        -318.276          47.000  
G32  21768872.792   114396192.016        -217.085          44.000    21768873.516    89139907.882        -168.979          43.000  
E02                                                                  26909181.599   108352121.647       -1938.686          34.000  
> 2024 04 17 01 07 00.4950000  0 23                     
G06  21940503.465   115298114.309       -1766.811          37.000    21940503.980    89842700.503       -1376.396          40.000  
G11  21156800.364   111179734.251         316.913          45.000    21156797.682    86633583.982         247.225          46.000  
G12  19741263.391   103741036.988        -911.890          49.000    19741259.408    80837156.839        -710.548          45.000  
G24  19366977.376   101774131.271       -2169.275          51.000    19366976.701    79304518.584       -1690.344          47.000  
R10  19862252.543   105877005.233        1476.584          40.000                                                                  
R18  21717417.900   115929053.836       -4479.442          44.000    21717417.264    90167035.008       -3483.770          41.000  
R09  18551585.430    99064429.001        -618.166          50.000    18551582.259    77050104.798        -480.695          51.000  
R16  21224554.400   113377750.126       -2921.859          49.000    21224554.628    88182702.805       -2272.479          45.000  
R20  19440491.600   103957095.416        2782.208          42.000    19440494.363    80855558.061        2164.148          45.000  
G25  20193349.541   106116764.742         541.781          48.000    20193349.031    82688402.669         422.053          44.000  
G29  21117528.058   110973418.142        2169.506          47.000    21117531.481    86472852.271        1690.453          40.000  
S31  37363720.728   196347679.329        -742.282          44.000  
S33  38317099.115   201357724.119        -742.778          43.000  
E07  24204375.674   127194835.390       -3282.684          45.000    24204384.648    97461002.214       -2515.219          50.000  
R19  18973140.327   101493513.842       -1981.020          43.000    18973136.198    78939389.253       -1540.809          49.000  
R07  21639781.772   115839367.074       -4143.156          49.000    21639789.959    90097288.523       -3222.216          45.000  
R08  21173793.266   113384694.013       -2014.493          48.000    21173792.242    88188094.808       -1566.977          47.000  
E15  24266871.481   127523325.640        1776.346          45.000    24266878.028    97712734.592        1361.040          47.000  
E27  22908770.698   120386423.225         -35.896          47.000    22908773.544    92244150.864         -27.506          51.000  
E30  23183855.576   121831978.338       -1718.689          49.000    23183855.446    93351784.244       -1316.939          50.000  
E34  24232435.411   127342320.898        -430.286          42.000    24232439.564    97574006.873        -329.582          48.000  
G32  21770167.097   114402996.016        -236.645          45.000    21770167.691    89145209.741        -184.428          43.000  
E02                                                                  26923627.470                       -1938.093          31.000  
> 2024 04 17 01 07 30.4950000  0 23                     
G06  21950640.737   115351404.072       -1786.012          36.000    21950644.799    89884225.052       -1391.478          39.000  
G11  21155038.197   111170481.413         299.690          44.000    21155036.317    86626374.112         233.584          46.000  
G12  19746483.383   103768469.184        -917.021          49.000    19746478.611    80858532.616        -714.450          44.000  
G24  19379409.155   101839458.661       -2185.913          51.000    19379408.706    79355423.014       -1703.400          47.000  
R10  19853949.225   105832741.745        1473.964          42.000                                                                  
R18  21742627.579   116063625.835       -4492.229          42.000    21742627.200    90271702.134       -3493.759          39.000  
R09  18555084.813    99083111.468        -627.383          51.000    18555081.204    77064635.636        -488.025          51.000  
R16  21240984.644   113465516.532       -2929.308          50.000    21240984.562    88250965.494       -2278.458          46.000  
R20  19424927.918   103873871.019        2765.771          42.000    19424930.520    80790828.257        2151.196          44.000  
G25  20190266.753   106100561.903         538.285          48.000    20190265.317    82675777.137         419.236          44.000  
G29  21105174.558   110908500.950        2158.195          46.000    21105177.418    86422267.786        1681.407          40.000  
S31  37367959.388   196369954.148        -742.855          44.000  
S33  38321340.942   201380016.057        -743.233          43.000  
E07  24223132.873   127293404.078       -3288.873          45.000    24223141.763    97536528.724       -2519.984          50.000  
R19  18984325.511   101553349.988       -2008.266          42.000    18984322.083    78985928.529       -1561.909          49.000  
R07  21663018.649   115963754.360       -4149.351          47.000    21663027.106    90194033.482       -3227.284          43.000  
R08  21185141.665   113445459.272       -2036.674          48.000    21185139.366    88235356.656       -1584.011          47.000  
E15  24256749.980   127470137.747        1769.429          45.000    24256756.213    97671980.536        1355.741          47.000  
E27  22908983.168   120387538.058         -38.465          47.000    22908985.703    92245005.157         -29.472          51.000  
E30  23193673.304   121883570.579       -1720.742          49.000    23193673.218    93391315.963       -1318.471          50.000  
E34  24234934.217   127355449.569        -445.117          43.000    24234937.899    97584066.627        -341.130          49.000  
G32  21771572.866   114410379.252        -255.755          45.000    21771572.883    89150962.989        -199.391          43.000  
E02                                                                  26938074.257                       -1939.088          28.000  
> 2024 04 17 01 08 00.4950000  0 23                     
G06  21960890.508   115405254.606       -1804.480          39.000    21960893.208    89926186.540       -1405.643          41.000  
G11  21153375.837   111161743.979         282.704          45.000    21153374.171    86619565.841         220.149          47.000  
G12  19751730.419   103796043.127        -921.501          49.000    19751725.115    80880018.841        -717.991          43.000  
G24  19391933.572   101905277.526       -2202.063          50.000    19391933.704    79406710.429       -1715.887          47.000  
R10  19845659.145   105788544.556        1472.063          44.000                                                                  
R18  21767908.115   116198574.138       -4504.798          40.000    21767906.697    90376661.939       -3503.167          38.000  
R09  18558634.286    99102065.579        -636.309          50.000    18558629.730    77079377.742        -494.884          50.000  
R16  21257454.540   113553498.080       -2936.321          49.000    21257454.211    88319395.500       -2283.656          44.000  
R20  19409456.764   103791141.335        2749.432          42.000    19409458.967    80726483.232        2138.403          44.000  
G25  20187202.413   106084459.198         535.237          48.000    20187200.881    82663229.639         417.095          44.000  
G29  21092885.311   110843915.864        2147.347          47.000    21092885.785    86371941.983        1673.281          39.000  
S31  37372199.333   196392235.097        -742.828          44.000  
S33  38325584.179   201402315.202        -743.434          43.000  
E07  24241922.856   127392144.025       -3294.102          46.000    24241931.510    97612186.473       -2524.083          50.000  
R19  18995661.961   101613991.638       -2034.822          42.000    18995658.917    79033094.267       -1582.600          49.000  
R07  21686288.888   116088322.603       -4155.157          47.000    21686296.533    90290919.146       -3231.631          42.000  
R08  21196609.730   113506876.682       -2058.072          46.000    21196608.763    88283125.737       -1600.742          47.000  
E15  24246666.430   127417149.916        1762.990          45.000    24246672.474    97631379.757        1350.730          47.000  
E27  22909207.607   120388715.531         -40.326          48.000    22909209.626    92245907.447         -30.916          51.000  
E30  23203500.471   121935211.679       -1722.233          49.000    23203499.969    93430885.139       -1319.680          49.000  
E34  24237515.108   127369016.478        -459.595          42.000    24237519.104    97594462.108        -352.087          49.000  
G32  21773086.575   114418334.468        -274.552          45.000    21773087.559    89157161.916        -214.213          44.000  
E02                                                                  26952519.376                3      -1938.379          27.000  
> 2024 04 17 01 08 30.4950000  0 23                     
G06  21971246.636   115459667.716       -1823.098          41.000    21971246.730    89968586.406       -1420.656          39.000  
G11  21151812.428   111153526.310         265.254          44.000    21151809.595    86613162.583         206.644          46.000  
G12  19757005.425   103823761.215        -926.169          49.000    19756999.848    80901617.371        -721.805          44.000  
G24  19404551.732   101971590.059       -2218.542          49.000    19404552.560    79458382.489       -1728.790          47.000  
R10  19837380.919   105744416.836        1469.918          44.000                                                                  
R18  21793258.361   116333897.167       -4516.594          39.000    21793257.166    90481913.211       -3512.991          38.000  
R09  18562235.232    99121295.069        -645.412          50.000    18562231.129    77094334.034        -502.049          51.000  
R16  21273965.992   113641697.687       -2943.446          49.000    21273964.848    88387995.165       -2289.516          45.000  
R20  19394079.313   103708912.522        2732.721          42.000    19394080.467    80662527.708        2125.433          43.000  
G25  20184157.117   106068459.238         531.718          47.000    20184155.862    82650762.231         414.435          44.000  
G29  21080658.494   110779666.511        2136.306          47.000    21080659.363    86321877.896        1664.359          39.000  
S31  37376440.559   196414524.211        -742.947          44.000  
S33  38329829.031   201424621.598        -743.487          43.000  
E07  24260745.086   127491055.794       -3299.817          46.000    24260753.562    97687975.855       -2528.284          49.000  
R19  19007149.411   101675438.406       -2061.582          43.000    19007145.725    79080886.208       -1603.420          50.000  
R07  21709592.372   116213069.736       -4160.938          46.000    21709600.303    90387943.888       -3236.494          41.000  
R08  21208200.241   113568945.716       -2079.561          46.000    21208199.930    88331401.607       -1617.536          47.000  
E15  24236621.900   127364366.753        1756.196          45.000    24236627.891    97590935.812        1345.705          47.000  
E27  22909444.677   120389957.996         -42.316          49.000    22909446.271    92246859.542         -32.425          52.000  
E30  23213336.896   121986904.254       -1723.768          49.000    23213336.947    93470493.753       -1320.855          49.000  
E34  24240181.060   127383024.579        -474.052          42.000    24240184.738    97605195.665        -363.248          49.000  
G32  21774709.448   114426864.153        -293.841          46.000    21774710.598    89163808.466        -228.867          44.000  
E02                                                                  26966963.048                       -1938.052          27.000  
> 2024 04 17 01 09 00.4950000  0 23                     
G06  21981706.495   115514628.330       -1841.200          40.000    21981705.157    90011412.865       -1434.632          39.000  
G11  21150343.941   111145815.975         248.628          44.000    21150342.081    86607154.607         193.867          46.000  
G12  19762304.952   103851609.077        -930.373          49.000    19762300.091    80923317.025        -724.957          45.000  
G24  19417262.139   102038381.426       -2234.338          50.000    19417262.208    79510427.647       -1740.918          47.000  
R10  19829112.816   105700346.190        1468.285          43.000                                                                  
R18  21818675.080   116469576.291       -4528.415          35.000    21818674.607    90587441.461       -3522.150          37.000  
R09  18565885.224    99140787.248        -654.108          50.000    18565881.826    77109494.614        -508.682          52.000  
R16  21290514.398   113730101.711       -2950.064          47.000    21290514.540    88456753.773       -2294.445          47.000  
R20  19378793.219   103627175.009        2716.321          40.000    19378795.298    80598954.347        2112.622          43.000  
G25  20181129.362   106052547.702         528.861          48.000    20181128.016    82638363.722         411.957          44.000  
G29  21068493.285   110715740.366        2125.557          46.000    21068493.890    86272065.579        1656.472          40.000  
S31  37380681.094   196436808.432        -742.670          45.000  
S33  38334072.703   201446922.439        -743.222          43.000  
E07  24279597.170   127590123.025       -3304.574          46.000    24279605.619    97763884.360       -2532.178          49.000  
R19  19018782.919   101737674.250       -2087.588          41.000    19018779.675    79129291.888       -1623.628          49.000  
R07  21732926.454   116337976.724       -4166.289          45.000    21732935.178    90485092.974       -3240.396          43.000  
R08  21219910.973   113631649.174       -2100.467          48.000    21219908.829    88380170.963       -1633.753          47.000  
E15  24226615.731   127311776.156        1749.934          46.000    24226620.386    97550639.378        1340.791          48.000  
E27  22909690.604   120391250.958         -43.837          49.000    22909692.309    92247850.316         -33.615          52.000  
E30  23223180.419   122038634.123       -1724.842          49.000    23223180.555    93510130.938       -1321.612          49.000  
E34  24242927.641   127397460.118        -488.076          42.000    24242931.502    97616256.706        -374.173          49.000  
G32  21776439.549   114435953.991        -312.321          46.000    21776440.101    89170891.489        -243.214          43.000  
E02                                                                  26981409.388                3      -1938.393          24.000  
> 2024 04 17 01 09 30.4950000  0 23                     
G06  21992270.818   115570144.783       -1859.691          41.000    21992268.829    90054672.493       -1449.397          37.000  
G11  21148975.687   111138624.010         231.007          44.000    21148973.025    86601550.587         180.048          45.000  
G12  19767630.250   103879595.415        -935.167          49.000    19767625.653    80945124.582        -728.700          45.000  
G24  19430064.750   102105660.342       -2250.763          49.000    19430064.391    79562852.758       -1753.784          47.000  
R10  19820857.988   105656342.602        1465.345          44.000                                                                  
R18  21844159.759   116605616.810       -4540.402          34.000    21844158.858    90693250.756       -3531.670          34.000  
R09  18569585.693    99160552.676        -663.533          49.000    18569582.950    77124867.743        -516.034          51.000  
R16  21307103.872   113818719.594       -2957.500          47.000    21307104.992    88525678.684       -2300.273          47.000  
R20  19363601.907   103545941.957        2699.396          41.000    19363603.885    80535773.334        2099.225          43.000  
G25  20178120.093   106036733.771         525.532          48.000    20178119.385    82626041.259         409.462          45.000  
G29  21056391.965   110652147.957        2114.161          47.000    21056393.534    86222513.328        1647.564          41.000  
S31  37384922.162   196459095.666        -743.263          45.000  
S33  38338316.970   201469227.732        -743.355          43.000  
E07  24298479.808   127689352.939       -3310.361          45.000    24298488.433    97839917.511       -2536.580          49.000  
R19  19030565.447   101800706.572       -2114.362          42.000    19030562.923    79178317.050       -1644.532          49.000  
R07  21756291.401   116463048.547       -4171.796          45.000    21756300.676    90582370.201       -3244.835          44.000  
R08  21231739.594   113694993.240       -2122.135          46.000    21231737.529    88429438.601       -1650.447          46.000  
E15  24216646.688   127259389.340        1742.751          46.000    24216651.990    97510499.091        1335.322          49.000  
E27  22909947.294   120392603.436         -46.103          48.000    22909949.597    92248886.694         -35.348          52.000  
E30  23233032.989   122090410.588       -1726.831          49.000    23233033.472    93549803.824       -1323.146          49.000  
E34  24245757.893   127412332.714        -503.220          42.000    24245761.361    97627652.611        -385.515          48.000  
G32  21778277.835   114445613.067        -331.389          46.000    21778278.219    89178418.082        -258.302          43.000  
E02                                                                  26995851.706                       -1938.483          27.000  
> 2024 04 17 01 10 00.4950000  0 22                     
G06  22002940.204   115626213.973       -1878.004          42.000    22002937.704    90098362.792       -1463.379          37.000  
G11  21147705.238   111131949.717         214.237          44.000    21147702.680    86596349.964         166.782          45.000  
G12  19772981.741   103907717.977        -939.407          49.000    19772976.674    80967038.315        -732.047          44.000  
G24  19442959.449   102173424.010       -2266.553          49.000    19442959.412    79615655.589       -1766.217          46.000  
R10  19812614.557   105612405.530        1463.689          42.000                                                                  
R18  21869712.412   116742011.973       -4551.750          35.000    21869709.851    90799335.875       -3540.397          34.000  
R09  18573337.938    99180590.387        -672.142          49.000    18573335.890    77140452.649        -522.864          52.000  
R16  21323733.657   113907549.255       -2964.293          49.000    21323734.549    88594768.401       -2305.592          48.000  
R20  19348505.716   103465215.268        2682.611          42.000    19348507.784    80472986.131        2086.536          44.000  
G25  20175129.456   106021015.134         522.618          48.000    20175128.303    82613793.036         407.199          45.000  
G29  21044354.140   110588888.330        2103.322          46.000    21044356.044    86173220.425        1638.881          41.000  
S31  37389163.424   196481384.222        -742.660          45.000  
S33  38342561.513   201491534.238        -743.267          43.000  
E07  24317393.338   127788741.056       -3315.193          45.000    24317401.568    97916071.898       -2540.321          49.000  
R19  19042497.080   101864530.745       -2140.202          41.000    19042494.242    79227958.124       -1664.759          49.000  
R07  21779686.370   116588278.122       -4176.480          44.000    21779696.276    90679770.131       -3248.662          43.000  
R08  21243687.400   113758972.946       -2142.928          46.000    21243685.833    88479200.586       -1666.644          45.000  
E15  24206715.201   127207205.989        1736.303          45.000    24206721.808    97470514.738        1330.301          50.000  
E27  22910215.168   120394012.760         -47.709          48.000    22910217.435    92249966.637         -36.578          52.000  
E30  23242894.467   122142231.356       -1727.823          49.000    23242894.742    93589510.668       -1324.016          50.000  
E34  24248671.271   127427640.323        -517.090          43.000    24248674.149    97639381.887        -396.492          48.000  
G32  21780224.249   114455838.916        -349.955          45.000    21780224.039    89186386.308        -272.773          44.000  
> 2024 04 17 01 10 30.4950000  0 22                     
G06  22013712.074   115682822.635       -1895.900          41.000    22013712.761    90142473.480       -1477.314          40.000  
G11  21146532.915   111125782.605         197.148          46.000    21146529.944    86591544.539         153.541          46.000  
G12  19778356.734   103935964.368        -943.390          49.000    19778351.440    80989048.533        -735.137          44.000  
G24  19455944.410   102241659.490       -2282.330          49.000    19455944.400    79668826.058       -1778.522          46.000  
R10  19804382.007   105568523.721        1461.925          43.000                                                                  
R18  21895328.229   116878745.108       -4563.250          36.000    21895324.297    90905683.867       -3549.183          34.000  
R09  18577137.819    99200889.321        -680.947          48.000    18577136.958    77156240.683        -529.590          51.000  
R16  21340400.344   113996578.706       -2970.900          48.000    21340401.709    88664013.517       -2310.623          49.000  
R20  19333502.339   103384986.207        2666.095          41.000    19333504.438    80410585.997        2073.633          44.000  
G25  20172153.940   106005379.440         519.972          48.000    20172152.874    82601609.459         405.204          45.000  
G29  21032377.480   110525951.045        2092.767          45.000    21032378.593    86124178.664        1630.601          41.000  
S31  37393402.576   196503661.798        -742.263          45.000  
S33  38346803.827   201513828.674        -742.898          43.000  
E07  24336333.335   127888273.066       -3320.111          45.000    24336342.259    97992336.532       -2543.991          49.000  
R19  19054574.235   101929132.002       -2166.328          42.000    19054570.739    79278203.539       -1684.846          50.000  
R07  21803108.061   116713647.991       -4181.250          45.000    21803118.286    90777279.121       -3252.069          43.000  
R08  21255750.883   113823572.412       -2163.536          47.000    21255748.446    88529444.613       -1682.651          44.000  
E15  24196822.926   127155215.926        1729.864          47.000    24196828.349    97430678.485        1325.397          50.000  
E27  22910491.416   120395466.481         -49.151          48.000    22910493.962    92251080.599         -37.731          52.000  
E30  23252760.135   122194084.204       -1728.813          48.000    23252762.054    93629242.118       -1324.821          50.000  
E34  24251666.123   127443371.118        -531.320          44.000    24251667.371    97651435.424        -407.246          48.000  
G32  21782274.540   114466619.059        -368.476          44.000    21782275.719    89194786.461        -287.115          45.000  
> 2024 04 17 01 11 00.4950000  0 23                     
G06  22024586.322   115739967.347       -1913.448          40.000    22024588.031    90187001.859       -1491.135          39.000  
G11  21145455.893   111120121.799         180.437          45.000    21145452.448    86587133.631         140.585          46.000  
G12  19783754.892   103964331.714        -947.320          50.000    19783749.371    81011152.985        -738.320          43.000  
G24  19469017.963   102310363.700       -2297.748          48.000    19469017.998    79722361.767       -1790.454          46.000  
R10  19796161.007   105524696.198        1460.195          44.000                                                                  
R18  21921004.387   117015809.614       -4574.400          36.000    21921001.853    91012289.660       -3557.971          32.000  
R09  18580988.613    99221448.361        -689.380          49.000    18580987.042    77172231.033        -536.202          52.000  
R16  21357102.915   114085806.127       -2977.284          48.000    21357105.236    88733412.545       -2315.519          48.000  
R20  19318592.150   103305256.618        2649.518          41.000    19318594.617    80348574.341        2060.864          44.000  
G25  20169193.373   105989824.174         517.455          47.000    20169192.286    82589488.571         403.156          45.000  
G29  21020461.557   110463334.724        2081.934          44.000    21020463.222    86075387.004        1622.609          41.000  
S31  37397639.299   196525925.402        -741.666          45.000  
S33  38351043.764   201536110.311        -742.229          43.000  
E07  24355299.708   127987944.349       -3324.564          44.000    24355308.982    98068707.875       -2547.320          48.000  
R19  19066795.163   101994505.909       -2191.466          42.000    19066791.223    79329049.952       -1704.702          49.000  
R07  21826555.463   116839150.971       -4185.421          45.000    21826563.090    90874891.664       -3255.424          39.000  
R08  21267930.212   113888785.939       -2183.737          46.000    21267927.740    88580166.213       -1698.466          46.000  
E15  24186965.256   127103418.629        1723.573          46.000    24186971.247    97390989.912        1320.656          50.000  
E27  22910776.085   120396961.803         -50.228          48.000    22910778.128    92252226.425         -38.486          51.000  
E30  23262633.636   122245966.730       -1729.671          48.000    23262635.054    93668996.277       -1325.343          50.000  
E34  24254738.540   127459522.859        -545.246          43.000    24254741.065    97663811.505        -417.745          48.000  
G32  21784430.802   114477950.795        -386.815          45.000    21784432.390    89203616.398        -301.281          45.000  
E02                                                                  27039152.137                1      -1935.824          27.000  
> 2024 04 17 01 11 30.4950000  0 23                     
G06  22035557.879   115797623.392       -1930.681          42.000    22035558.327    90231928.743       -1504.219          38.000  
G11  21144469.019   111114945.227         164.260          44.000    21144466.331    86583100.058         128.032          45.000  
G12  19789171.580   103992795.786        -950.425          50.000    19789165.855    81033332.797        -740.680          44.000  
G24  19482176.958   102379512.255       -2312.439          49.000    19482176.878    79776243.722       -1801.862          46.000  
R10  19787945.510   105480900.027        1459.081          44.000                                                                  
R18  21946737.954   117153177.002       -4584.016          34.000    21946737.926                       -3565.731          30.000  
R09  18584883.382    99242244.805        -697.251          49.000    18584881.888    77188406.102        -542.419          52.000  
R16  21373840.239   114175207.542       -2983.048          49.000    21373840.893    88802946.941       -2320.247          48.000  
R20  19303772.094   103226006.245        2633.545          41.000    19303774.533    80286935.419        2048.157          45.000  
G25  20166244.198   105974325.585         515.393          48.000    20166243.109    82577411.813         401.851          45.000  
G29  21008602.439   110401016.849        2072.311          45.000    21008604.107    86026827.922        1614.368          41.000  
S31  37401868.673   196548151.279        -740.350          45.000  
S33  38355276.354   201558353.359        -741.116          43.000  
E07  24374288.771   128087729.026       -3328.219          45.000    24374297.782    98145166.103       -2550.044          48.000  
R19  19079155.183   102060625.682       -2216.692          42.000    19079152.029    79380476.455       -1723.939          49.000  
R07  21850021.131   116964758.998       -4188.855          42.000    21850028.997    90972585.822       -3257.772          38.000  
R08  21280217.440   113954586.464       -2203.193          46.000    21280215.875    88631344.374       -1713.604          46.000  
E15  24177140.495   127051792.361        1717.879          46.000    24177147.097    97351432.391        1316.239          50.000  
E27  22911064.092   120398474.747         -50.926          48.000    22911066.083    92253385.759         -38.987          51.000  
E30  23272507.774   122297855.212       -1729.814          48.000    23272509.178    93708755.005       -1325.485          50.000  
E34  24257886.857   127476072.144        -558.480          43.000    24257890.359    97676492.223        -427.900          48.000  
G32  21786687.909   114489810.098        -404.156          45.000    21786689.099    89212857.462        -314.932          44.000  
E02                                                                  27053571.031                       -1935.675          26.000  
> 2024 04 17 01 12 00.4950000  0 23                     
G06  22046623.885   115855780.875       -1947.347          37.000    22046623.149    90277246.292       -1517.069          39.000  
G11  21143574.379   111110245.628         148.438          44.000    21143572.492    86579438.110         115.666          47.000  
G12  19794604.240   104021347.565        -953.462          49.000    19794598.922    81055580.960        -743.038          44.000  
G24  19495417.202   102449095.618       -2326.830          48.000    19495417.693    79830464.492       -1813.188          46.000  
R10  19779733.421   105437127.428        1458.427          44.000                                                                  
R18  21972525.190                       -4593.813          28.000    21972524.180                       -3572.558          31.000  
R09  18588821.446    99263271.098        -705.067          49.000    18588819.607    77204759.904        -548.372          52.000  
R16  21390607.879   114264774.093       -2988.589          50.000    21390608.010    88872609.721       -2324.501          48.000  
R20  19289040.199   103147230.430        2617.487          41.000    19289042.129    80225665.554        2035.956          44.000  
G25  20163303.453   105958874.733         514.045          47.000    20163302.427    82565372.270         400.572          44.000  
G29  20996799.341   110338990.532        2062.435          44.000    20996800.650    85978495.978        1606.943          41.000  
S31  37406089.215   196570331.049        -738.658          45.000  
S33  38359500.216   201580550.957        -739.356          43.000  
E07  24393297.231   128187616.045       -3331.459          45.000    24393305.515    98221702.750       -2552.786          48.000  
R19  19091653.887   102127479.583       -2240.937          42.000    19091649.849    79432473.961       -1742.927          50.000  
R07  21873504.576   117090457.764       -4191.771          41.000    21873510.259    91070350.672       -3259.573          34.000  
R08  21292612.995   114020961.466       -2222.271          47.000    21292609.655    88682969.350       -1728.160          44.000  
E15  24167348.277   127000330.256        1712.334          47.000    24167354.012    97312000.647        1312.077          50.000  
E27  22911353.996   120399996.141         -51.154          48.000    22911355.407    92254551.561         -39.187          51.000  
E30  23282382.463   122349740.804       -1729.789          49.000    23282382.690    93748511.501       -1325.439          50.000  
E34  24261111.653   127493010.379        -571.318          44.000    24261113.565    97689470.946        -437.831          48.000  
G32  21789042.777   114502187.735        -421.436          46.000    21789044.221    89222502.439        -328.462          44.000  
E02                                                                  27067986.181                       -1934.299          29.000  
> 2024 04 17 01 12 30.4950000  0 23                     
G06  22057788.968   115914456.881       -1964.857          41.000    22057787.532    90322967.907       -1531.031          38.000  
G11  21142774.694   111106042.713         131.492          45.000    21142772.815    86576163.218         102.417          46.000  
G12  19800057.658   104050005.673        -957.523          49.000    19800052.877    81077911.977        -746.044          45.000  
G24  19508745.373   102519131.314       -2342.580          48.000    19508745.027    79885037.728       -1825.245          45.000  
R10  19771529.019   105393398.198        1456.542          44.000                                                                  
R18  21998369.136                       -4603.870          25.000    21998368.617    91333500.414       -3581.130          29.000  
R09  18592805.689    99284547.326        -713.716          50.000    18592804.203    77221308.121        -555.178          53.000  
R16  21407408.688   114354524.593       -2995.144          50.000    21407408.885    88942415.570       -2329.538          47.000  
R20  19274401.777   103068951.612        2600.433          42.000    19274403.048    80164782.244        2022.662          44.000  
G25  20160375.645   105943489.741         511.408          47.000    20160374.203    82553384.034         398.638          44.000  
G29  20985055.261   110277275.091        2051.758          44.000    20985055.464    85930406.323        1598.360          41.000  
S31  37410304.286   196592481.831        -738.239          45.000  
S33  38363718.394   201602718.357        -738.834          43.000  
E07  24412328.032   128287621.451       -3335.908          46.000    24412336.134    98298330.089       -2556.049          48.000  
R19  19104291.098   102195084.228       -2266.688          40.000    19104287.657    79485055.349       -1762.672          49.000  
R07  21897005.878   117216261.602       -4195.757          39.000    21897010.507                       -3262.318          30.000  
R08  21305118.099   114087926.197       -2242.458          47.000    21305114.359    88735053.064       -1744.174          43.000  
E15  24157590.329   126949052.439        1705.745          47.000    24157595.662    97272710.098        1306.986          49.000  
E27  22911649.089   120401543.879         -52.409          48.000    22911649.919    92255737.540         -40.132          51.000  
E30  23292258.693   122401641.670       -1730.710          49.000    23292259.030    93788279.712       -1326.173          51.000  
E34  24264412.553   127510355.967        -585.505          45.000    24264413.963    97702761.801        -448.588          48.000  
G32  21791500.717   114515101.617        -439.840          46.000    21791501.360    89232565.242        -342.852          43.000  
E02                                                                  27082389.357                       -1933.753          24.000  
> 2024 04 17 01 13 00.4950000  0 23                     
G06  22069057.043   115973664.442       -1982.637          42.000    22069055.961    90369103.767       -1544.867          41.000  
G11  21142073.524   111102352.080         114.286          45.000    21142070.662    86573287.502          89.135          46.000  
G12  19805533.777   104078783.087        -961.453          49.000    19805529.774    81100335.968        -749.198          45.000  
G24  19522160.949   102589632.588       -2357.945          47.000    19522161.137    79939973.739       -1837.160          46.000  
R10  19763335.993   105349727.568        1454.609          44.000                                                                  
R18  22024283.679                1      -4614.576          26.000    22024271.625                       -3589.247          29.000  
R09  18596839.420    99306088.498        -722.752          49.000    18596838.091    77238062.393        -562.073          52.000  
R16  21424247.683   114444473.560       -3001.790          50.000    21424248.375    89012375.794       -2334.763          48.000  
R20  19259859.130   102991187.216        2583.191          41.000    19259860.647    80104299.069        2009.296          44.000  
G25  20157463.364   105928184.595         508.714          47.000    20157461.739    82541458.043         396.199          44.000  
G29  20973373.365   110215885.545        2040.783          45.000    20973372.856    85882570.568        1590.140          41.000  
S31  37414516.532   196614618.093        -737.809          45.000  
S33  38367934.194   201624872.777        -738.359          43.000  
E07  24431383.945   128387757.135       -3340.230          47.000    24431391.619    98375057.272       -2559.405          48.000  
R19  19117070.214   102263451.198       -2291.761          40.000    19117068.021    79538229.705       -1782.515          49.000  
R07  21920529.187   117342179.505       -4199.119          36.000    21920532.536    91266132.142       -3266.683          31.000  
R08  21317735.420   114155492.177       -2262.324          45.000    21317732.695    88787604.343       -1759.502          45.000  
E15  24147869.949   126897974.901        1699.058          47.000    24147875.544    97233573.012        1301.939          49.000  
E27  22911951.124   120403131.718         -53.747          48.000    22911952.211    92256954.252         -41.165          52.000  
E30  23302140.718   122453571.920       -1731.676          49.000    23302140.843    93828070.431       -1326.804          50.000  
E34  24267791.348   127528123.171        -599.552          43.000    24267795.158    97716375.708        -459.245          48.000  
G32  21794062.714   114528565.401        -458.351          46.000    21794063.746    89243056.529        -357.133          44.000  
E02                                                                  27096792.859                       -1933.167          27.000  
> 2024 04 17 01 13 30.4950000  0 23                     
G06  22080428.586   116033422.119       -2001.168          43.000    22080428.433    90415668.198       -1559.303          43.000  
G11  21141473.154   111099194.970          96.215          46.000    21141469.898    86570827.560          74.975          46.000  
G12  19811036.577   104107699.475        -966.213          49.000    19811032.549    81122868.218        -752.924          45.000  
G24  19535670.048   102660618.479       -2374.444          48.000    19535669.304    79995287.374       -1850.247          45.000  
R10  19755158.722   105306137.240        1451.500          46.000                                                                  
R18  22050246.231                3      -4625.317          23.000    22050236.843                       -3597.668          26.000  
R09  18600927.153    99327916.404        -732.468          49.000    18600925.633    77255039.678        -569.742          52.000  
R16  21441127.671   114534641.486       -3009.275          51.000    21441128.648    89082506.288       -2340.606          47.000  
R20  19245416.737   102913962.277        2565.094          41.000    19245418.928    80044235.437        1994.952          43.000  
G25  20154569.564   105912978.970         505.031          47.000    20154568.493    82529609.559         393.632          44.000  
G29  20961756.870   110154843.142        2028.905          45.000    20961756.736    85835005.341        1581.083          41.000  
S31  37418729.729   196636759.432        -738.354          45.000  
S33  38372150.676   201647031.435        -739.003          43.000  
E07  24450467.689   128488040.701       -3345.243          47.000    24450475.036    98451897.744       -2563.179          48.000  
R19  19129997.315   102332598.342       -2318.058          40.000    19129994.182    79592010.824       -1802.871          50.000  
R07  21944077.310   117468227.276       -4203.207          36.000    21944081.470                       -3269.578          30.000  
R08  21330467.926   114223675.866       -2283.104          47.000    21330466.670    88840636.053       -1775.779          45.000  
E15  24138191.746   126847119.339        1691.426          46.000    24138197.947    97194606.009        1296.082          50.000  
E27  22912264.292   120404779.157         -55.960          48.000    22912266.023    92258216.625         -42.829          52.000  
E30  23312032.329   122505551.290       -1733.463          49.000    23312032.085    93867898.794       -1328.212          50.000  
E34  24271255.479   127546331.953        -614.303          43.000    24271259.891    97730327.989        -470.760          48.000  
G32  21796733.656   114542598.443        -477.405          45.000    21796734.256    89253991.394        -371.938          44.000  
E02                                                                  27111188.402                3      -1932.926          23.000  
> 2024 04 17 01 14 00.4950000  0 23                     
G06  22091906.227   116093731.753       -2019.587          44.000    22091906.207    90462662.743       -1573.806          44.000  
G11  21140974.779   111096575.736          78.199          46.000    21140970.974    86568786.721          60.771          45.000  
G12  19816566.543   104136757.683        -971.094          49.000    19816561.573    81145511.017        -756.868          45.000  
G24  19549270.302   102732091.070       -2390.552          48.000    19549269.377    80050980.291       -1863.061          45.000  
R10  19746998.068   105262631.894        1448.487          47.000                                                                  
R18  22076276.041                3      -4637.931          25.000    22076265.600                       -3606.514          27.000  
R09  18605069.989    99350034.982        -742.406          50.000    18605067.790    77272243.026        -577.439          52.000  
R16  21458049.663   114625031.917       -3016.891          51.000    21458049.650    89152809.876       -2346.437          46.000  
R20  19231077.410   102837283.266        2546.808          41.000    19231079.250    79984596.408        1980.670          43.000  
G25  20151695.689   105897875.797         501.507          47.000    20151694.746    82517840.926         390.852          45.000  
G29  20950207.293   110094152.099        2016.953          44.000    20950207.444    85787713.902        1571.831          41.000  
S31  37422944.628   196658908.423        -738.732          45.000  
S33  38376368.555   201669196.808        -739.010          43.000  
E07  24469578.381   128588472.901       -3350.389          45.000    24469586.621    98528852.100       -2567.182          48.000  
R19  19143069.214   102402525.424       -2343.885          39.000    19143066.016    79646398.583       -1823.090          49.000  
R07  21967647.488   117594403.544       -4208.199          37.000    21967654.593                       -3272.840          30.000  
R08  21343316.133   114292477.326       -2303.820          46.000    21343315.519    88894148.312       -1791.849          44.000  
E15  24128557.304   126796490.591        1683.707          46.000    24128563.688    97155812.829        1290.010          50.000  
E27  22912589.422   120406488.784         -58.213          48.000    22912591.608    92259526.657         -44.621          53.000  
E30  23321932.655   122557582.709       -1735.409          48.000    23321933.320    93907767.056       -1329.752          50.000  
E34  24274805.833   127564985.416        -629.423          44.000    24274809.665    97744620.971        -482.225          48.000  
G32  21799512.288   114557203.183        -496.611          46.000    21799513.247    89265371.748        -386.818          43.000  
E02                                                                  27125592.292                3      -1931.803          23.000  
> 2024 04 17 01 14 30.4950000  0 23                     
G06  22103487.470   116154593.406       -2037.879          44.000    22103487.080    90510087.523       -1588.031          43.000  
G11  21140579.034   111094497.205          60.199          46.000    21140575.571    86567167.222          46.767          45.000  
G12  19822123.327   104165958.738        -975.684          50.000    19822117.844    81168265.116        -760.405          45.000  
G24  19562964.235   102804050.943       -2406.870          48.000    19562962.814    80107052.870       -1875.446          45.000  
R10  19738854.010   105219213.727        1445.609          48.000                                                                  
R18  22102362.406                3      -4651.935          23.000    22102355.281                       -3614.766          27.000  
R09  18609266.909    99372447.277        -751.990          50.000    18609264.912    77289674.832        -584.745          52.000  
R16  21475011.495   114715645.806       -3024.083          49.000    21475012.691    89223287.310       -2352.126          46.000  
R20  19216841.382   102761155.394        2528.290          41.000    19216842.950    79925386.024        1966.443          44.000  
G25  20148841.207   105882876.281         498.226          47.000    20148840.362    82506153.062         388.092          45.000  
G29  20938725.444   110033814.902        2005.128          44.000    20938725.056    85740698.177        1562.748          41.000  
S31  37427161.067   196681066.258        -739.018          45.000  
S33  38380588.037   201691371.259        -739.266          43.000  
E07  24488719.024   128689052.862       -3355.174          46.000    24488726.596    98605919.676       -2570.833          48.000  
R19  19156286.444   102473231.990       -2369.591          39.000    19156284.316    79701392.594       -1843.189          49.000  
R07  21991244.385   117720704.979       -4212.240          36.000    21991250.650    91560537.281       -3275.804          33.000  
R08  21356277.653   114361894.149       -2324.024          46.000    21356278.645    88948139.205       -1807.724          44.000  
E15  24118967.632   126746091.975        1675.962          47.000    24118972.861    97117195.940        1284.284          50.000  
E27  22912926.983   120408261.663         -60.248          48.000    22912928.756    92260885.149         -46.172          53.000  
E30  23331843.983   122609667.549       -1737.122          48.000    23331844.801    93947676.234       -1331.044          51.000  
E34  24278441.728   127584085.042        -644.182          45.000    24278444.305    97759255.810        -493.462          49.000  
G32  21802399.763   114572380.482        -515.592          44.000    21802400.967    89277198.250        -401.582          43.000  
E02                                                                  27139995.273                3      -1937.349          20.000  
