     3.00           OBSERVATION DATA    M: Mixed            RINEX VERSION / TYPE
CONVBIN 2.4.3                           20240417 004442 UTC PGM / RUN BY / DATE 
format: u-blox UBX                                          COMMENT             
log: /home/regis/git/gnsspwv/obsdata/VERT00CHL/2024-04-17/VECOMMENT             
{self.marker}                                               MARKER NAME         
                                                            MARKER NUMBER       
GEODETIC                                                    MARKER TYPE         
{self.observer}     {self.institution}                      OBSERVER / AGENCY   
UNKNOWN             UBLOX-ZED-F9P                           REC # / TYPE / VERS 
UNKNOWN             TWIVSP6037L                             ANT # / TYPE        
  1713381.0000 -5047934.0000 -3490983.0000                  APPROX POSITION XYZ 
        0.0000        0.0000        0.0000                  ANTENNA: DELTA H/E/N
G    8 C1C L1C D1C S1C C2L L2L D2L S2L                      SYS / # / OBS TYPES 
R    8 C1C L1C D1C S1C C2C L2C D2C S2C                      SYS / # / OBS TYPES 
E    8 C1C L1C D1C S1C C7Q L7Q D7Q S7Q                      SYS / # / OBS TYPES 
S    4 C1C L1C D1C S1C                                      SYS / # / OBS TYPES 
  2024    04    17    00    30   00.4910000     GPS         TIME OF FIRST OBS   
  2024    04    17    00    44   30.4910000     GPS         TIME OF LAST OBS    
                                                            END OF HEADER       
> 2024 04 17 00 30 00.4910000  0 29                     
G15  20806787.507   109340181.3741      -3939.191          44.000    20806805.040    85200116.1451      -3069.173          38.000  
G19  21253087.844   111686229.0741      -4163.836          42.000                                                                  
G24  17724086.965    93140909.6401       -992.354          50.000    17724086.464    72577442.7801       -773.226          48.000  
G32  20978875.832   110244825.8881       1088.268          42.000    20978876.454    85904948.5681        848.232          34.000  
R09  17432289.280    93087553.7821       -104.867          52.000    17432287.672    72401737.5351        -81.508          51.000  
R08  19717314.363   105585345.8041       -254.116          45.000    19717313.635    82121998.9691       -197.757          45.000  
R16  19129377.948   102185710.8661      -2479.585          48.000    19129376.961    79478305.0031      -1928.648          42.000  
R06  21083541.839                3      -4675.914          21.000                                                                  
R10  19513906.765   104020154.4911       1518.284          43.000                                                                  
G12  18450691.037    96959291.6771       -559.370          47.000    18450688.073    75553008.7331       -435.941          46.000  
E08  24824740.663   130454647.8821      -3831.175          38.000    24824773.085    99958714.0891      -2935.719          45.000  
S31  36070138.719   189549874.0691       -756.120          43.000  
S33  37023249.979   194558490.4451       -756.689          44.000  
G11  20546375.053   107972379.8401       1341.824          47.000    20546375.429    84134546.7151       1045.522          44.000  
E36  25146782.997   132147290.2731      -1725.110          34.000    25146785.554   101255733.9711      -1321.295          33.000  
R19  17594501.007    94119187.1001         52.589          42.000    17594498.101    73204017.5321         40.784          48.000  
R07  19091077.203   102196006.9561      -3298.008          51.000    19091078.100    79485797.2061      -2564.968          48.000  
R18  19117471.240   102050483.7421      -3208.194          51.000    19117470.321    79372790.5061      -2495.450          49.000  
R20  19807905.721   105922051.2451       3558.292          36.000    19807920.910    82383988.9091       2767.752          41.000  
E07  21949629.338   115346230.7381      -2709.521          47.000    21949635.940    88382216.4311      -2076.188          50.000  
E27  21946691.571   115331061.0901        117.768          47.000    21946694.450    88370777.9241         90.284          51.000  
E34  23285425.957   122366064.0031        540.885          44.000    23285431.000    93761080.9671        414.343          47.000  
G25  19492414.411   102433582.7071        771.230          48.000    19492414.779    79818452.3951        600.753          44.000  
E30  21499764.737   112982507.5701      -1625.645          48.000    21499766.593    86571286.0941      -1245.554          52.000  
G06  20506529.214   107762749.4831       -403.048          43.000    20506530.468    83971071.1661       -314.015          43.000  
E02  24864365.514   130663101.0731      -2601.469          34.000    24864368.346   100118911.3961      -1993.359          32.000  
G29  21200332.733   111408962.2471       2789.880          37.000    21200349.138    86812026.1611       2173.871          34.000  
E15  24109475.204   126696506.0541       2038.113          44.000    24109491.314    97079350.3861       1561.602          48.000  
E18  25428134.082   133626226.5391      -5323.450          43.000                                                                  
> 2024 04 17 00 30 30.4910000  0 29                     
G15  20829281.193   109458382.429       -3940.705          45.000    20829297.677    85292219.857       -3070.583          36.000  
G19  21276870.520   111811209.491       -4168.402          40.000                                                                  
G24  17729794.067    93170904.084       -1007.387          49.000    17729793.982    72600815.071        -785.036          48.000  
G32  20972709.645   110212422.774        1072.058          40.000    20972709.711    85879699.404         835.512          34.000  
R09  17432893.100    93090778.270        -110.121          51.000    17432891.349    72404245.510         -85.652          50.000  
R08  19718806.502   105593340.423        -278.846          45.000    19718806.171    82128216.919        -216.805          44.000  
R16  19143317.107   102260171.883       -2484.475          47.000    19143316.256    79536219.116       -1932.265          42.000  
R06  21109846.033                3      -4669.771          14.000                                                                  
R10  19505359.341   103974599.129        1518.777          42.000                                                                  
G12  18453899.812    96976152.190        -564.466          47.000    18453896.257    75566146.828        -439.847          45.000  
E08  24846609.456   130569565.202       -3830.248          36.000    24846641.842   100046766.924       -2934.561          44.000  
S31  36074453.994   189572551.814        -755.849          45.000  
S33  37027568.789   194581188.178        -756.505          43.000  
G11  20538743.613   107932279.269        1331.436          46.000    20538745.233    84103299.793        1037.548          45.000  
E36  25156667.868   132199229.952       -1737.794          34.000    25156669.704   101295531.951       -1331.626          34.000  
R19  17594280.527    94118011.423          25.709          42.000    17594278.090    73203103.218          20.091          48.000  
R07  19109607.829   102295197.245       -3314.574          50.000    19109607.372    79562945.037       -2578.021          48.000  
R18  19135561.652   102147053.275       -3229.744          50.000    19135561.124    79447900.176       -2511.876          50.000  
R20  19787953.717   105815360.675        3553.915          35.000    19787967.923    82301008.811        2764.159          42.000  
E07  21965126.048   115427666.527       -2719.204          47.000    21965132.410    88444615.229       -2083.595          49.000  
E27  21946025.713   115327563.440         115.554          47.000    21946028.921    88368097.972          88.522          51.000  
E34  23282371.548   122350009.271         529.513          45.000    23282376.798    93748779.402         405.729          48.000  
G25  19488020.312   102410494.839         767.958          47.000    19488021.442    79800461.950         598.331          44.000  
E30  21509049.257   113031296.545       -1626.865          48.000    21509050.773    86608669.872       -1246.547          52.000  
G06  20508880.692   107775107.003        -420.661          43.000    20508881.961    83980700.510        -327.608          43.000  
E02  24879213.549   130741136.924       -2600.666          32.000    24879216.182                       -1992.718          26.000  
G29  21184420.803   111325351.532        2783.948          37.000    21184436.964    86746876.531        2169.391          34.000  
E15  24097841.232   126635374.181        2037.485          44.000    24097856.795    97032510.074        1561.213          47.000  
E18  25458502.452   133785813.983       -5315.303          42.000                                                                  
> 2024 04 17 00 31 00.4910000  0 28                     
G15  20851783.236   109576625.186       -3942.269          44.000    20851799.991    85384356.078       -3071.986          37.000  
G19  21300678.250   111936318.493       -4172.562          39.000                                                                  
G24  17735588.698    93201353.182       -1022.683          49.000    17735587.994    72624541.624        -796.907          48.000  
G32  20966637.204   110180510.718        1055.468          40.000    20966637.432    85854832.891         822.479          36.000  
R09  17433526.969    93094163.989        -115.713          51.000    17433524.627    72406878.884         -89.949          50.000  
R08  19720439.641   105602080.666        -303.871          47.000    19720437.413    82135014.866        -236.433          43.000  
R16  19157282.887   102334782.849       -2489.537          46.000    19157283.222    79594249.817       -1936.463          41.000  
R10  19496810.200   103929033.242        1518.972          42.000                                                                  
G12  18457138.138    96993169.692        -569.925          47.000    18457134.462    75579407.272        -444.086          45.000  
E08  24868470.228   130684445.155       -3828.852          34.000    24868503.475   100134791.202       -2933.787          41.000  
S31  36078767.204   189595219.582        -755.445          45.000  
S33  37031886.399   194603876.508        -756.211          43.000  
G11  20531173.585   107892493.866        1320.742          47.000    20531174.456    84072298.436        1029.253          46.000  
E36  25166625.948   132251559.789       -1750.963          34.000    25166627.043   101335628.900       -1341.847          33.000  
R19  17594212.045    94117644.684          -1.333          43.000    17594209.208    73202818.079          -1.108          47.000  
R07  19128229.163   102394886.870       -3331.318          48.000    19128231.221    79640481.185       -2591.006          48.000  
R18  19153772.980   102244266.291       -3251.275          51.000    19153772.391    79523510.320       -2528.824          50.000  
R20  19768028.988   105708820.676        3549.376          36.000    19768043.179    82218145.800        2760.140          41.000  
E07  21980678.551   115509395.202       -2729.187          47.000    21980685.237    88507238.458       -2091.182          49.000  
E27  21945374.038   115324138.536         112.868          47.000    21945377.442    88365473.762          86.461          52.000  
E34  23279382.678   122334301.488         517.586          45.000    23279387.488    93736743.693         396.715          48.000  
G25  19483645.039   102387504.845         764.628          47.000    19483646.595    79782547.758         595.574          44.000  
E30  21518340.923   113080124.948       -1628.420          48.000    21518342.182    86646083.841       -1247.672          52.000  
G06  20511332.636   107787994.731        -438.561          42.000    20511332.950    83990742.952        -341.715          41.000  
E02  24894058.421   130819130.394       -2599.360          34.000                                                                  
G29  21168545.104   111241917.003        2778.113          40.000    21168557.804    86681864.061        2165.027          33.000  
E15  24086211.352   126574266.565        2036.262          42.000    24086227.410    96985688.296        1560.387          46.000  
E18  25488825.198   133945160.735       -5307.757          42.000                                                                  
> 2024 04 17 00 31 30.4910000  0 29                     
G15  20874291.813   109694909.763       -3943.348          43.000    20874311.194    85476524.814       -3072.466          38.000  
G19  21324511.516   112061557.322       -4176.619          37.000                                                                  
G24  17741470.284    93232260.910       -1037.777          49.000    17741469.297    72648625.572        -808.744          48.000  
G32  20960658.587   110149094.521        1039.178          37.000    20960659.383    85830352.774         809.672          38.000  
R09  17434192.601    93097715.360        -120.988          52.000    17434189.548    72409641.071         -94.095          50.000  
R08  19722211.835   105611569.351        -328.706          47.000    19722208.279    82142394.927        -255.520          42.000  
R16  19171281.428   102409547.530       -2494.615          48.000    19171280.247    79652400.117       -1940.362          43.000  
R06  21162272.621                3      -4649.630          12.000                                                                  
R10  19488261.932   103883460.864        1519.380          42.000                                                                  
G12  18460406.416    97010346.724        -574.944          47.000    18460402.984    75592792.034        -448.302          45.000  
E08  24890322.932   130799289.160       -3827.630          31.000    24890357.953   100222788.010       -2932.767          39.000  
S31  36083079.526   189617881.318        -755.210          44.000  
S33  37036202.501   194626558.747        -755.635          43.000  
G11  20523663.495   107853029.720        1310.189          48.000    20523665.382    84041547.432        1020.962          46.000  
E36  25176657.927   132304282.272       -1763.791          35.000    25176660.373   101376026.754       -1351.306          36.000  
R19  17594295.836    94118090.826         -28.505          42.000    17594292.229    73203165.161         -22.137          47.000  
R07  19146946.180   102495074.746       -3347.707          50.000    19146947.702    79718404.820       -2603.938          47.000  
R18  19172103.711   102342122.691       -3272.509          50.000    19172104.048    79599620.859       -2545.222          49.000  
R20  19748135.162   105602438.379        3543.881          35.000    19748147.622    82135405.333        2755.911          41.000  
E07  21996287.376   115591418.258       -2738.823          47.000    21996293.991    88570087.239       -2098.629          50.000  
E27  21944737.444   115320789.028         110.552          47.000    21944740.101    88362907.328          84.713          52.000  
E34  23276461.051   122318945.214         506.149          45.000    23276464.841    93724977.300         387.857          47.000  
G25  19479289.570   102364615.454         761.332          47.000    19479290.271    79764711.947         593.090          43.000  
E30  21527641.211   113128995.583       -1629.606          48.000    21527642.042    86683530.164       -1248.588          52.000  
G06  20513887.164   107801416.927        -456.292          43.000    20513887.584    84001201.862        -355.417          41.000  
E02  24908891.187   130897084.868       -2597.838          33.000                                                                  
G29  21152701.280   111158664.070        2772.455          40.000    21152712.313                        2159.668          31.000  
E15  24074588.477   126513188.410        2035.726          42.000    24074603.410    96938889.101        1559.699          46.000  
E18  25519102.018   134104268.374       -5299.504          41.000                                                                  
> 2024 04 17 00 32 00.4910000  0 28                     
G15  20896808.246   109813229.503       -3944.766          44.000    20896827.809    85568720.959       -3073.620          39.000  
G19  21348367.677   112186919.085       -4181.288          36.000                                                                  
G24  17747438.623    93263624.228       -1053.318          49.000    17747437.748    72673064.522        -820.742          48.000  
G32  20954774.866   110118171.889        1022.168          38.000    20954774.978    85806257.232         796.606          38.000  
R09  17434888.187    93101429.290        -126.733          51.000    17434885.564    72412529.714         -98.489          50.000  
R08  19724121.763   105621802.380        -353.783          47.000    19724119.063    82150353.955        -275.122          44.000  
R16  19185305.408   102484462.630       -2499.932          48.000    19185303.825    79710667.373       -1944.357          43.000  
R10  19479711.301   103837877.659        1519.404          42.000                                                                  
G12  18463704.712    97027678.303        -580.464          47.000    18463700.856    75606297.164        -452.109          45.000  
E08  24912168.468   130914091.356       -3826.380          28.000    24912204.462   100310752.788       -2931.351          36.000  
S31  36087389.897   189640532.934        -755.004          44.000  
S33  37040516.590   194649230.246        -756.042          43.000  
G11  20516214.813   107813885.806        1299.270          48.000    20516214.866    84011045.920        1012.467          45.000  
E36  25186764.374   132357392.699       -1776.737          34.000    25186766.966   101416721.875       -1361.458          36.000  
R19  17594530.589    94119347.939         -55.740          42.000    17594527.398    73204142.985         -43.323          47.000  
R07  19165753.687   102595752.775       -3364.297          50.000    19165754.978    79796709.751       -2616.607          46.000  
R18  19190555.540   102440615.141       -3293.834          50.000    19190555.473    79676226.133       -2561.906          50.000  
R20  19728268.332   105496214.022        3537.704          35.000    19728281.984    82052787.707        2751.638          41.000  
E07  22011951.617   115673730.062       -2748.672          48.000    22011957.530    88633157.259       -2106.096          50.000  
E27  21944113.843   115317510.416         107.894          47.000    21944116.140    88360395.223          82.806          52.000  
E34  23273603.837   122303937.925         494.298          44.000    23273609.103    93713478.322         378.837          47.000  
G25  19474952.134   102341822.357         757.869          48.000    19474953.151    79746951.168         590.844          43.000  
E30  21536947.331   113177904.152       -1631.042          47.000    21536948.720    86721005.558       -1249.738          52.000  
G06  20516542.761   107815370.672        -474.189          43.000    20516542.645    84012075.020        -369.543          41.000  
E02  24923717.445   130974996.487       -2596.467          33.000    24923737.851                1      -1989.641          27.000  
G29  21136889.814   111075589.950        2766.071          39.000    21136900.323                        2155.634          30.000  
E15  24062969.822   126452137.902        2034.440          42.000    24062985.530    96892111.050        1558.754          46.000  
E18  25549332.179   134263131.407       -5291.547          41.000                                                                  
> 2024 04 17 00 32 30.4910000  0 28                     
G15  20919331.644   109931587.410       -3946.005          44.000    20919351.530    85660946.840       -3074.863          39.000  
G19  21372246.951   112312406.929       -4185.210          30.000                                                                  
G24  17753494.586    93295449.868       -1068.698          49.000    17753494.139    72697863.713        -832.661          48.000  
G32  20948986.256   110087750.165        1005.491          38.000    20948986.544    85782552.031         783.541          39.000  
R09  17435615.481    93105312.401        -132.390          51.000    17435612.549    72415549.910        -102.920          50.000  
R08  19726171.504   105632785.507        -378.671          47.000    19726170.838    82158896.388        -294.480          45.000  
R16  19199358.479   102559534.950       -2505.196          47.000    19199358.536    79769056.907       -1948.288          43.000  
R10  19471158.618   103792290.403        1519.539          42.000                                                                  
G12  18467033.740    97045169.068        -585.621          48.000    18467029.357    75619926.362        -456.360          45.000  
S31  36091699.619   189663179.911        -754.819          44.000  
S33  37044829.714   194671898.495        -755.559          43.000  
G11  20508827.934   107775070.826        1288.327          48.000    20508829.030    83980800.735        1003.830          46.000  
E36  25196946.393   132410896.339       -1790.390          33.000    25196948.383   101457718.210       -1371.797          34.000  
R19  17594917.939    94121423.035         -82.802          42.000    17594914.903    73205757.050         -64.526          47.000  
R07  19184653.136   102696922.592       -3380.474          50.000    19184654.610    79875397.172       -2629.276          46.000  
R18  19209126.031   102539746.533       -3314.968          50.000    19209126.255    79753328.346       -2578.419          49.000  
R20  19708433.774   105390158.344        3532.053          36.000    19708447.168    81970301.266        2747.267          41.000  
E07  22027669.779   115756334.793       -2758.361          47.000    22027676.550    88696451.736       -2113.569          50.000  
E27  21943503.857   115314308.096         105.414          47.000    21943506.314    88357941.591          80.779          52.000  
E34  23270815.797   122289286.946         482.305          44.000    23270820.982    93702252.378         369.562          48.000  
G25  19470633.814   102319131.090         754.565          47.000    19470635.211    79729269.761         587.920          44.000  
E30  21546261.807   113226856.248       -1632.574          47.000    21546264.148    86758514.307       -1250.777          52.000  
G06  20519300.572   107829862.978        -492.086          41.000    20519300.376    84023367.797        -383.444          41.000  
E02  24938535.345   131052871.332       -2595.331          33.000    24938539.051                3      -1988.703          25.000  
G29  21121115.662   110992702.901        2759.747          38.000    21121127.230                        2150.592          30.000  
E15  24051359.489   126391123.132        2033.069          44.000    24051374.198    96845360.360        1557.859          47.000  
E18  25579516.361   134421754.240       -5283.556          40.000                                                                  
E08                                                                  24934043.875   100398688.725       -2930.218          34.000  
> 2024 04 17 00 33 00.4910000  0 27                     
G15  20941862.002   110049982.356       -3946.638          43.000    20941882.188    85753201.622       -3075.313          40.000  
G24  17759638.907    93327740.540       -1083.527          47.000    17759639.290    72723025.263        -844.294          49.000  
G32  20943291.616   110057832.822         989.464          38.000    20943293.428    85759239.926         770.751          40.000  
R09  17436374.818    93109368.039        -137.636          51.000    17436372.008    72418704.309        -107.033          50.000  
R08  19728363.964   105644520.521        -403.180          47.000    19728362.434    82168023.556        -313.616          44.000  
R16  19213440.607   102634766.992       -2509.884          46.000    19213441.625    79827570.687       -1952.307          44.000  
R10  19462605.699   103746700.988        1520.112          41.000                                                                  
G12  18470392.782    97062820.646        -590.606          48.000    18470388.674    75633680.888        -460.357          45.000  
S31  36096008.782   189685824.558        -754.208          44.000  
S33  37049142.704   194694562.796        -754.905          44.000  
G11  20501505.034   107736589.567        1277.647          49.000    20501506.101    83950815.550         995.686          45.000  
E36  25207200.482                       -1802.478          31.000    25207204.558   101499016.632       -1381.676          33.000  
R19  17595459.021    94124319.265        -109.694          42.000    17595456.349    73208009.776         -85.231          46.000  
R07  19203645.274   102798581.771       -3396.191          51.000    19203646.584    79954465.178       -2641.418          47.000  
R18  19227816.414   102639515.125       -3335.658          49.000    19227816.420    79830926.201       -2594.459          49.000  
R20  19688631.889   105284277.443        3527.067          37.000    19688645.101    81887950.725        2743.173          41.000  
E07  22043444.961   115839232.646       -2767.669          47.000    22043451.439    88759970.795       -2120.589          50.000  
E27  21942908.598   115311183.453         103.267          46.000    21942911.643    88355547.458          79.203          52.000  
E34  23268095.485   122274995.587         470.637          43.000    23268101.331    93691301.948         360.780          48.000  
G25  19466334.873   102296543.097         751.917          47.000    19466337.372    79711668.813         585.857          45.000  
E30  21555586.639   113275853.412       -1633.461          47.000    21555588.125    86796057.606       -1251.608          52.000  
G06  20522160.258   107844896.560        -509.666          40.000    20522160.895    84035082.361        -397.163          40.000  
E02  24953352.039   131130711.446       -2593.468          33.000    24953345.181                       -1987.177          28.000  
G29  21105379.015   110910007.078        2753.931          38.000    21105392.335                        2146.545          29.000  
E15  24039754.764   126330147.966        2032.410          44.000    24039770.090    96798639.992        1557.267          47.000  
E18  25609655.003   134580137.188       -5274.699          40.000                                                                  
E08                                                                  24955875.854   100486595.910       -2929.032          32.000  
> 2024 04 17 00 33 30.4910000  0 28                     
G15  20964398.169   110168403.700       -3947.582          45.000    20964418.000    85845477.013       -3075.808          39.000  
G19  21420077.925   112563292.4421      -4192.589          34.000                                                                  
G24  17765870.277    93360488.932       -1099.305          47.000    17765870.679    72748543.483        -856.482          48.000  
G32  20937689.948   110028413.476         972.628          36.000    20937695.729    85736315.719         757.751          41.000  
R09  17437164.731    93113588.576        -143.433          51.000    17437162.402    72421986.942        -111.549          49.000  
R08  19730693.996   105656998.864        -428.281          47.000    19730692.152    82177728.915        -333.064          44.000  
R16  19227553.781   102710151.210       -2515.316          47.000    19227553.654    79886202.810       -1956.320          43.000  
R10  19454051.445   103701101.933        1520.330          40.000                                                                  
G12  18473780.359    97080624.952        -595.913          48.000    18473776.385    75647554.413        -464.358          45.000  
S31  36100315.665   189708458.406        -754.356          45.000  
S33  37053453.443   194717217.223        -755.041          43.000  
G11  20494244.610   107698436.773        1266.171          48.000    20494245.394    83921086.328         986.774          46.000  
E36  25217533.434                       -1816.117          31.000    25217534.405   101540610.180       -1390.801          34.000  
R19  17596152.500    94128030.098        -137.203          42.000    17596148.628    73210896.069        -106.735          46.000  
R07  19222724.613   102900717.534       -3412.316          50.000    19222725.678    80033903.887       -2654.075          47.000  
R18  19246623.967   102739909.470       -3356.813          51.000    19246623.415    79909010.673       -2610.927          49.000  
R20  19668862.660   105178567.747        3520.932          37.000    19668875.886    81805733.304        2738.404          41.000  
E07  22059274.079   115922413.758       -2777.355          48.000    22059280.516    88823706.908       -2128.159          50.000  
E27  21942326.461   115308127.832         100.641          45.000    21942329.960    88353206.244          77.166          51.000  
E34  23265443.124   122261057.067         458.656          44.000    23265448.974    93680621.911         351.555          48.000  
G25  19462054.760   102274049.959         748.325          48.000    19462057.135    79694141.770         583.081          45.000  
E30  21564918.041   113324887.269       -1635.056          48.000    21564919.034    86833629.007       -1252.797          52.000  
G06  20525122.196   107860464.395        -527.735          39.000    20525123.364    84047213.264        -411.516          40.000  
E02  24968152.179   131208508.822       -2592.965          33.000    24968154.206   100536403.2151      -1985.908          33.000  
G29  21089675.868   110827496.436        2747.174          38.000    21089689.573                        2140.997          29.000  
E15  24028158.076   126269206.491        2030.829          45.000    24028172.526    96751945.412        1556.158          48.000  
E18  25639746.670   134738270.710       -5266.884          39.000                                                                  
E08                                                                  24977698.811                       -2928.104          30.000  
> 2024 04 17 00 34 00.4910000  0 28                     
G15  20986938.416   110286852.028       -3948.492          43.000    20986958.413    85937773.400       -3076.770          38.000  
G19  21444020.288   112689135.962       -4196.596          37.000                                                                  
G24  17772189.766    93393699.467       -1114.447          48.000    17772190.465    72774421.851        -868.458          48.000  
G32  20932190.003   109999497.095         955.701          38.000    20932192.824    85713783.473         744.911          41.000  
R09  17437986.771    93117979.051        -149.091          51.000    17437984.373    72425401.787        -116.043          50.000  
R08  19733163.823   105670224.193        -453.106          47.000    19733162.103    82188015.251        -352.381          47.000  
R16  19241695.296   102785692.037       -2520.440          47.000    19241695.560    79944956.718       -1960.339          45.000  
R10  19445496.213   103655496.722        1520.316          39.000                                                                  
G12  18477197.574    97098584.687        -601.115          48.000    18477193.622    75661549.064        -468.370          45.000  
S31  36104621.305   189731085.277        -753.950          44.000  
S33  37057763.201   194739864.132        -754.529          43.000  
G11  20487047.503   107660618.887        1255.131          48.000    20487047.340    83891618.116         978.026          45.000  
E36  25227937.516   132573748.446       -1828.825          32.000    25227937.914   101582501.220       -1401.018          34.000  
R19  17596999.485    94132559.560        -164.393          42.000    17596995.406    73214419.070        -127.812          45.000  
R07  19241892.848   103003329.217       -3428.078          49.000    19241894.311    80113712.708       -2666.288          47.000  
R18  19265546.645   102840929.774       -3377.518          49.000    19265547.411    79987582.063       -2627.014          50.000  
R20  19649127.069   105073036.860        3514.798          38.000    19649140.064    81723654.933        2733.730          41.000  
E07  22075157.161   116005880.037       -2786.677          48.000    22075163.780    88887661.522       -2135.313          51.000  
E27  21941758.400   115305144.343          98.497          45.000    21941762.107    88350920.307          75.388          51.000  
E34  23262860.755   122247476.438         446.894          46.000    23262864.599    93670216.092         342.318          49.000  
G25  19457793.375   102251654.869         745.122          48.000    19457794.532    79676691.129         580.614          43.000  
E30  21574256.121   113373961.073       -1636.305          47.000    21574257.517    86871231.034       -1253.787          52.000  
G06  20528187.835   107876571.069        -545.787          40.000    20528188.590    84059764.019        -425.219          39.000  
E02  24982950.218   131286267.302       -2591.304          32.000    24982950.983   100595984.491       -1985.480          35.000  
G29  21074009.800   110745176.966        2740.625          37.000    21074022.971    86294802.346        2135.797          33.000  
E15  24016568.230   126208304.367        2029.533          45.000    24016582.525    96705280.960        1555.068          48.000  
E18  25669791.910   134896156.867       -5258.494          39.000                                                                  
E08                                                                  24999514.087                       -2927.324          29.000  
> 2024 04 17 00 34 30.4910000  0 28                     
G15  21009482.692   110405319.686       -3949.261          43.000    21009502.956    86030084.760       -3077.155          38.000  
G19  21467989.948   112815088.150       -4200.276          36.000                                                                  
G24  17778597.355    93427368.382       -1129.909          48.000    17778597.530    72800657.347        -880.353          49.000  
G32  20926783.171   109971080.511         939.024          38.000    20926785.291    85691640.766         731.701          41.000  
R09  17438840.153    93122535.547        -154.586          51.000    17438837.853    72428945.746        -120.286          49.000  
R08  19735772.693   105684191.337        -477.946          47.000    19735772.056    82198878.558        -371.720          48.000  
R16  19255866.060   102861385.697       -2525.625          48.000    19255865.747    80003829.541       -1964.271          44.000  
R10  19436939.577   103609881.656        1520.772          41.000                                                                  
G12  18480643.696    97116694.052        -606.039          47.000    18480639.656    75675660.308        -472.259          45.000  
S31  36108924.585   189753699.880        -753.499          45.000  
S33  37062070.346   194762499.233        -753.822          43.000  
G11  20479914.375   107623134.200        1243.886          49.000    20479914.466    83862409.538         969.428          45.000  
E36  25238410.878                       -1841.943          31.000    25238413.754   101624685.510       -1411.000          34.000  
R19  17597998.748    94137904.523        -191.740          42.000    17597995.114    73218576.370        -149.231          46.000  
R07  19261148.394   103106407.904       -3443.691          49.000    19261149.889    80193884.743       -2678.409          46.000  
R18  19284588.733   102942568.004       -3398.228          50.000    19284587.924    80066634.017       -2643.115          49.000  
R20  19629424.355   104967684.167        3508.933          37.000    19629437.328    81641715.099        2729.009          41.000  
E07  22091093.529   116089625.184       -2795.973          48.000    22091099.966    88951829.799       -2142.352          50.000  
E27  21941203.947   115302227.967          96.167          45.000    21941207.217    88348685.746          73.776          51.000  
E34  23260343.378   122234250.424         435.066          45.000    23260347.406    93660081.997         333.304          49.000  
G25  19453549.461   102229352.889         741.919          48.000    19453549.551    79659313.070         577.932          42.000  
E30  21583600.294   113423069.985       -1637.371          47.000    21583602.337    86908859.953       -1254.654          52.000  
G06  20531355.533   107893212.798        -563.714          41.000    20531354.405    84072731.685        -439.265          39.000  
E02  24997739.157   131363982.291       -2589.809          31.000    24997738.991   100655532.491       -1984.536          35.000  
G29  21058380.940   110663045.636        2734.882          39.000    21058393.589    86230805.145        2131.165          34.000  
E15  24004985.414   126147439.056        2028.225          44.000    24004999.396    96658644.718        1554.160          48.000  
E18  25699789.038   135053789.623       -5250.210          38.000                                                                  
E08                                                                  25021318.365                       -2926.457          26.000  
> 2024 04 17 00 35 00.4910000  0 28                     
G15  21032030.377   110523799.574       -3949.841          44.000    21032050.128    86122405.736       -3077.924          39.000  
G19  21491977.955   112941142.079       -4203.633          36.000                                                                  
G24  17785091.111    93461492.137       -1145.303          49.000    17785090.689    72827247.287        -892.434          48.000  
G32  20921469.628   109943161.095         922.289          40.000    20921472.083    85669885.441         718.559          40.000  
R09  17439724.321    93127254.854        -160.215          51.000    17439721.510    72432616.343        -124.648          50.000  
R08  19738519.151   105698895.711        -502.711          47.000    19738517.333    82210315.280        -390.994          46.000  
R16  19270063.665   102937228.306       -2530.862          46.000    19270062.615    80062818.246       -1968.607          44.000  
R10  19428380.177   103564252.252        1520.781          41.000                                                                  
G12  18484117.282    97134948.412        -611.099          47.000    18484113.207    75689884.522        -476.205          45.000  
S31  36113224.852   189776298.707        -753.134          45.000  
S33  37066374.610   194785118.319        -753.683          43.000  
G11  20472844.691   107585981.351        1232.593          49.000    20472844.818    83833459.497         960.512          46.000  
E36  25248956.707                       -1853.950          30.000    25248962.872   101667159.273       -1420.678          35.000  
R19  17599150.260    94144061.548        -219.018          43.000    17599146.328    73223365.263        -170.542          46.000  
R07  19280490.899   103209945.100       -3459.063          51.000    19280491.143    80274413.412       -2690.354          45.000  
R18  19303742.957   103044816.509       -3418.572          50.000    19303742.393    80146160.644       -2658.927          50.000  
R20  19609754.597   104862510.121        3502.842          37.000    19609768.571    81559914.216        2724.148          42.000  
E07  22107082.597   116173643.237       -2805.366          48.000    22107088.087    89016207.202       -2149.576          50.000  
E27  21940660.753   115299373.879          94.002          45.000    21940664.087    88346498.932          71.989          51.000  
E34  23257892.252   122221376.183         423.097          44.000    23257897.402    93650217.434         324.120          49.000  
G25  19449322.389   102207139.444         738.759          48.000    19449321.616    79642003.974         575.823          42.000  
E30  21592952.059   113472209.439       -1638.684          47.000    21592953.208    86946512.273       -1255.586          52.000  
G06  20534623.275   107910386.365        -581.533          39.000    20534622.483    84086113.755        -453.281          39.000  
E02  25012519.246                1      -2587.867          28.000    25012519.769   100715044.133       -1983.335          36.000  
G29  21042786.229   110581100.266        2728.381          37.000    21042797.716    86166952.832        2125.446          35.000  
E15  23993409.786   126086608.510        2026.858          45.000    23993423.300    96612035.089        1553.071          48.000  
E18  25729735.469   135211163.263       -5241.480          37.000                                                                  
E08                                                                  25043111.035                       -2924.507          26.000  
> 2024 04 17 00 35 30.4910000  0 28                     
G15  21054581.516   110642302.466       -3950.128          44.000    21054602.411    86214744.599       -3078.076          40.000  
G19  21515984.050   113067308.746       -4207.250          37.000                                                                  
G24  17791673.874    93496084.976       -1160.688          49.000    17791673.597    72854202.748        -904.395          48.000  
G32  20916254.300   109915753.718         905.544          41.000    20916256.522    85648529.097         705.599          40.000  
R09  17440641.389    93132151.461        -165.968          51.000    17440638.545    72436424.838        -129.066          50.000  
R08  19741405.037   105714350.351        -527.439          47.000    19741402.274    82222335.509        -410.160          45.000  
R16  19284291.170   103013234.285       -2536.052          46.000    19284289.462    80121933.972       -1972.418          42.000  
R10  19419818.737   103518622.880        1521.468          39.000                                                                  
G12  18487620.741    97153360.614        -616.106          47.000    18487617.205    75704231.715        -480.035          46.000  
S31  36117524.650   189798894.692        -752.823          45.000  
S33  37070678.149   194807734.334        -753.868          43.000  
G11  20465841.214   107549176.565        1221.309          49.000    20465840.777    83804780.709         951.481          46.000  
E36  25259587.519   132740056.232       -1867.247          31.000    25259585.351   101709932.019       -1430.284          35.000  
R19  17600455.659    94151045.418        -246.544          43.000    17600451.812    73228797.275        -191.594          45.000  
R07  19299920.310   103313949.920       -3474.310          51.000    19299922.133    80355305.813       -2702.117          46.000  
R18  19323012.884   103147685.284       -3438.986          48.000    19323012.152    80226169.686       -2674.736          49.000  
R20  19590123.069   104757533.030        3495.979          39.000    19590136.054    81478266.413        2719.271          42.000  
E07  22123125.114   116257945.835       -2814.537          48.000    22123130.485    89080802.634       -2156.608          50.000  
E27  21940132.090   115296595.018          91.563          46.000    21940135.117    88344369.756          70.220          51.000  
E34  23255513.528   122208868.509         411.207          44.000    23255517.298    93640633.721         315.073          50.000  
G25  19445114.380   102185027.535         735.559          48.000    19445113.993    79624774.033         573.015          42.000  
E30  21602310.923   113521392.622       -1639.973          46.000    21602312.426    86984198.092       -1256.545          52.000  
G06  20537994.722   107928105.922        -599.540          38.000    20537993.380    84099921.353        -467.421          38.000  
E02  25027293.113                       -2587.336          28.000    25027293.017   100774529.832       -1982.082          37.000  
G29  21027229.479   110499356.553        2721.692          37.000    21027240.710    86103257.572        2120.624          37.000  
E15  23981842.723   126025828.221        2025.361          45.000    23981856.356    96565463.967        1551.961          48.000  
E18  25759635.786   135368289.751       -5233.024          36.000                                                                  
E08                                                                  25064895.957                       -2923.669          27.000  
> 2024 04 17 00 36 00.4910000  0 28                     
G15  21077135.215   110760819.384       -3950.830          44.000    21077156.129    86307094.470       -3078.888          39.000  
G19  21540012.178   113193579.615       -4210.847          38.000                                                                  
G24  17798345.310    93531141.620       -1176.411          49.000    17798344.194    72881519.599        -916.657          48.000  
G32  20911135.791   109888853.891         887.769          40.000    20911137.481    85627568.215         692.027          40.000  
R09  17441589.979    93137220.647        -171.944          50.000    17441588.225    72440367.546        -133.698          51.000  
R08  19744429.860   105730548.864        -552.422          48.000    19744427.210    82234934.308        -429.690          46.000  
R16  19298551.763   103089397.980       -2541.579          47.000    19298547.817    80181172.462       -1976.848          42.000  
R10  19411258.440   103472987.952        1521.160          41.000                                                                  
G12  18491153.853    97171924.052        -621.335          48.000    18491150.545    75718696.763        -484.181          46.000  
S31  36121822.994   189821482.154        -753.043          44.000  
S33  37074980.065   194830342.298        -753.607          43.000  
G11  20458902.428   107512716.635        1209.440          48.000    20458901.723    83776370.601         942.355          45.000  
E36  25270280.561   132796261.748       -1880.277          31.000    25270281.174   101752998.609       -1440.040          34.000  
R19  17601914.718    94158851.134        -274.159          42.000    17601911.602    73234868.490        -213.052          46.000  
R07  19319435.141   103418411.651       -3489.756          50.000    19319436.673    80436553.609       -2714.446          45.000  
R18  19342399.341   103251164.850       -3459.571          47.000    19342398.130    80306653.789       -2690.831          49.000  
R20  19570529.334   104652751.144        3489.390          39.000    19570540.475    81396770.458        2713.853          42.000  
E07  22139219.982   116342525.264       -2824.053          47.000    22139225.569    89145610.180       -2163.842          50.000  
E27  21939616.642   115293884.906          89.248          46.000    21939619.234    88342293.273          68.256          51.000  
E34  23253200.376   122196722.731         398.635          42.000    23253205.924    93631327.313         305.489          50.000  
G25  19440925.138   102163010.877         732.266          48.000    19440924.291    79607618.301         570.611          42.000  
E30  21611677.462   113570613.220       -1641.386          47.000    21611678.935    87021912.584       -1257.628          52.000  
G06  20541469.139   107946366.479        -617.775          38.000    20541469.219    84114150.388        -481.118          41.000  
E02  25042051.256                       -2585.939          29.000    25042057.769   100833985.157       -1981.103          36.000  
G29  21011711.914   110417810.461        2715.082          36.000    21011722.530    86039716.337        2115.265          38.000  
E15  23970284.947   125965094.345        2023.607          45.000    23970298.480    96518928.387        1550.466          48.000  
E18  25789487.612   135525161.705       -5225.072          35.000                                                                  
E08                                                                  25086669.801                3      -2921.693          24.000  
> 2024 04 17 00 36 30.4910000  0 28                     
G15  21099694.700   110879364.680       -3951.898          44.000    21099715.826    86399466.422       -3079.114          40.000  
G19  21564064.013   113319969.157       -4215.237          39.000                                                                  
G24  17805108.101    93566679.779       -1192.702          49.000    17805106.575    72909211.684        -929.557          47.000  
G32  20906116.680   109862479.984         869.984          38.000    20906118.554    85607017.109         678.363          40.000  
R09  17442575.356    93142480.422        -178.616          51.000    17442573.231    72444458.496        -138.880          50.000  
R08  19747596.651   105747508.069        -578.035          48.000    19747593.900    82248124.708        -449.571          45.000  
R16  19312841.281   103165737.895       -2547.701          47.000    19312840.442    80240547.864       -1981.396          44.000  
R10  19402701.828   103427364.738        1520.598          43.000                                                                  
G12  18494717.909    97190655.239        -627.275          48.000    18494715.245    75733292.516        -488.667          47.000  
S31  36126122.153   189844077.103        -753.150          44.000  
S33  37079284.155   194852958.344        -753.945          43.000  
G11  20452033.053   107476621.391        1197.086          47.000    20452033.317    83748244.686         932.774          46.000  
E36  25281049.005                       -1893.451          29.000    25281052.609   101796371.451       -1450.475          33.000  
R19  17603530.587    94167497.074        -302.374          41.000    17603528.171    73241593.213        -235.075          46.000  
R07  19339038.592   103523343.308       -3505.607          50.000    19339039.233    80518166.884       -2726.481          46.000  
R18  19361902.317   103355268.965       -3480.554          48.000    19361899.394    80387623.689       -2707.175          50.000  
R20  19550975.750   104548185.871        3481.996          40.000    19550985.702    81315442.966        2707.949          43.000  
E07  22155370.357   116427396.798       -2833.812          47.000    22155375.869    89210641.537       -2171.426          50.000  
E27  21939115.828   115291260.096          86.096          45.000    21939119.561    88340282.140          65.919          51.000  
E34  23250961.452   122184957.142         385.902          43.000    23250967.148    93622312.240         295.643          50.000  
G25  19436756.447   102141106.097         728.329          47.000    19436756.470    79590549.745         567.464          43.000  
E30  21621053.999   113619887.984       -1643.463          47.000    21621055.663    87059668.587       -1259.246          52.000  
G06  20545050.057   107965185.797        -636.568          37.000    20545050.560    84128814.915        -496.154          40.000  
E02  25056812.991   131674477.3441      -2585.089          31.000    25056819.771   100893423.215       -1980.671          36.000  
G29  20996233.755   110336481.350        2707.404          36.000    20996244.716    85976344.179        2109.509          38.000  
E15  23958738.606   125904426.021        2021.164          44.000    23958752.776    96472443.033        1548.614          48.000  
E18  25819293.587   135681794.624       -5217.195          35.000                                                                  
E08                                                                  25108436.554                3      -2919.123          20.000  
> 2024 04 17 00 37 00.4910000  0 28                     
G15  21122260.856   110997944.002       -3953.107          44.000    21122282.371    86491864.889       -3080.365          40.000  
G19  21588138.392   113446483.538       -4218.952          38.000                                                                  
G24  17811963.897    93602708.872       -1208.913          49.000    17811962.914    72937286.275        -942.153          47.000  
G32  20901200.901   109836642.072         852.637          41.000    20901202.496    85586883.700         664.349          40.000  
R09  17443597.562    93147940.852        -185.184          51.000    17443595.363    72448705.533        -144.107          50.000  
R08  19750906.467   105765236.264        -603.442          46.000    19750904.813    82261913.266        -469.377          45.000  
R16  19327167.388   103242262.886       -2553.930          46.000    19327166.613    80300067.341       -1986.295          45.000  
R10  19394146.119   103381762.909        1519.733          41.000                                                                  
G12  18498315.955    97209562.227        -633.003          48.000    18498312.872    75748025.271        -493.138          47.000  
S31  36130425.395   189866689.537        -753.975          45.000  
S33  37083590.228   194875589.117        -754.636          43.000  
G11  20445236.218   107440902.346        1184.499          48.000    20445235.652    83720411.924         923.051          46.000  
E36  25291899.582                       -1906.995          29.000    25291901.344                       -1461.345          31.000  
R19  17605304.739    94176992.921        -330.532          40.000    17605302.864    73248978.941        -257.008          46.000  
R07  19358730.016   103628749.283       -3521.196          48.000    19358731.425    80600149.070       -2738.733          47.000  
R18  19381521.162   103460002.936       -3501.352          47.000    19381520.794    80469083.425       -2723.272          51.000  
R20  19531463.669   104443851.166        3474.317          39.000    19531472.773    81234294.751        2702.103          42.000  
E07  22171577.419   116512567.306       -2843.813          46.000    22171583.554    89275901.995       -2179.029          50.000  
E27  21938634.124   115288728.749          82.913          45.000    21938637.698    88338342.631          63.597          51.000  
E34  23248798.356   122173581.827         372.796          45.000    23248802.540    93613596.178         285.660          50.000  
G25  19432610.178   102119321.561         724.252          46.000    19432611.645    79573574.893         564.371          43.000  
E30  21630442.809   113669225.317       -1645.367          48.000    21630444.383    87097472.524       -1260.766          52.000  
G06  20548739.649   107984573.344        -655.365          36.000    20548738.865    84143922.210        -511.027          40.000  
E02  25071578.107   131752035.321       -2584.368          34.000    25071578.923   100952850.830       -1980.704          35.000  
G29  20980799.909   110255379.528        2699.607          36.000    20980810.138    85913149.074        2103.490          39.000  
E15  23947208.542   125843834.006        2018.558          44.000    23947221.780    96426016.143        1546.661          48.000  
E18  25849055.643   135838195.818       -5209.416          33.000                                                                  
E08                                                                  25130195.018                3      -2925.945          17.000  
> 2024 04 17 00 37 30.4910000  0 27                     
G15  21144832.903   111116555.286       -3954.187          42.000    21144853.925    86584288.247       -3081.183          39.000  
G19  21612236.702   113573120.927       -4223.395          41.000                                                                  
G24  17818913.150    93639230.059       -1225.625          48.000    17818913.154    72965744.342        -955.074          48.000  
G32  20896387.175   109811342.027         834.362          42.000    20896387.590    85567169.392         650.355          39.000  
R09  17444657.949    93153603.107        -192.247          51.000    17444655.105    72453109.538        -149.503          49.000  
R08  19754361.613   105783733.642        -629.412          46.000    19754359.561    82276300.051        -489.545          46.000  
R16  19341527.653   103318974.901       -2560.140          46.000    19341526.951    80359732.214       -1991.349          44.000  
R10  19385592.815   103336183.098        1518.766          38.000                                                                  
G12  18501947.760    97228645.226        -639.002          49.000    18501943.882    75762895.192        -498.067          46.000  
S31  36134731.872   189889319.503        -754.532          44.000  
S33  37087900.082   194898239.057        -755.355          43.000  
G11  20438511.251   107405562.823        1171.634          48.000    20438510.642    83692874.844         912.925          46.000  
E36  25302823.565                1      -1920.595          28.000    25302828.056                       -1471.516          30.000  
R19  17607238.958    94187340.042        -358.947          40.000    17607236.862    73257026.838        -279.374          45.000  
R07  19378507.013   103734625.727       -3537.016          47.000    19378509.577    80682497.151       -2751.113          48.000  
R18  19401256.603   103565363.694       -3522.146          42.000    19401258.255    80551030.719       -2739.652          51.000  
R20  19511996.099   104339751.044        3465.890          41.000    19512004.248    81153328.931        2695.728          42.000  
E07  22187841.287   116598035.560       -2853.843          46.000    22187847.256    89341390.568       -2186.699          50.000  
E27  21938171.530   115286290.915          79.624          46.000    21938173.638    88336474.755          61.020          51.000  
E34  23246707.724   122162598.542         359.505          44.000    23246712.513    93605180.509         275.461          51.000  
G25  19428487.543   102097657.433         720.177          45.000    19428488.904    79556693.856         560.999          43.000  
E30  21639844.077   113718625.438       -1647.724          49.000    21639844.829    87135324.581       -1262.581          52.000  
G06  20552535.956   108004530.551        -674.615          34.000    20552536.546    84159473.350        -525.785          40.000  
E02  25086331.719   131829580.404       -2584.424          32.000    25086335.188   101012268.550       -1980.523          34.000  
G29  20965408.877   110174507.465        2692.036          38.000    20965419.171    85850133.010        2097.577          39.000  
E15  23935693.272   125783320.967        2015.757          45.000    23935705.976    96379649.759        1544.496          48.000  
E18  25878772.907   135994364.360       -5201.727          32.000                                                                  
> 2024 04 17 00 38 00.4910000  0 27                     
G15  21167410.756   111235199.711       -3955.194          41.000    21167431.946    86676737.426       -3082.269          38.000  
G19  21636358.606   113699882.858       -4227.386          44.000                                                                  
G24  17825957.224    93676248.279       -1242.195          48.000    17825958.123    72994589.696        -967.921          48.000  
G32  20891675.545   109786585.531         815.993          42.000    20891675.347    85547878.652         635.800          38.000  
R09  17445757.445    93159473.061        -199.179          50.000    17445754.471    72457675.111        -154.866          50.000  
R08  19757960.501   105803003.739        -655.032          46.000    19757958.221    82291287.859        -509.645          46.000  
R16  19355924.395   103395878.499       -2566.718          46.000    19355922.712    80419546.126       -1996.375          44.000  
R10  19377047.285   103290630.368        1517.893          39.000                                                                  
G12  18505612.794    97247907.351        -645.011          48.000    18505608.886    75777904.673        -502.700          46.000  
S31  36139041.939   189911969.895        -755.280          44.000  
S33  37092214.432   194920911.108        -756.139          44.000  
G11  20431859.237   107370609.773        1158.540          47.000    20431859.389    83665638.924         902.885          46.000  
R19  17609333.559    94198543.454        -387.771          41.000    17609330.443    73265740.642        -301.435          45.000  
R07  19398372.436   103840972.971       -3552.747          47.000    19398376.170    80765211.410       -2763.375          47.000  
R18  19421113.232   103671351.969       -3543.249          46.000    19421113.639    80633466.059       -2756.034          50.000  
R20  19492573.534   104235894.947        3457.703          41.000    19492581.736    81072552.867        2689.547          42.000  
E07  22204161.663   116683804.005       -2864.036          45.000    22204168.482    89407109.170       -2194.454          50.000  
E27  21937726.730   115283950.340          76.345          47.000    21937728.181    88334681.410          58.445          50.000  
E34  23244692.804   122152012.788         346.075          44.000    23244697.737    93597069.473         265.226          51.000  
G25  19424388.216   102076117.586         715.784          46.000    19424389.408    79539909.678         557.894          43.000  
E30  21649256.976   113768092.398       -1650.076          49.000    21649258.069    87173227.850       -1264.306          52.000  
G06  20556441.476   108025062.112        -694.072          36.000    20556444.292    84175472.116        -540.825          41.000  
E02  25101087.509   131907117.024       -2584.091          33.000    25101090.856   101071679.734       -1980.155          35.000  
G29  20950062.557   110093871.775        2683.750          40.000    20950073.632    85787301.094        2091.245          39.000  
E15  23924193.986   125722893.243        2012.917          46.000    23924206.246    96333348.735        1542.283          48.000  
E18  25908446.569   136150303.092       -5194.010          31.000                                                                  
E36                                                                  25313832.950                       -1481.202          30.000  
> 2024 04 17 00 38 30.4910000  0 27                     
G15  21189992.280   111353862.576       -3955.817          41.000    21190013.115    86769200.975       -3082.666          37.000  
G19  21660501.971   113826755.263       -4231.125          45.000                                                                  
G24  17833094.856    93713752.422       -1258.531          48.000    17833095.133    73023813.664        -980.606          48.000  
G32  20887065.031   109762362.158         798.139          42.000    20887065.034    85529003.279         621.902          38.000  
R09  17446893.218    93165539.601        -205.718          50.000    17446891.199    72462393.524        -160.007          51.000  
R08  19761701.359   105823033.619        -680.611          49.000    19761698.932    82306866.569        -529.391          46.000  
R16  19370354.778   103472962.394       -2572.639          47.000    19370353.499    80479500.225       -2000.987          45.000  
R10  19368505.885   103245093.019        1517.414          40.000                                                                  
G12  18509309.073    97267336.099        -650.543          47.000    18509305.948    75793043.999        -507.028          45.000  
S31  36143354.144   189934630.926        -755.699          44.000  
S33  37096530.272   194943591.647        -756.325          43.000  
G11  20425279.896   107336034.221        1145.909          47.000    20425280.095    83638697.150         892.995          47.000  
R19  17611586.586    94210591.923        -415.863          42.000    17611582.307    73275111.748        -323.523          45.000  
R07  19418324.470   103947773.922       -3567.810          49.000    19418327.170    80848278.540       -2775.017          45.000  
R18  19441083.940   103777952.314       -3563.750          48.000    19441083.234    80716377.464       -2771.760          50.000  
R20  19473194.723   104132275.179        3449.845          40.000    19473204.264    80991960.636        2683.073          43.000  
E07  22220537.681   116769859.094       -2873.426          46.000    22220544.055    89473047.398       -2201.726          50.000  
E27  21937297.110   115281694.749          73.646          47.000    21937299.011    88332953.206          56.382          51.000  
E34  23242752.082   122141814.104         333.399          44.000    23242756.974    93589255.008         255.403          51.000  
G25  19420311.256   102054689.940         712.221          47.000    19420311.855    79523212.958         554.936          43.000  
E30  21658680.497   113817614.088       -1651.720          48.000    21658681.773    87211173.051       -1265.589          52.000  
G06  20560456.521   108046157.222        -712.484          38.000    20560459.104    84191909.997        -555.307          42.000  
E02  25115838.142   131984633.645       -2584.002          32.000    25115839.140   101131075.614       -1979.978          33.000  
G29  20934760.801   110013462.536        2676.451          40.000    20934770.879    85724645.611        2085.590          40.000  
E15  23912708.869   125662541.194        2010.437          46.000    23912721.340    96287105.684        1540.441          49.000  
E18  25938066.178   136305998.870       -5185.974          30.000                                                                  
E36                                                                  25324914.243                       -1492.337          31.000  
> 2024 04 17 00 39 00.4910000  0 27                     
G15  21212576.860   111472542.210       -3955.963          41.000    21212597.891    86861677.657       -3082.367          36.000  
G19  21684666.064   113953736.251       -4234.173          46.000                                                                  
G24  17840324.807    93751743.828       -1274.177          48.000    17840324.230    73053417.347        -992.890          48.000  
G32  20882558.679   109738673.947         780.981          43.000    20882557.896    85510544.928         608.508          39.000  
R09  17448066.565    93171804.578        -211.899          50.000    17448064.229    72467266.301        -164.746          50.000  
R08  19765584.160   105843823.810        -705.390          47.000    19765581.898    82323036.631        -548.676          47.000  
R16  19384819.380   103550228.201       -2578.281          48.000    19384817.640    80539595.852       -2005.151          43.000  
R10  19359966.966   103199572.386        1517.313          42.000                                                                  
G12  18513038.363    97286932.045        -655.600          48.000    18513034.632    75808313.597        -510.767          45.000  
S31  36147668.236   189957301.779        -755.396          44.000  
S33  37100848.357   194966282.114        -756.362          43.000  
G11  20418772.225   107301839.642        1133.646          47.000    20418772.614    83612052.268         883.453          46.000  
R19  17613997.177    94223486.699        -443.536          42.000    17613993.449    73285141.102        -345.126          46.000  
R07  19438359.917   104055024.697       -3582.246          49.000    19438362.333    80931695.559       -2786.024          45.000  
R18  19461168.001   103885161.852       -3583.381          47.000    19461167.605    80799762.640       -2787.133          49.000  
R20  19453861.388   104028896.443        3442.245          39.000    19453871.113    80911555.810        2677.298          43.000  
E07  22236967.866   116856199.765       -2882.368          47.000    22236974.517    89539204.457       -2208.642          50.000  
E27  21936883.644   115279524.442          71.296          47.000    21936885.999    88331290.333          54.611          51.000  
E34  23240884.791   122132004.495         320.749          44.000    23240889.768    93581738.684         245.822          50.000  
G25  19416254.781   102033374.854         708.911          47.000    19416255.472    79506603.921         552.510          43.000  
E30  21668115.262   113867191.049       -1653.133          49.000    21668116.064    87249160.606       -1266.744          52.000  
G06  20564580.448   108067817.279        -731.063          41.000    20564580.346    84208788.052        -569.740          41.000  
E02  25130585.083                       -2582.467          31.000    25130587.634   101190456.749       -1978.914          35.000  
G29  20919502.728   109933282.460        2669.202          42.000    20919512.370    85662168.690        2080.038          41.000  
E15  23901237.700   125602267.674        2008.016          45.000    23901251.237    96240922.798        1538.645          49.000  
E18  25967649.373   136461451.053       -5177.111          28.000                                                                  
E36                                                                  25336069.078                       -1502.503          29.000  
> 2024 04 17 00 39 30.4910000  0 27                     
G15  21235163.773   111591233.552       -3956.451          41.000    21235185.468    86954163.476       -3082.678          36.000  
G19  21708849.476   114080820.683       -4237.506          45.000                                                                  
G24  17847647.153    93790220.756       -1290.409          49.000    17847646.335    73083399.381       -1005.480          48.000  
G32  20878152.327   109715519.798         763.001          43.000    20878153.409    85492502.750         594.735          40.000  
R09  17449276.960    93178266.677        -218.473          51.000    17449273.579    72472292.418        -169.945          49.000  
R08  19769607.086   105865370.988        -730.602          46.000    19769605.165    82339795.502        -568.411          44.000  
R16  19399317.475   103627674.142       -2584.330          47.000    19399315.952    80599831.548       -2010.147          44.000  
R10  19351429.179   103154066.282        1516.737          42.000                                                                  
G12  18516798.630    97306692.331        -661.259          48.000    18516795.302    75823711.258        -515.294          46.000  
S31  36151983.885   189979980.912        -755.867          44.000  
S33  37105167.597   194988981.440        -756.383          43.000  
G11  20412337.956   107268026.421        1120.956          48.000    20412337.075    83585704.516         873.377          45.000  
R19  17616565.344    94237226.324        -472.098          43.000    17616562.794    73295827.560        -367.129          46.000  
R07  19458478.502   104162718.981       -3596.874          48.000    19458480.897    81015457.552       -2797.894          45.000  
R18  19481365.257   103992974.436       -3603.519          49.000    19481364.056    80883616.857       -2802.762          48.000  
R20  19434573.561   103925760.865        3433.769          40.000    19434583.866    80831340.129        2670.720          44.000  
E07  22253451.292   116942821.832       -2891.858          46.000    22253458.331    89605577.126       -2215.895          50.000  
E27  21936485.795   115277436.543          68.492          47.000    21936488.765    88329690.601          52.389          51.000  
E34  23239092.008   122122582.834         307.742          44.000    23239096.401    93574519.603         235.856          50.000  
G25  19412220.041   102012169.673         705.198          46.000    19412220.594    79490080.525         549.752          43.000  
E30  21677559.038   113916820.651       -1654.979          48.000    21677560.196    87287188.502       -1268.073          53.000  
G06  20568809.743   108090040.553        -749.937          40.000    20568808.406    84226104.969        -584.480          41.000  
E02  25145325.596   132139607.060       -2581.916          32.000    25145331.413   101249821.552       -1978.247          35.000  
G29  20904288.785   109853331.734        2661.440          45.000    20904297.432    85599870.433        2073.773          41.000  
E15  23889781.491   125542072.393        2005.315          44.000    23889795.659    96194799.871        1536.509          50.000  
E18  25997184.575                1      -5169.208          28.000                                                                  
E36                                                                  25347302.085                       -1512.470          31.000  
> 2024 04 17 00 40 00.4910000  0 27                     
G15  21257753.423   111709940.786       -3957.129          43.000    21257776.179    87046661.709       -3083.557          37.000  
G19  21733053.631   114208014.034       -4241.538          45.000                                                                  
G24  17855062.363    93829191.228       -1307.289          49.000    17855061.989    73113765.979       -1018.759          48.000  
G32  20873848.857   109692908.440         744.658          43.000    20873850.567    85474883.535         580.143          40.000  
R09  17450525.211    93184934.412        -225.661          50.000    17450522.370    72477478.485        -175.664          50.000  
R08  19773772.800   105887681.668        -756.301          46.000    19773771.136    82357148.209        -588.562          45.000  
R16  19413850.497   103705308.669       -2591.003          47.000    19413848.501    80660213.934       -2015.673          41.000  
R10  19342895.680   103108583.119        1515.917          41.000                                                                  
G12  18520591.399    97326623.265        -667.368          48.000    18520588.127    75839241.879        -520.105          46.000  
S31  36156302.227   190002675.341        -756.615          44.000  
S33  37109489.703   195011694.614        -757.440          43.000  
G11  20405977.790   107234604.744        1107.448          47.000    20405977.021    83559661.847         862.898          45.000  
R19  17619294.263    94251818.687        -500.637          44.000    17619289.674    73307177.270        -389.547          46.000  
R07  19478681.266   104270859.395       -3612.094          48.000    19478684.070    81099566.487       -2809.354          47.000  
R18  19501675.869   104101394.035       -3624.140          51.000    19501674.246    80967943.194       -2818.739          49.000  
R20  19415333.304   103822881.148        3425.127          39.000    19415343.467    80751323.412        2663.649          43.000  
E07  22269989.518   117029730.946       -2901.735          46.000    22269996.666    89672169.726       -2223.417          50.000  
E27  21936105.423   115275438.005          65.161          47.000    21936108.551    88328159.330          49.908          51.000  
E34  23237375.326   122113557.776         294.271          45.000    23237378.956    93567604.430         225.424          50.000  
G25  19408206.956   101991081.469         700.884          46.000    19408207.563    79473648.267         546.277          43.000  
E30  21687013.821   113966510.089       -1657.425          47.000    21687015.854    87325262.255       -1269.951          53.000  
G06  20573147.453   108112835.196        -769.552          39.000    20573146.495    84243867.085        -599.659          41.000  
E02  25160067.781                       -2581.732          30.000    25160070.436   101309175.898       -1978.530          33.000  
G29  20889118.751   109773619.130        2652.952          44.000    20889128.032    85537757.736        2067.210          42.000  
E15  23878343.483   125481964.909        2002.148          44.000    23878357.077    96148744.194        1534.049          50.000  
E18  26026679.233                       -5162.371          31.000                                                                  
E36                                                                  25358608.331                       -1522.876          26.000  
> 2024 04 17 00 40 30.4910000  0 27                     
G15  21280348.289   111828666.962       -3957.873          43.000    21280369.940    87139174.728       -3084.570          36.000  
G19  21757279.060   114335318.866       -4245.405          44.000                                                                  
G24  17862573.361    93868661.278       -1324.162          49.000    17862572.632    73144521.852       -1031.728          48.000  
G32  20869650.053   109670846.591         726.132          43.000    20869652.011    85457692.503         565.848          40.000  
R09  17451814.541    93191814.640        -232.933          52.000    17451811.032    72482829.790        -181.163          50.000  
R08  19778083.494   105910761.428        -782.082          47.000    19778082.266    82375099.086        -608.261          45.000  
R16  19428419.307   103783137.339       -2597.625          46.000    19428418.072    80720747.328       -2020.529          42.000  
R10  19334368.073   103063128.685        1514.765          42.000                                                                  
G12  18524417.667    97346730.197        -673.190          48.000    18524413.713    75854909.645        -524.568          45.000  
S31  36160624.712   190025390.024        -757.357          44.000  
S33  37113815.910   195034430.288        -758.207          43.000  
G11  20399693.208   107201582.701        1094.108          47.000    20399693.314    83533930.576         852.442          45.000  
R19  17622182.195    94267270.118        -529.368          43.000    17622178.511    73319195.133        -411.655          46.000  
R07  19498966.316   104379447.102       -3626.979          49.000    19498970.118    81184023.308       -2820.909          48.000  
R18  19522099.887   104210422.385       -3644.398          50.000    19522098.605    81052743.057       -2834.404          47.000  
R20  19396143.170   103720267.024        3416.131          40.000    19396153.320    80671513.244        2656.772          43.000  
E07  22286583.800   117116930.678       -2911.417          47.000    22286590.199    89738985.017       -2230.833          50.000  
E27  21935742.958   115273533.784          61.882          47.000    21935745.992    88326700.321          47.512          51.000  
E34  23235733.351   122104935.993         280.556          44.000    23235737.995    93560998.254         215.070          50.000  
G25  19404217.082   101970115.291         696.901          47.000    19404217.875    79457311.133         543.227          43.000  
E30  21696482.230   114016264.548       -1659.620          48.000    21696483.704    87363385.808       -1271.572          53.000  
G06  20577594.312   108136207.097        -788.925          39.000    20577593.998    84262079.042        -614.649          41.000  
E02  25174805.110                       -2581.788          29.000    25174810.307   101368524.079       -1977.814          35.000  
G29  20873994.775   109694152.270        2644.774          43.000    20874004.090    85475836.516        2061.047          41.000  
E15  23866922.518   125421952.752        1998.752          43.000    23866936.517    96102761.551        1531.497          50.000  
E18  26056126.356   136925808.7951      -5153.721          33.000                                                                  
E36                                                                  25369995.611                       -1533.205          25.000  
> 2024 04 17 00 41 00.4910000  0 27                     
G15  21302943.322   111947403.689       -3957.605          43.000    21302964.715    87231696.008       -3083.924          37.000  
G19  21781524.078   114462728.139       -4248.385          44.000                                                                  
G24  17870178.159    93908626.379       -1340.162          48.000    17870177.839    73175663.475       -1044.183          47.000  
G32  20865555.664   109649330.404         708.619          43.000    20865557.900    85440926.679         552.274          40.000  
R09  17453141.633    93198903.328        -239.418          51.000    17453138.664    72488343.245        -186.220          50.000  
R08  19782536.161   105934603.630        -807.102          47.000    19782535.402    82393642.982        -627.683          46.000  
R16  19443024.775   103861156.200       -2603.417          46.000    19443023.068    80781428.642       -2025.046          41.000  
R10  19325845.566   103017698.452        1514.202          42.000                                                                  
G12  18528276.074    97367007.822        -678.440          48.000    18528272.538    75870710.407        -528.563          45.000  
S31  36164950.154   190048120.498        -757.612          44.000  
S33  37118145.208   195057180.916        -758.172          43.000  
G11  20393484.902   107168957.974        1081.262          47.000    20393484.935    83508508.886         842.342          46.000  
R19  17625230.198    94283575.449        -557.576          42.000    17625226.096    73331877.123        -433.634          45.000  
R07  19519333.654   104488472.352       -3641.038          49.000    19519336.035    81268820.448       -2831.969          47.000  
R18  19542637.213   104320050.787       -3663.717          51.000    19542636.351    81138009.571       -2849.809          46.000  
R20  19377003.324   103617917.347        3407.383          41.000    19377011.835    80591908.759        2650.371          42.000  
E07  22303232.364   117204414.200       -2920.440          47.000    22303237.902    89806017.754       -2237.659          50.000  
E27  21935397.717   115271718.343          59.404          48.000    21935400.459    88325309.346          45.531          51.000  
E34  23234169.376   122096713.629         267.740          44.000    23234173.134    93554698.126         205.112          50.000  
G25  19400249.154   101949265.831         693.376          47.000    19400249.725    79441064.928         540.188          43.000  
E30  21705961.516   114066078.734       -1661.088          48.000    21705962.887    87401555.131       -1272.745          53.000  
G06  20582150.102   108160151.886        -807.493          40.000    20582150.727    84280737.452        -629.015          41.000  
E02  25189548.926                       -2580.860          27.000    25189547.066   101427862.344       -1977.653          34.000  
G29  20858918.420   109614928.141        2637.078          43.000    20858927.053    85414104.371        2054.994          41.000  
E15  23855519.849   125362033.002        1996.131          43.000    23855533.244    96056849.685        1529.500          50.000  
E18  26085525.643   137080291.532       -5145.129          35.000                                                                  
E36                                                                  25381458.033                3      -1538.551          23.000  
> 2024 04 17 00 41 30.4910000  0 27                     
G15  21325524.015   112066067.324       -3953.095          42.000    21325546.790    87324160.391       -3080.245          38.000  
G19  21805773.104   114590157.959       -4246.882          44.000                                                                  
G24  17877862.431    93949006.146       -1351.778          48.000    17877861.700    73207128.201       -1053.076          47.000  
G32  20861550.514   109628280.178         695.177          45.000    20861552.561    85424523.942         541.483          40.000  
R09  17454492.719    93206119.243        -241.471          51.000    17454490.747    72493955.639        -187.689          51.000  
R08  19787114.236   105959124.937        -827.512          46.000    19787115.149    82412715.086        -643.470          45.000  
R16  19457651.865   103939283.486       -2604.868          47.000    19457649.663    80842194.289       -2026.226          41.000  
R10  19317312.039   102972210.956        1518.545          41.000                                                                  
G12  18532152.124    97387373.662        -679.100          49.000    18532148.187    75886579.920        -529.068          46.000  
S31  36169263.297   190070785.367        -753.497          44.000  
S33  37122461.622   195079865.292        -753.675          44.000  
G11  20387337.579   107136652.326        1072.683          47.000    20387337.393    83483335.835         835.894          46.000  
R19  17628422.033    94300653.733        -581.166          41.000    17628418.337    73345160.302        -451.934          45.000  
R07  19539765.432   104597848.447       -3650.541          49.000    19539767.326    81353890.468       -2839.374          45.000  
R18  19563270.640   104430193.316       -3678.676          51.000    19563268.820    81223676.026       -2861.218          45.000  
R20  19357897.758   103515754.721        3403.386          40.000    19357905.940    80512449.758        2647.284          41.000  
E07  22319917.857   117292098.668       -2924.954          47.000    22319923.599    89873204.482       -2241.167          49.000  
E27  21935053.594   115269910.242          61.467          48.000    21935056.293    88323923.993          47.053          51.000  
E34  23232665.348   122088810.884         259.420          45.000    23232669.326    93548642.918         198.734          50.000  
G25  19396287.803   101928451.803         694.539          46.000    19396288.408    79424846.318         541.178          42.000  
E30  21715436.098   114115871.498       -1658.164          47.000    21715438.218    87439708.030       -1270.543          53.000  
G06  20586799.466   108184589.167        -821.664          41.000    20586800.271    84299779.582        -640.214          40.000  
E02  25204271.195                       -2575.078          25.000    25204264.100   101487128.787       -1973.244          33.000  
G29  20843872.425   109535867.699        2633.875          41.000    20843881.571    85352499.785        2052.287          41.000  
E15  23844120.144   125302126.805        1997.978          44.000    23844132.701    96010948.191        1530.760          49.000  
E18  26114857.521   137234448.311       -5131.636          36.000                                                                  
E36                                                                  25392977.325                3      -1552.033          23.000  
> 2024 04 17 00 42 00.4910000  0 27                     
G15  21348082.816   112184609.850       -3949.915          42.000    21348106.185    87416530.355       -3077.326          39.000  
G19  21830016.404   114717560.478       -4246.829          43.000                                                                  
G24  17885617.056    93989755.477       -1364.979          49.000    17885616.438    73238880.927       -1063.525          48.000  
G32  20857625.468   109607651.479         680.200          45.000    20857626.613    85408449.666         530.041          40.000  
R09  17455859.380    93213416.823        -245.118          52.000    17455857.635    72499631.551        -190.644          51.000  
R08  19791811.576   105984278.043        -849.482          48.000    19791810.375    82432278.516        -660.625          44.000  
R16  19472289.204   104017473.674       -2607.946          48.000    19472288.019    80903008.783       -2028.096          43.000  
R10  19308758.731   102926620.589        1521.021          41.000                                                                  
G12  18536035.732    97407782.029        -681.410          49.000    18536031.332    75902482.572        -530.935          45.000  
S31  36173554.892   190093339.091        -750.451          44.000  
S33  37126757.180   195102438.629        -751.325          43.000  
G11  20381242.370   107104622.823        1062.678          47.000    20381243.288    83458377.967         827.971          48.000  
R19  17631750.012    94318458.164        -606.305          41.000    17631747.346    73359008.255        -471.357          47.000  
R07  19560252.691   104707524.197       -3661.113          47.000    19560255.446    81439193.479       -2847.467          44.000  
R18  19583990.495   104540799.824       -3695.127          51.000    19583990.230    81309703.294       -2873.865          44.000  
R20  19338819.188   103413736.126        3397.703          41.000    19338826.657    80433102.764        2642.605          41.000  
E07  22336631.681   117379936.672       -2930.882          46.000    22336638.463    89940508.847       -2245.637          49.000  
E27  21934702.259   115268063.450          61.816          48.000    21934704.825    88322508.974          47.363          51.000  
E34  23231215.747   122081183.408         249.193          46.000    23231218.342    93542798.607         190.956          50.000  
G25  19392325.205   101907627.277         693.903          47.000    19392325.520    79408619.501         540.773          42.000  
E30  21724899.369   114165596.996       -1656.722          47.000    21724900.421    87477809.366       -1269.411          52.000  
G06  20591535.994   108209473.930        -837.454          43.000    20591535.707    84319170.408        -652.303          40.000  
G29  20828848.897   109456927.371        2628.930          40.000    20828858.692    85290988.738        2048.549          41.000  
E15  23832714.678   125242190.683        1997.923          44.000    23832726.300    95965023.735        1530.911          49.000  
E18  26144121.384   137388232.248       -5120.441          37.000                                                                  
E02                                                                  25218956.417   101546288.708       -1970.524          33.000  
E36                                                                  25404550.757                3      -1550.637          22.000  
> 2024 04 17 00 42 30.4910000  0 27                     
G15  21370625.863   112303069.010       -3947.179          43.000    21370649.015    87508835.466       -3075.557          38.000  
G19  21854262.390   114844973.919       -4247.367          43.000                                                                  
G24  17893448.877    94030915.480       -1378.951          49.000    17893449.877    73270953.633       -1074.390          48.000  
G32  20853787.817   109587486.044         664.403          45.000    20853788.639    85392736.364         517.798          40.000  
R09  17457249.264    93220838.894        -249.524          51.000    17457246.707    72505404.305        -194.106          51.000  
R08  19796635.930   106010103.158        -872.019          47.000    19796632.314    82452364.693        -678.433          43.000  
R16  19486945.691   104095768.421       -2611.618          48.000    19486945.834    80963904.660       -2031.281          43.000  
R10  19300194.437   102880968.672        1523.157          38.000                                                                  
G12  18539934.997    97428272.832        -684.460          49.000    18539930.365    75918449.475        -533.416          45.000  
S31  36177833.275   190115823.019        -748.422          44.000  
S33  37131039.414   195124942.354        -749.100          43.000  
G11  20375207.321   107072912.741        1051.561          46.000    20375209.017    83433668.970         819.463          48.000  
R19  17635222.095    94337030.643        -631.830          42.000    17635218.736    73373453.622        -491.505          46.000  
R07  19580804.573   104817536.181       -3672.613          48.000    19580807.349    81524758.052       -2856.589          44.000  
R18  19604804.719   104651907.807       -3712.007          51.000    19604804.355    81396120.694       -2886.947          45.000  
R20  19319776.727   103311908.128        3391.172          41.000    19319783.701    80353903.991        2637.372          42.000  
E07  22353383.271   117467966.968       -2937.634          46.000    22353390.483    90007960.548       -2250.796          50.000  
E27  21934350.639   115266218.072          61.579          48.000    21934353.762    88321095.036          47.147          51.000  
E34  23229823.087   122073872.905         238.227          45.000    23229827.233    93537197.172         182.663          51.000  
G25  19388367.882   101886832.508         692.679          46.000    19388368.011    79392415.918         539.698          42.000  
E30  21734356.271   114215295.568       -1656.281          47.000    21734357.863    87515890.088       -1269.003          52.000  
G06  20596365.227   108234847.238        -854.199          43.000    20596364.596    84338941.897        -665.420          40.000  
G29  20813857.884   109378149.761        2623.143          43.000    20813867.528    85229604.455        2044.297          41.000  
E15  23821310.503   125182267.285        1997.069          44.000    23821322.376    95919109.036        1530.235          49.000  
E18  26173322.065   137541682.627       -5109.615          38.000                                                                  
E02                                                                  25233629.458   101605373.239       -1967.812          32.000  
E36                                                                  25416182.726                3      -1565.585          19.000  
> 2024 04 17 00 43 00.4910000  0 26                     
G15  21393153.176   112421448.626       -3944.126          43.000    21393175.835    87601078.665       -3073.190          37.000  
G19  21878511.328   114972402.459       -4247.344          43.000                                                                  
G24  17901361.053    94072493.322       -1392.500          49.000    17901360.907    73303351.943       -1085.029          47.000  
G32  20850040.052   109567791.740         649.024          45.000    20850041.655    85377390.163         505.866          41.000  
R09  17458663.251    93228393.119        -253.707          51.000    17458661.659    72511279.855        -197.216          51.000  
R08  19801585.098   106036606.330        -894.337          47.000    19801581.634    82472978.261        -695.639          44.000  
R16  19501622.850   104174175.315       -2615.114          46.000    19501624.449    81024887.762       -2033.901          42.000  
R10  19291619.442   102835262.814        1524.759          40.000                                                                  
G12  18543850.982    97448852.166        -687.093          49.000    18543847.066    75934485.336        -535.287          46.000  
S31  36182099.288   190138241.695        -745.856          44.000  
S33  37135309.051   195147380.391        -746.390          43.000  
G11  20369236.031   107041531.361        1041.023          47.000    20369237.190    83409216.190         811.044          48.000  
R19  17638838.969    94356378.494        -657.390          42.000    17638836.161    73388502.025        -511.342          47.000  
R07  19601417.563   104927886.975       -3683.401          46.000    19601422.650    81610586.202       -2865.075          44.000  
R18  19625713.576   104763520.259       -3728.358          52.000    19625713.347    81482930.377       -2899.755          44.000  
R20  19300771.288   103210281.498        3384.818          41.000    19300778.299    80274861.867        2632.659          42.000  
E07  22370172.284   117556194.351       -2943.697          46.000    22370179.248    90075563.278       -2255.558          49.000  
E27  21934000.748   115264380.369          61.532          48.000    21934004.089    88319686.968          47.294          52.000  
E34  23228492.361   122066887.247         227.703          44.000    23228497.798    93531844.637         174.655          51.000  
G25  19384417.769   101866073.874         691.784          46.000    19384417.795    79376240.470         539.088          42.000  
E30  21743808.727   114264973.686       -1655.204          47.000    21743811.048    87553955.160       -1268.211          52.000  
G06  20601287.870   108260716.239        -870.393          43.000    20601288.092    84359099.679        -677.885          40.000  
E02  25248284.103                3      -2564.742          25.000    25248283.369                       -1966.500          30.000  
G29  20798899.769   109299543.111        2617.786          44.000    20798907.127    85168353.363        2039.622          40.000  
E15  23809910.450   125122365.465        1996.828          44.000    23809922.715    95873210.832        1529.940          48.000  
E18  26202460.184   137694804.850       -5098.243          39.000                                                                  
> 2024 04 17 00 43 30.4910000  0 26                     
G15  21415654.834   112539691.194       -3938.256          43.000    21415677.793    87693215.175       -3068.940          37.000  
G19  21902752.270   115099789.029       -4244.623          43.000                                                                  
G24  17909342.240    94114434.794       -1403.237          49.000    17909342.588    73336033.609       -1093.373          47.000  
G32  20846371.661   109548514.993         636.362          45.000    20846373.723    85362369.351         495.841          42.000  
R09  17460092.774    93236025.328        -254.813          52.000    17460091.271    72517216.042        -198.234          51.000  
R08  19806649.771   106063730.281        -913.604          48.000    19806647.693    82494074.623        -710.529          45.000  
R16  19516312.415   104252639.721       -2615.515          48.000    19516313.137    81085915.606       -2034.550          40.000  
R10  19283025.235   102789447.804        1529.651          39.000                                                                  
G12  18547773.436    97469464.848        -686.725          48.000    18547769.643    75950547.184        -535.102          45.000  
S31  36186342.888   190160542.258        -740.504          44.000  
S33  37139556.099   195169700.364        -741.302          43.000  
G11  20363316.524   107010426.832        1033.031          46.000    20363317.747    83384979.054         805.014          47.000  
R19  17642590.241    94376445.766        -680.122          42.000    17642587.894    73404109.993        -529.023          48.000  
R07  19622084.522   105038516.338       -3691.214          47.000    19622089.323    81696630.949       -2871.113          42.000  
R18  19646705.620   104875577.891       -3741.698          52.000    19646706.520    81570086.350       -2910.243          46.000  
R20  19281793.977   103108805.995        3380.900          41.000    19281801.547    80195937.250        2629.621          42.000  
E07  22386988.583   117644562.318       -2946.950          46.000    22386995.260    90143273.721       -2258.036          50.000  
E27  21933642.510   115262495.179          64.534          48.000    21933645.470    88318242.514          49.463          52.000  
E34  23227214.626   122060172.885         220.105          44.000    23227220.180    93526699.982         168.765          51.000  
G25  19380464.646   101845296.421         693.875          47.000    19380464.505    79360050.358         540.443          43.000  
E30  21753248.564   114314576.565       -1651.343          48.000    21753250.416    87591962.567       -1265.229          52.000  
G06  20606294.910   108287026.786        -883.433          43.000    20606295.318    84379601.453        -688.188          40.000  
E02  25262910.684                       -2559.309          26.000    25262913.303   101723290.673       -1961.075          32.000  
G29  20783963.908   109221054.945        2615.171          45.000    20783970.508    85107194.592        2037.915          41.000  
E15  23798505.832   125062432.710        1999.126          44.000    23798517.747    95827288.885        1531.819          49.000  
E18  26231524.960   137847542.916       -5084.023          39.000                                                                  
> 2024 04 17 00 44 00.4910000  0 26                     
G15  21438113.779   112657715.354       -3930.399          42.000    21438138.372    87785181.535       -3062.770          38.000  
G19  21926970.055   115227052.402       -4239.794          44.000                                                                  
G24  17917377.488    94156661.611       -1412.087          48.000    17917378.171    73368937.600       -1100.479          48.000  
G32  20842767.020   109529578.112         625.668          45.000    20842768.781    85347613.392         487.503          41.000  
R09  17461521.458    93243656.586        -254.160          51.000    17461520.132    72523151.479        -197.722          52.000  
R08  19811816.143   106091393.891        -930.824          47.000    19811814.193    82515590.741        -724.115          46.000  
R16  19530995.243   104331081.776       -2614.206          46.000    19530995.837    81146926.048       -2033.049          38.000  
R10  19274395.176   102743444.794        1536.559          40.000                                                                  
G12  18551686.611    97490031.957        -684.626          48.000    18551683.118    75966573.559        -533.475          45.000  
S31  36190548.708   190182645.270        -733.063          44.000  
S33  37143765.900   195191823.427        -734.057          43.000  
G11  20357436.058   106979522.892        1026.934          46.000    20357435.743    83360898.227         800.178          46.000  
R19  17646460.721    94397152.917        -700.547          42.000    17646458.659    73420215.636        -544.894          48.000  
R07  19642788.782   105149339.227       -3697.085          49.000    19642792.462    81782826.275       -2875.583          43.000  
R18  19667765.681   104987996.809       -3753.050          52.000    19667765.737    81657523.341       -2918.976          45.000  
R20  19262831.606   103007404.846        3378.952          41.000    19262838.316    80117070.425        2628.135          41.000  
E07  22403817.133   117732990.206       -2948.290          47.000    22403822.999    90211030.060       -2259.061          50.000  
E27  21933259.393   115260483.300          69.370          47.000    21933262.470    88316700.994          53.174          52.000  
E34  23225974.633   122053652.155         214.373          45.000    23225979.110    93521703.727         164.233          51.000  
G25  19376491.839   101824421.057         697.558          47.000    19376492.550    79343783.911         543.577          44.000  
E30  21762658.683   114364025.152       -1645.575          48.000    21762660.215    87629851.755       -1260.823          52.000  
G06  20611369.289   108313700.442        -894.894          42.000    20611370.445    84400386.216        -697.449          40.000  
G29  20769035.636   109142608.428        2614.489          47.000    20769041.885    85046068.267        2036.991          40.000  
E15  23787079.740   125002392.298        2003.223          43.000    23787091.973    95781284.439        1534.996          48.000  
E18  26260501.773   137999816.758       -5067.511          39.000                                                                  
E02                                                                  25277501.119   101782021.509       -1954.810          33.000  
> 2024 04 17 00 44 30.4910000  0 26                     
G15  21460526.446   112775492.675       -3921.520          40.000    21460551.360    87876955.611       -3055.682          38.000  
G19  21951159.330   115354164.868       -4234.191          44.000                                                                  
G24  17925462.335    94199148.705       -1420.245          48.000    17925463.308    73402044.408       -1106.646          47.000  
G32  20839222.766   109510956.786         615.698          45.000    20839224.413    85333103.311         479.773          40.000  
R09  17462946.557    93251261.890        -252.894          52.000    17462943.863    72529066.752        -196.711          50.000  
R08  19817076.459   106119570.109        -947.533          47.000    19817075.567    82537505.531        -736.936          46.000  
R16  19545671.841   104409476.405       -2612.193          46.000    19545671.217    81207899.575       -2031.677          38.000  
R10  19265726.667   102697228.678        1544.250          41.000                                                                  
G12  18555587.089    97510527.050        -681.732          49.000    18555582.760    75982543.779        -531.029          45.000  
S31  36194712.416   190204524.766        -725.455          44.000  
S33  37147933.265   195213722.525        -725.906          43.000  
G11  20351588.911   106948796.701        1021.485          45.000    20351588.509    83336955.897         795.897          46.000  
R19  17650446.136    94418473.696        -720.692          41.000    17650443.822    73436798.522        -560.523          48.000  
R07  19663523.409   105260325.121       -3701.993          51.000    19663525.686    81869148.353       -2879.275          43.000  
R18  19688887.954   105100747.656       -3763.617          52.000    19688887.966    81745218.446       -2927.242          47.000  
R20  19243878.163   102906057.055        3377.669          40.000    19243884.790    80038245.086        2626.864          41.000  
E07  22420650.316   117821450.715       -2948.997          47.000    22420656.732    90278811.392       -2259.525          50.000  
E27  21932847.509   115258318.839          74.830          47.000    21932850.215    88315042.557          57.405          52.000  
E34  23224766.802   122047300.782         209.000          45.000    23224769.953    93516837.212         160.233          50.000  
G25  19372495.858   101803422.064         702.201          47.000    19372496.401    79327421.156         547.189          44.000  
E30  21772035.173   114413293.805       -1639.014          48.000    21772035.876    87667603.064       -1255.868          52.000  
G06  20616509.810   108340712.264        -905.724          43.000    20616511.874    84421434.486        -705.873          41.000  
E02  25292047.190   132910565.4561      -2542.319          29.000    25292038.778   101840561.114       -1947.698          34.000  
G29  20754111.170   109064180.348        2614.142          47.000    20754116.757    84984956.238        2037.081          41.000  
E15  23775628.194   124942220.909        2008.212          42.000    23775640.978    95735179.626        1538.615          48.000  
E18  26289385.336   138151599.707       -5051.121          39.000                                                                  
