     3.00           OBSERVATION DATA    M: Mixed            RINEX VERSION / TYPE
CONVBIN 2.4.3                           20240417 032942 UTC PGM / RUN BY / DATE 
format: u-blox UBX                                          COMMENT             
log: /home/regis/git/gnsspwv/obsdata/VERT00CHL/2024-04-17/VECOMMENT             
{self.marker}                                               MARKER NAME         
                                                            MARKER NUMBER       
GEODETIC                                                    MARKER TYPE         
{self.observer}     {self.institution}                      OBSERVER / AGENCY   
UNKNOWN             UBLOX-ZED-F9P                           REC # / TYPE / VERS 
UNKNOWN             TWIVSP6037L                             ANT # / TYPE        
  1713381.0000 -5047934.0000 -3490983.0000                  APPROX POSITION XYZ 
        0.0000        0.0000        0.0000                  ANTENNA: DELTA H/E/N
G    8 C1C L1C D1C S1C C2L L2L D2L S2L                      SYS / # / OBS TYPES 
R    8 C1C L1C D1C S1C C2C L2C D2C S2C                      SYS / # / OBS TYPES 
E    8 C1C L1C D1C S1C C7Q L7Q D7Q S7Q                      SYS / # / OBS TYPES 
S    4 C1C L1C D1C S1C                                      SYS / # / OBS TYPES 
  2024    04    17    03    15   00.4990000     GPS         TIME OF FIRST OBS   
  2024    04    17    03    29   30.4990000     GPS         TIME OF LAST OBS    
                                                            END OF HEADER       
> 2024 04 17 03 15 00.4990000  0 23                     
G31  23244484.404   122150501.5461       2318.375          36.000    23244481.433    95182331.4631       1806.193          40.000  
G11  23985911.006   126046802.5091      -3794.290          41.000    23985906.119    98218358.5191      -2956.554          40.000  
G12  21958910.302   115394851.6381      -2279.213          48.000    21958904.085    89918052.3631      -1775.917          43.000  
G20  23502913.203   123508646.3571       -364.801          38.000                                                                  
R10  19087419.265   101746729.4351      -1239.275          47.000                                                                  
R22  23138630.020                1       3407.073          26.000    23138593.678                1       2650.215          28.000  
R11  20273918.753   108337712.8551       2291.796          51.000    20273914.029    84262654.2701       1782.537          50.000  
R09  21615161.668   115423735.4121      -3813.001          50.000    21615159.395    89774004.6491      -2965.630          49.000  
R20  19647746.618   105065450.7091      -3114.716          44.000    19647744.780    81717629.0281      -2422.739          43.000  
G25  20162533.990   105954854.3751       -799.946          49.000    20162531.171    82562245.4881       -623.482          45.000  
G29  20286968.765   106608885.1681       -973.360          49.000    20286963.050    83071941.5771       -758.454          47.000  
S31  38383353.951   201705952.1281       -645.186          44.000  
S33  39337752.604   206721384.1631       -645.619          43.000  
R21  19332775.288   103454085.6711       1140.049          53.000    19332770.296    80464378.9341        886.590          49.000  
G28  21086776.351   110811779.9961        497.438          45.000    21086772.301    86346829.5261        387.545          47.000  
E15  23679772.493   124438175.7121      -1304.320          47.000    23679774.743    95348809.6661       -999.425          53.000  
E21  24936086.520   131040079.7811       1139.321          44.000    24936087.551   100407367.4211        872.895          49.000  
E13  23919566.294   125698559.8811       1502.987          46.000    23919569.407    96314580.1101       1151.587          51.000  
E27  23315669.496   122524707.8091       -671.559          48.000    23315670.177    93882582.8601       -514.583          54.000  
E30  26065857.239   136977009.6331      -2370.296          41.000    26065861.744   104956417.3541      -1816.107          49.000  
E34  27276151.748   143337171.9881      -3314.618          34.000    27276153.227   109829806.7621      -2539.932          45.000  
G18  22164350.816   116474703.9181       2751.951          46.000    22164347.469    90759609.4971       2144.255          44.000  
G05  23882572.042   125503849.0581       1175.397          45.000    23882568.401    97795215.9941        915.935          41.000  
> 2024 04 17 03 15 30.4990000  0 23                     
G31  23231279.176   122081111.688        2307.728          37.000    23231276.566    95128261.496        1798.297          39.000  
G11  24007595.835   126160759.611       -3802.880          42.000    24007592.017    98307156.244       -2963.405          41.000  
G12  21971944.078   115463340.555       -2287.256          48.000    21971937.975    89971420.305       -1782.282          44.000  
G20  23505044.994   123519841.457        -381.653          37.000                                                                  
R10  19094449.237   101784205.825       -1259.550          47.000                                                                  
R22  23119462.229   123413419.4921       3399.332          33.000    23119449.593                        2644.426          30.000  
R11  20261078.658   108269098.346        2282.311          50.000    20261073.902    84209287.506        1775.225          49.000  
R09  21636616.711   115538306.022       -3825.416          50.000    21636615.834    89863115.028       -2975.374          50.000  
R20  19665269.859   105159153.987       -3132.405          43.000    19665268.358    81790509.336       -2436.163          43.000  
G25  20167129.544   105979004.295        -810.225          49.000    20167126.458    82581063.591        -631.232          45.000  
G29  20292553.692   106638234.148        -983.571          49.000    20292548.609    83094810.937        -766.389          47.000  
S31  38387037.523   201725310.146        -645.500          44.000  
S33  39341439.646   206740759.300        -646.135          43.000  
R21  19326445.345   103420217.603        1117.642          52.000    19326442.068    80438037.163         869.313          49.000  
G28  21083990.249   110797138.543         478.379          44.000    21083986.079    86335420.594         372.977          47.000  
E15  23687259.094   124477513.577       -1318.417          48.000    23687260.319    95378951.690       -1010.232          53.000  
E21  24929585.787   131005914.751        1138.105          45.000    24929586.273   100381189.078         872.088          50.000  
E13  23911016.169   125653628.139        1492.189          46.000    23911019.293    96280151.984        1143.330          51.000  
E27  23319519.640   122544937.866        -677.411          49.000    23319519.793    93898083.821        -518.998          54.000  
E30  26079402.713   137048185.537       -2374.958          42.000    26079406.384   105010954.716       -1819.924          50.000  
E34  27295090.385   143436693.564       -3320.509          35.000    27295091.402   109906063.523       -2544.095          44.000  
G18  22148667.409   116392284.549        2742.459          48.000    22148663.891    90695386.753        2137.083          45.000  
G05  23875887.542   125468719.735        1166.417          44.000    23875884.073    97767842.603         908.866          40.000  
> 2024 04 17 03 16 00.4990000  0 23                     
G31  23218133.741   122012033.504        2297.346          37.000    23218130.048    95074434.390        1789.756          38.000  
G11  24029332.535   126274985.689       -3811.896          43.000    24029328.989    98396163.569       -2970.837          40.000  
G12  21985022.105   115532071.796       -2295.213          47.000    21985017.619    90024977.118       -1788.487          44.000  
G20  23507270.561   123531539.282        -398.560          40.000                                                                  
R10  19101594.966   101822292.232       -1279.904          47.000                                                                  
R22  23100359.490   123311522.662        3392.702          37.000    23100358.289    95908948.1631       2639.118          34.000  
R11  20248291.575   108200768.678        2272.740          50.000    20248286.872    84156142.230        1767.607          50.000  
R09  21658141.735   115653246.385       -3837.664          51.000    21658140.393    89952513.017       -2984.686          49.000  
R20  19682890.931   105253382.291       -3149.865          43.000    19682889.597    81863798.024       -2449.791          43.000  
G25  20171783.255   106003460.704        -820.564          49.000    20171780.480    82600120.537        -639.369          45.000  
G29  20298195.396   106667887.045        -993.752          49.000    20298191.113    83117917.117        -774.398          47.000  
S31  38390722.636   201744674.114        -646.150          44.000  
S33  39345127.331   206760140.406        -646.158          43.000  
R21  19320242.065   103387019.335        1095.273          52.000    19320237.397    80412216.353         851.834          48.000  
G28  21081310.610   110783060.546         459.727          44.000    21081307.032    86324450.756         358.225          47.000  
E15  23694825.653   124517273.008       -1332.443          48.000    23694826.227    95409416.719       -1020.925          53.000  
E21  24923090.761   130971781.535        1137.180          46.000    24923090.721   100355035.114         871.332          50.000  
E13  23902528.003   125609020.421        1481.276          47.000    23902530.498    96245972.119        1135.155          51.000  
E27  23323401.638   122565338.017        -682.938          49.000    23323401.664    93913715.110        -523.310          54.000  
E30  26092974.672   137119506.982       -2379.917          42.000    26092978.394   105065603.584       -1823.517          50.000  
E34  27314060.755   143536381.813       -3326.070          35.000    27314061.444   109982447.986       -2548.123          44.000  
G18  22133036.306   116310147.396        2733.025          47.000    22133033.970    90631383.977        2129.781          45.000  
G05  23869251.532   125433851.859        1157.903          44.000    23869249.304    97740672.941         902.094          40.000  
> 2024 04 17 03 16 30.4990000  0 23                     
G31  23205047.725   121943272.197        2286.643          38.000    23205044.703    95020854.236        1781.755          39.000  
G11  24051120.774   126389481.456       -3821.021          44.000    24051116.347    98485381.033       -2977.137          39.000  
G12  21998147.715   115601049.019       -2303.285          47.000    21998142.829    90078725.639       -1794.878          44.000  
G20  23509594.970   123543744.859        -415.234          40.000                                                                  
R10  19108854.717   101860993.039       -1300.250          47.000                                                                  
R22  23081303.472   123209842.370        3385.721          40.000    23081305.693    95829865.233        2633.515          35.000  
R11  20235559.542   108132730.688        2263.086          51.000    20235553.958    84103223.815        1760.125          49.000  
R09  21679736.503   115768558.092       -3849.845          51.000    21679734.077    90042199.867       -2994.392          48.000  
R20  19700609.105   105348135.399       -3167.065          42.000    19700608.157    81937494.917       -2463.419          44.000  
G25  20176496.265   106028228.114        -830.824          49.000    20176493.309    82619419.820        -647.271          44.000  
G29  20303896.796   106697846.035       -1003.643          49.000    20303891.663    83141261.797        -782.105          47.000  
S31  38394408.802   201764046.610        -645.923          44.000  
S33  39348816.971   206779529.723        -646.185          43.000  
R21  19314163.555   103354495.282        1072.961          52.000    19314159.788    80386919.921         834.476          48.000  
G28  21078739.604   110769550.746         441.038          45.000    21078736.177    86313923.679         343.446          47.000  
E15  23702471.113   124557456.501       -1346.544          47.000    23702472.811    95440206.697       -1031.728          52.000  
E21  24916602.240   130937684.305        1135.974          46.000    24916602.247   100328908.718         870.368          50.000  
E13  23894101.881   125564741.383        1470.489          47.000    23894104.458    96212044.123        1126.741          51.000  
E27  23327316.750   122585912.544        -688.742          49.000    23327316.807    93929480.003        -527.732          54.000  
E30  26106576.963   137190977.557       -2384.902          44.000    26106578.531   105120366.727       -1827.331          49.000  
E34  27333061.842   143636238.249       -3331.123          34.000    27333063.665   110058961.379       -2552.575          43.000  
G18  22117460.677   116228298.596        2723.548          46.000    22117457.565    90567605.882        2122.065          45.000  
G05  23862666.902   125399251.502        1148.810          43.000    23862665.162    97713711.693         895.095          40.000  
> 2024 04 17 03 17 00.4990000  0 23                     
G31  23192024.958   121874827.996        2275.707          39.000    23192020.233    94967521.143        1773.592          38.000  
G11  24072959.474   126504241.627       -3830.188          44.000    24072954.669    98574804.585       -2984.750          39.000  
G12  22011319.932   115670269.673       -2311.771          48.000    22011315.775    90132663.779       -1801.541          44.000  
G20  23512012.733   123556456.035        -432.599          39.000                                                                  
R10  19116229.939   101900307.042       -1321.211          47.000                                                                  
R22  23062292.315   123108378.605        3377.863          39.000    23062296.566    95750950.654        2627.355          38.000  
R11  20222881.634   108064985.533        2252.719          51.000    20222876.860    84050533.174        1752.251          49.000  
R09  21701399.253   115884237.286       -3862.458          50.000    21701396.329    90132172.498       -3004.332          48.000  
R20  19718425.428   105443407.291       -3184.846          42.000    19718424.660    82011595.272       -2476.942          43.000  
G25  20181268.360   106053305.160        -841.481          49.000    20181265.828    82638960.374        -655.665          45.000  
G29  20309655.372   106728107.101       -1014.100          50.000    20309650.354    83164841.852        -790.217          47.000  
S31  38398096.771   201783425.818        -646.376          44.000  
S33  39352508.164   206798924.948        -646.958          43.000  
R21  19308211.164   103322643.613        1050.077          52.000    19308206.893    80362146.435         816.721          48.000  
G28  21076277.607   110756607.867         421.494          46.000    21076273.532    86303838.351         328.313          47.000  
E15  23710197.555   124598060.645       -1360.957          47.000    23710199.588    95471318.986       -1042.728          52.000  
E21  24910120.496   130903621.257        1134.461          46.000    24910120.214   100302808.505         869.317          50.000  
E13  23885738.215   125520789.848        1459.231          47.000    23885740.686    96178367.085        1118.023          51.000  
E27  23331264.514   122606659.736        -694.859          49.000    23331264.844    93945377.210        -532.377          54.000  
E30  26120205.501   137262594.947       -2390.188          44.000    26120206.186   105175242.430       -1831.423          48.000  
E34  27352094.769   143736258.598       -3337.223          33.000    27352097.057   110135600.320       -2556.904          42.000  
G18  22101939.853   116146738.367        2713.441          45.000    22101937.115    90504052.612        2114.236          45.000  
G05  23856134.209   125364919.282        1139.472          44.000    23856131.162    97686959.423         887.990          38.000  
> 2024 04 17 03 17 30.4990000  0 23                     
G31  23179064.446   121806718.511        2265.113          39.000    23179059.675    94914448.912        1764.818          39.000  
G11  24094850.763   126619278.293       -3839.098          44.000    24094845.327    98664443.560       -2991.307          39.000  
G12  22024542.759   115739749.821       -2320.134          48.000    22024536.115    90186804.131       -1808.120          42.000  
G20  23514530.649   123569689.116        -449.499          39.000                                                                  
R10  19123722.313   101940249.538       -1341.732          47.000                                                                  
R22  23043326.457   123007149.158        3370.469          36.000    23043333.191    95672218.310        2621.420          38.000  
R11  20210261.853   107997551.533        2242.792          50.000    20210257.456    83998084.554        1744.421          50.000  
R09  21723133.160   116000296.982       -3874.788          50.000    21723131.717    90222441.054       -3013.788          49.000  
R20  19736341.820   105539208.800       -3202.002          43.000    19736340.507    82086107.573       -2490.482          43.000  
G25  20186102.377   106078707.746        -852.083          49.000    20186099.567    82658754.604        -663.873          44.000  
G29  20315473.807   106758683.472       -1024.255          49.000    20315468.486    83188667.615        -798.138          47.000  
S31  38401788.659   201802826.722        -646.669          44.000  
S33  39356202.703   206818341.927        -647.569          43.000  
R21  19302387.070   103291480.040        1027.563          52.000    19302383.726    80337908.166         799.167          48.000  
G28  21073925.870   110744247.910         402.529          46.000    21073921.820    86294207.260         313.541          48.000  
E15  23718007.639   124639099.294       -1375.061          47.000    23718008.869    95502764.195       -1053.505          52.000  
E21  24903647.890   130869607.887        1132.939          46.000    24903647.570   100276746.362         868.278          49.000  
E13  23877440.223   125477181.890        1447.772          47.000    23877441.855    96144953.261        1109.516          51.000  
E27  23335248.814   122627595.247        -700.782          49.000    23335248.714    93961418.703        -536.967          54.000  
E30  26133863.610   137334374.205       -2395.191          44.000    26133865.379   105230242.122       -1835.262          48.000  
E34  27371162.058   143836455.748       -3342.977          32.000    27371164.008   110212374.771       -2561.332          42.000  
G18  22086477.926   116065484.169        2703.579          46.000    22086475.172    90440737.836        2106.628          45.000  
G05  23849655.507   125330871.772        1130.260          44.000    23849651.752    97660429.005         881.138          40.000  
> 2024 04 17 03 18 00.4990000  0 23                     
G31  23166165.418   121738936.120        2253.898          38.000    23166161.244    94861631.481        1756.557          39.000  
G11  24116792.174   126734578.540       -3847.692          43.000    24116786.862    98754287.939       -2998.260          40.000  
G12  22037811.196   115809479.335       -2328.452          47.000    22037804.932    90241138.808       -1814.343          42.000  
G20  23517146.948   123583435.151        -466.614          41.000                                                                  
R10  19131331.967   101980811.286       -1362.322          47.000                                                                  
R22  23024404.321   122906146.380        3362.976          36.000    23024411.337    95593662.168        2615.961          41.000  
R11  20197699.340   107930421.834        2232.555          51.000    20197694.806    83945872.594        1736.561          50.000  
R09  21744936.012   116116725.549       -3887.009          49.000    21744934.698    90312996.526       -3023.286          48.000  
R20  19754353.374   105635525.395       -3218.994          42.000    19754352.322    82161020.482       -2503.729          43.000  
G25  20190996.847   106104426.793        -862.488          49.000    20190993.695    82678795.415        -672.176          45.000  
G29  20321349.915   106789563.871       -1034.431          49.000    20321345.053    83212730.288        -805.908          47.000  
S31  38405482.047   201822237.802        -647.114          44.000  
S33  39359899.740   206837770.389        -647.872          43.000  
R21  19296691.257   103260994.782        1004.922          53.000    19296685.428    80314197.441         781.532          47.000  
G28  21071682.593   110732461.890         383.247          45.000    21071679.382    86285023.380         298.687          48.000  
E15  23725897.248   124680561.270       -1389.104          46.000    23725898.657    95534533.786       -1064.374          52.000  
E21  24897182.622   130835634.702        1131.757          46.000    24897182.642   100250715.025         867.222          49.000  
E13  23869205.361   125433908.502        1436.844          47.000    23869206.803    96111795.819        1101.002          50.000  
E27  23339266.803   122648709.621        -706.739          49.000    23339266.654    93977597.261        -541.568          54.000  
E30  26147551.815   137406305.258       -2400.232          44.000    26147553.745   105285358.128       -1839.076          48.000  
E34  27390257.533                       -3348.339          31.000    27390262.225   110289275.440       -2565.399          41.000  
G18  22071072.146   115984528.472        2693.554          47.000    22071069.535    90377655.657        2098.914          46.000  
G05  23843229.231   125297102.041        1120.812          44.000    23843226.150    97634115.039         873.624          40.000  
> 2024 04 17 03 18 30.4990000  0 23                     
G31  23153327.568   121671473.594        2242.997          38.000    23153323.411    94809063.323        1747.745          39.000  
G11  24138780.141   126850129.649       -3856.117          42.000    24138775.077    98844327.811       -3005.085          40.000  
G12  22051125.982   115879448.374       -2336.670          47.000    22051121.282    90295660.129       -1820.654          44.000  
G20  23519856.996   123597684.693        -483.850          38.000                                                                  
R10  19139056.231   102021983.524       -1383.050          47.000                                                                  
R22  23005521.726   122805362.795        3355.248          37.000    23005530.479    95515276.424        2609.684          41.000  
R11  20185192.990   107863589.451        2222.362          52.000    20185188.178    83893891.881        1728.435          51.000  
R09  21766807.001   116233510.954       -3899.224          50.000    21766805.173    90403829.577       -3032.750          49.000  
R20  19772458.444   105732343.100       -3236.060          42.000    19772457.464    82236323.149       -2517.039          43.000  
G25  20195949.336   106130453.424        -873.122          49.000    20195946.344    82699075.907        -680.224          44.000  
G29  20327282.040   106820736.901       -1044.369          49.000    20327277.128    83237020.997        -813.956          46.000  
S31  38409176.237   201841650.464        -647.519          44.000  
S33  39363597.188   206857199.812        -648.431          43.000  
R21  19291118.982   103231178.450         982.266          53.000    19291113.940    80291006.997         763.993          49.000  
G28  21069547.779   110721240.976         364.178          45.000    21069543.732    86276279.838         283.744          48.000  
E15  23733865.188   124722435.645       -1402.990          45.000    23733866.953    95566619.364       -1075.086          52.000  
E21  24890723.417   130801692.511        1130.476          46.000    24890723.608   100224707.412         866.242          49.000  
E13  23861032.130   125390961.002        1425.734          47.000    23861034.199    96078888.069        1092.453          50.000  
E27  23343316.946   122669993.746        -712.695          49.000    23343316.824    93993905.889        -546.102          54.000  
E30  26161266.650   137478378.424       -2405.281          43.000    26161268.543   105340582.997       -1842.950          48.000  
E34  27409387.992   144037332.455       -3353.228          31.000    27409389.870   110366293.280       -2569.456          40.000  
G18  22055722.390   115903864.021        2683.511          47.000    22055720.111    90314800.403        2090.899          45.000  
G05  23836854.447   125263602.489        1111.595          44.000    23836850.931    97608011.572         866.399          40.000  
> 2024 04 17 03 19 00.4990000  0 23                     
G31  23140553.796   121604343.090        2232.116          40.000    23140549.033    94756753.901        1739.324          39.000  
G11  24160817.596   126965938.745       -3864.352          43.000    24160813.245    98934568.719       -3011.426          41.000  
G12  22064487.956   115949667.126       -2344.637          47.000    22064483.086    90350376.030       -1826.977          43.000  
G20  23522667.205   123612449.007        -500.726          41.000                                                                  
R10  19146896.493   102063776.340       -1403.389          47.000                                                                  
R22  22986684.820   122704811.009        3347.786          39.000    22986692.009    95437070.957        2603.800          42.000  
R11  20172745.145   107797068.021        2212.145          52.000    20172739.651    83842153.007        1720.611          50.000  
R09  21788745.791   116350661.496       -3911.092          51.000    21788745.058    90494946.612       -3041.962          51.000  
R20  19790658.450   105829668.336       -3252.508          42.000    19790657.682    82312020.573       -2529.899          44.000  
G25  20200962.545   106156798.535        -883.417          49.000    20200959.075    82719604.567        -688.625          44.000  
G29  20333271.453   106852211.145       -1054.083          49.000    20333266.418    83261546.389        -821.406          46.000  
S31  38412871.935   201861073.346        -647.737          44.000  
S33  39367296.202   206876638.271        -648.192          43.000  
R21  19285674.398   103202041.768         959.939          53.000    19285668.970    80268345.215         746.591          48.000  
G28  21067522.181   110710596.164         345.330          46.000    21067517.732    86267985.205         269.127          47.000  
E15  23741914.163   124764731.270       -1416.768          46.000    23741915.642    95599027.715       -1085.633          52.000  
E21  24884271.861   130767791.831        1129.506          47.000    24884272.607   100198731.607         865.433          49.000  
E13  23852924.021   125348350.457        1414.823          47.000    23852925.574    96046238.513        1084.024          50.000  
E27  23347400.967   122691458.276        -718.409          48.000    23347401.455    94010352.749        -550.582          54.000  
E30  26175009.392   137550603.671       -2409.715          42.000    26175012.419   105395924.403       -1846.654          47.000  
E34  27428547.501                       -3358.157          31.000    27428548.075   110443434.442       -2573.537          39.000  
G18  22040430.562   115823503.308        2673.709          47.000    22040427.898    90252181.785        2083.347          46.000  
G05  23830533.129   125230386.538        1102.571          45.000    23830530.178    97582129.096         859.327          42.000  
> 2024 04 17 03 19 30.4990000  0 23                     
G31  23127842.035   121537542.190        2221.031          39.000    23127837.400    94704701.326        1730.768          39.000  
G11  24182903.022   127081997.950       -3872.948          42.000    24182899.015    99025004.448       -3017.837          41.000  
G12  22077896.784   116020131.014       -2352.893          47.000    22077891.085    90405282.986       -1833.586          42.000  
G20  23525574.034   123627723.993        -517.578          41.000                                                                  
R10  19154852.765   102106185.876       -1424.072          47.000                                                                  
R22  22967891.095   122604488.554        3340.243          39.000    22967896.662    95359043.692        2597.973          42.000  
R11  20160354.191   107730855.843        2201.812          52.000    20160349.358    83790654.699        1712.573          50.000  
R09  21810750.427   116468170.375       -3922.979          49.000    21810750.433    90586342.331       -3051.223          50.000  
R20  19808951.886   105927491.199       -3269.095          41.000    19808951.122    82388105.033       -2542.804          43.000  
G25  20206036.334   106183458.110        -893.921          49.000    20206032.182    82740378.245        -696.466          43.000  
G29  20339317.082   106883979.856       -1063.831          49.000    20339312.241    83286301.240        -829.005          47.000  
S31  38416569.503   201880502.679        -647.792          44.000  
S33  39370996.178   206896083.102        -648.236          43.000  
R21  19280354.937   103173580.077         937.372          52.000    19280349.463    80246208.404         729.077          48.000  
G28  21065605.577   110700523.400         326.079          45.000    21065600.990    86260136.331         254.077          47.000  
E15  23750041.480   124807442.009       -1430.637          45.000    23750043.436    95631754.121       -1096.235          52.000  
E21  24877827.467   130733928.257        1128.086          47.000    24877828.558   100172784.219         864.461          49.000  
E13  23844878.542   125306072.959        1403.580          46.000    23844880.737    96013844.135        1075.440          51.000  
E27  23351519.534   122713098.866        -724.576          49.000    23351519.539    94026934.488        -555.002          54.000  
E30  26188781.277   137622976.050       -2415.005          42.000    26188784.382   105451378.535       -1850.363          47.000  
E34  27447733.569                       -3364.287          30.000    27447735.435   110520693.514       -2577.441          38.000  
G18  22025196.048   115743443.792        2663.526          48.000    22025193.207    90189797.917        2075.524          46.000  
G05  23824266.425   125197450.864        1093.029          46.000    23824262.768    97556465.027         851.841          43.000  
> 2024 04 17 03 20 00.4990000  0 23                     
G31  23115191.871   121471070.868        2209.860          39.000    23115188.617    94652905.589        1722.211          39.000  
G11  24205034.876   127198301.892       -3881.005          42.000    24205031.231    99115630.973       -3024.438          41.000  
G12  22091352.208   116090836.870       -2361.006          48.000    22091347.036    90460378.413       -1839.717          43.000  
G20  23528577.678   123643507.423        -534.894          41.000                                                                  
R10  19162923.405   102149210.178       -1444.495          47.000                                                                  
R22  22949138.712   122504395.438        3332.614          37.000    22949145.213    95281194.686        2591.700          42.000  
R11  20148021.666   107664953.728        2191.282          51.000    20148016.891    83739397.516        1704.375          50.000  
R09  21832822.245   116586033.327       -3934.827          48.000    21832821.749    90678013.445       -3060.417          49.000  
R20  19827337.088   106025805.739       -3285.816          42.000    19827336.081    82464571.884       -2555.431          43.000  
G25  20211168.606   106210430.601        -904.426          49.000    20211165.414    82761395.773        -704.608          44.000  
G29  20345417.813   106916039.131       -1073.573          49.000    20345413.214    83311282.531        -836.641          47.000  
S31  38420267.040   201899934.314        -647.835          44.000  
S33  39374697.184   206915531.801        -648.278          43.000  
R21  19275162.439   103145791.267         914.929          52.000    19275156.826    80224594.923         711.589          48.000  
G28  21063797.462   110691021.196         307.065          46.000    21063793.088    86252732.022         239.215          47.000  
E15  23758246.200   124850564.205       -1444.318          44.000    23758249.197    95664795.828       -1106.740          52.000  
E21  24871389.917   130700099.901        1126.846          47.000    24871391.389   100146863.832         863.383          49.000  
E13  23836896.754   125264127.061        1392.406          46.000    23836898.179    95981703.835        1067.027          50.000  
E27  23355671.187   122734913.711        -730.333          49.000    23355670.926    94043649.775        -559.613          54.000  
E30  26202581.524   137695493.063       -2420.050          43.000    26202583.946   105506943.477       -1854.174          47.000  
E34  27466950.400                       -3368.619          27.000    27466951.138   110598067.064       -2581.059          37.000  
G18  22010018.067   115663685.560        2653.483          47.000    22010015.427    90127648.802        2067.532          45.000  
G05  23818051.783   125164795.646        1083.766          45.000    23818047.807    97531019.478         844.453          42.000  
> 2024 04 17 03 20 30.4990000  0 23                     
G31  23102604.295   121404926.552        2198.875          37.000    23102601.903    94601364.601        1713.413          40.000  
G11  24227212.207   127314842.916       -3889.111          42.000    24227208.451    99206442.132       -3030.494          42.000  
G12  22104852.920   116161780.957       -2369.019          48.000    22104847.923    90515659.528       -1846.079          44.000  
G20  23531677.029   123659795.668        -551.654          40.000                                                                  
R10  19171108.486   102192844.474       -1465.017          47.000                                                                  
R22  22930431.066   122404529.269        3324.950          32.000    22930435.626    95203522.066        2585.743          39.000  
R11  20135746.778   107599360.026        2180.956          52.000    20135741.859    83688380.225        1696.343          50.000  
R09  21854960.190   116704243.235       -3946.549          49.000    21854958.276    90769954.410       -3069.464          48.000  
R20  19845813.898   106124603.585       -3301.530          43.000    19845811.837    82541414.661       -2567.748          44.000  
G25  20216360.147   106237712.143        -914.895          48.000    20216356.995    82782654.116        -712.793          44.000  
G29  20351571.872   106948382.472       -1083.125          49.000    20351567.610    83336485.165        -844.026          46.000  
S31  38423964.427   201919363.540        -648.012          43.000  
S33  39378397.785   206934976.759        -648.216          43.000  
R21  19270093.970   103118670.677         892.576          52.000    19270088.706    80203501.167         694.257          47.000  
G28  21062096.947   110682085.640         288.212          47.000    21062092.515    86245769.295         224.360          47.000  
E15  23766530.084   124894091.929       -1457.975          45.000    23766532.149    95698148.247       -1117.121          52.000  
E21  24864958.389   130666302.565        1125.791          46.000    24864959.721   100120967.196         862.570          48.000  
E13  23828977.114   125222509.016        1381.405          46.000    23828978.727    95949814.749        1058.508          51.000  
E27  23359854.227   122756898.652        -735.943          48.000    23359854.450    94060495.408        -564.003          54.000  
E30  26216409.118   137768149.972       -2424.679          44.000    26216409.833   105562615.635       -1857.872          46.000  
E34  27486197.188                3      -3373.316          25.000    27486193.479   110675549.888       -2584.689          34.000  
G18  21994897.445   115584226.281        2643.366          48.000    21994894.454    90065732.653        2059.624          45.000  
G05  23811890.892   125132419.643        1074.140          45.000    23811887.334    97505791.505         836.988          43.000  
> 2024 04 17 03 21 00.4990000  0 23                     
G31  23090079.140   121339110.604        2188.251          39.000    23090077.522    94550079.479        1705.066          40.000  
G11  24249434.088   127431617.147       -3896.655          41.000    24249429.829    99297435.031       -3036.350          42.000  
G12  22118398.281   116232962.247       -2376.987          48.000    22118392.302    90571125.478       -1852.391          42.000  
G20  23534871.981   123676588.536        -568.866          38.000                                                                  
R10  19179409.050   102237089.068       -1485.473          48.000                                                                  
R22  22911775.181                3       3316.211          25.000    22911770.125    95126027.084        2579.104          35.000  
R11  20123529.477   107534076.942        2170.481          51.000    20123524.805    83637604.538        1688.102          50.000  
R09  21877161.734   116822797.334       -3957.830          50.000    21877159.936    90862163.074       -3078.299          49.000  
R20  19864378.852   106223878.793       -3317.424          44.000    19864376.947    82618628.736       -2580.234          44.000  
G25  20221610.284   106265302.689        -925.173          48.000    20221607.655    82804153.253        -720.956          44.000  
G29  20357780.703   106981007.609       -1092.568          49.000    20357775.964    83361907.368        -851.258          47.000  
S31  38427661.174   201938789.831        -647.916          43.000  
S33  39382097.403   206954419.862        -648.528          43.000  
R21  19265150.304   103092217.917         870.320          52.000    19265144.986    80182926.854         676.907          47.000  
G28  21060504.414   110673716.733         269.153          47.000    21060499.438    86239248.097         209.626          47.000  
E15  23774890.039   124938023.016       -1471.439          45.000    23774891.752    95731809.746       -1127.369          52.000  
E21  24858533.618   130632535.886        1124.595          47.000    24858534.159   100095094.049         861.795          48.000  
E13  23821120.007   125181218.932        1370.561          47.000    23821121.361    95918176.979        1050.047          51.000  
E27  23364069.978   122779053.453        -741.644          48.000    23364070.371    94077471.182        -568.269          54.000  
E30  26230262.405   137840945.818       -2429.329          45.000    26230262.179   105618394.241       -1861.204          46.000  
G18  21979833.685   115505067.536        2633.353          47.000    21979830.659    90004050.640        2051.833          45.000  
G05  23805783.558   125100323.357        1064.771          46.000    23805779.565    97480781.505         829.488          42.000  
E34                                                                  27505462.526   110753139.709       -2588.146          33.000  
> 2024 04 17 03 21 30.4990000  0 23                     
G31  23077620.602   121273633.260        2176.590          40.000    23077616.754    94499058.199        1695.952          39.000  
G11  24271700.452   127548629.014       -3904.580          42.000    24271695.910    99388613.112       -3042.590          41.000  
G12  22131989.842   116304387.950       -2385.159          48.000    22131984.219    90626781.852       -1858.566          43.000  
G20  23538164.635   123693894.117        -585.706          41.000                                                                  
R10  19187825.903   102281951.460       -1505.998          48.000                                                                  
R22  22893156.589   122205156.9351       3308.057          34.000    22893147.762    95048717.313        2573.961          36.000  
R11  20111372.857   107469115.346        2159.617          51.000    20111367.815    83587078.895        1679.772          50.000  
R09  21899429.221   116941700.969       -3969.492          51.000    21899427.077    90954643.571       -3087.367          49.000  
R20  19883034.848   106323634.589       -3333.368          44.000    19883032.218    82696216.583       -2592.810          45.000  
G25  20226921.016   106293210.478        -935.854          48.000    20226918.588    82825899.580        -729.169          44.000  
G29  20364043.480   107013920.139       -1102.144          49.000    20364039.037    83387553.508        -858.790          47.000  
S31  38431358.816   201958219.999        -647.949          44.000  
S33  39385798.121   206973866.957        -648.610          43.000  
R21  19260333.596   103066440.562         847.743          52.000    19260327.704    80162877.869         659.344          47.000  
G28  21059021.044   110665922.567         249.921          47.000    21059016.133    86233174.746         194.696          47.000  
E15  23783327.227   124982363.546       -1484.976          45.000    23783329.507    95765784.982       -1137.917          51.000  
E21  24852116.102   130598807.741        1123.243          48.000    24852115.704   100069250.456         860.691          48.000  
E13  23813326.627   125140265.112        1359.255          48.000    23813327.743    95886796.835        1041.503          50.000  
E27  23368319.101   122801385.999        -747.711          48.000    23368320.047    94094583.152        -572.928          54.000  
E30  26244141.808   137913887.881       -2434.176          44.000    26244142.301   105674284.923       -1865.030          46.000  
G18  21964828.536   115426219.073        2622.764          46.000    21964826.027    89942610.391        2043.662          45.000  
G05  23799729.999   125068516.732        1055.026          45.000    23799726.573    97455997.169         822.012          43.000  
E34                                                                  27524759.705   110830840.582       -2592.208          32.000  
> 2024 04 17 03 22 00.4990000  0 23                     
G31  23065226.883   121208501.167        2165.363          40.000    23065222.033    94448305.942        1687.509          38.000  
G11  24294012.846   127665880.247       -3912.175          42.000    24294007.297    99479977.718       -3048.659          38.000  
G12  22145628.654   116376063.220       -2393.188          47.000    22145624.046    90682632.712       -1864.972          43.000  
G20  23541556.262   123711717.671        -602.429          40.000                                                                  
R10  19196359.176   102327437.142       -1526.589          48.000                                                                  
R22  22874573.852   122106002.666        3301.655          32.000    22874573.140    94971598.519        2567.708          38.000  
R11  20099277.067   107404483.358        2149.053          51.000    20099272.742    83536809.596        1671.538          50.000  
R09  21921761.653   117060956.874       -3980.802          51.000    21921760.875    91047398.055       -3096.248          49.000  
R20  19901779.117   106423871.279       -3349.157          44.000    19901776.513    82774178.471       -2604.713          45.000  
G25  20232292.955   106321441.011        -946.285          48.000    20232290.440    82847897.414        -737.435          44.000  
G29  20370361.266   107047123.007       -1111.489          49.000    20370357.251    83413425.893        -866.029          47.000  
S31  38435057.630   201977658.261        -647.760          43.000  
S33  39389499.846   206993321.106        -648.775          43.000  
R21  19255644.301   103041343.710         825.294          53.000    19255637.500    80143358.139         641.871          47.000  
G28  21057647.471   110658708.680         230.876          46.000    21057643.930    86227553.555         179.971          48.000  
E15  23791844.395   125027116.957       -1498.497          45.000    23791845.880    95800076.569       -1148.237          51.000  
E21  24845705.959   130565123.357        1122.237          48.000    24845705.599   100043440.389         859.897          48.000  
E13  23805598.365   125099653.225        1348.253          48.000    23805599.514    95855678.684        1033.059          50.000  
E27  23372603.796   122823901.612        -753.419          48.000    23372604.670    94111835.388        -577.265          54.000  
E30  26258048.989   137986980.796       -2438.670          42.000    26258051.327   105730291.187       -1868.526          46.000  
G18  21949884.406   115347687.983        2612.652          46.000    21949882.456    89881417.477        2035.431          45.000  
G05  23793734.426   125037006.658        1045.702          45.000    23793730.368    97431443.945         814.551          43.000  
E34                                                                  27544085.300                       -2595.404          31.000  
> 2024 04 17 03 22 30.4990000  0 23                     
G31  23052897.999   121143712.716        2153.606          39.000    23052893.010    94397821.494        1678.111          39.000  
G11  24316369.225   127783363.977       -3920.097          41.000    24316363.832    99571523.475       -3054.856          38.000  
G12  22159314.703   116447983.795       -2401.638          48.000    22159309.558    90738674.663       -1871.418          43.000  
G20  23545046.878   123730055.933        -620.123          41.000                                                                  
R10  19205008.392   102373542.596       -1547.561          48.000                                                                  
R22  22856041.329   122007092.470        3292.276          38.000    22856044.139    94894669.336        2560.442          38.000  
R11  20087243.423   107340180.438        2137.436          50.000    20087239.368    83486796.217        1662.578          50.000  
R09  21944159.658   117180559.387       -3992.891          50.000    21944159.067    91140422.173       -3105.604          50.000  
R20  19920611.749   106524582.311       -3365.182          43.000    19920609.788    82852509.270       -2617.217          44.000  
G25  20237726.335   106349991.234        -957.251          48.000    20237723.365    82870144.340        -745.924          44.000  
G29  20376734.355   107080611.082       -1121.266          49.000    20376729.853    83439520.520        -873.682          47.000  
S31  38438757.375   201997101.156        -648.491          44.000  
S33  39393202.711   207012779.226        -649.139          43.000  
R21  19251080.402   103016923.335         802.364          52.000    19251074.325    80124364.574         624.095          47.000  
G28  21056385.052   110652071.896         211.196          46.000    21056381.416    86222382.042         164.609          48.000  
E15  23800438.739   125072278.048       -1512.519          46.000    23800439.815    95834680.533       -1158.981          51.000  
E21  24839303.141   130531479.409        1120.469          48.000    24839303.522   100017661.303         858.486          49.000  
E13  23797934.954   125059380.289        1336.430          48.000    23797936.121    95824820.257        1024.030          51.000  
E27  23376922.791   122846596.949        -759.877          48.000    23376923.480    94129225.330        -582.235          54.000  
E30  26271985.499   138060220.630       -2444.074          41.000    26271988.766   105786410.029       -1872.721          47.000  
G18  21935001.371   115269472.761        2601.610          47.000    21934998.629    89820470.653        2027.262          45.000  
G05  23787793.557   125005791.725        1034.987          45.000    23787789.876    97407120.690         806.634          42.000  
E34                                                                  27563437.195                       -2599.248          30.000  
> 2024 04 17 03 23 00.4990000  0 24                     
G31  23040637.089   121079279.574        2141.790          40.000    23040632.153    94347613.905        1668.724          38.000  
G11  24338770.753   127901086.591       -3927.817          41.000    24338766.081    99663255.371       -3060.963          38.000  
G12  22173049.075   116520159.280       -2410.126          47.000    22173044.084    90794915.261       -1877.944          42.000  
G20  23548637.198   123748918.783        -637.421          38.000                                                                  
R10  19213775.908   102420277.123       -1568.397          49.000                                                                  
R22  22837558.090   121908438.047        3284.185          36.000    22837561.224    94817938.949        2554.742          37.000  
R11  20075273.752   107276218.984        2126.329          51.000    20075269.576    83437048.456        1653.720          50.000  
R09  21966624.123   117300515.668       -4004.441          51.000    21966622.456    91233721.434       -3114.545          48.000  
R20  19939534.458   106625771.568       -3380.954          43.000    19939532.854    82931212.051       -2629.740          44.000  
G25  20243222.289   106378871.283        -968.085          49.000    20243219.141    82892648.291        -754.377          44.000  
G29  20383162.611   107114391.763       -1130.816          49.000    20383158.601    83465843.158        -881.195          48.000  
S31  38442459.376   202016556.914        -648.647          44.000  
S33  39396907.957   207032251.766        -649.301          43.000  
R21  19246644.562   102993189.245         779.715          52.000    19246639.183    80105904.771         606.416          47.000  
G28  21055233.940   110646022.263         191.896          46.000    21055230.086    86217668.061         149.623          48.000  
E15  23809111.033   125117854.831       -1526.234          45.000    23809112.645    95869603.023       -1169.345          51.000  
E21  24832909.920   130497885.771        1118.808          47.000    24832910.689    99991920.755         857.351          49.000  
E13  23790337.363   125019456.532        1325.030          48.000    23790338.576    95794229.401        1015.192          51.000  
E27  23381277.446   122869481.941        -766.044          48.000    23381278.442    94146760.586        -586.892          54.000  
E30  26285952.975   138133616.646       -2449.257          41.000    26285955.724   105842648.495       -1876.661          48.000  
G18  21920180.066   115191585.103        2590.871          48.000    21920176.755    89759779.109        2018.919          45.000  
G05  23781912.428   124974884.978        1024.967          45.000    23781908.389    97383037.546         798.990          41.000  
E26                                                                  27544979.392                1       1898.302          28.000  
E34                                                                  27582817.608                       -2603.080          28.000  
> 2024 04 17 03 23 30.4990000  0 24                     
G31  23028442.864   121015202.685        2130.009          40.000    23028438.615    94297683.932        1659.783          38.000  
G11  24361217.444   128019043.954       -3935.935          40.000    24361212.385    99755170.163       -3067.020          37.000  
G12  22186831.897   116592588.677       -2418.427          47.000    22186827.367    90851353.721       -1884.644          42.000  
G20  23552324.838   123768305.629        -654.950          39.000                                                                  
R10  19222661.393   102467640.546       -1589.353          49.000                                                                  
R22  22819123.240   121810040.363        3275.754          34.000    22819129.294    94741408.236        2547.466          40.000  
R11  20063368.744   107212601.365        2114.724          51.000    20063364.547    83387568.097        1644.777          50.000  
R09  21989153.959   117420822.419       -4015.990          50.000    21989150.707    91327293.279       -3123.488          48.000  
R20  19958545.574   106727433.521       -3396.749          43.000    19958544.624    83010282.454       -2641.838          45.000  
G25  20248780.762   106408080.781        -979.225          49.000    20248777.466    82915408.928        -763.008          44.000  
G29  20389645.725   107148462.390       -1140.466          49.000    20389641.731    83492391.706        -888.727          47.000  
S31  38446163.951   202036024.323        -648.917          44.000  
S33  39400615.576   207051734.047        -649.737          43.000  
R21  19242337.465   102970140.173         756.889          52.000    19242331.990    80087977.756         588.653          48.000  
G28  21054194.037   110640559.294         172.377          46.000    21054190.045    86213411.210         134.370          48.000  
E15  23817862.920   125163844.762       -1539.826          45.000    23817864.016    95904842.083       -1179.892          51.000  
E21  24826526.799   130464341.732        1117.304          48.000    24826527.302    99966218.220         856.095          48.000  
E13  23782806.143   124979881.685        1313.310          47.000    23782807.824    95763905.868        1006.363          51.000  
E27  23385668.607   122892555.920        -772.254          48.000    23385669.416    94164440.668        -591.769          54.000  
E30  26299951.202   138207167.412       -2454.381          44.000    26299952.174   105899005.572       -1880.578          48.000  
G18  21905420.564   115114026.171        2579.660          47.000    21905417.061    89699343.711        2010.295          45.000  
G05  23776089.738   124944286.231        1014.743          43.000    23776086.013    97359194.415         790.692          41.000  
E26                                                                  27530838.366                        1896.855          28.000  
E34                                                                  27602224.330                       -2606.252          26.000  
> 2024 04 17 03 24 00.4990000  0 24                     
G31  23016313.413   120951465.009        2119.112          40.000    23016309.352    94248018.248        1651.265          38.000  
G11  24383704.660   128137213.388       -3942.206          40.000    24383699.405    99847250.238       -3071.953          36.000  
G12  22200659.619   116665251.926       -2425.853          47.000    22200654.134    90907974.424       -1890.180          42.000  
G20  23556111.193   123788197.330        -671.100          37.000                                                                  
R10  19231660.869   102515612.605       -1609.040          49.000                                                                  
R22  22800734.564   121711882.035        3268.155          40.000    22800739.846    94665063.653        2541.927          39.000  
R11  20051525.132   107149310.458        2104.385          52.000    20051520.439    83338341.861        1636.871          50.000  
R09  22011744.905   117541457.661       -4026.436          50.000    22011743.164    91421120.618       -3131.618          50.000  
R20  19977640.306   106829544.654       -3411.097          44.000    19977639.876    83089702.227       -2652.883          45.000  
G25  20254397.920   106437600.852        -988.960          49.000    20254394.993    82938411.604        -770.483          44.000  
G29  20396180.290   107182801.478       -1148.883          49.000    20396176.086    83519149.450        -895.197          48.000  
S31  38449867.011   202055483.920        -648.240          44.000  
S33  39404321.717   207071209.891        -649.004          42.000  
R21  19238153.736   102947756.209         735.317          51.000    19238150.120    80070568.058         571.844          48.000  
G28  21053262.577   110635663.993         153.853          47.000    21053258.266    86209596.695         120.001          48.000  
E15  23826689.360   125210226.848       -1552.388          46.000    23826690.074    95940381.629       -1189.429          51.000  
E21  24820149.499   130430828.211        1116.877          48.000    24820149.677    99940539.062         855.845          48.000  
E13  23775338.493   124940636.971        1302.849          48.000    23775339.570    95733835.295         998.374          50.000  
E27  23390091.053   122915799.839        -777.344          48.000    23390092.594    94182250.959        -595.619          54.000  
E30  26313973.644   138280853.278       -2458.350          44.000    26313975.115   105955466.165       -1883.516          49.000  
G18  21890720.759   115036778.704        2569.864          48.000    21890717.216    89639151.020        2002.691          45.000  
G05  23770322.346   124913978.635        1005.576          45.000    23770319.308    97335578.164         783.635          42.000  
E26                                                                  27516701.708                        1897.096          28.000  
E34                                                                  27621654.842                3      -2609.561          23.000  
> 2024 04 17 03 24 30.4990000  0 24                     
G31  23004248.081   120888061.501        2107.901          40.000    23004243.272    94198612.956        1642.463          38.000  
G11  24406229.787   128255584.307       -3948.980          39.000    24406224.712    99939487.333       -3077.070          35.000  
G12  22214530.436   116738141.628       -2433.409          47.000    22214524.761    90964771.601       -1896.031          43.000  
G20  23559990.255   123808586.440        -687.543          38.000                                                                  
R10  19240772.955   102564186.144       -1629.138          49.000                                                                  
R22  22782388.374   121613957.433        3260.350          41.000    22782394.161    94588900.780        2536.117          37.000  
R11  20039741.288   107086342.257        2093.719          51.000    20039736.606    83289366.644        1628.362          49.000  
R09  22034395.691   117662411.531       -4037.037          50.000    22034394.037    91515195.763       -3140.004          49.000  
R20  19996817.742   106932092.481       -3425.262          43.000    19996816.822    83169461.669       -2664.291          45.000  
G25  20260073.123   106467424.732        -999.171          48.000    20260070.917    82961650.976        -778.622          44.000  
G29  20402764.298   107217399.818       -1157.495          49.000    20402760.216    83546109.201        -901.978          48.000  
S31  38453566.591   202074926.748        -647.542          44.000  
S33  39408024.640   207090668.915        -648.302          43.000  
R21  19234093.824   102926029.471         713.334          52.000    19234089.954    80053669.520         554.921          48.000  
G28  21052437.921   110631329.375         135.254          47.000    21052434.069    86206219.096         105.416          48.000  
E15  23835587.716   125256992.099       -1565.011          45.000    23835589.127    95976214.774       -1199.261          50.000  
E21  24813777.004   130397338.133        1115.913          48.000    24813776.642    99914877.861         855.180          48.000  
E13  23767931.770   124901715.639        1291.856          47.000    23767932.813    95704012.504         990.121          50.000  
E27  23394545.247   122939206.623        -782.903          48.000    23394546.912    94200186.031        -599.876          54.000  
E30  26328018.150   138354666.477       -2462.338          44.000    26328021.214   106012024.331       -1886.787          49.000  
G18  21876078.908   114959837.392        2559.597          49.000    21876075.047    89579196.885        1994.402          45.000  
G05  23764609.207   124883956.838         996.082          44.000    23764606.530    97312184.624         776.276          42.000  
E26                                                                  27502569.082                        1896.959          30.000  
E34                                                                  27641108.945                3      -2609.361          23.000  
> 2024 04 17 03 25 00.4990000  0 24                     
G31  22992247.136   120824991.126        2096.540          40.000    22992241.330    94149467.249        1633.912          37.000  
G11  24428792.001   128374151.085       -3955.924          38.000    24428787.147   100031877.012       -3082.492          35.000  
G12  22228443.507   116811255.042       -2440.955          48.000    22228438.977    91021743.061       -1902.006          44.000  
G20  23563965.365   123829471.268        -704.449          38.000                                                                  
R10  19249997.977   102613358.626       -1649.031          49.000                                                                  
R22  22764087.339   121516266.266        3252.351          44.000    22764091.899    94512919.555        2529.656          38.000  
R11  20028018.002   107023696.996        2082.681          51.000    20028013.442    83240642.574        1619.951          50.000  
R09  22057104.213   117783679.113       -4047.556          49.000    22057103.216    91609514.865       -3147.977          49.000  
R20  20016074.917   107035070.495       -3439.680          43.000    20016074.018    83249555.679       -2675.300          44.000  
G25  20265805.135   106497550.399       -1009.229          48.000    20265803.208    82985125.530        -786.420          44.000  
G29  20409396.990   107252253.369       -1166.022          49.000    20409392.534    83573267.822        -908.582          48.000  
S31  38457262.621   202094350.791        -647.347          44.000  
S33  39411723.930   207110109.239        -647.805          43.000  
R21  19230156.262   102904957.265         691.481          52.000    19230152.440    80037280.090         537.709          48.000  
G28  21051719.412   110627553.356         116.555          47.000    21051715.198    86203276.752          90.802          48.000  
E15  23844559.073   125304136.445       -1577.884          45.000    23844560.420    96012338.375       -1208.977          51.000  
E21  24807407.513   130363869.300        1115.243          47.000    24807407.589    99889232.973         854.460          47.000  
E13  23760585.691   124863115.807        1281.246          47.000    23760587.628    95674436.064         981.810          50.000  
E27  23399030.056   122962774.094        -788.224          48.000    23399031.725    94218244.240        -604.051          54.000  
E30  26342089.214   138428604.247       -2466.712          45.000    26342091.168   106068677.904       -1890.129          50.000  
G18  21861495.593   114883201.883        2549.318          48.000    21861491.766    89519481.034        1986.498          45.000  
G05  23758950.333   124854220.669         986.292          45.000    23758947.901    97289013.681         768.567          42.000  
E26  27488422.063                1       2475.035          28.000    27488436.839                        1896.408          32.000  
E34                                                                  27660584.040                3      -2605.990          24.000  
> 2024 04 17 03 25 30.4990000  0 24                     
G31  22980313.746   120762275.112        2084.545          42.000    22980307.204    94100597.704        1624.501          39.000  
G11  24451394.668   128492929.556       -3962.696          35.000    24451390.128   100124431.616       -3087.840          35.000  
G12  22242402.467   116884611.379       -2449.396          46.000    22242397.571    91078903.803       -1908.544          43.000  
G20  23568037.698   123850871.239        -721.997          38.000                                                                  
R10  19259338.011   102663149.532       -1670.166          48.000                                                                  
R22  22745832.952   121418830.036        3243.683          43.000    22745837.369    94437136.522        2522.774          35.000  
R11  20016359.816   106961397.199        2070.818          52.000    20016355.128    83192187.233        1610.619          50.000  
R09  22079875.415   117905277.693       -4058.850          48.000    22079873.357    91704091.453       -3157.004          47.000  
R20  20035416.409   107138492.988       -3455.034          45.000    20035414.534    83329995.365       -2687.075          44.000  
G25  20271599.432   106527997.556       -1020.319          47.000    20271597.437    83008850.574        -795.007          44.000  
G29  20416081.431   107287379.297       -1175.427          49.000    20416076.722    83600638.694        -915.918          48.000  
S31  38460958.966   202113774.074        -647.263          44.000  
S33  39415422.961   207129547.718        -648.522          43.000  
R21  19226344.347   102884558.817         668.680          52.000    19226339.930    80021414.671         519.965          49.000  
G28  21051111.008   110624355.364          96.860          47.000    21051106.890    86200784.832          75.549          48.000  
E15  23853606.352   125351677.363       -1591.425          46.000    23853607.280    96048765.854       -1219.391          51.000  
E21  24801046.222   130330441.175        1113.535          47.000    24801046.149    99863619.252         853.264          47.000  
E13  23753305.278   124824857.203        1269.425          47.000    23753307.785    95645121.100         972.707          51.000  
E27  23403549.466   122986521.729        -794.713          48.000    23403550.661    94236440.484        -608.909          54.000  
E30  26356186.594   138502685.244       -2471.862          45.000    26356188.229   106125441.218       -1894.036          49.000  
G18  21846974.119   114806893.355        2538.053          47.000    21846971.203    89460019.965        1977.712          45.000  
G05  23753350.451   124824791.186         975.436          45.000    23753346.431    97266081.681         760.015          40.000  
E26  27474292.283   144378418.0221       2473.394          31.000    27474311.568   110627701.5521       1895.263          35.000  
E34                                                                  27680082.719                3      -2619.205          23.000  
> 2024 04 17 03 26 00.4990000  0 24                     
G31  22968451.462   120699937.588        2071.750          43.000    22968445.567    94052023.085        1614.126          40.000  
G11  24474040.343   128611938.621       -3970.886          33.000    24474036.865   100217165.990       -3094.322          34.000  
G12  22256412.046   116958232.084       -2458.425          46.000    22256406.877    91136270.599       -1915.643          43.000  
G20  23572211.750   123872808.243        -740.387          38.000                                                                  
R10  19268797.984   102713581.118       -1691.832          48.000                                                                  
R22  22727630.649   121321673.145        3233.560          42.000    22727635.668    94361570.744        2515.198          35.000  
R11  20004770.564   106899468.341        2057.998          52.000    20004765.652    83144020.376        1600.760          50.000  
R09  22102713.306   118027226.913       -4070.861          49.000    22102709.888    91798940.826       -3166.316          47.000  
R20  20054843.790   107242378.471       -3470.610          45.000    20054841.866    83410795.213       -2699.449          44.000  
G25  20277458.779   106558788.745       -1032.167          48.000    20277456.656    83032843.715        -804.342          44.000  
G29  20422820.902   107322797.727       -1185.614          48.000    20422816.598    83628237.489        -923.779          47.000  
S31  38464659.201   202133218.093        -648.451          44.000  
S33  39419125.813   207149006.888        -649.003          42.000  
R21  19222661.155   102864856.194         645.190          51.000    19222657.676    80006090.439         501.681          48.000  
G28  21050616.527   110621757.789          76.488          47.000    21050612.690    86198760.770          59.626          48.000  
E15  23862732.466   125399635.239       -1605.628          47.000    23862733.285    96085512.822       -1230.246          51.000  
E21  24794696.869   130297076.073        1111.089          47.000    24794696.961    99838053.825         851.304          47.000  
E13  23746094.383   124786962.480        1256.984          47.000    23746096.350    95616084.944         963.187          51.000  
E27  23408107.230   123010471.827        -801.795          48.000    23408108.258    94254791.861        -614.326          54.000  
E30  26370314.059   138576931.115       -2477.668          45.000    26370315.847   106182330.893       -1898.350          48.000  
G18  21832520.114   114730935.902        2526.027          48.000    21832517.914    89400832.468        1968.238          46.000  
G05  23747813.077   124795692.271         964.333          46.000    23747808.135    97243407.223         751.577          39.000  
E26  27460180.745   144304247.676        2471.214          34.000    27460195.367   110570871.398        1893.887          38.000  
E34                                                                  27699609.840                3      -2615.241          21.000  
> 2024 04 17 03 26 30.4990000  0 24                     
G31  22956662.123   120637991.337        2058.267          42.000    22956658.297    94003753.332        1603.524          40.000  
G11  24496732.560                       -3978.809          31.000    24496729.042   100310085.745       -3100.498          31.000  
G12  22270472.707   117032127.288       -2467.894          45.000    22270468.767    91193851.271       -1923.192          43.000  
G20  23576490.059   123895292.813        -758.765          37.000                                                                  
R10  19278382.220   102764664.137       -1713.956          49.000                                                                  
R22  22709484.001   121224808.518        3223.873          40.000    22709489.423                        2506.863          31.000  
R11  19993253.545   106837924.022        2044.811          52.000    19993248.517    83096152.599        1590.354          50.000  
R09  22125617.048   118149535.475       -4083.145          47.000    22125616.342    91894069.659       -3175.889          49.000  
R20  20074357.972   107346733.194       -3486.602          43.000    20074356.998    83491959.969       -2711.858          43.000  
G25  20283385.837   106589935.184       -1044.398          48.000    20283383.851    83057113.678        -813.875          44.000  
G29  20429617.562   107358517.126       -1195.819          48.000    20429613.136    83656070.792        -931.915          47.000  
S31  38468365.468   202152693.752        -650.062          44.000  
S33  39422834.905   207168498.893        -650.552          43.000  
R21  19219111.193   102845859.929         621.224          52.000    19219107.146    79991315.611         483.201          48.000  
G28  21050237.812   110619771.546          55.776          46.000    21050234.336    86197213.071          43.344          48.000  
E15  23871940.516   125448019.088       -1620.083          48.000    23871940.404    96122586.181       -1241.465          51.000  
E21  24788361.042   130263785.016        1108.172          47.000    24788361.825    99812545.114         849.229          47.000  
E13  23738954.570   124749442.869        1244.171          48.000    23738956.559    95587336.203         953.351          51.000  
E27  23412705.325   123034635.349        -809.254          48.000    23412706.329    94273306.777        -620.083          54.000  
E30  26384476.336   138651352.223       -2483.989          45.000    26384478.101   106239354.841       -1903.179          48.000  
G18  21818134.911   114655342.281        2513.346          46.000    21818132.102    89341928.436        1958.620          45.000  
G05  23742341.982   124766937.003         952.639          47.000    23742336.610    97221000.593         742.358          40.000  
E26  27446078.151   144230143.891        2468.730          35.000    27446092.362   110514092.239        1891.624          41.000  
E34                                                                  27719165.200                3      -2631.995          17.000  
> 2024 04 17 03 27 00.4990000  0 24                     
G31  22944952.968   120576465.276        2043.985          42.000    22944950.267    93955810.962        1592.573          40.000  
G11  24519475.518                1      -3987.614          29.000    24519471.069                       -3107.683          30.000  
G12  22284592.327   117106323.888       -2477.948          46.000    22284587.943    91251666.779       -1930.957          43.000  
G20  23580878.215   123918352.445        -778.155          38.000                                                                  
R10  19288091.937   102816425.590       -1736.527          49.000                                                                  
R22  22691397.337   121128265.407        3212.879          39.000    22691400.029                1       2498.918          31.000  
R11  19981813.992   106776794.776        2030.768          51.000    19981809.390    83048607.666        1579.532          50.000  
R09  22148593.701   118272227.655       -4095.953          48.000    22148593.246    91989496.813       -3185.831          50.000  
R20  20093964.933   107451580.347       -3502.847          43.000    20093963.643    83573507.772       -2724.427          44.000  
G25  20289385.550   106621464.226       -1057.198          48.000    20289384.198    83081681.753        -823.781          44.000  
G29  20436477.056   107394562.731       -1206.769          48.000    20436472.458    83684158.282        -940.369          46.000  
S31  38472082.110   202172226.667        -651.790          44.000  
S33  39426554.633   207188047.206        -652.456          43.000  
R21  19215699.181   102827596.676         596.776          52.000    19215693.951    79977110.907         463.946          47.000  
G28  21049981.436   110618423.831          34.321          46.000    21049977.907    86196162.911          26.772          48.000  
E15  23881233.078   125496854.092       -1635.204          47.000    23881233.265    96160005.229       -1252.879          51.000  
E21  24782045.464   130230595.160        1104.806          47.000    24782045.863    99787113.962         846.485          47.000  
E13  23731891.541   124712325.795        1230.839          48.000    23731893.306    95558895.915         943.076          51.000  
E27  23417349.312   123059039.545        -817.279          48.000    23417350.273    94292006.107        -626.237          54.000  
E30  26398677.666   138725975.004       -2490.546          46.000    26398678.462   106296533.328       -1908.305          48.000  
G18  21803824.482   114580141.397        2500.229          46.000    21803822.098    89283330.483        1948.319          46.000  
G05  23736941.222   124738554.560         939.872          46.000    23736936.726    97198884.484         732.377          41.000  
E26  27431992.441   144156134.595        2465.326          36.000    27432007.100   110457385.468        1889.192          43.000  
E34                                                                  27738752.871                3      -2625.883          20.000  
> 2024 04 17 03 27 30.4990000  0 24                     
G31  22933322.363   120515342.651        2031.190          40.000    22933318.976    93908182.980        1582.411          40.000  
G12  22298765.977   117180803.092       -2487.000          46.000    22298760.889    91309702.512       -1938.094          43.000  
G20  23585371.681   123941968.711        -796.326          39.000                                                                  
R10  19297925.791   102868846.334       -1757.958          50.000                                                                  
R22  22673367.180   121032027.043        3203.283          40.000    22673403.153                3       2486.083          19.000  
R11  19970449.197   106716064.613        2018.087          52.000    19970444.428    83001373.146        1569.500          51.000  
R09  22171637.805   118395282.731       -4107.568          48.000    22171638.157    92085206.139       -3194.664          50.000  
R20  20113659.469   107556896.343       -3517.814          43.000    20113657.595    83655420.185       -2735.954          43.000  
G25  20295454.946   106653357.852       -1068.737          48.000    20295453.244    83106533.930        -832.787          44.000  
G29  20443394.949   107430914.012       -1216.388          49.000    20443390.199    83712483.990        -947.845          47.000  
S31  38475806.237   202191797.180        -652.514          44.000  
S33  39430281.626   207207632.315        -653.173          43.000  
R21  19212420.114   102810047.391         573.606          52.000    19212414.390    79963461.509         446.040          48.000  
G28  21049843.208   110617696.339          14.347          47.000    21049839.683    86195596.052          11.051          48.000  
E15  23890607.377   125546120.034       -1648.823          47.000    23890608.373    96197754.495       -1263.506          51.000  
E21  24775745.934   130197488.312        1102.513          47.000    24775746.183    99761746.401         844.777          48.000  
E13  23724901.676   124675593.350        1218.420          47.000    23724903.202    95530750.322         933.641          51.000  
E27  23422035.661   123083666.147        -824.141          49.000    23422036.183    94310875.848        -631.550          54.000  
E30  26412912.207   138800780.571       -2496.165          46.000    26412913.357   106353851.862       -1912.720          48.000  
G18  21789586.194   114505316.770        2488.230          47.000    21789583.037    89225025.687        1938.996          46.000  
G05  23731607.017   124710527.758         928.661          46.000    23731602.761    97177045.510         723.153          40.000  
E26  27417921.925   144082202.239        2463.480          36.000    27417936.844   110400737.630        1887.545          44.000  
E34                                                                  27758372.373                3      -2634.813          22.000  
G11                                                                  24542259.429                       -3113.366          28.000  
> 2024 04 17 03 28 00.4990000  0 24                     
G31  22921768.845   120454622.906        2017.313          40.000    22921763.748    93860868.907        1571.724          40.000  
G12  22312992.333   117255561.994       -2496.815          47.000    22312987.032    91367956.182       -1945.558          44.000  
G20  23589972.276   123966138.896        -814.789          39.000                                                                  
R10  19307883.735   102921923.748       -1780.342          49.000                                                                  
R22  22655396.080   120936092.593        3192.578          43.000    22655415.964                3       2482.682          29.000  
R11  19959159.024   106655734.101        2004.195          51.000    19959154.353    82954449.424        1558.966          51.000  
R09  22194750.701   118518695.551       -4119.856          50.000    22194749.220    92181193.803       -3204.365          50.000  
R20  20133439.134   107662672.793       -3533.731          42.000    20133438.322    83737690.809       -2748.600          43.000  
G25  20301592.451   106685613.740       -1081.350          47.000    20301591.843    83131668.383        -842.726          45.000  
G29  20450369.453   107467566.124       -1226.849          48.000    20450364.430    83741044.112        -956.097          46.000  
S31  38479537.241   202211403.638        -654.195          44.000  
S33  39434015.547   207227254.624        -654.946          43.000  
R21  19209273.234   102793208.654         549.382          52.000    19209268.131    79950364.765         427.278          48.000  
G28  21049822.586   110617586.471          -6.671          48.000    21049818.134    86195510.450          -5.250          48.000  
E15  23900063.900   125595812.477       -1663.520          47.000    23900064.656    96235830.540       -1274.681          51.000  
E21  24769461.317   130164462.003        1099.335          47.000    24769461.672    99736440.569         842.368          49.000  
E13  23717984.811   124639243.190        1205.117          48.000    23717985.802    95502897.656         923.492          51.000  
E27  23426763.861   123108512.635        -831.895          48.000    23426764.456    94329914.072        -637.519          54.000  
E30  26427181.100   138875765.668       -2502.576          45.000    26427181.795   106411307.958       -1917.516          47.000  
G18  21775418.470   114430867.647        2475.379          47.000    21775415.853    89167013.531        1928.759          46.000  
G05  23726340.084   124682856.781         916.424          44.000    23726337.108    97155483.813         714.089          41.000  
E26  27403866.682   144008344.993        2460.686          37.000    27403880.578   110344147.329        1885.342          44.000  
E34                                                                  27778020.665                3      -2629.343          21.000  
G11                                                                  24565082.041                3      -3119.455          24.000  
> 2024 04 17 03 28 30.4990000  0 24                     
G31  22910290.921   120394309.433        2003.815          41.000    22910286.040    93813871.445        1561.767          40.000  
G12  22327271.386   117330601.785       -2505.695          46.000    22327267.022    91426428.753       -1952.407          44.000  
G20  23594677.529   123990864.444        -833.063          39.000                                                                  
R10  19317963.836   102975659.146       -1801.783          49.000                                                                  
R22  22637481.470   120840465.737        3182.587          43.000    22637432.894                1       2475.184          28.000  
R11  19947944.652   106595807.738        1991.073          51.000    19947939.884    82907840.096        1548.647          51.000  
R09  22217928.814   118642464.851       -4131.141          50.000    22217927.313    92277458.716       -3213.115          49.000  
R20  20153305.795   107768908.641       -3548.371          43.000    20153305.317    83820318.691       -2759.823          43.000  
G25  20307799.835   106718234.034       -1093.154          48.000    20307798.192    83157086.762        -851.594          44.000  
G29  20457401.514   107504519.234       -1236.389          48.000    20457395.684    83769838.746        -963.391          45.000  
S31  38483275.168   202231045.019        -655.299          44.000  
S33  39437756.208   207246911.679        -655.464          43.000  
R21  19206260.863   102777081.552         526.084          52.000    19206253.736    79937821.539         409.097          47.000  
G28  21049919.437   110618096.058         -26.890          48.000    21049915.002    86195907.529         -21.007          47.000  
E15  23909601.136   125645931.279       -1677.319          47.000    23909602.123    96274233.280       -1285.135          52.000  
E21  24763192.376   130131518.192        1097.038          47.000    24763192.949    99711197.943         840.663          49.000  
E13  23711140.216   124603277.473        1192.892          47.000    23711141.742    95475339.567         914.043          51.000  
E27  23431534.468   123133580.953        -838.954          49.000    23431534.698    94349122.270        -642.757          53.000  
E30  26441485.036   138950931.521       -2508.141          45.000    26441485.581   106468902.575       -1921.882          47.000  
G18  21761323.655   114356797.680        2463.118          47.000    21761320.520    89109296.775        1919.359          47.000  
G05  23721143.453   124655544.803         904.680          46.000    23721140.361    97134201.816         704.860          41.000  
E26  27389826.772   143934565.529        2458.382          38.000    27389839.299   110287616.533        1883.627          44.000  
E34                                                                  27797696.498                3      -2640.528          18.000  
G11                                                                  24587973.011                3      -3124.308          24.000  
> 2024 04 17 03 29 00.4990000  0 24                     
G31  22898889.859   120334394.040        1990.174          41.000    22898884.571    93767184.197        1550.652          40.000  
G12  22341602.676   117405910.860       -2515.059          46.000    22341598.938    91485111.134       -1959.899          45.000  
G20  23599486.693   124016135.032        -851.788          38.000                                                                  
R10  19328166.404   103030041.625       -1823.846          50.000                                                                  
R22  22619623.039   120745137.627        3172.269          44.000    22619600.711                        2466.107          30.000  
R11  19936804.672   106536277.779        1977.444          52.000    19936799.419    82861539.080        1537.866          51.000  
R09  22241170.090   118766577.431       -4143.107          49.000    22241170.094    92373990.622       -3222.376          50.000  
R20  20173256.034   107875588.283       -3563.607          43.000    20173255.082    83903291.746       -2771.787          42.000  
G25  20314075.156   106751208.554       -1105.431          46.000    20314072.830    83182781.211        -861.269          44.000  
G29  20464487.235   107541760.837       -1246.509          46.000    20464482.146    83798858.191        -971.313          45.000  
S31  38487017.410   202250712.367        -656.376          43.000  
S33  39441501.386   207266594.272        -656.680          41.000  
R21  19203377.458   102761654.837         502.288          53.000    19203370.523    79925823.001         390.668          47.000  
G28  21050132.941   110619214.604         -47.716          47.000    21050127.360    86196779.136         -37.256          47.000  
E15  23919216.408   125696464.128       -1691.550          45.000    23919218.360    96312953.270       -1296.137          52.000  
E21  24756937.400   130098646.556        1094.304          46.000    24756937.954    99686010.630         838.459          50.000  
E13  23704367.547   124567686.123        1179.876          47.000    23704369.164    95448068.335         904.082          52.000  
E27  23436344.488   123158860.795        -846.446          47.000    23436345.283    94368492.547        -648.561          53.000  
E30  26455818.413   139026267.091       -2514.370          42.000    26455822.430   106526627.219       -1926.558          47.000  
G18  21747298.966   114283098.221        2450.071          47.000    21747295.779    89051868.748        1909.185          47.000  
G05  23716013.369   124628583.413         892.696          46.000    23716009.610    97113193.004         695.434          41.000  
E26  27375798.230   143860854.209        2455.712          37.000    27375810.855   110231137.955        1881.571          44.000  
E34                                                                  27817398.800                3      -2647.623          18.000  
G11                                                                  24610916.362                3      -3137.578          20.000  
> 2024 04 17 03 29 30.4990000  0 24                     
G31  22887564.565   120274883.457        1977.333          43.000    22887560.833    93720812.364        1540.758          40.000  
G12  22355985.690   117481494.930       -2523.812          47.000    22355981.270    91544007.786       -1966.647          45.000  
G20  23604400.585   124041955.818        -869.934          35.000                                                                  
R10  19338490.729   103085076.641       -1845.089          49.000                                                                  
R22  22601821.716   120650115.680        3162.497          45.000    22601804.053    93838782.4051       2460.217          34.000  
R11  19925740.853   106477152.938        1964.268          53.000    19925735.403    82815553.126        1527.769          51.000  
R09  22264478.298   118891036.405       -4154.248          50.000    22264477.301    92470791.935       -3231.044          50.000  
R20  20193288.777   107982711.215       -3578.022          43.000    20193287.023    83986609.588       -2782.709          42.000  
G25  20320418.999   106784543.163       -1116.914          48.000    20320415.957    83208756.233        -870.498          43.000  
G29  20471629.429   107579293.985       -1255.713          47.000    20471624.746    83828104.798        -978.552          45.000  
S31  38490765.648   202270408.756        -656.941          44.000  
S33  39445252.519   207286305.697        -657.538          43.000  
R21  19200625.655   102746933.257         479.196          52.000    19200618.704    79914372.920         372.612          47.000  
G28  21050462.457   110620947.626         -67.798          48.000    21050457.786    86198129.561         -52.869          48.000  
E15  23928912.401   125747414.667       -1705.143          46.000    23928913.749    96351993.305       -1306.501          52.000  
E21  24750697.039   130065852.848        1091.916          47.000    24750697.643    99660883.013         836.666          50.000  
E13  23697667.288   124532474.988        1167.530          47.000    23697668.921    95421088.442         894.559          52.000  
E27  23441196.440   123184357.781        -853.384          48.000    23441197.131    94388029.197        -653.896          53.000  
E30  26470188.950   139101777.416       -2519.748          44.000    26470191.152   106584485.697       -1930.609          47.000  
G18  21733346.794   114209776.673        2437.979          47.000    21733343.742    88994735.175        1899.761          48.000  
G05  23710950.268   124601978.699         880.955          46.000    23710946.103    97092462.119         686.551          41.000  
E26  27361785.103   143787217.480        2453.451          39.000    27361796.701   110174716.502        1880.016          44.000  
E34                                                                  27837129.844                3      -2651.432          18.000  
G11                                                                  24633864.315                3      -3137.676          12.000  
