     3.00           OBSERVATION DATA    M: Mixed            RINEX VERSION / TYPE
CONVBIN 2.4.3                           20240417 091441 UTC PGM / RUN BY / DATE 
format: u-blox UBX                                          COMMENT             
log: /home/regis/git/gnsspwv/obsdata/VERT00CHL/2024-04-17/VECOMMENT             
{self.marker}                                               MARKER NAME         
                                                            MARKER NUMBER       
GEODETIC                                                    MARKER TYPE         
{self.observer}     {self.institution}                      OBSERVER / AGENCY   
UNKNOWN             UBLOX-ZED-F9P                           REC # / TYPE / VERS 
UNKNOWN             TWIVSP6037L                             ANT # / TYPE        
  1713381.0000 -5047934.0000 -3490983.0000                  APPROX POSITION XYZ 
        0.0000        0.0000        0.0000                  ANTENNA: DELTA H/E/N
G    8 C1C L1C D1C S1C C2L L2L D2L S2L                      SYS / # / OBS TYPES 
R    8 C1C L1C D1C S1C C2C L2C D2C S2C                      SYS / # / OBS TYPES 
E    8 C1C L1C D1C S1C C7Q L7Q D7Q S7Q                      SYS / # / OBS TYPES 
S    4 C1C L1C D1C S1C                                      SYS / # / OBS TYPES 
  2024    04    17    09    00   00.0070000     GPS         TIME OF FIRST OBS   
  2024    04    17    09    14   30.0070000     GPS         TIME OF LAST OBS    
                                                            END OF HEADER       
> 2024 04 17 09 00 00.0070000  0 24                     
G08  23316127.477   122527117.9191       1732.747          48.000    23316126.303    95475695.1241       1350.383          45.000  
G16  24320803.858   127806733.8881      -3411.903          45.000                                                                  
G27  22281438.870   117089743.9961       -309.974          49.000    22281436.321    91238812.9701       -241.629          47.000  
G23  25510397.726   134058181.2961      -3933.514          43.000    25510393.377   104460886.3841      -3065.212          46.000  
R08  21891338.999   117227138.6061       -623.316          51.000    21891332.571    91176700.1351       -484.781          49.000  
R22  24644689.366   131555170.6671      -2705.279          47.000    24644685.515   102320514.7761      -2104.127          47.000  
R14  24715902.972   131749738.5531      -1645.012          49.000    24715904.414   102471937.9491      -1279.478          47.000  
R07  24439409.122   130826085.7961      -3977.569          49.000    24439403.694   101753659.0811      -3093.792          49.000  
R13  25395766.361                3      -4109.816          25.000    25395766.989                1      -3195.773          28.000  
G21  25316470.089   133038957.8621       2006.310          44.000                                                                  
S31  40881511.220   214833885.4411       -609.677          44.000  
S33  41835888.122   219849213.2881       -609.128          43.000  
G10  22770791.824   119661452.1961      -2581.269          49.000    22770789.435    93242623.4211      -2011.378          49.000  
E33  26657324.254   140085297.4121        222.649          48.000    26657323.208   107338066.8511        170.601          51.000  
R01  23314273.544   124628126.2841       3223.864          48.000    23314271.974    96932999.7631       2507.442          44.000  
R23  22405732.238   119855614.2021       -512.452          46.000                                                                  
R24  23930260.856   127965944.4971       1752.702          48.000    23930256.648    99529028.7761       1363.212          46.000  
G32  24453378.113   128503391.5831       1587.224          49.000    24453374.772   100132542.0461       1236.624          43.000  
E13  29732682.529                       -2313.405          31.000    29732681.374   119721590.6851      -1772.843          41.000  
E31  27644700.009   145273816.8031       -477.456          47.000    27644701.561   111313787.7381       -365.917          49.000  
E07  27708052.373   145606818.8001        142.489          45.000    27708052.775   111568875.8711        109.094          51.000  
E26  26197963.516   137671499.3181      -1314.870          46.000    26197963.853   105488700.0321      -1007.495          53.000  
E14  28428757.109   149394198.7171      -1222.013          46.000    28428757.236   114470907.1351       -936.363          52.000  
E08                                                                  30168849.147                3      -1613.333          26.000  
> 2024 04 17 09 00 30.0070000  0 24                     
G08  23306264.915   122475291.066        1721.859          48.000    23306263.498    95435310.618        1341.543          45.000  
G16  24340310.785   127909243.042       -3422.194          45.000                                                                  
G27  22283254.887   117099284.124        -326.385          50.000    22283252.040    91246246.845        -254.226          47.000  
G23  25532861.184   134176232.014       -3937.045          41.000    25532857.741   104552873.933       -3067.689          46.000  
R08  21894908.597   117246252.828        -651.466          52.000    21894901.580    91191566.804        -506.702          49.000  
R22  24659907.105   131636409.144       -2711.111          46.000    24659905.116   102383700.204       -2108.787          47.000  
R14  24725221.396   131799405.221       -1666.655          50.000    24725222.021   102510567.563       -1296.416          48.000  
R07  24461746.401   130945652.407       -3993.874          49.000    24461740.579   101846655.320       -3106.285          49.000  
R13  25418851.178                3      -4111.147          24.000    25418861.625                3      -3197.764          22.000  
G21  25305016.626   132978769.823        2005.778          45.000                                                                  
S31  40884990.197   214852167.078        -609.692          44.000  
S33  41839364.510   219867480.742        -609.075          43.000  
G10  22785567.638   119739097.281       -2595.514          49.000    22785564.638    93303126.081       -2022.577          49.000  
E33  26656056.229   140078634.182         221.032          47.000    26656055.129   107332961.276         169.382          51.000  
R01  23296217.392   124531599.745        3210.796          50.000    23296213.683    96857923.587        2497.200          43.000  
R23  22408624.584   119871080.929        -519.234          46.000                                                                  
R24  23920428.310   127913363.653        1752.280          48.000    23920424.290    99488132.624        1362.656          47.000  
G32  24444354.920   128455973.636        1573.647          49.000    24444351.387   100095592.999        1226.223          43.000  
E13  29745886.080   156315684.412       -2313.051          30.000    29745886.670   119774764.978       -1772.323          40.000  
E31  27647465.073   145288346.499        -491.660          47.000    27647466.410   111324920.896        -376.674          49.000  
E07  27707276.377   145602735.507         129.456          46.000    27707275.779   111565747.111          99.178          51.000  
E26  26205473.596   137710958.369       -1316.150          47.000    26205472.794   105518934.903       -1008.508          53.000  
E14  28435721.175   149430791.569       -1217.784          46.000    28435720.760   114498945.836        -933.140          52.000  
E08                                                                  30180897.917                3      -1629.605          20.000  
> 2024 04 17 09 01 00.0070000  0 24                     
G08  23296465.642   122423793.969        1711.428          48.000    23296463.784    95395183.046        1333.546          45.000  
G16  24359877.770   128012067.991       -3432.455          46.000                                                                  
G27  22285164.490   117109319.709        -342.519          50.000    22285161.797    91254066.806        -266.860          47.000  
G23  25555346.637   134294389.887       -3940.292          41.000    25555341.821   104644944.973       -3070.166          46.000  
R08  21898637.202   117266219.259        -679.393          51.000    21898630.795    91207096.301        -528.458          49.000  
R22  24675160.447   131717834.372       -2716.908          47.000    24675157.084   102447030.975       -2113.106          46.000  
R14  24734661.866   131849723.396       -1687.802          51.000    24734662.264   102549703.885       -1312.722          48.000  
R07  24484174.827   131065712.985       -4009.854          47.000    24484168.648   101940035.780       -3118.801          49.000  
R13  25441955.212                3      -4115.212          25.000    25441985.002                3      -3201.615          25.000  
G21  25293567.952   132918605.726        2005.308          44.000                                                                  
S31  40888470.580   214870456.808        -609.635          44.000  
S33  41842842.055   219885756.090        -608.901          43.000  
G10  22800424.643   119817173.980       -2609.363          49.000    22800421.766    93363965.064       -2033.246          49.000  
E33  26654798.054   140072024.978         219.776          47.000    26654797.348   107327897.106         168.393          51.000  
R01  23278234.333   124435471.884        3197.931          49.000    23278231.203    96783157.479        2487.308          44.000  
R23  22411557.399   119886766.190        -526.017          47.000                                                                  
R24  23910598.509   127860804.562        1751.958          48.000    23910595.971    99447253.373        1362.633          47.000  
G32  24435410.667   128408971.495        1560.147          49.000    24435406.285   100058968.003        1215.652          43.000  
E31  27650311.276   145303305.690        -505.405          46.000    27650313.179   111336383.145        -387.344          49.000  
E07  27706572.560   145599047.350         116.741          45.000    27706574.116   111562921.177          89.374          51.000  
E26  26212991.694   137750466.165       -1317.337          47.000    26212990.701   105549207.132       -1009.412          53.000  
E14  28442661.428   149467264.107       -1213.378          46.000    28442661.239   114526892.350        -929.729          52.000  
E08                                                                  30193019.927                3      -1620.722          17.000  
E13                                                                  29759092.491   119827936.333       -1771.979          40.000  
> 2024 04 17 09 01 30.0070000  0 24                     
G08  23286725.460   122372608.789        1701.096          49.000    23286724.068    95355298.511        1325.639          45.000  
G16  24379500.790   128115185.209       -3441.914          47.000                                                                  
G27  22287164.537   117119831.752        -358.254          50.000    22287161.279    91262258.047        -279.140          47.000  
G23  25577847.719   134412632.197       -3942.645          42.000    25577842.637   104737081.813       -3072.081          46.000  
R08  21902521.214   117287016.398        -707.017          51.000    21902514.242    91223271.863        -549.900          49.000  
R22  24690445.518   131799426.374       -2722.341          48.000    24690442.318   102510491.416       -2117.423          45.000  
R14  24744219.072   131900669.942       -1708.511          50.000    24744218.408   102589328.944       -1328.765          47.000  
R07  24506689.554   131186242.415       -4025.184          45.000    24506683.946   102033780.880       -3130.793          49.000  
R13  25465080.298                3      -4121.176          20.000    25465101.123                       -3201.543          27.000  
G21  25282120.204   132858445.018        2005.500          46.000                                                                  
S31  40891948.369   214888732.570        -608.959          44.000  
S33  41846317.128   219904018.439        -608.451          42.000  
G10  22815360.011   119895659.300       -2622.681          50.000    22815356.941    93425122.476       -2043.518          49.000  
E33  26653546.649   140065449.166         218.751          47.000    26653545.987   107322858.512         167.639          51.000  
R01  23260323.082   124339725.995        3185.326          49.000    23260320.774    96708688.522        2477.466          45.000  
R23  22414525.746   119902650.119        -532.753          48.000                                                                  
R24  23900769.821   127808246.974        1751.945          47.000    23900766.677    99406375.290        1362.810          47.000  
G32  24426542.076   128362367.731        1547.033          48.000    24426537.640   100022653.436        1205.300          42.000  
E31  27653235.754   145318673.894        -519.007          46.000    27653237.657   111348158.787        -397.625          49.000  
E07  27705943.304   145595734.963         104.237          46.000    27705943.707   111560383.142          79.958          51.000  
E26  26220514.757   137790002.294       -1318.140          48.000    26220514.207   105579501.070       -1010.029          53.000  
E14  28449575.478   149503596.381       -1208.557          46.000    28449575.179   114554731.374        -925.997          52.000  
E08                                                                  30205193.871                3      -1623.070          16.000  
E13                                                                  29772293.604   119881089.368       -1771.372          40.000  
> 2024 04 17 09 02 00.0070000  0 23                     
G08  23277046.102   122321740.525        1689.705          49.000    23277044.029    95315660.934        1316.725          46.000  
G16  24399178.320   128218593.301       -3452.146          47.000                                                                  
G27  22289256.853   117130824.090        -374.982          50.000    22289253.705    91270823.525        -292.162          47.000  
G23  25600364.563   134530959.034       -3946.078          42.000    25600360.125   104829284.550       -3075.009          46.000  
R08  21906560.868   117308646.578        -735.405          51.000    21906553.303    91240095.368        -571.987          49.000  
R22  24705763.409   131881188.237       -2728.757          49.000    24705759.524   102574083.942       -2122.449          46.000  
R14  24753893.821   131952244.340       -1730.139          50.000    24753893.211   102629442.336       -1345.663          46.000  
R07  24529292.224   131307239.078       -4041.316          44.000    24529287.215   102127889.356       -3143.347          48.000  
R13  25488223.955                3      -4120.918          19.000    25488243.942                3      -3205.022          22.000  
G21  25270673.067   132798290.645        2004.524          46.000                                                                  
S31  40895424.065   214906999.026        -609.204          44.000  
S33  41849790.346   219922269.871        -608.669          42.000  
G10  22830372.889   119974553.042       -2636.951          49.000    22830370.182    93486598.139       -2054.858          49.000  
E33  26652302.419   140058908.810         217.041          47.000    26652301.397   107317847.098         166.323          51.000  
R01  23242484.255   124244368.647        3171.645          49.000    23242482.546    96634521.773        2466.523          45.000  
R23  22417532.993   119918736.897        -540.136          48.000                                                                  
R24  23890941.506   127755694.415        1751.243          48.000    23890938.205    99365501.175        1362.031          46.000  
G32  24417750.394   128316167.771        1532.865          48.000    24417746.808    99986653.495        1194.461          43.000  
E13  29785490.946   156523726.1441      -2312.225          33.000    29785489.646   119934226.281       -1771.178          39.000  
E31  27656238.546   145334453.428        -533.305          46.000    27656240.334   111360249.625        -408.620          49.000  
E07  27705383.864   145592801.647          91.050          45.000    27705385.306   111558135.582          69.735          50.000  
E26  26228045.270   137829569.277       -1319.867          48.000    26228043.470   105609818.633       -1011.383          53.000  
E14  28456463.714   149539791.215       -1204.777          46.000    28456463.022   114582465.100        -923.099          53.000  
> 2024 04 17 09 02 30.0070000  0 23                     
G08  23267428.561   122271199.455        1679.126          49.000    23267426.552    95276278.302        1308.581          45.000  
G16  24418912.319   128322296.974       -3461.801          46.000                                                                  
G27  22291441.522   117142305.782        -391.013          50.000    22291438.595    91279770.309        -304.665          47.000  
G23  25622898.354   134649375.890       -3948.779          42.000    25622893.951   104921557.410       -3076.923          45.000  
R08  21910756.499   117331117.676        -763.221          51.000    21910749.526    91257572.899        -593.608          49.000  
R22  24721113.062   131963128.320       -2734.460          49.000    24721110.155   102637815.113       -2126.883          48.000  
R14  24763687.727   132004452.396       -1750.966          50.000    24763687.417   102670048.572       -1361.674          46.000  
R07  24551982.818   131428707.119       -4057.088          44.000    24551978.630   102222364.404       -3155.296          48.000  
R13  25511382.401                3      -4129.415          22.000    25511376.853                3      -3195.430          16.000  
G21  25259228.825   132738151.142        2004.394          45.000                                                                  
S31  40898899.658   214925262.663        -608.884          44.000  
S33  41853262.982   219940519.743        -608.473          42.000  
G10  22845465.045   120053860.369       -2650.574          50.000    22845461.792    93548396.058       -2065.350          49.000  
E33  26651065.626   140052411.395         215.889          47.000    26651064.881   107312868.583         165.382          51.000  
R01  23224721.792   124149412.161        3158.424          50.000    23224718.663    96560666.742        2456.551          44.000  
R23  22420580.242   119935035.727        -547.001          48.000                                                                  
R24  23881116.833   127703155.788        1750.935          48.000    23881112.728    99324637.835        1361.975          46.000  
G32  24409036.781   128270382.276        1519.148          47.000    24409034.121    99950976.524        1183.781          42.000  
E13  29798680.982                       -2310.754          31.000    29798683.991   119987353.314       -1770.474          39.000  
E31  27659321.986   145350651.989        -546.955          47.000    27659322.601   111372661.523        -419.034          49.000  
E07  27704899.148   145590256.083          78.336          44.000    27704900.404   111556185.096          60.009          50.000  
E26  26235581.824   137869174.817       -1320.870          48.000    26235580.382   105640165.748       -1012.066          53.000  
E14  28463326.571   149575856.774       -1200.116          46.000    28463325.938   114610099.766        -919.521          53.000  
> 2024 04 17 09 03 00.0070000  0 23                     
G08  23257871.957   122220978.733        1668.704          49.000    23257869.928    95237145.291        1300.205          45.000  
G16  24438700.759   128426284.790       -3470.944          46.000                                                                  
G27  22293717.965   117154268.763        -406.720          50.000    22293714.506    91289092.115        -316.920          47.000  
G23  25645447.046   134767871.111       -3951.087          42.000    25645442.703   105013891.312       -3078.619          45.000  
R08  21915107.590   117354419.726        -790.644          51.000    21915101.117    91275696.742        -614.885          49.000  
R22  24736494.491   132045237.808       -2739.885          48.000    24736493.483   102701678.006       -2131.073          47.000  
R14  24773598.267   132057281.865       -1771.296          50.000    24773598.239   102711138.108       -1377.612          45.000  
R07  24574759.374   131550632.816       -4071.665          44.000    24574754.720   102317195.454       -3166.869          48.000  
R13  25534544.482                3      -4119.841          20.000                                                                  
G21  25247785.613   132678017.506        2004.458          44.000                                                                  
S31  40902373.047   214943514.408        -608.040          44.000  
S33  41856733.588   219958757.643        -607.776          43.000  
G10  22860632.831   120133569.123       -2663.495          49.000    22860629.862    93610506.755       -2075.500          48.000  
E33  26649835.475   140045947.189         215.017          47.000    26649834.958   107307915.513         164.684          51.000  
R01  23207032.237   124054850.874        3145.459          50.000    23207027.975    96487119.084        2446.681          44.000  
R23  22423664.542   119951538.926        -553.568          48.000                                                                  
R24  23871291.916   127650622.093        1751.026          49.000    23871288.666    99283778.331        1361.942          46.000  
G32  24400401.938   128225004.793        1505.781          48.000    24400398.428    99915617.472        1173.324          42.000  
E13  29811877.146   156662374.666       -2310.287          35.000    29811873.693   120040463.549       -1770.198          38.000  
E31  27662481.856   145367259.967        -560.408          46.000    27662483.091   111385387.149        -429.380          49.000  
E07  27704486.527   145588089.684          65.910          44.000    27704487.956   111554525.171          50.350          50.000  
E26  26243123.444   137908809.557       -1321.545          48.000    26243122.433   105670535.243       -1012.652          53.000  
E14  28470162.943   149611784.081       -1195.271          46.000    28470162.512   114637628.509        -915.850          53.000  
> 2024 04 17 09 03 30.0070000  0 23                     
G08  23248376.921   122171082.323        1657.565          49.000    23248374.837    95198264.994        1291.567          45.000  
G16  24458541.623   128530553.935       -3480.521          45.000                                                                  
G27  22296086.829   117166715.768        -423.155          50.000    22296082.995    91298791.105        -329.703          46.000  
G23  25668010.779   134886443.798       -3953.983          43.000    25668006.097   105106285.618       -3080.946          44.000  
R08  21919614.432   117378553.670        -818.489          51.000    21919608.344    91294467.626        -636.633          49.000  
R22  24751909.248   132127518.479       -2745.831          49.000    24751905.549   102765674.121       -2135.622          45.000  
R14  24783625.264   132110731.770       -1792.214          50.000    24783625.989   102752710.245       -1393.877          46.000  
R07  24597622.931   131673013.576       -4087.208          46.000    24597617.193   102412380.439       -3178.791          48.000  
R13  25557701.514                3      -4125.874          20.000                                                                  
G21  25236343.492   132617890.894        2003.996          43.000                                                                  
S31  40905843.935   214961755.673        -608.138          45.000  
S33  41860202.156   219976985.045        -607.409          43.000  
G10  22875877.235   120213678.234       -2677.155          49.000    22875874.452    93672929.442       -2086.035          49.000  
E33  26648612.419   140039517.350         213.447          47.000    26648611.471   107302988.776         163.616          51.000  
R01  23189416.444   123960690.205        3131.747          49.000    23189413.563    96413883.045        2435.742          44.000  
R23  22426789.870   119968248.677        -560.686          50.000                                                                  
R24  23861471.119   127598095.883        1750.504          51.000    23861465.980    99242924.661        1361.329          45.000  
G32  24391845.142   128180039.664        1491.746          48.000    24391841.699    99880579.724        1162.369          42.000  
E13  29825062.924   156731667.870       -2309.927          33.000    29825059.854   120093558.330       -1769.620          39.000  
E31  27665720.745   145384278.694        -574.369          46.000    27665721.654   111398427.492        -440.159          49.000  
E07  27704148.558   145586304.794          52.985          46.000    27704147.663   111553157.540          40.679          49.000  
E26  26250671.758   137948475.005       -1322.933          47.000    26250670.531   105700928.260       -1013.681          53.000  
E14  28476973.170   149647574.977       -1190.916          46.000    28476973.405   114665052.723        -912.567          53.000  
> 2024 04 17 09 04 00.0070000  0 22                     
G08  23238945.720   122121519.038        1646.306          50.000    23238942.639    95159644.279        1282.719          45.000  
G16  24478437.503   128635107.842       -3490.144          45.000                                                                  
G27  22298548.606   117179654.440        -439.874          50.000    22298544.424    91308873.172        -342.611          45.000  
G23  25690589.941   135005097.953       -3956.734          43.000    25690585.279   105198743.386       -3083.132          44.000  
R08  21924278.175   117403525.971        -846.595          51.000    21924271.154    91313890.573        -658.497          49.000  
R22  24767356.045   132209977.476       -2751.829          48.000    24767352.398   102829808.863       -2140.202          46.000  
R14  24793769.710   132164805.587       -1813.062          50.000    24793770.407   102794767.673       -1410.160          47.000  
R07  24620570.860   131795851.563       -4102.413          48.000    24620564.425   102507921.068       -3190.626          48.000  
G21  25224903.897   132557778.355        2003.300          43.000                                                                  
S31  40909314.415   214979992.302        -608.117          44.000  
S33  41863669.350   219995206.476        -607.751          43.000  
G10  22891198.062   120294191.266       -2690.802          49.000    22891195.226    93735666.885       -2096.606          48.000  
E33  26647397.201   140033127.809         212.043          48.000    26647395.393   107298092.913         162.521          51.000  
R01  23171878.659   123866941.068        3117.771          48.000    23171876.358    96340967.109        2424.721          45.000  
R23  22429953.251   119985173.207        -568.047          49.000                                                                  
R24  23851652.277   127545584.548        1749.775          51.000    23851646.348    99202082.550        1361.108          46.000  
G32  24383369.917   128135496.072        1477.521          50.000    24383365.591    99845870.420        1151.251          44.000  
E13  29838240.978                1      -2309.132          29.000    29838243.065   120146642.837       -1769.449          40.000  
E31  27669039.464   145401714.297        -588.321          47.000    27669039.725   111411787.253        -450.836          50.000  
E07  27703882.514   145584908.551          39.718          46.000    27703881.969   111552087.718          30.519          49.000  
E26  26258225.736   137988177.489       -1324.369          46.000    26258225.635   105731349.657       -1014.707          53.000  
E14  28483759.693   149683236.180       -1186.827          46.000    28483759.529   114692377.552        -909.448          53.000  
> 2024 04 17 09 04 30.0070000  0 22                     
G08  23229580.828   122072310.805        1634.047          49.000    23229578.290    95121300.245        1273.199          45.000  
G16  24498391.694   128739963.100       -3500.614          45.000                                                                  
G27  22301108.772   117193105.373        -457.230          51.000    22301103.609    91319354.436        -356.234          45.000  
G23  25713187.547   135123850.710       -3960.477          44.000    25713182.693   105291278.007       -3085.944          42.000  
R08  21929101.486   117429354.976        -875.594          51.000    21929094.004    91333979.812        -680.968          49.000  
R22  24782841.067   132292634.941       -2758.854          48.000    24782837.848   102894098.008       -2145.769          46.000  
R14  24804033.439   132219520.316       -1834.847          49.000    24804034.932   102837323.525       -1426.979          47.000  
R07  24643605.297   131919162.011       -4118.477          47.000    24643599.682   102603829.186       -3203.233          48.000  
G21  25213470.996   132497699.477        2001.894          43.000                                                                  
S31  40912787.746   214998244.060        -609.054          44.000  
S33  41867139.889   220013444.530        -608.389          43.000  
G10  22906599.533   120375124.975       -2705.145          49.000    22906596.331    93798732.121       -2107.862          49.000  
E33  26646191.782   140026797.665         209.801          47.000    26646190.761   107293242.576         160.638          51.000  
R01  23154422.482   123773627.188        3102.812          49.000    23154419.653    96268389.680        2413.295          45.000  
R23  22433162.340   120002333.752        -576.292          49.000                                                                  
R24  23841838.353   127493108.701        1748.202          51.000    23841833.501    99161268.063        1359.679          46.000  
G32  24374977.644   128091396.249        1462.294          50.000    24374973.850    99811506.971        1139.200          43.000  
E31  27672439.596   145419585.950        -603.283          47.000    27672440.666   111425481.132        -462.236          50.000  
E07  27703694.381   145583921.105          25.908          46.000    27703694.356   111551331.160          19.810          50.000  
E26  26265792.484   138027936.382       -1326.538          47.000    26265791.377   105761814.276       -1016.414          53.000  
E14  28490524.609   149718787.452       -1183.552          46.000    28490524.697   114719618.145        -906.810          53.000  
E13                                                                  29851427.866   120199732.248       -1770.125          40.000  
> 2024 04 17 09 05 00.0070000  0 22                     
G08  23220287.267   122023475.585        1621.687          48.000    23220285.324    95083246.860        1263.667          45.000  
G16  24518405.309   128845131.704       -3510.699          46.000                                                                  
G27  22303768.849   117207085.232        -474.781          51.000    22303764.640    91330247.843        -369.753          46.000  
G23  25735806.530   135242715.270       -3964.027          44.000    25735801.856   105383899.706       -3088.936          42.000  
R08  21934086.951   117456056.809        -904.592          50.000    21934080.447    91354747.921        -703.668          49.000  
R22  24798365.501   132375507.240       -2765.930          47.000    24798362.910   102958554.274       -2151.179          47.000  
R14  24814419.331   132274889.031       -1856.418          48.000    24814422.244   102880387.988       -1443.802          46.000  
R07  24666730.572   132042957.299       -4134.517          47.000    24666725.883   102700114.373       -3215.750          48.000  
G21  25202048.772   132437670.418        2000.010          43.000                                                                  
S31  40916266.226   215016526.719        -609.991          44.000  
S33  41870616.334   220031712.689        -609.538          43.000  
G10  22922083.157   120456492.097       -2719.360          48.000    22922079.851    93862135.081       -2119.116          48.000  
E33  26645001.932   140020542.078         207.245          47.000    26645000.454   107288449.345         158.814          51.000  
R01  23137051.267   123680768.160        3087.704          49.000    23137048.578    96196166.021        2401.558          45.000  
R23  22436417.721   120019747.088        -584.594          49.000    22435179.285                3       -520.167          11.000  
R24  23832033.978   127440685.197        1746.620          50.000    23832030.899    99120494.283        1358.410          47.000  
G32  24366674.274   128047758.535        1446.932          50.000    24366670.009    99777503.573        1127.353          43.000  
E31  27675925.918   145437908.864        -618.300          46.000    27675927.270   111439520.798        -473.729          50.000  
E07  27703587.833   145583358.791          11.683          46.000    27703587.764   111550900.343           8.894          51.000  
E26  26273372.713   138067767.171       -1328.904          47.000    26273370.853   105792333.990       -1018.315          53.000  
E14  28497271.223   149754244.609       -1180.266          45.000    28497272.103   114746786.646        -904.398          53.000  
E13                                                                  29864616.901   120252838.680       -1770.274          42.000  
> 2024 04 17 09 05 30.0070000  0 22                     
G08  23211065.882   121975015.001        1609.276          48.000    23211063.534    95045485.404        1253.924          45.000  
G16  24538476.723   128950609.344       -3520.992          46.000                                                                  
G27  22306529.730   117221594.410        -492.331          51.000    22306525.647    91341553.727        -383.763          46.000  
G23  25758447.449   135361688.379       -3967.346          46.000    25758441.654   105476606.017       -3091.216          41.000  
R08  21939235.506   117483629.830        -933.440          49.000    21939230.050    91376193.644        -726.129          50.000  
R22  24813930.611   132458593.772       -2772.875          47.000    24813926.731   103023177.170       -2156.702          46.000  
R14  24824929.985   132330907.687       -1877.866          49.000    24824930.777   102923958.050       -1460.798          46.000  
R07  24689944.338   132167231.776       -4150.191          46.000    24689941.633   102796772.299       -3227.919          49.000  
G21  25190634.782   132377690.424        1998.719          44.000                                                                  
S31  40919751.137   215034838.531        -610.730          44.000  
S33  41874098.087   220050010.236        -610.285          43.000  
G10  22937647.972   120538289.039       -2733.636          47.000    22937645.467    93925872.964       -2130.048          49.000  
E33  26643825.819   140014359.819         205.148          47.000    26643824.264   107283712.324         157.099          51.000  
R01  23119765.680   123588367.161        3072.529          48.000    23119762.766    96124298.621        2389.625          44.000  
R23  22439719.704   120037413.875        -593.039          49.000                                                                  
R24  23822239.880   127388313.925        1745.055          50.000    23822237.472    99079761.107        1357.113          47.000  
G32  24358458.111   128004584.811        1431.576          50.000    24358453.943    99743861.769        1115.524          43.000  
E31  27679498.657   145456681.974        -633.068          46.000    27679499.543   111453905.407        -485.127          50.000  
E07  27703559.890   145583221.450          -2.342          45.000    27703561.441   111550795.143          -1.735          51.000  
E26  26280965.219   138107669.006       -1330.997          47.000    26280963.821   105822908.135       -1019.877          52.000  
E14  28504000.387   149789607.178       -1177.026          45.000    28504001.377   114773882.665        -901.935          53.000  
E13                                                                  29877810.026   120305961.687       -1770.978          42.000  
> 2024 04 17 09 06 00.0070000  0 22                     
G08  23201914.214   121926920.614        1597.486          49.000    23201911.828    95008009.276        1244.730          45.000  
G16  24558604.232   129056381.829       -3530.146          46.000                                                                  
G27  22309389.385   117236623.108        -509.222          50.000    22309385.968    91353264.394        -396.771          47.000  
G23  25781105.153   135480756.874       -3970.129          46.000    25781099.824   105569386.685       -3093.554          40.000  
R08  21944545.089   117512062.031        -961.501          49.000    21944538.984    91398307.571        -747.909          49.000  
R22  24829535.158   132541884.066       -2779.551          48.000    24829529.763   103087958.541       -2161.748          46.000  
R14  24835558.080   132387562.470       -1898.692          48.000    24835557.511   102968022.885       -1476.806          45.000  
R07  24713247.226   132291970.255       -4165.246          49.000    24713243.530   102893791.111       -3239.676          48.000  
G21  25179227.763   132317749.047        1997.698          44.000                                                                  
S31  40923239.172   215053169.235        -611.180          44.000  
S33  41877583.464   220068325.920        -610.561          43.000  
G10  22953292.185   120620502.163       -2747.015          48.000    22953290.160    93989935.134       -2140.497          49.000  
E33  26642660.468   140008239.605         203.438          47.000    26642659.477   107279022.844         155.895          51.000  
R01  23102565.072   123496416.859        3057.925          49.000    23102561.661    96052781.747        2378.429          44.000  
R23  22443067.778   120055324.700        -600.658          49.000                                                                  
R24  23812454.242   127335984.526        1744.079          50.000    23812451.363    99039060.495        1356.385          47.000  
G32  24350329.199   127961866.995        1416.762          50.000    24350325.223    99710575.192        1103.900          43.000  
E13  29891003.068   157078225.4031      -2311.460          33.000    29891004.419   120359093.203       -1771.026          41.000  
E31  27683154.913   145475894.060        -647.166          46.000    27683155.269   111468626.377        -496.022          49.000  
E07  27703613.459   145583498.945         -15.731          46.000    27703614.532   111551007.779         -11.994          51.000  
E26  26288569.940   138147630.954       -1332.530          48.000    26288568.414   105853528.332       -1021.078          52.000  
E14  28510709.141   149824864.578       -1172.979          45.000    28510710.520   114800898.106        -898.780          53.000  
> 2024 04 17 09 06 30.0070000  0 22                     
G08  23192831.959   121879193.718        1584.864          48.000    23192830.226    94970819.526        1234.938          46.000  
G16  24578787.372   129162445.002       -3540.212          47.000                                                                  
G27  22312348.180   117252171.366        -526.863          50.000    22312344.925    91365379.928        -410.530          47.000  
G23  25803780.903   135599917.350       -3973.376          46.000    25803775.164   105662239.000       -3096.265          40.000  
R08  21950015.079   117541351.660        -990.576          50.000    21950007.945    91421088.415        -770.395          48.000  
R22  24845174.315   132625377.482       -2786.506          46.000    24845170.581   103152897.867       -2167.081          46.000  
R14  24846305.370   132444849.641       -1920.064          47.000    24846304.805   103012579.576       -1493.356          45.000  
R07  24736636.299   132417167.589       -4180.691          49.000    24736631.751   102991166.835       -3251.611          48.000  
G21  25167827.684   132257845.413        1996.062          43.000                                                                  
S31  40926730.653   215071516.808        -611.947          44.000  
S33  41881072.193   220086659.904        -611.121          43.000  
G10  22969015.715   120703127.569       -2760.913          49.000    22969013.185    94054318.561       -2151.331          49.000  
E33  26641507.034   140002179.996         201.107          46.000    26641506.219   107274379.804         154.190          51.000  
R01  23085448.511   123404920.518        3042.434          48.000    23085445.579    95981617.970        2366.420          45.000  
R23  22446461.150   120073479.205        -609.151          48.000                                                                  
R24  23802676.303   127283697.011        1742.365          51.000    23802672.880    98998392.424        1355.132          47.000  
G32  24342287.568   127919606.754        1401.093          50.000    24342283.117    99677645.153        1091.676          43.000  
E13  29904205.496   157147576.781       -2311.205          34.000    29904201.946   120412232.616       -1771.180          42.000  
E31  27686893.607   145495543.658        -662.063          46.000    27686894.830   111483682.583        -507.370          49.000  
E07  27703744.092   145584190.808         -29.830          45.000    27703746.726   111551537.945         -22.918          52.000  
E26  26296185.859   138187651.915       -1334.904          48.000    26296184.132   105884193.747       -1022.760          52.000  
E14  28517399.285   149860016.068       -1169.850          45.000    28517399.773   114827832.387        -896.351          53.000  
> 2024 04 17 09 07 00.0070000  0 22                     
G08  23183820.635   121831837.250        1572.607          48.000    23183818.727    94933918.404        1225.354          46.000  
G16  24599024.822   129268795.624       -3549.297          46.000                                                                  
G27  22315405.972   117268240.702        -544.038          50.000    22315402.947    91377901.510        -423.927          47.000  
G23  25826473.461   135719167.902       -3976.105          46.000    25826467.735   105755161.527       -3098.077          37.000  
R08  21955644.995   117571498.345       -1018.906          49.000    21955637.418    91444535.871        -792.420          48.000  
R22  24860854.035   132709074.813       -2792.972          45.000    24860851.153   103217995.833       -2172.399          47.000  
R14  24857170.694   132502766.568       -1940.697          49.000    24857170.018   103057626.067       -1509.248          43.000  
R07  24760108.998   132542819.598       -4195.620          51.000    24760104.975   103088896.167       -3263.335          49.000  
G21  25156436.119   132197980.084        1995.287          44.000                                                                  
S31  40930225.322   215089882.623        -612.077          44.000  
S33  41884564.322   220105010.895        -611.688          42.000  
G10  22984817.004   120786162.988       -2774.243          49.000    22984814.075    94119021.478       -2161.920          49.000  
E33  26640364.780   139996181.028         199.258          46.000    26640364.736   107269783.244         152.672          51.000  
R01  23068417.887   123313882.425        3027.209          49.000    23068415.698    95910810.623        2354.517          45.000  
R23  22449900.217   120091879.797        -617.051          48.000                                                                  
R24  23792905.956   127231452.963        1741.042          50.000    23792902.969    98957758.197        1354.076          46.000  
G32  24334332.898   127877807.195        1385.970          49.000    24334328.904    99645074.066        1079.895          44.000  
E13  29917399.906                       -2312.061          30.000    29917401.120   120465380.493       -1771.507          42.000  
E31  27690715.940   145515630.884        -676.424          46.000    27690717.450   111499074.116        -518.390          49.000  
E07  27703956.107   145585298.211         -43.500          46.000    27703957.231   111552386.501         -33.345          52.000  
E26  26303812.761   138227732.280       -1336.649          48.000    26303811.311   105914904.690       -1024.252          52.000  
E14  28524068.202   149895062.371       -1166.130          45.000    28524068.810   114854686.078        -893.592          53.000  
> 2024 04 17 09 07 30.0070000  0 22                     
G08  23174879.982   121784856.333        1559.592          48.000    23174878.522    94897309.930        1215.356          46.000  
G16  24619318.270   129375433.620       -3559.659          47.000                                                                  
G27  22318563.523   117284834.923        -561.920          50.000    22318560.650    91390832.109        -437.872          47.000  
G23  25849182.763   135838508.985       -3979.596          45.000    25849176.772   105848154.605       -3100.909          37.000  
R08  21961435.205   117602503.999       -1047.965          50.000    21961427.446    91468651.404        -815.015          49.000  
R22  24876570.833   132792979.352       -2800.441          46.000    24876569.799   103283254.871       -2178.015          48.000  
R14  24868154.280   132561312.774       -1961.970          48.000    24868153.619   103103162.024       -1526.309          43.000  
R07  24783666.487   132668925.655       -4211.088          51.000    24783662.551   103186978.649       -3275.237          47.000  
G21  25145053.380   132138156.510        1993.348          44.000                                                                  
S31  40933724.026   215108268.530        -613.063          44.000  
S33  41888060.006   220123382.137        -612.730          43.000  
G10  23000696.385   120869608.345       -2788.366          48.000    23000693.563    94184043.822       -2172.803          49.000  
E33  26639235.593   139990245.133         196.726          46.000    26639235.206   107265234.985         150.703          51.000  
R01  23051473.544   123223309.286        3011.273          48.000    23051470.991    95840364.897        2342.078          44.000  
R23  22453386.263   120110530.335        -626.001          48.000                                                                  
R24  23783145.619   127179255.728        1739.005          50.000    23783141.716    98917160.398        1352.478          46.000  
G32  24326466.865   127836473.755        1369.877          50.000    24326464.564    99612866.256        1067.365          44.000  
E13  29930597.984                       -2312.861          30.000    29930602.683   120518539.151       -1772.234          42.000  
E31  27694622.388   145536158.111        -691.622          46.000    27694623.640   111514802.798        -529.979          50.000  
E07  27704246.332   145586824.524         -57.993          46.000    27704247.348   111553556.039         -44.396          51.000  
E26  26311451.862   138267874.793       -1339.292          48.000    26311450.160   105945663.247       -1026.207          52.000  
E14  28530717.614   149930006.580       -1163.193          45.000    28530718.368   114881461.531        -891.312          53.000  
> 2024 04 17 09 08 00.0070000  0 22                     
G08  23166012.074   121738255.348        1546.900          48.000    23166010.474    94860997.504        1205.509          46.000  
G16  24639665.261   129482357.464       -3568.830          46.000                                                                  
G27  22321821.850   117301957.035        -579.465          50.000    22321818.915    91404174.050        -451.660          47.000  
G23  25871909.471   135957940.185       -3982.446          46.000    25871903.659   105941217.857       -3103.375          35.000  
R08  21967385.660   117634369.549       -1076.598          50.000    21967378.426    91493435.752        -837.313          49.000  
R22  24892329.705   132877093.410       -2807.068          48.000    24892326.989   103348676.985       -2183.352          47.000  
R14  24879254.997   132620487.588       -1983.013          47.000    24879255.005   103149186.794       -1542.260          43.000  
R07  24807308.975   132795482.634       -4226.040          51.000    24807304.577   103285411.873       -3286.947          48.000  
G21  25133677.672   132078376.852        1991.975          45.000                                                                  
S31  40937226.760   215126675.793        -613.797          44.000  
S33  41891560.323   220141775.584        -613.476          43.000  
G10  23016653.253   120953462.725       -2801.917          49.000    23016650.875    94249384.921       -2183.368          48.000  
E33  26638119.328   139984373.826         194.648          46.000    26638118.012   107260736.214         149.139          51.000  
R01  23034618.176   123133206.993        2995.557          48.000    23034614.827    95770285.367        2329.681          44.000  
R23  22456920.004   120129434.010        -634.306          48.000                                                                  
R24  23773393.835   127127108.440        1737.437          49.000    23773389.395    98876601.424        1351.392          46.000  
G32  24318691.914   127795611.114        1354.252          50.000    24318688.777    99581025.232        1055.286          44.000  
E13  29943806.822                       -2312.888          30.000    29943807.933   120571710.293       -1772.564          41.000  
E31  27698611.856   145557126.869        -706.119          45.000    27698613.584   111530869.813        -541.156          50.000  
E07  27704616.386   145588772.296         -71.824          45.000    27704617.977   111555048.527         -55.019          51.000  
E26  26319103.270   138308081.348       -1341.202          48.000    26319101.274   105976470.870       -1027.738          52.000  
E14  28537348.226   149964850.902       -1159.698          45.000    28537348.862   114908160.456        -888.709          53.000  
> 2024 04 17 09 08 30.0070000  0 22                     
G08  23157215.082   121692025.995        1534.885          49.000    23157213.404    94824974.672        1196.049          47.000  
G16  24660063.456   129589552.758       -3577.370          46.000                                                                  
G27  22325179.181   117319597.402        -596.488          50.000    22325175.869    91417919.812        -464.822          47.000  
G23  25894650.649   136077448.559       -3984.619          46.000    25894644.498   106034341.236       -3104.401          34.000  
R08  21973495.342   117667083.165       -1104.408          50.000    21973487.762    91518879.694        -859.036          49.000  
R22  24908124.305   132961406.638       -2813.637          48.000    24908121.005   103414253.968       -2188.423          47.000  
R14  24890472.485   132680276.887       -2003.146          48.000    24890470.964   103195689.585       -1558.078          44.000  
R07  24831032.467   132922475.570       -4240.053          51.000    24831028.114   103384184.165       -3297.991          48.000  
G21  25122307.767   132018630.555        1991.095          44.000                                                                  
S31  40940731.821   215145095.132        -614.343          44.000  
S33  41895062.370   220160179.678        -613.246          42.000  
G10  23032684.775   121037712.723       -2814.703          49.000    23032682.874    94315034.285       -2193.353          48.000  
E33  26637012.160   139978556.015         193.275          47.000    26637010.786   107256278.454         148.050          51.000  
R01  23017849.345   123043568.694        2980.365          48.000    23017846.658    95700566.701        2318.109          44.000  
R23  22460499.831   120148581.481        -642.111          49.000    22460141.573                3       -481.593          12.000  
R24  23763648.880   127075001.174        1736.409          48.000    23763644.648    98836073.605        1350.449          46.000  
G32  24311003.703   127755211.199        1339.120          50.000    24311000.518    99549544.814        1043.488          44.000  
E13  29957011.626                       -2312.891          30.000    29957013.835   120624885.998       -1772.491          41.000  
E31  27702684.100   145578526.089        -720.311          44.000    27702685.615   111547266.673        -552.011          50.000  
E07  27705064.755   145591131.491         -85.301          45.000    27705066.729   111556856.257         -65.399          51.000  
E26  26326764.111   138348341.218       -1342.727          48.000    26326762.654   106007319.355       -1028.847          53.000  
E14  28543957.969   149999584.989       -1155.863          45.000    28543958.332   114934774.894        -885.570          52.000  
> 2024 04 17 09 09 00.0070000  0 23                     
G08  23148487.380   121646159.327        1523.013          49.000    23148484.910    94789234.440        1186.778          47.000  
G16  24680510.848   129697005.702       -3585.955          45.000                                                                  
G27  22328632.544   117337745.630        -613.320          51.000    22328629.351    91432061.302        -477.825          47.000  
G23  25917404.573   136197020.457       -3986.731          46.000    25917397.670   106127514.232       -3106.458          32.000  
R08  21979759.450   117700632.658       -1132.165          50.000    21979753.170    91544973.764        -880.583          50.000  
R22  24923954.325   133045907.855       -2819.898          49.000    24923949.665   103479977.119       -2193.177          44.000  
R14  24901801.089   132740665.950       -2022.861          49.000    24901799.402   103242658.880       -1573.397          44.000  
R07  24854834.357   133049888.669       -4253.978          51.000    24854829.922   103483283.235       -3308.506          47.000  
G21  25110941.874   131958906.743        1990.451          43.000                                                                  
S31  40944236.965   215163514.041        -614.007          44.000  
S33  41898564.770   220178584.538        -613.157          42.000  
G10  23048790.262   121122344.115       -2827.271          49.000    23048787.435    94380980.833       -2202.960          48.000  
E33  26635912.513   139972780.066         191.946          47.000    26635911.519   107251852.760         147.011          51.000  
R01  23001165.622   122954386.588        2965.167          48.000    23001163.572    95631202.893        2306.122          45.000  
R23  22464122.278   120167962.466        -649.763          48.000                                                                  
R24  23753910.510   127022923.118        1735.481          49.000    23753905.487    98795568.516        1349.713          45.000  
G02  26217952.065                1       2093.935          26.000                                                                  
G32  24303402.408   127715265.311        1323.992          50.000    24303398.645    99518418.180        1031.643          43.000  
E13  29970212.935                       -2312.580          29.000    29970219.743   120678057.739       -1772.388          41.000  
E31  27706835.522   145600343.931        -734.171          45.000    27706837.663   111563984.304        -562.516          50.000  
E07  27705590.170   145593891.325         -98.634          45.000    27705591.928   111558970.954         -75.477          51.000  
E26  26334433.153   138388643.027       -1344.004          48.000    26334431.719   106038199.988       -1029.795          53.000  
E14  28550545.305   150034197.774       -1151.691          45.000    28550544.854   114961296.401        -882.495          52.000  
> 2024 04 17 09 09 30.0070000  0 23                     
G08  23139828.456   121600657.490        1510.777          48.000    23139826.235    94753778.521        1177.168          46.000  
G16  24701006.130   129804712.407       -3594.300          44.000                                                                  
G27  22332182.469   117356402.445        -630.062          50.000    22332179.425    91446599.107        -490.968          48.000  
G23  25940170.309   136316653.275       -3988.513          47.000    25940163.326   106220734.641       -3107.978          34.000  
R08  21986180.988   117735016.289       -1159.797          51.000    21986174.038    91571716.618        -902.088          50.000  
R22  24939819.405   133130597.145       -2825.889          49.000    24939813.529   103545846.582       -2197.917          44.000  
R14  24913240.271   132801651.873       -2042.578          48.000    24913241.157   103290092.310       -1588.735          44.000  
R07  24878713.175   133177717.657       -4267.576          51.000    24878708.937   103582705.791       -3319.181          46.000  
G21  25099581.618   131899205.491        1989.776          44.000                                                                  
S31  40947741.540   215181932.144        -613.690          44.000  
S33  41902066.908   220196987.986        -613.072          42.000  
G10  23064967.316   121207353.878       -2839.752          49.000    23064963.854    94447222.233       -2212.793          47.000  
E33  26634821.476   139967045.285         190.689          46.000    26634820.087   107247458.596         146.163          51.000  
R01  22984568.359   122865664.370        2949.866          48.000    22984566.524    95562196.728        2294.409          45.000  
R23  22467789.787   120187578.073        -657.641          48.000                                                                  
R24  23744177.604   126970875.330        1734.453          49.000    23744172.743    98755086.972        1349.139          46.000  
G02  26206002.212   137713455.8941       2092.547          31.000                                                                  
G32  24295888.280   127675775.834        1308.986          50.000    24295883.864    99487647.151        1020.258          44.000  
E13  29983414.925                1      -2312.148          27.000    29983424.142   120731225.542       -1771.906          41.000  
E31  27711067.527   145622579.749        -747.830          45.000    27711069.243   111581022.177        -573.059          51.000  
E07  27706193.349   145597052.151        -111.823          46.000    27706193.450   111561392.912         -85.700          51.000  
E26  26342110.069   138428986.494       -1345.201          47.000    26342108.980   106069112.533       -1030.682          52.000  
E14  28557108.645   150068689.262       -1147.519          46.000    28557108.283   114987724.968        -879.176          52.000  
> 2024 04 17 09 10 00.0070000  0 23                     
G08  23131237.864   121555515.756        1499.025          48.000    23131236.254    94718603.200        1168.076          47.000  
G16  24721548.573   129912661.715       -3601.940          44.000                                                                  
G27  22335828.504   117375561.741        -646.797          51.000    22335824.994    91461528.445        -503.911          48.000  
G23  25962945.973   136436337.677       -3989.948          47.000    25962937.918                       -3109.753          31.000  
R08  21992756.681   117770225.891       -1187.103          51.000    21992749.184    91599101.891        -923.373          50.000  
R22  24955718.139   133215467.574       -2831.666          49.000    24955712.511   103611856.985       -2202.532          43.000  
R14  24924791.549   132863224.160       -2061.822          48.000    24924792.791   103337981.846       -1603.714          45.000  
R07  24902668.175   133305950.633       -4280.859          51.000    24902664.455   103682442.542       -3329.523          46.000  
G21  25088224.074   131839519.911        1989.495          45.000                                                                  
S31  40951244.742   215200342.602        -613.305          44.000  
S33  41905567.420   220215384.507        -612.713          43.000  
G10  23081213.700   121292732.049       -2851.917          49.000    23081210.484    94513750.693       -2222.357          47.000  
E33  26633736.904   139961344.200         189.822          47.000    26633735.314   107243090.277         145.356          51.000  
R01  22968056.024   122777398.585        2934.821          48.000    22968054.444    95493545.611        2282.458          45.000  
R23  22471498.916   120207422.255        -665.069          49.000                                                                  
R24  23734448.006   126918851.262        1733.978          50.000    23734444.855    98714623.864        1348.631          47.000  
G02  26194052.468   137650658.324        2093.927          33.000                                                                  
G32  24288458.188   127636738.212        1294.057          48.000    24288455.088    99457228.274        1008.304          43.000  
E13  29996624.837                       -2311.878          30.000    29996626.187   120784384.244       -1771.685          42.000  
E31  27715376.687   145645225.962        -761.375          45.000    27715378.488   111598374.502        -583.443          51.000  
E07  27706869.483   145600607.408        -124.769          46.000    27706869.754   111564117.100         -95.676          51.000  
E26  26349793.403   138469364.509       -1346.241          47.000    26349792.116   106100051.557       -1031.602          52.000  
E14  28563648.136   150103052.729       -1143.107          46.000    28563647.432   115014055.442        -875.930          52.000  
> 2024 04 17 09 10 30.0070000  0 23                     
G08  23122716.815   121510736.744        1486.445          48.000    23122714.822    94683710.506        1158.309          47.000  
G16  24742136.650   130020851.023       -3610.521          45.000                                                                  
G27  22339570.261   117395224.615        -664.049          50.000    22339566.759    91476850.199        -517.355          48.000  
G23  25985730.746   136556071.578       -3992.065          47.000    25985720.274                       -3110.925          31.000  
R08  21999485.072   117806260.833       -1215.041          50.000    21999478.148    91627129.081        -945.133          50.000  
R22  24971651.271   133300519.925       -2838.381          49.000    24971647.644   103678008.778       -2207.786          44.000  
R14  24936452.780   132925379.780       -2081.701          48.000    24936452.684   103386325.085       -1618.894          43.000  
R07  24926697.509   133434583.373       -4294.562          50.000    24926694.124   103782490.245       -3340.266          46.000  
G21  25076868.642   131779850.785        1988.371          44.000                                                                  
S31  40954746.843   215218745.711        -613.494          44.000  
S33  41909066.544   220233772.946        -612.796          43.000  
G10  23097529.985   121378476.009       -2864.474          49.000    23097527.033    94580564.183       -2231.941          48.000  
E33  26632659.062   139955676.686         188.223          48.000    26632656.739   107238747.678         144.215          51.000  
R01  22951630.456   122689593.208        2918.921          48.000    22951628.388    95425252.563        2270.392          44.000  
R23  22475252.046   120227496.756        -673.205          48.000                                                                  
R24  23724724.569   126866852.262        1732.674          50.000    23724720.735    98674180.268        1347.594          47.000  
G02  26182104.473   137587868.823        2092.825          36.000                                                                  
G32  24281116.301   127598155.328        1278.214          49.000    24281112.159    99427163.736         995.901          43.000  
E13  30009823.925   157702654.1621      -2311.740          33.000    30009826.066   120837534.176       -1771.715          42.000  
E31  27719763.644   145668282.266        -775.434          45.000    27719765.635   111616041.063        -594.230          50.000  
E07  27707621.341   145604557.885        -138.344          46.000    27707621.368   111567144.103        -105.993          50.000  
E26  26357484.105   138509777.271       -1347.781          47.000    26357482.660   106131017.199       -1032.765          52.000  
E14  28570162.481   150137288.631       -1139.209          46.000    28570162.082   115040288.161        -872.911          52.000  
> 2024 04 17 09 11 00.0070000  0 23                     
G08  23114267.155   121466335.176        1473.694          48.000    23114265.702    94649111.925        1148.399          47.000  
G16  24762770.940   130129289.783       -3618.983          44.000                                                                  
G27  22343409.836   117415404.394        -681.378          50.000    22343406.260    91492574.720        -530.863          47.000  
G23  26008526.467   136675865.054       -3994.269          47.000    26008519.742   106500640.036       -3112.549          34.000  
R08  22006370.651   117843132.060       -1243.151          50.000    22006363.375    91655806.712        -966.804          50.000  
R22  24987621.398   133385767.001       -2844.891          50.000    24987618.109   103744312.028       -2212.689          46.000  
R14  24948222.799   132988128.066       -2101.579          48.000    24948223.615   103435129.327       -1634.350          42.000  
R07  24950803.778   133563624.799       -4308.198          50.000    24950799.685   103882855.804       -3350.862          45.000  
G21  25065520.184   131720210.604        1987.443          45.000                                                                  
S31  40958249.435   215237152.641        -613.686          44.000  
S33  41912566.117   220252164.836        -613.122          43.000  
G10  23113918.271   121464595.293       -2876.882          49.000    23113915.769    94647670.138       -2241.619          48.000  
E33  26631588.051   139950054.725         186.614          47.000    26631586.647   107234439.979         142.965          51.000  
R01  22935294.290   122602264.819        2902.912          49.000    22935290.782    95357330.530        2257.746          43.000  
R23  22479050.183   120247815.563        -681.418          49.000                                                                  
R24  23715007.997   126814891.676        1731.315          51.000    23715004.007    98633766.543        1346.677          47.000  
G02  26170159.742   137525099.749        2091.531          38.000                                                                  
G32  24273863.757   127560042.056        1262.406          50.000    24273859.146    99397465.123         983.800          43.000  
E13  30023021.096   157772020.593       -2312.579          32.000    30023026.078   120890685.038       -1771.709          41.000  
E31  27724231.322   145691760.599        -789.658          45.000    27724233.100   111634030.978        -604.985          50.000  
E07  27708450.341   145608916.455        -152.166          46.000    27708450.433   111570483.819        -116.482          50.000  
E26  26365182.888   138550237.092       -1349.439          46.000    26365181.618   106162018.902       -1034.034          52.000  
E14  28576655.535   150171409.647       -1135.569          46.000    28576654.921   115066432.852        -870.013          52.000  
> 2024 04 17 09 11 30.0070000  0 23                     
G08  23105892.254   121422322.858        1460.704          48.000    23105890.169    94614816.635        1138.230          47.000  
G16  24783454.637   130237983.511       -3627.329          45.000                                                                  
G27  22347349.960   117436111.379        -698.955          50.000    22347347.123    91508710.058        -544.707          48.000  
G23  26031334.801   136795725.301       -3996.271          45.000    26031329.173   106594037.638       -3114.154          35.000  
R08  22013413.224   117880848.146       -1271.268          51.000    22013407.352    91685141.477        -988.777          51.000  
R22  25003629.748   133471218.713       -2851.789          51.000    25003625.666   103810774.497       -2217.968          44.000  
R14  24960104.802   133051475.160       -2121.460          47.000    24960107.044   103484399.318       -1650.194          42.000  
R07  24974987.108   133693079.917       -4321.886          50.000    24974982.409   103983543.140       -3361.516          44.000  
G21  25054178.005   131660609.368        1986.139          45.000                                                                  
S31  40961754.982   215255573.697        -614.305          44.000  
S33  41916068.888   220270571.126        -613.915          42.000  
G10  23130379.404   121551096.504       -2889.578          50.000    23130376.352    94715073.696       -2251.718          48.000  
E33  26630527.992   139944487.374         184.693          46.000    26630527.310   107230174.129         141.554          51.000  
R01  22919048.678   122515426.487        2886.469          47.000    22919046.044    95289789.639        2244.958          44.000  
R23  22482896.613   120268389.573        -689.988          49.000                                                                  
R24  23705301.203   126762980.396        1729.656          50.000    23705296.132    98593391.170        1345.216          47.000  
G02  26158222.092   137462360.587        2091.100          42.000                                                                  
G32  24266702.640   127522410.415        1246.458          49.000    24266698.652    99368141.779         971.221          43.000  
E13  30036225.551   157841397.977       -2312.171          34.000    30036228.022   120943844.313       -1772.305          41.000  
E31  27728781.581   145715669.837        -804.091          45.000    27728782.691   111652351.082        -616.134          50.000  
E07  27709359.937   145613693.058        -166.050          46.000    27709359.592   111574143.847        -127.298          50.000  
E26  26372891.830   138590753.420       -1351.441          46.000    26372891.875   106193063.896       -1035.586          52.000  
E14  28583128.460   150205425.470       -1132.017          46.000    28583127.984   115092496.952        -867.414          52.000  
> 2024 04 17 09 12 00.0070000  0 23                     
G08  23097590.345   121378693.710        1447.953          48.000    23097588.123    94580819.938        1128.373          47.000  
G16  24804184.663   130346920.681       -3634.998          44.000                                                                  
G27  22351389.657   117457338.003        -716.067          50.000    22351386.123    91525250.304        -558.096          47.000  
G23  26054153.651   136915641.603       -3997.900          45.000    26054148.643   106687478.974       -3115.503          36.000  
R08  22020612.920   117919399.353       -1298.673          51.000    22020606.306    91715125.774       -1010.045          51.000  
R22  25019674.051   133556866.833       -2858.010          50.000    25019670.920   103877389.666       -2222.922          44.000  
R14  24972100.827   133115409.848       -2140.687          49.000    24972099.859   103534126.301       -1665.018          44.000  
R07  24999244.709   133822935.301       -4334.876          48.000    24999239.996   104084541.750       -3371.545          44.000  
G21  25042842.112   131601038.835        1985.557          45.000                                                                  
S31  40965261.276   215273999.542        -613.942          44.000  
S33  41919572.105   220288982.700        -613.543          42.000  
G10  23146910.776   121637968.381       -2901.688          49.000    23146907.554    94782766.080       -2261.029          48.000  
E33  26629477.374   139938965.858         183.409          46.000    26629476.533   107225943.396         140.638          51.000  
R01  22902894.493   122429073.792        2870.569          47.000    22902892.276    95222626.478        2232.526          45.000  
R23  22486789.331   120289211.384        -697.962          49.000                                                                  
R24  23695600.150   126711110.782        1728.449          50.000    23695595.403    98553048.210        1344.330          46.000  
G02  26146287.211   137399642.937        2090.422          43.000                                                                  
G32  24259631.885   127485254.448        1230.839          49.000    24259628.200    99339189.121         959.235          44.000  
E13  30049422.264   157910778.079       -2313.151          31.000    30049429.442   120997005.716       -1772.055          38.000  
E31  27733411.924   145740000.984        -817.833          45.000    27733412.729   111670994.480        -626.675          50.000  
E07  27710346.979   145618879.733        -179.522          46.000    27710346.892   111578118.091        -137.578          50.000  
E26  26380612.017   138631317.769       -1352.678          46.000    26380610.909   106224145.692       -1036.495          52.000  
E14  28589580.016   150239327.943       -1127.981          46.000    28589579.229   115118474.186        -864.232          52.000  
> 2024 04 17 09 12 30.0070000  0 23                     
G08  23089359.398   121335441.492        1435.493          48.000    23089357.403    94547116.960        1118.579          47.000  
G16  24824958.456   130456088.985       -3642.558          45.000                                                                  
G27  22355525.753   117479076.563        -733.013          50.000    22355523.024    91542189.474        -571.265          48.000  
G23  26076982.106   137035603.129       -3999.280          45.000    26076977.418   106780955.471       -3116.315          38.000  
R08  22027967.442   117958775.385       -1326.217          52.000    22027959.918    91745751.594       -1031.521          51.000  
R22  25035754.751   133642702.952       -2864.299          50.000    25035750.273   103944151.113       -2227.808          44.000  
R14  24984203.393   133179919.643       -2159.860          48.000    24984202.638   103584300.584       -1679.751          46.000  
R07  25023575.043   133953178.549       -4347.741          48.000    25023570.443   104185842.048       -3381.616          44.000  
G21  25031510.026   131541490.840        1984.665          45.000                                                                  
S31  40968766.880   215292421.516        -613.857          44.000  
S33  41923075.207   220307390.220        -613.443          42.000  
G10  23163510.305   121725199.463       -2913.722          49.000    23163506.904    94850738.355       -2270.327          47.000  
E33  26628433.947   139933481.229         182.254          46.000    26628432.935   107221740.929         139.607          51.000  
R01  22886830.014   122343201.835        2854.450          48.000    22886828.248    95155837.219        2219.928          45.000  
R23  22490725.359   120310273.858        -706.086          47.000                                                                  
R24  23685905.957   126659275.119        1727.298          49.000    23685901.254    98512731.669        1343.551          46.000  
G02  26134354.512   137336938.456        2090.209          43.000                                                                  
G32  24252650.775   127448568.130        1215.073          48.000    24252647.787    99310602.421         946.752          44.000  
E13  30062622.665                       -2312.349          28.000    30062631.137   121050162.881       -1771.819          37.000  
E31  27738119.224   145764744.915        -831.828          45.000    27738121.494   111689954.150        -637.213          50.000  
E07  27711410.882   145624468.436        -192.924          46.000    27711410.031   111582400.369        -147.923          50.000  
E26  26388338.757   138671921.574       -1354.171          47.000    26388337.347   106255257.725       -1037.590          52.000  
E14  28596008.628   150273108.803       -1124.117          46.000    28596007.389   115144358.242        -861.344          52.000  
> 2024 04 17 09 13 00.0070000  0 23                     
G08  23081203.161   121292580.943        1422.107          47.000    23081201.265    94513719.176        1108.124          47.000  
G16  24845778.702   130565497.611       -3650.820          43.000                                                                  
G27  22359763.042   117501340.225        -750.874          50.000    22359759.564    91559537.790        -585.152          48.000  
G23  26099820.780   137155620.022       -4001.449          45.000    26099817.041   106874475.126       -3117.986          39.000  
R08  22035475.729   117998987.528       -1354.231          51.000    22035468.911    91777027.721       -1053.260          51.000  
R22  25051871.710   133728740.080       -2871.340          49.000    25051867.671   104011068.837       -2233.198          44.000  
R14  24996415.198   133245013.747       -2179.481          47.000    24996414.157   103634929.340       -1695.263          46.000  
R07  25047980.221   134083817.629       -4361.084          47.000    25047975.781   104287450.218       -3391.875          45.000  
G21  25020184.874   131481978.044        1983.223          45.000                                                                  
S31  40972274.207   215310853.027        -614.512          44.000  
S33  41926579.563   220325806.020        -614.159          42.000  
G10  23180179.884   121812799.284       -2926.152          49.000    23180176.612    94918997.987       -2280.165          47.000  
E33  26627399.660   139928045.487         180.312          46.000    26627398.481   107217575.909         138.165          51.000  
R01  22870859.573   122257826.610        2837.409          49.000    22870856.039    95089434.277        2207.043          44.000  
R23  22494710.862   120331591.039        -714.752          47.000                                                                  
R24  23676219.847   126607487.045        1725.397          49.000    23676215.653    98472452.096        1341.805          43.000  
G02  26122426.489   137274259.439        2089.042          41.000                                                                  
G32  24245762.169   127412366.316        1198.680          49.000    24245759.324    99282393.246         933.898          45.000  
E13  30075835.003   158049534.394       -2312.656          35.000    30075833.755   121103325.502       -1772.212          36.000  
E31  27742909.021   145789913.468        -845.970          45.000    27742910.944   111709239.161        -648.183          50.000  
E07  27712552.731   145630471.967        -207.054          45.000    27712552.503   111587000.503        -158.638          50.000  
E26  26396075.654   138712577.185       -1355.984          47.000    26396073.875   106286409.450       -1039.047          52.000  
E14  28602416.042   150306780.673       -1120.548          47.000    28602414.907   115170158.794        -858.569          51.000  
> 2024 04 17 09 13 30.0070000  0 23                     
G08  23073121.280   121250110.504        1409.436          48.000    23073119.134    94480625.384        1098.022          47.000  
G16  24866642.848   130675139.113       -3658.321          44.000                                                                  
G27  22364098.874   117524125.911        -767.991          50.000    22364095.491    91577292.911        -598.429          48.000  
G23  26122668.547   137275686.139       -4002.794          44.000    26122664.900   106968033.104       -3118.871          40.000  
R08  22043139.853   118040030.404       -1381.698          50.000    22043133.977    91808949.987       -1074.648          51.000  
R22  25068025.517   133814974.403       -2877.408          48.000    25068021.043   104078140.017       -2238.103          43.000  
R14  25008732.199   133310685.357       -2198.342          44.000    25008734.055   103686007.188       -1709.966          45.000  
R07  25072457.860   134214844.214       -4373.713          48.000    25072452.449   104389359.751       -3401.636          45.000  
G21  25008866.209   131422497.154        1982.420          45.000                                                                  
S31  40975782.327   215329288.265        -614.411          44.000  
S33  41930084.471   220344226.723        -613.591          42.000  
G10  23196918.301   121900761.046       -2937.937          49.000    23196914.705    94987539.624       -2289.353          47.000  
E33  26626374.184   139922654.399         179.171          47.000    26626372.562   107213445.114         137.320          51.000  
R01  22854981.319   122172948.319        2821.253          49.000    22854978.016    95023417.868        2194.299          43.000  
R23  22498743.318   120353159.990        -722.890          48.000                                                                  
R24  23666543.646   126555743.707        1724.249          49.000    23666539.730    98432207.332        1341.124          44.000  
G02  26110502.282   137211601.921        2088.562          40.000                                                                  
G32  24238965.193   127376647.596        1182.720          49.000    24238961.707    99254560.495         921.668          44.000  
E13  30089038.005   158118919.669       -2312.735          35.000    30089037.170   121156490.779       -1771.898          35.000  
E31  27747778.465   145815502.098        -859.740          45.000    27747780.542   111728846.078        -658.823          50.000  
E07  27713771.425   145636886.858        -220.444          43.000    27713773.323   111591915.848        -169.013          50.000  
E26  26403821.188   138753280.715       -1357.389          47.000    26403819.475   106317597.909       -1040.103          52.000  
E14  28608801.895   150340339.993       -1116.527          46.000    28608801.171   115195873.092        -855.632          52.000  
> 2024 04 17 09 14 00.0070000  0 23                     
G08  23065112.086   121208022.903        1396.899          48.000    23065109.721    94447829.894        1088.306          46.000  
G16  24887548.208   130785000.821       -3665.417          43.000                                                                  
G27  22368533.314   117547424.844        -784.949          51.000    22368529.004    91595447.925        -611.838          48.000  
G23  26145523.758   137395789.656       -4003.792          43.000    26145519.253   107061620.268       -3120.017          41.000  
R08  22050957.927   118081892.331       -1408.815          51.000    22050951.314    91841509.290       -1095.698          52.000  
R22  25084215.336   133901396.514       -2883.661          47.000    25084210.053   104145357.189       -2242.867          45.000  
R14  25021158.356   133376920.825       -2216.980          47.000    25021160.821   103737523.690       -1724.219          46.000  
R07  25097004.701   134346244.250       -4385.972          48.000    25096999.102   104491559.783       -3411.400          45.000  
G21  24997551.943   131363038.587        1981.833          46.000                                                                  
S31  40979289.366   215347718.752        -614.197          44.000  
S33  41933589.201   220362642.998        -613.696          42.000  
G10  23213723.550   121989072.339       -2949.279          50.000    23213719.868    95056353.630       -2298.267          47.000  
E33  26625354.976   139917297.987         178.260          47.000    26625353.089   107209340.905         136.448          51.000  
R01  22839195.049   122088560.718        2804.962          49.000    22839192.348    94957783.082        2181.696          44.000  
R23  22502820.902   120374972.352        -731.025          47.000                                                                  
R24  23656875.785   126504036.375        1723.181          51.000    23656870.812    98391990.571        1340.250          45.000  
G02  26098580.936   137148956.619        2088.083          42.000                                                                  
G32  24232258.345   127341404.792        1167.162          49.000    24232254.918    99227098.620         909.474          44.000  
E13  30102239.439   158188299.214       -2312.247          34.000    30102239.517   121209651.705       -1771.826          35.000  
E31  27752726.732   145841500.650        -873.193          46.000    27752727.627   111748767.082        -669.128          50.000  
E07  27715068.410   145643703.972        -233.750          43.000    27715070.621   111597139.374        -179.039          50.000  
E26  26411573.818   138794022.576       -1358.519          47.000    26411572.363   106348815.715       -1040.974          52.000  
E14  28615165.123   150373777.399       -1112.220          47.000    28615164.215   115221493.966        -852.243          52.000  
> 2024 04 17 09 14 30.0070000  0 23                     
G08  23057176.019   121166319.619        1383.752          48.000    23057173.896    94415333.874        1078.363          46.000  
G16  24908495.631   130895078.456       -3672.644          42.000                                                                  
G27  22373064.385   117571236.870        -802.124          50.000    22373060.116    91614002.768        -625.018          47.000  
G23  26168384.984   137515927.493       -4005.079          42.000    26168379.856   107155234.177       -3121.607          39.000  
R08  22058928.515   118124571.251       -1436.222          52.000    22058921.001    91874704.023       -1117.051          52.000  
R22  25100440.535   133988005.917       -2890.054          48.000    25100435.191   104212720.069       -2247.836          46.000  
R14  25033691.447   133443716.092       -2235.671          48.000    25033691.280   103789475.612       -1738.976          45.000  
R07  25121620.404   134478012.645       -4398.346          47.000    25121614.260   104594046.264       -3420.776          45.000  
G21  24986242.167   131303602.208        1980.987          47.000                                                                  
S31  40982795.326   215366142.824        -613.896          44.000  
S33  41937092.285   220381052.349        -613.418          42.000  
G10  23230594.228   122077729.399       -2960.860          49.000    23230590.624    95125437.095       -2307.224          47.000  
E33  26624341.722   139911975.030         176.914          46.000    26624340.006   107205262.315         135.509          51.000  
R01  22823501.096   122004666.756        2788.312          50.000    22823497.664    94892532.263        2168.567          44.000  
R23  22506944.068   120397028.763        -739.210          48.000                                                                  
R24  23647213.489   126452365.212        1721.874          51.000    23647208.729    98351801.956        1338.992          45.000  
G02  26086662.588   137086322.926        2087.813          42.000                                                                  
G32  24225643.465   127306639.521        1151.004          50.000    24225638.394    99200008.819         896.649          43.000  
E13  30115442.448   158257672.371       -2311.874          33.000    30115439.666   121262807.681       -1771.850          34.000  
E31  27757752.117   145867907.608        -886.949          46.000    27757752.486   111769001.043        -679.662          50.000  
E07  27716443.463   145650922.835        -247.184          44.000    27716444.394   111602670.754        -189.449          51.000  
E26  26419333.690   138834801.877       -1359.936          47.000    26419332.496   106380062.224       -1042.052          52.000  
E14  28621505.204   150407092.330       -1108.409          47.000    28621503.740   115247021.008        -849.414          52.000  
