     3.00           OBSERVATION DATA    M: Mixed            RINEX VERSION / TYPE
CONVBIN 2.4.3                           20240417 064442 UTC PGM / RUN BY / DATE 
format: u-blox UBX                                          COMMENT             
log: /home/regis/git/gnsspwv/obsdata/VERT00CHL/2024-04-17/VECOMMENT             
{self.marker}                                               MARKER NAME         
                                                            MARKER NUMBER       
GEODETIC                                                    MARKER TYPE         
{self.observer}     {self.institution}                      OBSERVER / AGENCY   
UNKNOWN             UBLOX-ZED-F9P                           REC # / TYPE / VERS 
UNKNOWN             TWIVSP6037L                             ANT # / TYPE        
  1713381.0000 -5047934.0000 -3490983.0000                  APPROX POSITION XYZ 
        0.0000        0.0000        0.0000                  ANTENNA: DELTA H/E/N
G    8 C1C L1C D1C S1C C2L L2L D2L S2L                      SYS / # / OBS TYPES 
R    8 C1C L1C D1C S1C C2C L2C D2C S2C                      SYS / # / OBS TYPES 
E    8 C1C L1C D1C S1C C7Q L7Q D7Q S7Q                      SYS / # / OBS TYPES 
S    4 C1C L1C D1C S1C                                      SYS / # / OBS TYPES 
  2024    04    17    06    30   00.0030000     GPS         TIME OF FIRST OBS   
  2024    04    17    06    44   30.0040000     GPS         TIME OF LAST OBS    
                                                            END OF HEADER       
> 2024 04 17 06 30 00.0030000  0 24                     
G31  24911815.857   130912360.8361      -3270.320          38.000    24911811.668   102009748.4721      -2548.188          36.000  
G16  22749756.575   119550825.7291       1698.792          48.000                                                                  
G26  21366527.630   112281886.9781       -979.778          48.000    21366526.635    87492390.7541       -763.538          46.000  
G27  24286263.041   127625142.8211       1766.095          42.000    24286259.308    99448210.7471       1376.198          40.000  
G23  21746009.135   114276198.2831        490.851          45.000    21746004.941    89046355.4321        382.465          47.000  
R22  21152842.723   112915471.5441      -1442.156          51.000    21152839.468    87822972.9161      -1121.686          50.000  
R11  23443214.895   125273452.6871      -4964.810          48.000    23443213.615    97434890.8921      -3861.421          48.000  
R07  23552813.650   126080066.0071       2576.672          49.000    23552809.240    98062308.1081       2004.030          47.000  
R13  22512674.413   120216330.6021       1760.484          41.000    22512671.861    93501616.8551       1369.807          38.000  
G29  24938752.710   131054171.4171      -2818.921          45.000    24938747.283   102120215.4341      -2196.317          39.000  
S31  39820608.601   209258800.2031       -625.608          44.000  
S33  40775488.509   214276774.2481       -625.614          43.000  
G10  23096715.125   121374172.6241       2745.280          48.000    23096712.103    94577206.9211       2139.372          44.000  
E33  27840925.047   146305128.3181       1399.838          44.000    27840925.503   112103903.0131       1072.657          45.000  
R12  20849041.641   111371966.6481      -1757.778          53.000    20849037.884    86622599.6531      -1367.008          50.000  
R06  23433731.010   125046880.0311       -248.680          37.000    23433679.408                3        -20.000          11.000  
R23  22715658.744   121513483.1501        926.296          50.000                                                                  
R21  23624710.086   126421106.7211      -3154.427          47.000    23624703.491    98327620.1611      -2453.160          43.000  
E21  24801591.474   130333309.6371      -1874.044          48.000    24801590.517    99865819.1841      -1435.890          51.000  
E13  25582619.269   134437982.0831      -2365.990          47.000    25582620.283   103011026.7051      -1812.885          53.000  
E27  28134102.124   147845721.2831      -3551.108          44.000    28134104.038   113284392.5041      -2721.059          47.000  
G18  22567945.185   118595653.6271      -2816.867          48.000    22567940.178    92412308.8101      -2194.933          49.000  
E26  24613063.197   129342782.5071       -180.819          47.000    24613061.545    99106955.4321       -138.581          51.000  
E14  25027782.877   131521950.0961      -2698.747          49.000    25027780.640   100776586.6301      -2067.874          51.000  
> 2024 04 17 06 30 30.0030000  0 24                     
G31  24930490.810   131010502.555       -3273.257          36.000    24930487.788   102086222.374       -2549.843          33.000  
G16  22740093.860   119500046.348        1686.390          48.000                                                                  
G26  21372175.325   112311567.931        -999.117          48.000    21372174.657    87515518.754        -778.524          45.000  
G27  24276178.060   127572146.023        1766.976          42.000    24276174.541    99406914.580        1376.558          40.000  
G23  21743262.992   114261763.521         471.191          47.000    21743258.352    89035107.578         367.163          47.000  
R22  21160964.420   112958825.639       -1448.217          50.000    21160960.855    87856692.781       -1126.422          49.000  
R11  23471103.027   125422477.067       -4970.263          48.000    23471101.619    97550798.633       -3865.705          48.000  
R07  23538401.106   126002913.374        2566.772          49.000    23538397.207    98002300.522        1996.423          47.000  
R13  22502841.351   120163824.935        1739.422          41.000    22502838.519    93460779.166        1353.229          38.000  
G29  24954854.559   131138785.690       -2822.376          45.000    24954849.438   102186148.617       -2199.049          40.000  
S31  39824179.220   209277563.657        -625.104          44.000  
S33  40779058.508   214295534.945        -625.190          43.000  
G10  23081069.211   121291955.191        2735.650          48.000    23081067.412    94513141.457        2131.650          44.000  
E33  27832946.513   146263202.394        1394.812          44.000    27832947.430   112071778.007        1068.794          46.000  
R12  20858985.761   111425087.220       -1783.730          52.000    20858982.556    86663915.634       -1387.400          50.000  
R06  23435192.686   125054681.665        -271.646          37.000                                                                  
R23  22710481.616   121485793.465         919.662          48.000                                                                  
R21  23642390.013   126515711.987       -3152.653          48.000    23642383.049    98401201.991       -2452.020          43.000  
E21  24812322.389   130389703.249       -1885.815          48.000    24812321.977    99909029.867       -1444.934          51.000  
E13  25596133.792   134508998.361       -2368.559          48.000    25596134.278   103065441.756       -1814.863          53.000  
E27  28154385.226   147952303.593       -3554.445          44.000    28154386.048   113366059.385       -2723.590          47.000  
G18  22584043.248   118680250.236       -2823.140          47.000    22584038.588    92478228.243       -2199.792          49.000  
E26  24614116.739   129348317.399        -188.159          48.000    24614114.763    99111196.453        -144.316          51.000  
E14  25043179.995   131602863.298       -2695.589          49.000    25043177.916   100838585.060       -2065.509          51.000  
> 2024 04 17 06 31 00.0030000  0 24                     
G31  24949184.834   131108741.917       -3276.458          39.000    24949182.328   102162772.491       -2553.573          32.000  
G16  22730506.143   119449663.787        1672.481          48.000                                                                  
G26  21377937.609   112341848.331       -1019.531          48.000    21377936.743    87539113.879        -794.494          45.000  
G27  24266093.120   127519152.131        1766.129          41.000    24266090.769    99365620.696        1376.148          41.000  
G23  21740631.919   114247936.729         450.446          47.000    21740627.611    89024333.459         350.958          48.000  
R22  21169125.393   113002386.912       -1455.811          51.000    21169121.077    87890573.730       -1132.263          49.000  
R11  23499026.211   125571685.124       -4976.968          49.000    23499024.092    97666849.240       -3870.980          47.000  
R07  23524048.553   125926079.043        2555.459          49.000    23524042.943    97942540.536        1987.600          46.000  
R13  22493132.788   120111982.856        1716.236          41.000    22493130.512    93420457.557        1335.433          38.000  
G29  24970981.648   131223531.806       -2827.498          45.000    24970975.871   102252184.511       -2202.960          40.000  
S31  39827751.913   209296337.536        -626.217          44.000  
S33  40782630.658   214314305.949        -626.260          43.000  
G10  23065483.475   121210055.429        2724.438          48.000    23065482.228    94449323.510        2122.954          45.000  
E33  27825003.135   146221458.032        1388.145          44.000    27825003.995   112039792.118        1063.667          46.000  
R12  20869079.751   111479012.355       -1811.083          51.000    20869077.788    86705857.396       -1408.642          50.000  
R06  23436790.034   125063212.293        -297.288          34.000                                                                  
R23  22705346.987   121458331.367         911.434          47.000                                                                  
R21  23660063.175   126610289.517       -3152.350          47.000    23660057.432    98474762.309       -2451.914          42.000  
E21  24823125.619   130446474.954       -1898.995          48.000    24823125.410    99952530.259       -1455.055          52.000  
E13  25609666.499   134580115.419       -2372.528          47.000    25609667.362   103119934.042       -1817.889          53.000  
E27  28174689.725   148059008.786       -3559.073          43.000    28174691.588   113447820.436       -2727.212          47.000  
G18  22600181.167   118765054.241       -2830.477          46.000    22600176.804    92544309.264       -2205.644          49.000  
E26  24615217.235   129354098.663        -197.111          48.000    24615215.042    99115626.255        -150.952          51.000  
E14  25058562.804   131683701.427       -2693.464          48.000    25058561.087   100900525.966       -2063.900          51.000  
> 2024 04 17 06 31 30.0030000  0 24                     
G31  24967902.024   131207099.089       -3280.787          37.000    24967891.459                1      -2556.071          27.000  
G16  22720999.226   119399703.362        1658.168          48.000                                                                  
G26  21383817.922   112372750.882       -1040.499          48.000    21383816.793    87563193.769        -810.903          45.000  
G27  24256014.014   127466184.609        1764.848          42.000    24256012.069    99324347.314        1375.378          41.000  
G23  21738121.174   114234741.966         429.150          47.000    21738116.935    89014051.818         334.393          48.000  
R22  21177328.322   113046176.940       -1463.598          51.000    21177324.941    87924632.637       -1138.384          50.000  
R11  23526986.731   125721095.843       -4983.726          49.000    23526984.537    97783057.471       -3876.350          47.000  
R07  23509760.265   125849591.322        2543.674          50.000    23509753.335    97883050.122        1978.391          46.000  
R13  22483554.122   120060830.556        1693.340          41.000    22483551.760    93380672.466        1316.896          39.000  
G29  24987136.980   131308432.656       -2832.634          43.000    24987132.359   102318340.982       -2207.285          40.000  
S31  39831331.177   209315146.490        -627.714          44.000  
S33  40786209.406   214333110.844        -627.613          43.000  
G10  23049964.447   121128499.326        2712.664          48.000    23049962.050    94385773.302        2113.822          44.000  
E33  27817097.966   146179918.064        1381.173          43.000    27817099.066   112007962.847        1058.320          47.000  
R12  20879329.330   111533763.441       -1838.838          52.000    20879327.277    86748441.580       -1430.206          50.000  
R06  23438530.052   125072496.595        -322.229          34.000                                                                  
R23  22700260.190   121431118.903         902.768          48.000                                                                  
R21  23677736.032   126704862.223       -3152.340          47.000    23677731.734    98548318.816       -2451.818          43.000  
E21  24834005.145   130503647.045       -1912.517          48.000    24834005.291    99996337.433       -1465.438          52.000  
E13  25623222.624   134651354.792       -2376.758          47.000    25623223.876   103174520.036       -1821.094          52.000  
E27  28195022.381   148165858.258       -3564.166          43.000    28195024.160   113529692.023       -2730.898          46.000  
G18  22616361.812   118850086.320       -2838.214          46.000    22616358.327    92610568.034       -2211.621          49.000  
E26  24616368.535   129360148.234        -206.137          48.000    24616366.732    99120261.655        -158.052          51.000  
E14  25073935.817   131764486.064       -2691.921          48.000    25073933.955   100962425.887       -2062.687          51.000  
> 2024 04 17 06 32 00.0030000  0 24                     
G31  24986642.817   131305578.676       -3284.663          39.000    24986635.643                       -2559.564          28.000  
G16  22711574.112   119350175.110        1643.633          47.000                                                                  
G26  21389819.518   112404283.006       -1061.654          49.000    21389817.426    87587764.211        -827.094          46.000  
G27  24245941.021   127413251.538        1763.835          41.000    24245939.094    99283100.793        1374.348          41.000  
G23  21735732.155   114222187.970         407.733          47.000    21735727.477    89004269.498         317.627          47.000  
R22  21185575.119   113090201.932       -1471.458          50.000    21185572.032    87958874.285       -1144.423          50.000  
R11  23554985.333   125870712.698       -4990.715          50.000    23554982.705    97899426.028       -3881.622          47.000  
R07  23495538.880   125773462.343        2531.497          50.000    23495530.963    97823838.735        1968.814          45.000  
R13  22474106.600   120010378.122        1670.342          42.000    22474103.722    93341431.699        1298.861          39.000  
G29  25003323.683   131393495.992       -2838.229          43.000    25003319.780   102384624.054       -2211.438          40.000  
S31  39834918.081   209333995.659        -628.942          44.000  
S33  40789795.295   214351957.767        -629.077          43.000  
G10  23034512.580   121047297.526        2700.783          47.000    23034509.237    94322499.179        2104.657          43.000  
E33  27809232.981   146138590.087        1374.088          43.000    27809234.468   111976296.012        1052.797          47.000  
R12  20889735.030   111589346.113       -1866.665          51.000    20889732.700    86791672.531       -1451.825          50.000  
R06  23440415.363   125082543.386        -347.571          36.000                                                                  
R23  22695221.405   121404162.862         894.265          48.000                                                                  
R21  23695409.758   126799437.234       -3152.479          47.000    23695405.480    98621877.188       -2451.987          43.000  
E21  24844962.181   130561226.557       -1926.213          48.000    24844962.520   100040456.776       -1475.924          52.000  
E13  25636803.493   134722722.738       -2381.218          47.000    25636804.350   103229204.564       -1824.457          52.000  
E27  28215383.589   148272858.098       -3569.295          42.000    28215385.463   113611678.846       -2735.009          46.000  
G18  22632587.123   118935352.082       -2846.052          45.000    22632583.243    92677008.875       -2217.712          48.000  
E26  24617572.660   129366472.843        -215.440          49.000    24617570.341    99125107.802        -165.120          52.000  
E14  25089299.232   131845223.542       -2690.394          48.000    25089297.877   101024289.673       -2061.494          51.000  
> 2024 04 17 06 32 30.0030000  0 24                     
G31  25005407.262   131404182.328       -3289.186          40.000    25005401.364                       -2563.054          26.000  
G16  22702232.701   119301086.562        1628.649          48.000                                                                  
G26  21395941.291   112436449.508       -1083.133          49.000    21395938.956    87612829.009        -843.904          46.000  
G27  24235875.275   127360358.614        1762.316          39.000    24235873.337    99241885.575        1373.342          40.000  
G23  21733466.144   114210280.971         385.883          47.000    21733461.221    88994991.317         300.598          47.000  
R22  21193868.881   113134465.438       -1479.686          52.000    21193864.165    87993301.420       -1150.753          49.000  
R11  23583022.783   126020536.958       -4997.854          49.000    23583020.007    98015955.880       -3886.957          46.000  
R07  23481385.649   125697702.054        2518.881          50.000    23481378.494    97764914.118        1959.225          46.000  
R13  22464791.240   119960634.376        1646.074          42.000    22464788.353    93302742.109        1280.303          39.000  
G29  25019543.252   131478727.076       -2843.988          44.000    25019538.181   102451037.895       -2216.042          40.000  
S31  39838513.757   209352891.607        -630.885          44.000  
S33  40793390.741   214370851.055        -630.848          42.000  
G10  23019129.220   120966458.226        2688.298          46.000    23019125.563    94259507.530        2094.838          44.000  
E33  27801409.175   146097479.105        1366.746          42.000    27801411.387   111944795.468        1047.123          48.000  
R12  20900295.614   111645763.859       -1894.772          51.000    20900293.727    86835552.985       -1473.569          50.000  
R06  23442439.920   125093358.719        -373.190          32.000                                                                  
R23  22690231.254   121377467.388         885.275          48.000                                                                  
R21  23713083.372   126894019.053       -3152.987          45.000    23713080.113    98695440.790       -2452.604          43.000  
E21  24855997.812   130619217.997       -1940.108          49.000    24855998.156   100084891.754       -1486.560          53.000  
E13  25650409.938   134794223.080       -2385.712          47.000    25650410.347   103283990.545       -1827.985          52.000  
E27  28235774.117   148380011.919       -3574.461          43.000    28235776.005   113693783.631       -2738.815          46.000  
G18  22648857.819   119020854.532       -2854.263          47.000    22648853.658    92743634.161       -2224.098          48.000  
E26  24618829.509   129373076.637        -224.982          49.000    24618827.067    99130167.867        -172.365          52.000  
E14  25104654.512   131925917.657       -2689.034          48.000    25104653.462   101086120.244       -2060.483          51.000  
> 2024 04 17 06 33 00.0040000  0 24                     
G31  25024196.625   131502920.282       -3293.115          41.000    25024191.941                       -2566.089          28.000  
G16  22692976.886   119252448.622        1613.688          47.000                                                                  
G26  21402185.421   112469261.350       -1104.375          50.000    21402182.769    87638396.655        -860.620          46.000  
G27  24225818.771   127307514.722        1760.583          39.000    24225817.368    99200708.586        1371.833          40.000  
G23  21731325.429   114199031.802         363.981          47.000    21731320.028    88986225.748         283.690          47.000  
R22  21202206.989   113178977.674       -1487.693          51.000    21202203.397    88027922.049       -1157.120          50.000  
R11  23611101.003   126170579.230       -5004.743          50.000    23611098.387    98132655.314       -3892.635          46.000  
R07  23467304.245   125622322.319        2506.131          50.000    23467296.831    97706285.430        1949.144          46.000  
R13  22455609.921   119911610.816        1622.061          41.000    22455606.855    93264612.654        1261.797          39.000  
G29  25035796.597   131564139.055       -2849.988          44.000    25035791.857   102517592.683       -2220.801          40.000  
S31  39842120.376   209371845.147        -632.601          44.000  
S33  40796996.540   214389800.243        -632.627          42.000  
G10  23003816.728   120885991.854        2675.958          47.000    23003813.701    94196806.526        2085.178          44.000  
E33  27793629.596   146056593.931        1358.936          42.000    27793631.210   111913467.911        1041.388          48.000  
R12  20911015.316   111703026.671       -1922.709          51.000    20911013.510    86880090.727       -1495.476          50.000  
R06  23444612.732   125104954.841        -399.516          37.000                                                                  
R23  22685290.849   121351040.951         876.379          48.000                                                                  
R21  23730763.749   126988620.658       -3153.364          46.000    23730758.395    98769019.831       -2452.869          43.000  
E21  24867113.979   130677632.861       -1954.031          49.000    24867114.296   100129651.184       -1497.235          53.000  
E13  25664043.503   134865866.979       -2390.228          47.000    25664043.819   103338886.519       -1831.574          52.000  
E27  28256196.750   148487331.899       -3579.839          43.000    28256198.423   113776015.740       -2742.963          46.000  
G18  22665175.614   119106604.527       -2862.208          46.000    22665171.210    92810452.342       -2230.342          49.000  
E26  24620140.750   129379969.056        -234.559          48.000    24620138.510    99135449.084        -179.633          52.000  
E14  25120004.013   132006579.933       -2687.989          48.000    25120003.097   101147926.402       -2059.717          51.000  
> 2024 04 17 06 33 30.0040000  0 24                     
G31  25043007.095   131601768.951       -3296.393          41.000    25043001.715                       -2568.628          29.000  
G16  22683805.319   119204253.251        1599.343          47.000                                                                  
G26  21408548.266   112502702.274       -1124.994          49.000    21408545.649    87664454.489        -876.332          46.000  
G27  24215770.137   127254710.182        1759.285          39.000    24215768.684    99159562.239        1370.788          41.000  
G23  21729308.110   114188428.459         342.963          47.000    21729302.430    88977963.420         267.144          47.000  
R22  21210587.622   113223720.154       -1495.043          51.000    21210585.816    88062721.753       -1162.804          51.000  
R11  23639214.598   126320811.064       -5010.708          48.000    23639211.879    98249502.193       -3897.197          46.000  
R07  23453292.054   125547319.224        2493.992          48.000    23453285.754    97647949.736        1939.805          46.000  
R13  22446562.285   119863299.460        1598.835          41.000    22446560.198    93227037.185        1243.400          40.000  
G29  25052080.897   131649712.242       -2855.176          44.000    25052075.415   102584273.135       -2224.695          40.000  
S31  39845734.947   209390839.450        -633.573          44.000  
S33  40800610.234   214408791.262        -633.531          42.000  
G10  22988574.929   120805893.098        2664.108          48.000    22988571.754    94134391.983        2075.699          44.000  
E33  27785890.960   146015923.340        1352.346          43.000    27785891.408   111882304.801        1036.126          47.000  
R12  20921888.861   111761114.622       -1949.755          50.000    20921886.940    86925270.244       -1516.409          49.000  
R06  23446929.756   125117317.649        -424.618          36.000                                                                  
R23  22680397.847   121324869.921         868.526          47.000                                                                  
R21  23748440.580   127083221.233       -3153.284          46.000    23748437.714    98842597.989       -2452.578          43.000  
E21  24878306.874   130736452.803       -1967.324          49.000    24878307.401   100174720.996       -1507.461          53.000  
E13  25677701.281   134937634.579       -2394.214          48.000    25677700.710   103393877.261       -1834.472          52.000  
E27  28276646.764   148594795.593       -3584.488          43.000    28276648.078   113858357.962       -2746.468          45.000  
G18  22681536.100   119192580.543       -2869.371          47.000    22681532.197    92877446.610       -2235.947          49.000  
E26  24621503.830   129387134.916        -243.298          48.000    24621502.164    99140939.822        -186.402          52.000  
E14  25135343.891   132087189.952       -2685.948          48.000    25135342.594   101209692.514       -2058.035          51.000  
> 2024 04 17 06 34 00.0040000  0 24                     
G31  25061836.918   131700721.187       -3300.378          40.000    25061832.974   102624012.0361      -2572.192          32.000  
G16  22674716.727   119156494.305        1584.427          47.000                                                                  
G26  21415030.543   112536766.098       -1146.229          49.000    21415027.410    87690997.712        -892.927          45.000  
G27  24205727.757   127201936.871        1758.415          38.000    24205725.954    99118440.225        1370.007          40.000  
G23  21727412.120   114178464.642         321.146          48.000    21727407.133    88970199.400         250.285          47.000  
R22  21219013.040   113268685.718       -1502.868          52.000    21219008.758    88097694.971       -1168.852          50.000  
R11  23667363.003   126471226.431       -5017.039          48.000    23667360.551    98366491.784       -3902.125          46.000  
R07  23439351.320   125472687.590        2481.171          49.000    23439343.695    97589902.959        1929.897          46.000  
R13  22437646.991   119815694.365        1574.977          40.000    22437645.555    93190011.024        1224.878          41.000  
G29  25068394.172   131735442.732       -2860.657          44.000    25068388.775   102651076.062       -2229.095          39.000  
S31  39849356.280   209409869.767        -635.083          44.000  
S33  40804231.155   214427818.284        -635.324          42.000  
G10  22973401.412   120726155.345        2651.641          48.000    22973398.710    94072258.717        2066.238          45.000  
E33  27778191.311   145975458.999        1345.043          44.000    27778191.298   111851299.702        1030.738          47.000  
R12  20932916.078   111820020.428       -1977.379          51.000    20932914.170    86971085.861       -1537.998          49.000  
R06  23449390.840   125130441.931        -450.514          37.000                                                                  
R23  22675551.424   121298945.595         859.804          48.000                                                                  
R21  23766118.572   127177816.064       -3153.283          46.000    23766114.321    98916171.736       -2452.555          43.000  
E21  24889575.669   130795672.186       -1980.877          48.000    24889576.396   100220096.869       -1517.773          53.000  
E13  25691379.578   135009519.963       -2398.494          46.000    25691380.168   103448958.255       -1837.640          52.000  
E27  28297122.626   148702398.083       -3589.163          43.000    28297124.254   113940806.553       -2750.214          45.000  
G18  22697939.073   119278776.331       -2877.013          48.000    22697934.788    92944612.140       -2241.956          49.000  
E26  24622918.315   129394566.569        -252.372          48.000    24622916.431    99146634.204        -193.386          51.000  
E14  25150672.784   132167742.189       -2684.392          48.000    25150671.204   101271414.356       -2056.912          51.000  
> 2024 04 17 06 34 30.0040000  0 25                     
G31  25080688.126   131799783.264       -3304.126          42.000    25080684.279                       -2574.768          31.000  
G16  22665714.115   119109183.175        1569.181          46.000                                                                  
G26  21421632.782   112571461.504       -1167.416          48.000    21421629.669    87718033.091        -909.788          45.000  
G27  24195693.597   127149204.395        1756.676          39.000    24195691.024    99077349.997        1368.896          40.000  
G23  21725639.753   114169150.428         299.347          48.000    21725635.393    88962941.600         233.146          48.000  
R22  21227480.541   113313882.019       -1510.800          52.000    21227475.345    88132847.619       -1175.065          50.000  
R11  23695546.778   126621830.261       -5023.722          47.000    23695543.965    98483628.002       -3907.342          45.000  
R07  23425480.734   125398440.808        2468.026          49.000    23425474.355    97532155.537        1919.603          46.000  
R13  22428866.535   119768807.934        1550.354          39.000    22428864.763    93153543.813        1205.857          40.000  
G29  25084740.028   131821339.922       -2866.400          45.000    25084734.656   102718008.924       -2233.344          39.000  
S31  39852986.116   209428944.654        -636.822          44.000  
S33  40807860.239   214446889.683        -636.890          42.000  
G10  22958298.565   120646790.706        2638.834          48.000    22958296.381    94010416.188        2056.124          45.000  
E33  27770531.993   145935209.841        1337.444          44.000    27770532.306   111820459.492        1024.949          48.000  
R12  20944099.397   111879751.246       -2005.158          51.000    20944096.614    87017543.145       -1559.645          50.000  
R06  23451995.286   125144337.769        -476.654          38.000                                                                  
R23  22670753.060   121273276.117         850.988          48.000                                                                  
R21  23783796.773   127272414.067       -3153.724          46.000    23783792.873    98989747.927       -2452.866          43.000  
E21  24900922.071   130855299.437       -1994.770          48.000    24900922.986   100265785.262       -1528.443          53.000  
E13  25705083.253   135081530.918       -2402.758          47.000    25705083.437   103504135.480       -1841.170          52.000  
E27  28317626.462   148810146.952       -3594.472          43.000    28317628.572   114023367.306       -2754.340          45.000  
G18  22714385.428   119365198.963       -2884.967          49.000    22714380.595    93011954.461       -2247.996          49.000  
E26  24624384.766   129402272.119        -261.866          48.000    24624382.806    99152538.455        -200.641          52.000  
E14  25165991.793   132248244.462       -2682.885          48.000    25165990.401   101333097.909       -2055.732          52.000  
G15                                                                  26394172.486                3       -119.768          20.000  
> 2024 04 17 06 35 00.0040000  0 25                     
G31  25099560.787   131898959.473       -3307.849          39.000    25099556.973                       -2577.612          32.000  
G16  22656798.311   119062330.172        1553.839          47.000                                                                  
G26  21428356.251   112606795.867       -1188.499          48.000    21428354.230    87745566.355        -926.164          45.000  
G27  24185668.650   127096521.072        1755.010          42.000    24185665.547    99036298.086        1367.581          41.000  
G23  21723992.496   114160494.549         277.433          48.000    21723988.202    88956196.760         216.129          48.000  
R22  21235990.556   113359315.402       -1518.507          51.000    21235986.345    88168184.691       -1181.097          50.000  
R11  23723766.011   126772626.021       -5029.940          46.000    23723764.216    98600913.481       -3912.074          46.000  
R07  23411684.830   125324591.507        2454.863          49.000    23411679.212    97474717.209        1909.237          47.000  
R13  22420223.260   119722650.689        1526.105          40.000    22420220.154    93117643.737        1187.069          40.000  
G29  25101118.588   131907411.578       -2872.058          45.000    25101113.495   102785077.744       -2237.860          38.000  
S31  39856625.955   209448070.994        -638.671          44.000  
S33  40811499.489   214466012.866        -638.435          42.000  
G10  22943268.332   120567809.952        2626.069          47.000    22943267.312    93948872.783        2046.359          46.000  
E33  27762914.405   145895183.577        1330.329          44.000    27762915.504   111789790.077        1019.365          48.000  
R12  20955437.444   111940312.832       -2032.703          52.000    20955433.940    87064646.589       -1581.042          50.000  
R06  23454743.322   125159013.945        -502.421          37.000                                                                  
R23  22666003.222   121247868.289         842.367          48.000                                                                  
R21  23801477.454   127367022.528       -3154.044          47.000    23801472.154    99063332.299       -2452.972          42.000  
E21  24912347.995   130915341.642       -2008.489          48.000    24912348.447   100311791.613       -1538.964          52.000  
E13  25718811.974   135153673.893       -2407.098          47.000    25718811.662   103559413.851       -1844.353          52.000  
E27  28338159.856   148918048.383       -3599.346          43.000    28338161.998   114106044.948       -2758.037          45.000  
G18  22730875.374   119451854.109       -2892.649          48.000    22730870.010    93079477.941       -2253.971          48.000  
E26  24625903.760   129410258.353        -271.113          47.000    24625902.624    99158657.773        -207.625          52.000  
E14  25181302.579   132328703.277       -2681.322          48.000    25181301.355   101394748.169       -2054.621          52.000  
G15                                                                  26395110.677                3       -127.646          18.000  
> 2024 04 17 06 35 30.0040000  0 25                     
G31  25118450.141   131998229.447       -3310.706          34.000    25118445.819                       -2579.547          31.000  
G16  22647967.021   119015920.201        1539.944          47.000                                                                  
G26  21435198.223   112642751.371       -1208.390          48.000    21435196.751    87773583.621        -941.615          46.000  
G27  24175650.057   127043870.072        1755.307          42.000    24175647.007    98995271.389        1367.410          41.000  
G23  21722467.772   114152480.497         256.852          48.000    21722462.593    88949952.049         200.188          48.000  
R22  21244543.106   113404966.699       -1524.852          52.000    21244539.013    88203691.254       -1185.984          50.000  
R11  23752017.176   126923592.031       -5034.461          46.000    23752015.905    98718331.344       -3915.822          44.000  
R07  23397959.933   125251126.740        2442.765          48.000    23397955.722    97417577.981        1899.823          46.000  
R13  22411713.852   119677207.609        1503.621          41.000    22411709.822    93082299.167        1169.242          40.000  
G29  25117527.648   131993640.108       -2876.349          45.000    25117522.732   102852268.784       -2241.388          39.000  
S31  39860271.910   209467231.490        -638.759          44.000  
S33  40815144.913   214485170.943        -638.721          42.000  
G10  22928309.037   120489198.701        2614.436          45.000    22928307.344    93887617.261        2037.290          45.000  
E33  27755335.842   145855362.689        1324.496          42.000    27755337.395   111759278.037        1014.886          47.000  
R12  20966926.061   112001685.021       -2058.733          51.000    20966922.708    87112380.477       -1601.193          49.000  
R06  23457636.636   125174453.671        -527.048          39.000                                                                  
R23  22661299.652   121222703.329         835.166          49.000                                                                  
R21  23819156.267   127461623.276       -3152.855          47.000    23819150.556    99136910.677       -2452.163          42.000  
E21  24923849.358   130975780.729       -2020.827          48.000    24923849.229   100358102.073       -1548.350          52.000  
E13  25732561.828   135225930.159       -2409.860          47.000    25732561.833   103614779.033       -1846.581          52.000  
E27  28358718.105   149026083.457       -3602.963          43.000    28358720.603   114188824.984       -2760.701          45.000  
G18  22747405.744   119538722.294       -2898.656          48.000    22747400.704    93147167.420       -2258.826          49.000  
E26  24627473.660   129418506.907        -278.871          47.000    24627472.129    99164978.107        -213.704          52.000  
E14  25196601.305   132409099.971       -2678.318          48.000    25196600.544   101456350.835       -2052.300          52.000  
G15                                                                  26396131.075                3       -150.625          22.000  
> 2024 04 17 06 36 00.0040000  0 25                     
G31  25137350.806   132097546.505       -3311.621          35.000    25137346.509                       -2580.597          32.000  
G16  22639212.016   118969912.395        1526.769          46.000                                                                  
G26  21442149.948   112679284.198       -1227.388          48.000    21442148.930    87802050.733        -956.461          46.000  
G27  24165628.826   126991208.652        1755.364          42.000    24165626.047    98954236.522        1367.998          42.000  
G23  21721056.760   114145065.822         237.089          48.000    21721051.614    88944174.372         184.814          48.000  
R22  21253127.186   113450790.268       -1530.376          52.000    21253122.357    88239331.817       -1190.261          50.000  
R11  23780291.862   127074679.693       -5038.264          47.000    23780288.907    98835843.891       -3918.760          44.000  
R07  23384300.295   125178006.480        2431.473          48.000    23384294.861    97360706.684        1891.376          46.000  
R13  22403330.711   119632437.439        1481.014          43.000    22403326.196    93047477.908        1151.885          41.000  
G29  25133957.736   132079982.586       -2879.883          45.000    25133953.745   102919548.623       -2244.135          39.000  
S31  39863916.416   209486383.643        -638.369          44.000  
S33  40818788.798   214504317.913        -638.023          43.000  
G10  22913412.092   120410916.540        2603.814          46.000    22913410.903    93826618.227        2028.946          45.000  
E33  27747790.209   145815703.684        1319.335          43.000    27747790.851   111728890.016        1010.783          48.000  
R12  20978557.605   112063821.624       -2084.005          51.000    20978554.613    87160708.942       -1620.872          49.000  
R06  23460664.307   125190613.816        -550.858          37.000                                                                  
R23  22656632.018   121197736.023         828.959          48.000                                                                  
R21  23836824.354   127556171.517       -3150.614          45.000    23836819.910    99210448.230       -2450.704          43.000  
E21  24935417.560   131036572.604       -2032.219          48.000    24935417.486   100404682.857       -1557.188          52.000  
E13  25746324.438   135298255.043       -2412.080          47.000    25746324.955   103670196.777       -1848.133          52.000  
E27  28379294.045   149134207.218       -3605.536          44.000    28379295.942   114271672.993       -2762.681          45.000  
G18  22763967.925   119625758.088       -2904.015          48.000    22763963.055    93214987.500       -2262.804          49.000  
E26  24629084.684   129426973.422        -285.830          48.000    24629083.102    99171465.456        -219.048          52.000  
E14  25211879.239   132489389.984       -2674.526          47.000    25211879.162   101517871.747       -2049.282          52.000  
G15                                                                  26397233.445                3       -148.926          16.000  
> 2024 04 17 06 36 30.0040000  0 25                     
G31  25156257.672   132196906.246       -3312.311          34.000    25156253.280   103010649.068       -2581.159          31.000  
G16  22630533.905   118924308.007        1513.625          46.000                                                                  
G26  21449211.709   112716392.751       -1246.298          48.000    21449209.946    87830966.493        -971.163          45.000  
G27  24155605.281   126938536.203        1756.521          41.000    24155603.298    98913193.105        1368.390          42.000  
G23  21719759.362   114138250.269         217.363          47.000    21719754.631    88938863.532         169.279          48.000  
R22  21261743.052   113496783.364       -1535.692          52.000    21261738.819    88275104.219       -1194.488          50.000  
R11  23808588.065   127225883.787       -5041.990          46.000    23808584.871    98953446.952       -3921.300          44.000  
R07  23370707.560   125105234.135        2419.917          51.000    23370700.265    97304106.037        1882.153          46.000  
R13  22395073.571   119588341.877        1458.567          42.000    22395068.917    93013181.369        1134.417          41.000  
G29  25150409.857   132166437.741       -2883.594          45.000    25150404.768   102986916.206       -2246.802          38.000  
S31  39867558.904   209505524.895        -637.583          44.000  
S33  40822430.597   214523456.534        -637.767          42.000  
G10  22898579.209   120332965.350        2593.038          48.000    22898577.046    93765877.073        2020.561          45.000  
E33  27740273.512   145776205.334        1314.105          43.000    27740274.353   111698625.084        1006.941          47.000  
R12  20990333.308   112126719.167       -2108.990          52.000    20990329.564    87209629.233       -1640.412          50.000  
R06  23463829.833   125207494.077        -574.312          38.000                                                                  
R23  22652001.400   121172964.021         822.611          49.000                                                                  
R21  23854483.221   127650665.574       -3148.635          43.000    23854478.706    99283943.622       -2449.059          41.000  
E21  24947051.490   131097715.439       -2043.752          47.000    24947052.540   100451532.547       -1566.032          52.000  
E13  25760099.573   135370646.074       -2413.955          47.000    25760100.341   103725665.219       -1849.752          52.000  
E27  28399885.996   149242417.014       -3608.276          44.000    28399887.968   114354586.917       -2764.757          46.000  
G18  22780561.829   119712958.304       -2909.329          48.000    22780556.217    93282935.708       -2266.865          49.000  
E26  24630736.701   129435655.828        -292.838          48.000    24630735.155    99178118.221        -224.395          51.000  
E14  25227137.016   132569570.932       -2670.682          47.000    25227137.063   101579309.099       -2046.432          52.000  
G15                                                                  26398378.513                3       -165.203          20.000  
> 2024 04 17 06 37 00.0040000  0 25                     
G31  25175171.860   132296296.607       -3313.635          35.000    25175171.024   103088095.948       -2582.037          31.000  
G16  22621930.891   118879100.344        1500.348          46.000                                                                  
G26  21456381.113   112754067.699       -1265.441          48.000    21456379.267    87860323.594        -985.995          45.000  
G27  24145577.865   126885844.579        1756.744          41.000    24145576.861    98872134.721        1368.953          42.000  
G23  21718574.881   114132025.850         197.588          47.000    21718570.332    88934013.311         153.954          48.000  
R22  21270389.668   113542935.580       -1541.066          52.000    21270384.995    88311000.383       -1198.618          51.000  
R11  23836902.746   127377191.111       -5045.410          45.000    23836899.830    99071130.261       -3923.944          44.000  
R07  23357176.680   125032805.052        2408.542          50.000    23357170.966    97247772.322        1873.284          48.000  
R13  22386940.080   119544914.403        1436.205          41.000    22386936.696    92979404.446        1117.381          41.000  
G29  25166880.722   132252996.645       -2887.036          44.000    25166874.994   103054364.712       -2249.890          35.000  
S31  39871197.714   209524646.763        -637.032          44.000  
S33  40826068.726   214542574.380        -636.822          43.000  
G10  22883807.909   120255339.361        2582.054          48.000    22883804.253    93705389.321        2011.969          43.000  
E33  27732786.183   145736858.649        1309.141          43.000    27732786.855   111668476.385        1003.048          47.000  
R12  21002247.435   112190366.153       -2134.067          51.000    21002244.743    87259132.416       -1659.793          50.000  
R06  23467127.109   125225086.360        -598.454          38.000                                                                  
R23  22647404.876   121148377.386         816.458          49.000                                                                  
R21  23872130.607   127745096.121       -3146.697          41.000    23872121.907    99357389.624       -2447.198          39.000  
E21  24958751.749   131159199.671       -2055.182          47.000    24958752.753   100498643.810       -1574.666          52.000  
E13  25773885.767   135443093.158       -2415.736          47.000    25773886.564   103781176.617       -1851.091          52.000  
E27  28420491.975   149350702.450       -3610.807          44.000    28420493.904   114437558.809       -2766.745          45.000  
G18  22797184.989   119800312.060       -2914.374          49.000    22797179.776    93351003.561       -2270.916          50.000  
E26  24632428.132   129444544.295        -299.677          48.000    24632426.139    99184928.874        -229.665          51.000  
E14  25242372.563   132649632.789       -2666.646          47.000    25242372.286   101640655.195       -2043.325          52.000  
G15                                                                  26399589.422                3       -174.926          20.000  
> 2024 04 17 06 37 30.0040000  0 26                     
G31  25194091.518   132395712.686       -3313.795          34.000    25194085.534   103165562.878       -2582.088          33.000  
G16  22613403.961   118834290.315        1486.811          46.000                                                                  
G26  21463658.464   112792306.855       -1284.155          49.000    21463655.560    87890120.312       -1000.628          44.000  
G27  24135547.279   126833132.700        1757.263          42.000    24135546.532    98831060.563        1369.356          42.000  
G23  21717501.987   114126391.677         177.936          46.000    21717497.939    88929623.073         138.623          48.000  
R22  21279064.351   113589243.683       -1546.264          52.000    21279060.368    88347017.805       -1202.617          50.000  
R11  23865235.849   127528595.694       -5048.470          45.000    23865234.373    99188889.228       -3926.560          45.000  
R07  23343709.933   124960722.385        2396.874          48.000    23343705.704    97191708.059        1864.256          48.000  
R13  22378932.512   119502155.906        1414.255          42.000    22378929.607    92946147.874        1099.604          41.000  
E08  29580348.608                1       1083.491          27.000                                                                  
G29  25183371.831   132339658.107       -2890.510          43.000    25183366.224   103121893.060       -2252.530          35.000  
S31  39874832.722   209543747.840        -636.222          44.000  
S33  40829702.668   214561672.450        -636.340          42.000  
G10  22869098.006   120178039.820        2571.143          48.000    22869093.760    93645155.942        2003.419          43.000  
E33  27725327.894   145697661.864        1304.100          43.000    27725327.653   111638442.542         999.169          47.000  
R12  21014302.390   112254758.639       -2158.932          52.000    21014298.815    87309215.423       -1679.051          50.000  
R06  23470557.106   125243389.741        -622.010          39.000                                                                  
R23  22642842.116   121123973.251         810.281          49.000                                                                  
R21  23889768.635   127839460.788       -3144.626          41.000    23889757.067    99430784.360       -2445.655          43.000  
E21  24970516.846   131221022.888       -2066.422          48.000    24970517.323   100546014.824       -1583.422          52.000  
E13  25787682.087   135515593.287       -2417.590          48.000    25787682.899   103836728.671       -1852.452          52.000  
E27  28441112.210   149459060.314       -3613.219          43.000    28441113.570   114520586.161       -2768.427          45.000  
G18  22813836.966   119887815.636       -2919.398          50.000    22813831.081    93419188.154       -2274.786          50.000  
E26  24634158.371   129453636.209        -306.552          48.000    24634156.047    99191895.398        -234.823          50.000  
E14  25257584.906   132729572.678       -2662.619          47.000    25257584.217   101701907.841       -2040.181          52.000  
G15                                                                  26400873.876                3       -183.810          20.000  
> 2024 04 17 06 38 00.0040000  0 26                     
G31  25213014.532                       -3316.127          33.000    25213010.955   103243057.298       -2583.705          34.000  
G16  22604955.479   118789892.702        1472.734          46.000                                                                  
G26  21471044.275   112831122.257       -1303.781          49.000    21471040.410    87920366.068       -1015.734          44.000  
G27  24125515.651   126780413.787        1757.023          42.000    24125513.914    98789980.918        1369.157          42.000  
G23  21716544.980   114121361.174         157.273          46.000    21716540.646    88925703.222         122.520          48.000  
R22  21287770.185   113635719.063       -1552.254          51.000    21287766.593    88383165.319       -1207.264          50.000  
R11  23893589.288   127680105.975       -5052.417          45.000    23893587.399    99306730.423       -3929.627          44.000  
R07  23330312.218   124889003.060        2384.197          48.000    23330308.352    97135926.378        1854.321          49.000  
R13  22371053.904   119460082.387        1390.405          43.000    22371050.891    92913423.999        1081.684          42.000  
E08  29574184.289                1       1077.994          27.000    29574183.234   119082973.6421        825.645          31.000  
G29  25199885.615   132426434.506       -2894.898          44.000    25199879.015   103189511.027       -2255.705          36.000  
S31  39878466.064   209562839.997        -636.854          44.000  
S33  40833335.349   214580760.331        -636.491          42.000  
G10  22854453.385   120101082.288        2559.179          48.000    22854449.125    93585189.066        1994.086          43.000  
E33  27717898.998   145658627.424        1298.127          42.000    27717900.024   111608533.075         994.693          47.000  
R12  21026498.384   112319906.828       -2184.541          52.000    21026495.562    87359886.210       -1699.060          51.000  
R06  23474122.522   125262417.580        -647.054          39.000                                                                  
R23  22638316.029   121099763.338         803.500          48.000                                                                  
R21  23907391.838   127933772.049       -3143.228          38.000    23907381.699    99504137.652       -2444.740          43.000  
E21  24982349.003   131283196.971       -2078.691          48.000    24982348.473   100593654.685       -1592.710          52.000  
E13  25801490.521   135588157.807       -2420.198          48.000    25801491.523   103892330.049       -1854.395          52.000  
E27  28461747.623   149567501.618       -3616.343          42.000    28461748.972   114603677.465       -2770.914          44.000  
G18  22830517.799   119975479.617       -2925.095          48.000    22830513.077    93487497.759       -2279.294          50.000  
E26  24635929.916   129462943.120        -314.077          48.000    24635927.119    99199026.676        -240.681          50.000  
E14  25272776.212   132809401.974       -2659.384          47.000    25272775.068   101763075.757       -2037.827          52.000  
G15                                                                  26402205.710                3       -187.000          21.000  
> 2024 04 17 06 38 30.0040000  0 26                     
G31  25231948.237   132594652.443       -3316.738          35.000    25231943.199   103320580.537       -2584.886          34.000  
G16  22596586.581   118745914.788        1458.913          46.000                                                                  
G26  21478540.623   112870518.018       -1322.754          48.000    21478537.566    87951064.086       -1030.817          44.000  
G27  24115483.030   126727693.177        1757.385          42.000    24115481.053    98748899.958        1369.378          41.000  
G23  21715704.238   114116939.819         137.218          47.000    21715699.302    88922258.026         107.001          48.000  
R22  21296508.031   113682364.907       -1557.679          50.000    21296504.340    88419445.414       -1211.593          50.000  
R11  23921961.672   127831722.568       -5055.535          44.000    23921960.022    99424654.358       -3932.151          43.000  
R07  23316982.589   124817656.566        2372.025          47.000    23316979.975    97080434.684        1844.946          48.000  
R13  22363304.515   119418700.806        1367.742          41.000    22363301.730    92881238.317        1063.775          41.000  
G29  25216422.148   132513330.419       -2898.533          45.000    25216415.411   103257222.070       -2258.621          38.000  
S31  39882098.198   209581928.730        -636.028          44.000  
S33  40836966.744   214599844.887        -636.083          42.000  
G10  22839875.415   120024474.483        2547.919          47.000    22839872.622    93525494.701        1985.405          45.000  
E33  27710503.569   145619759.864        1293.067          43.000    27710503.765   111578751.510         990.683          47.000  
R12  21038836.153   112385813.174       -2209.495          52.000    21038833.442    87411146.710       -1718.440          50.000  
R06  23477825.121   125282175.320        -670.664          37.000                                                                  
R23  22633828.064   121075751.534         797.117          49.000                                                                  
R21  23925006.113   128028034.308       -3140.985          34.000    23924997.943    99577452.779       -2442.948          43.000  
E21  24994247.770   131345725.831       -2090.201          48.000    24994247.080   100641566.414       -1601.573          51.000  
E13  25815312.003   135660790.146       -2422.012          48.000    25815312.867   103947983.397       -1855.927          52.000  
E27  28482400.413   149676029.551       -3618.881          42.000    28482401.086   114686835.156       -2773.011          44.000  
G18  22847230.568   120063306.706       -2930.209          49.000    22847226.471    93555934.469       -2283.251          50.000  
E26  24637742.462   129472468.761        -320.992          48.000    24637739.997    99206325.555        -246.074          51.000  
E14  25287946.947   132889124.273       -2655.477          47.000    25287945.422   101824161.683       -2034.782          52.000  
E08                                                                  29568043.786                         821.693          27.000  
G15                                                                  26403623.025                3       -183.829          20.000  
> 2024 04 17 06 39 00.0040000  0 26                     
G31  25250886.252                       -3318.665          33.000    25250884.697   103398137.090       -2586.346          37.000  
G16  22588300.182   118702367.946        1444.087          46.000                                                                  
G26  21486149.857   112910502.677       -1342.928          49.000    21486146.370    87982220.951       -1046.489          44.000  
G27  24105452.251   126674980.600        1756.561          42.000    24105449.801    98707825.257        1368.760          41.000  
G23  21714980.535   114113137.435         116.124          46.000    21714976.026    88919295.132          90.532          48.000  
R22  21305279.551   113729189.076       -1564.133          50.000    21305276.123    88455864.230       -1216.474          50.000  
R11  23950355.426   127983450.704       -5059.880          44.000    23950354.172    99542664.977       -3935.380          43.000  
R07  23303728.139   124746696.847        2358.520          49.000    23303723.629    97025243.837        1834.404          48.000  
R13  22355686.443   119378023.203        1343.915          40.000    22355683.268    92849600.217        1045.097          40.000  
G29  25232981.490   132600355.507       -2903.366          44.000    25232976.248   103325033.781       -2261.958          39.000  
S31  39885731.451   209601021.247        -636.647          44.000  
S33  40840599.592   214618935.153        -636.450          42.000  
G10  22825366.061   119948228.471        2535.075          48.000    22825363.886    93466082.259        1975.484          45.000  
E33  27703140.451   145581068.209        1286.487          43.000    27703140.893   111549104.716         985.711          47.000  
R12  21051317.373   112452484.336       -2235.330          52.000    21051314.485    87463002.038       -1738.577          50.000  
R06  23481666.442   125302673.109        -695.857          38.000                                                                  
R23  22629378.023   121051945.639         789.784          50.000                                                                  
R21  23942611.873   128122256.381       -3140.544          36.000    23942604.036    99650736.657       -2442.359          41.000  
E21  25006214.707   131408617.825       -2102.688          47.000    25006215.093   100689756.382       -1611.156          51.000  
E13  25829147.694   135733498.126       -2425.103          48.000    25829149.031   104003694.700       -1858.222          52.000  
E27  28503070.220   149784651.600       -3622.684          41.000    28503071.331   114770064.962       -2775.875          44.000  
G18  22863976.152   120151304.009       -2936.358          49.000    22863971.277    93624503.784       -2288.145          49.000  
E26  24639598.332   129482221.270        -329.172          48.000    24639596.072    99213798.255        -252.185          51.000  
E14  25303098.176   132968747.504       -2652.802          47.000    25303097.180   101885171.698       -2032.669          51.000  
E08                                                                  29561942.966   119033692.271         816.729          30.000  
G15                                                                  26405103.008                3       -206.692          21.000  
> 2024 04 17 06 39 30.0040000  0 25                     
G31  25269837.489   132793764.433       -3320.660          36.000    25269836.535   103475732.287       -2587.029          35.000  
G16  22580097.259   118659264.609        1429.327          46.000                                                                  
G26  21493871.952   112951085.707       -1362.713          48.000    21493869.577    88013844.081       -1061.922          45.000  
G27  24095425.240   126622286.871        1756.116          43.000    24095422.067    98666765.213        1368.191          42.000  
G23  21714376.272   114109964.864          95.061          47.000    21714372.541    88916823.014          74.193          49.000  
R22  21314086.965   113776200.397       -1570.290          51.000    21314082.988    88492428.569       -1221.346          50.000  
R11  23978772.429   128135296.107       -5063.609          43.000    23978770.548    99660766.828       -3938.255          43.000  
R07  23290548.996   124676138.612        2345.086          51.000    23290543.379    96970365.237        1823.902          48.000  
R13  22348203.382   119338062.296        1320.030          40.000    22348199.711    92818519.487        1026.547          40.000  
G29  25249569.217   132687519.753       -2907.683          44.000    25249562.588   103392953.998       -2266.169          39.000  
S31  39889367.683   209620129.581        -637.441          44.000  
S33  40844234.818   214638038.997        -637.109          42.000  
G10  22810928.658   119872357.355        2522.717          49.000    22810925.840    93406961.922        1965.833          45.000  
E33  27695812.461   145542562.373        1280.335          44.000    27695813.464   111519600.303         980.914          46.000  
R12  21063942.308   112519927.874       -2261.081          51.000    21063939.949    87515458.073       -1758.661          51.000  
R06  23485648.394   125323921.873        -720.963          36.000                                                                  
R23  22624967.950   121028355.126         782.822          50.000                                                                  
R21  23960215.481   128216448.422       -3139.339          38.000    23960207.089    99723997.108       -2441.661          42.000  
E21  25018253.850   131471882.325       -2115.009          47.000    25018253.976   100738231.770       -1620.698          51.000  
E13  25842999.821   135806290.601       -2427.902          48.000    25843000.869   104059470.730       -1860.311          52.000  
E27  28523759.603   149893376.351       -3626.027          41.000    28523761.030   114853373.454       -2778.376          44.000  
G18  22880755.431   120239479.628       -2942.244          49.000    22880750.848    93693212.002       -2292.581          49.000  
E26  24641499.358   129492209.765        -336.997          48.000    24641496.937    99221451.781        -258.152          51.000  
E14  25318232.503   133048280.594       -2649.671          47.000    25318231.689   101946112.648       -2030.180          51.000  
E08                                                                  29555878.604                         811.045          26.000  
> 2024 04 17 06 40 00.0040000  0 25                     
G31  25288797.351   132893400.012       -3321.792          34.000    25288797.427   103553370.286       -2588.255          33.000  
G16  22571981.168   118616615.457        1414.037          46.000                                                                  
G26  21501709.964   112992274.910       -1383.077          48.000    21501708.086    88045939.527       -1077.755          45.000  
G27  24085403.951   126569621.016        1755.035          43.000    24085399.278    98625726.938        1367.471          41.000  
G23  21713894.229   114107431.183          73.673          47.000    21713890.346    88914848.748          57.519          48.000  
R22  21322930.079   113823405.867       -1576.744          50.000    21322926.086    88529143.895       -1226.356          50.000  
R11  24007211.341   128287263.336       -5067.694          41.000    24007209.568    99778963.428       -3941.379          43.000  
R07  23277445.663   124605994.247        2331.070          52.000    23277439.581    96915808.537        1813.093          48.000  
R13  22340856.016   119298828.838        1295.430          41.000    22340852.743    92788004.598        1007.429          40.000  
G29  25266183.938   132774831.633       -2912.809          43.000    25266177.960   103460989.172       -2269.983          39.000  
S31  39893007.925   209639260.566        -638.051          44.000  
S33  40847874.830   214657166.340        -638.072          42.000  
G10  22796564.132   119796872.479        2509.651          48.000    22796562.161    93348142.556        1955.453          46.000  
E33  27688522.602   145504250.627        1273.845          44.000    27688522.887   111490244.588         976.005          46.000  
R12  21076713.076   112588150.019       -2287.095          51.000    21076711.039    87568519.720       -1778.868          50.000  
R06  23489772.906   125345930.395        -746.402          34.000                                                                  
R23  22620598.825   121004987.402         775.197          49.000                                                                  
R21  23977812.160   128310618.017       -3138.844          42.000    23977804.935    99797240.080       -2441.292          42.000  
E21  25030365.326   131535526.931       -2127.943          47.000    25030365.236   100786998.390       -1630.452          51.000  
E13  25856868.622   135879174.706       -2431.036          48.000    25856870.220   104115316.985       -1862.746          52.000  
E27  28544469.966   150002210.648       -3629.593          40.000    28544471.684   114936765.881       -2781.207          44.000  
G18  22897569.829   120327839.898       -2948.373          49.000    22897565.108    93762064.177       -2297.536          49.000  
E26  24643445.634   129502441.628        -345.074          48.000    24643444.106    99229291.798        -264.492          51.000  
E14  25333351.566   133127730.855       -2647.145          47.000    25333350.545   102006990.122       -2028.219          51.000  
E08                                                                  29549855.393   118985010.044         806.128          29.000  
> 2024 04 17 06 40 30.0040000  0 26                     
G31  25307760.991   132993085.749       -3323.430          29.000    25307768.534                       -2590.144          30.000  
G16  22563951.627   118574421.140        1398.369          45.000                                                                  
G26  21509663.416   113034067.920       -1403.423          48.000    21509661.338    88078505.509       -1093.589          45.000  
G27  24075386.784   126516982.100        1753.890          43.000    24075382.704    98584709.633        1366.682          41.000  
G23  21713533.588   114105535.396          52.255          48.000    21713529.546    88913371.513          40.782          48.000  
R22  21331809.316   113870802.444       -1583.292          51.000    21331805.417    88566007.904       -1231.572          50.000  
R11  24035671.009   128439346.494       -5071.537          42.000    24035669.983    99897250.172       -3944.554          42.000  
R07  23264419.556   124536267.322        2316.962          51.000    23264414.135    96861576.550        1802.027          48.000  
R13  22333644.789   119260324.274        1271.338          39.000    22333642.418    92758056.576         988.555          40.000  
G29  25282826.437   132862289.340       -2918.000          44.000    25282821.630   103529138.051       -2273.848          42.000  
S31  39896652.613   209658413.073        -638.956          44.000  
S33  40851518.817   214676315.131        -639.103          42.000  
G10  22782273.670   119721775.081        2496.287          49.000    22782271.704    93289625.126        1945.264          46.000  
E33  27681268.162   145466131.157        1267.166          43.000    27681269.119   111461036.232         970.965          46.000  
R12  21089628.869   112657146.141       -2313.109          51.000    21089627.257    87622183.371       -1799.061          50.000  
R06  23494039.842   125368697.619        -772.216          36.000                                                                  
R23  22616272.294   120981839.826         767.604          50.000                                                                  
R21  23995405.207   128404763.403       -3138.042          41.000    23995398.331    99870464.183       -2440.835          44.000  
E21  25042547.703   131599549.166       -2140.550          47.000    25042548.180   100836054.387       -1640.270          51.000  
E13  25870754.760   135952147.533       -2434.289          48.000    25870756.544   104171231.212       -1865.159          51.000  
E27  28565201.222   150111151.275       -3633.499          40.000    28565202.706   115020239.751       -2783.936          45.000  
G18  22914419.006   120416381.259       -2954.711          50.000    22914414.209    93831057.436       -2302.356          50.000  
E26  24645437.491   129512914.247        -353.357          47.000    24645436.949    99237316.271        -270.701          51.000  
E14  25348454.348   133207095.469       -2644.449          47.000    25348453.147   102067801.968       -2026.257          51.000  
E08                                                                  29543868.160                         800.892          27.000  
G15                                                                  26409981.290                3       -239.448          21.000  
> 2024 04 17 06 41 00.0040000  0 26                     
G31  25326743.493   133092814.827       -3324.650          33.000    25326743.966                       -2590.236          31.000  
G16  22556009.020   118532680.434        1384.196          47.000                                                                  
G26  21517730.453   113076460.361       -1422.813          49.000    21517728.456    88111538.574       -1108.565          45.000  
G27  24065373.559   126464367.074        1754.011          43.000    24065371.119    98543711.000        1366.301          41.000  
G23  21713293.747   114104274.495          31.952          47.000    21713289.561    88912388.987          24.841          48.000  
R22  21340723.370   113918384.884       -1588.683          52.000    21340719.482    88603016.440       -1235.769          49.000  
R11  24064152.569   128591537.719       -5074.417          42.000    24064151.908   100015620.953       -3946.552          43.000  
R07  23251471.709   124466958.219        2303.638          50.000    23251466.835    96807669.493        1791.732          48.000  
R13  22326570.115   119222546.934        1247.197          40.000    22326568.074    92728674.191         970.139          41.000  
G29  25299495.794   132949889.112       -2921.960          44.000    25299492.693   103597397.612       -2276.715          43.000  
S31  39900300.612   209677582.998        -638.863          44.000  
S33  40855165.714   214695481.117        -638.809          42.000  
G10  22768057.104   119647064.489        2484.122          48.000    22768054.410    93231409.121        1935.721          45.000  
E33  27674049.155   145428200.100        1261.772          42.000    27674050.574   111431972.211         966.760          45.000  
R12  21102688.698   112726910.030       -2337.846          51.000    21102687.433    87676444.140       -1818.288          51.000  
R06  23498448.231   125392220.427        -795.989          36.000    24396386.065                3       -736.312          14.000  
R23  22611985.853   120958907.712         761.235          50.000                                                                  
R21  24012991.133   128498880.439       -3136.171          33.000    24012986.195    99943666.398       -2439.349          43.000  
E21  25054802.957   131663944.576       -2152.345          48.000    25054802.375   100885396.292       -1649.241          52.000  
E13  25884658.594   136025204.146       -2436.166          49.000    25884658.967   104227209.660       -1866.778          51.000  
E27  28585951.794   150220192.945       -3636.076          40.000    28585952.627   115103791.080       -2786.007          45.000  
G18  22931300.909   120505098.010       -2959.739          49.000    22931296.352    93900187.369       -2306.295          49.000  
E26  24647475.271   129523622.911        -360.440          47.000    24647474.709    99245521.628        -276.240          51.000  
E14  25363539.967   133286369.651       -2640.554          47.000    25363538.510   102128544.519       -2023.273          51.000  
E08                                                                  29537917.231                3        794.884          21.000  
G15                                                                  26411764.961                3       -249.309          16.000  
> 2024 04 17 06 41 30.0040000  0 26                     
G31  25345724.240   133192553.934       -3325.407          35.000    25345724.943   103786476.804       -2590.513          34.000  
G16  22548147.532   118491365.137        1369.778          46.000                                                                  
G26  21525906.218   113119421.368       -1441.898          49.000    21525903.528    88145014.681       -1123.569          44.000  
G27  24055359.775   126411746.529        1754.001          42.000    24055358.089    98502707.992        1366.876          42.000  
G23  21713169.194   114103618.859          11.573          47.000    21713164.994    88911878.096           9.040          48.000  
R22  21349666.092   113966121.169       -1594.000          52.000    21349661.182    88640144.661       -1239.744          49.000  
R11  24092647.919   128743802.115       -5076.982          43.000    24092646.418   100134048.689       -3948.641          43.000  
R07  23238596.628   124398040.677        2290.401          50.000    23238590.812    96754066.999        1781.422          48.000  
R13  22319626.403   119185468.609        1223.926          39.000    22319624.836    92699835.462         951.945          41.000  
G29  25316187.649   133037601.184       -2925.910          44.000    25316183.831   103665744.631       -2279.914          43.000  
S31  39903945.793   209696740.170        -638.435          44.000  
S33  40858810.527   214714634.757        -638.308          43.000  
G10  22753908.281   119572713.432        2472.109          48.000    22753906.047    93173473.262        1926.288          45.000  
E33  27666862.179   145390427.147        1256.072          42.000    27666863.045   111403029.325         962.379          45.000  
R12  21115886.700   112797408.383       -2362.446          52.000    21115884.908    87731276.171       -1837.350          50.000  
R06  23502992.611   125416468.469        -820.748          35.000                                                                  
R23  22607732.925   120936158.724         754.983          50.000                                                                  
R21  24030566.122   128592938.087       -3134.336          34.000    24030563.945   100016822.235       -2437.967          44.000  
E21  25067122.147   131728682.127       -2163.858          48.000    25067121.894   100935000.372       -1658.071          52.000  
E13  25898570.683   136098313.155       -2438.103          49.000    25898570.949   104283228.246       -1868.147          51.000  
E27  28606715.447   150329303.987       -3638.628          41.000    28606716.202   115187395.530       -2787.882          46.000  
G18  22948210.663   120593958.032       -2964.540          49.000    22948205.297    93969428.920       -2310.113          48.000  
E26  24649552.036   129534536.499        -367.533          47.000    24649551.340    99253884.000        -281.609          51.000  
E14  25378603.069   133365522.130       -2636.669          47.000    25378600.913   102189193.823       -2020.372          51.000  
E08                                                                  29532013.941                3        793.211          21.000  
G15                                                                  26413602.164                3       -262.925          20.000  
> 2024 04 17 06 42 00.0040000  0 26                     
G31  25364707.356   133292316.797       -3326.125          35.000    25364708.764   103864213.899       -2591.697          31.000  
G16  22540370.918   118450494.393        1354.368          47.000                                                                  
G26  21534192.571   113162966.717       -1461.633          49.000    21534190.525    88178946.116       -1138.858          45.000  
G27  24045348.845   126359137.723        1753.011          43.000    24045347.685    98461714.148        1366.088          42.000  
G23  21713163.165   114103585.656          -9.547          47.000    21713158.812    88911852.238          -7.479          49.000  
R22  21358640.353   114014026.713       -1599.934          51.000    21358635.133    88677404.549       -1244.436          49.000  
R11  24121158.345   128896152.345       -5080.125          44.000    24121157.609   100252543.195       -3951.208          42.000  
R07  23225799.271   124329535.884        2276.268          50.000    23225794.092    96700785.526        1770.326          47.000  
R13  22312818.145   119149108.607        1199.627          41.000    22312815.759    92671555.468         933.090          41.000  
E08  29526132.786   155160866.6681       1025.614          31.000    29526132.065                         785.682          26.000  
G29  25332903.866   133125442.248       -2930.583          46.000    25332899.104   103734192.193       -2283.472          43.000  
S31  39907592.299   209715901.227        -638.989          44.000  
S33  40862455.761   214733790.953        -638.716          42.000  
G10  22739831.415   119498741.422        2459.087          47.000    22739829.007    93115832.782        1916.106          45.000  
E33  27659707.433   145352828.647        1249.987          42.000    27659707.800   111374220.109         957.912          45.000  
R12  21129224.946   112868655.101       -2387.684          52.000    21129221.554    87786690.237       -1856.927          49.000  
R06  23507677.302   125441459.045        -845.854          36.000                                                                  
R23  22603516.432   120913608.904         747.974          49.000                                                                  
R21  24048135.142   128686952.776       -3133.356          38.000    24048133.628   100089944.696       -2437.202          43.000  
E21  25079508.879   131793777.568       -2176.012          48.000    25079509.234   100984878.682       -1667.414          52.000  
E13  25912495.488   136171489.856       -2440.704          49.000    25912496.100   104339298.699       -1870.107          50.000  
E27  28627495.078   150438499.322       -3641.893          40.000    28627495.597   115271064.579       -2790.274          46.000  
G18  22965150.426   120682975.919       -2970.241          49.000    22965144.846    94038793.501       -2314.546          49.000  
E26  24651672.103   129545670.552        -375.130          47.000    24651670.067    99262415.291        -287.543          51.000  
E14  25393645.199   133444568.360       -2633.341          47.000    25393642.981   102249761.701       -2017.771          51.000  
G15                                                                  26415521.428                3       -262.678          22.000  
> 2024 04 17 06 42 30.0040000  0 26                     
G31  25383693.802   133392089.117       -3325.274          35.000    25383696.106                       -2591.091          29.000  
G16  22532676.010   118410059.468        1340.950          47.000                                                                  
G26  21542588.364   113207084.797       -1479.816          49.000    21542585.597    88213323.810       -1152.995          45.000  
G27  24035338.324   126306530.437        1753.685          43.000    24035336.642    98420721.505        1366.347          42.000  
G23  21713273.528   114104164.521         -29.286          47.000    21713268.827    88912303.313         -22.798          49.000  
R22  21367644.147   114062089.107       -1604.239          51.000    21367639.028    88714786.397       -1247.697          48.000  
R11  24149682.247   129048573.298       -5081.456          46.000    24149680.660   100371092.663       -3952.442          42.000  
R07  23213078.950   124261437.300        2263.431          51.000    23213073.152    96647819.965        1760.496          48.000  
R13  22306142.922   119113458.004        1176.877          40.000    22306139.385    92643827.257         915.198          41.000  
E08  29520287.370   155130168.268        1020.272          32.000    29520286.727                3        788.991          19.000  
G29  25349641.061   133213401.349       -2933.654          46.000    25349636.137   103802731.768       -2286.061          42.000  
S31  39911237.078   209735054.736        -638.016          44.000  
S33  40866099.942   214752941.180        -637.776          42.000  
G10  22725825.466   119425140.469        2447.554          48.000    22725822.765    93058481.424        1907.268          44.000  
E33  27652583.668   145315393.502        1245.432          43.000    27652584.266   111345536.097         954.330          45.000  
R12  21142700.194   112940636.508       -2411.357          52.000    21142695.272    87842675.779       -1875.535          48.000  
R06  23512496.482   125467181.430        -869.528          35.000                                                                  
R23  22599336.454   120891246.151         742.594          49.000                                                                  
R21  24065693.859   128780913.003       -3130.984          38.000    24065692.446   100163024.817       -2435.105          43.000  
E21  25091962.184   131859219.197       -2186.881          48.000    25091962.379   101035022.242       -1675.645          52.000  
E13  25926430.667   136244722.127       -2441.761          49.000    25926431.698   104395411.739       -1870.893          50.000  
E27  28648288.023   150547766.511       -3643.107          41.000    28648288.357   115354788.703       -2791.554          46.000  
G18  22982116.874   120772138.825       -2974.168          49.000    22982112.040    94108271.066       -2317.503          48.000  
E26  24653830.602   129557013.126        -381.127          47.000    24653828.601    99271106.347        -292.032          51.000  
E14  25408664.539   133523496.334       -2628.683          47.000    25408662.479   102310238.978       -2014.162          51.000  
G15                                                                  26417500.387                3       -266.154          20.000  
> 2024 04 17 06 43 00.0040000  0 26                     
G31  25402676.665   133491839.938       -3324.651          38.000    25402680.139                       -2591.778          30.000  
G16  22525059.133   118370034.828        1327.480          46.000                                                                  
G26  21551086.918   113251747.024       -1497.612          49.000    21551083.829    88248125.551       -1166.951          45.000  
G27  24025322.743   126253897.678        1755.075          43.000    24025320.714    98379708.977        1367.402          42.000  
G23  21713494.950   114105328.234         -48.348          47.000    21713490.554    88913210.122         -37.654          49.000  
R22  21376671.001   114110278.749       -1608.174          51.000    21376666.773    88752267.217       -1250.863          50.000  
R11  24178212.622   129201032.259       -5082.470          47.000    24178210.741   100489671.719       -3952.917          42.000  
R07  23200427.734   124193721.049        2250.867          51.000    23200422.440    96595151.777        1750.763          47.000  
R13  22299594.212   119078491.204        1154.556          39.000    22299591.032    92616630.851         897.792          41.000  
E08  29514476.252                        1015.042          31.000    29514475.857                         778.410          28.000  
G29  25366395.888   133301450.646       -2936.628          46.000    25366391.536   103871341.601       -2287.886          42.000  
S31  39914875.057   209754173.055        -636.565          44.000  
S33  40869737.270   214772055.802        -636.332          42.000  
G10  22711886.032   119351885.768        2436.278          49.000    22711882.476    93001399.870        1898.336          44.000  
E33  27645485.937   145278093.830        1241.304          43.000    27645485.837   111316955.883         951.084          45.000  
R12  21156306.434   113013321.512       -2434.312          51.000    21156302.591    87899208.549       -1893.338          48.000  
R06  23517448.576   125493607.873        -892.313          35.000    23515423.217                3       -746.021          11.000  
R23  22595184.905   120869041.047         737.717          48.000                                                                  
R21  24083237.134   128874790.275       -3127.464          41.000    24083235.621   100236040.440       -2432.645          44.000  
E21  25104476.264   131924978.411       -2197.119          48.000    25104476.033   101085409.151       -1683.450          52.000  
E13  25940372.524   136317981.046       -2442.232          49.000    25940372.015   104451545.195       -1871.337          49.000  
E27  28669089.207   150657076.272       -3644.279          41.000    28669089.212   115438545.430       -2792.316          46.000  
G18  22999105.466   120861417.053       -2977.678          48.000    22999101.539    94177838.495       -2320.273          48.000  
E26  24656023.168   129568535.493        -386.910          48.000    24656021.575    99279935.184        -296.488          52.000  
E14  25423655.945   133602277.267       -2623.335          47.000    25423653.853   102370603.587       -2010.108          51.000  
G15                                                                  26419559.043                3       -281.534          22.000  
> 2024 04 17 06 43 30.0040000  0 26                     
G31  25421652.317   133591552.029       -3324.104          39.000    25421650.823   104097383.480       -2590.122          31.000  
G16  22517518.079   118330408.884        1313.433          45.000                                                                  
G26  21559687.187   113296938.446       -1515.990          50.000    21559683.751    88283339.605       -1181.301          45.000  
G27  24015299.849   126201226.010        1755.559          44.000    24015296.177    98338666.116        1367.921          40.000  
G23  21713824.938   114107063.112         -68.144          47.000    21713820.234    88914561.981         -53.104          49.000  
R22  21385719.165   114158579.826       -1612.692          51.000    21385715.502    88789834.723       -1254.266          49.000  
R11  24206747.093   129353510.904       -5083.581          47.000    24206745.417   100608266.056       -3953.927          41.000  
R07  23187847.616   124126377.342        2237.670          51.000    23187842.055    96542773.390        1740.567          48.000  
R13  22293171.565   119044195.765        1131.025          41.000    22293168.072    92589956.595         879.960          40.000  
E08  29508687.658   155069236.638        1010.086          32.000    29508693.630   118819284.7151        773.758          33.000  
G29  25383165.945   133389576.186       -2939.605          47.000    25383161.101   103940010.869       -2290.708          41.000  
S31  39918503.987   209773242.699        -635.825          44.000  
S33  40873365.369   214791120.288        -635.431          42.000  
G10  22698010.321   119278966.010        2424.254          49.000    22698006.843    92944579.332        1888.958          45.000  
E33  27638411.220   145240915.236        1236.514          43.000    27638411.206   111288468.432         947.489          45.000  
R12  21170042.239   113086692.708       -2457.844          52.000    21170038.471    87956274.993       -1911.669          49.000  
R06  23522529.597   125520724.306        -916.748          35.000                                                                  
R23  22591061.354   120846978.320         732.272          50.000                                                                  
R21  24100765.031   128968569.866       -3125.203          43.000    24100760.629   100308980.064       -2430.534          43.000  
G15  26421677.121                2       -375.747          27.000    26421678.719                3       -296.009          23.000  
E21  25117047.200   131991040.129       -2207.858          48.000    25117047.324   101136027.850       -1691.688          52.000  
E13  25954315.498   136391251.174       -2443.181          49.000    25954314.968   104507687.239       -1872.031          49.000  
E27  28689894.685   150766412.794       -3645.780          41.000    28689895.322   115522322.665       -2793.326          46.000  
G18  23016113.746   120950794.486       -2981.644          48.000    23016109.346    94247483.269       -2323.337          48.000  
E26  24658247.064   129580222.498        -392.975          48.000    24658245.694    99288890.154        -301.086          52.000  
E14  25438616.047   133680895.935       -2618.533          47.000    25438614.610   102430843.858       -2006.439          51.000  
> 2024 04 17 06 44 00.0040000  0 26                     
G31  25440623.249   133691247.281       -3322.990          38.000    25440625.959                       -2589.333          30.000  
G16  22510059.040   118291209.027        1299.366          46.000                                                                  
G26  21568392.017   113342683.390       -1534.242          50.000    21568389.200    88318985.014       -1195.627          45.000  
G27  24005273.706   126148541.410        1756.118          43.000    24005269.712    98297613.242        1368.327          40.000  
G23  21714267.994   114109394.874         -87.886          46.000    21714263.819    88916378.929         -68.568          49.000  
R22  21394794.118   114207016.556       -1617.018          52.000    21394788.881    88827507.764       -1257.604          50.000  
R11  24235289.294   129506030.790       -5084.650          46.000    24235287.254   100726892.488       -3954.896          41.000  
R07  23175342.986   124059435.713        2224.460          51.000    23175337.882    96490707.744        1730.048          48.000  
R13  22286880.130   119010599.999        1108.014          41.000    22286876.606    92563826.560         861.649          41.000  
E08  29502942.416   155039017.901        1004.344          34.000    29502942.694   118796130.068         769.487          36.000  
G29  25399954.500   133477803.073       -2942.662          46.000    25399949.470   104008759.081       -2293.216          40.000  
S31  39922127.839   209792286.896        -634.632          44.000  
S33  40876988.720   214810160.110        -634.534          42.000  
G10  22684203.178   119206409.238        2412.269          50.000    22684199.781    92888041.594        1879.825          45.000  
E33  27631364.888   145203882.786        1231.674          43.000    27631363.643   111260092.952         943.891          44.000  
R12  21183909.983   113160772.880       -2481.339          51.000    21183906.969    88013892.870       -1929.948          50.000  
R06  23527743.736   125548556.285        -939.961          35.000                                                                  
R23  22586968.008   120825082.440         726.957          49.000                                                                  
R21  24118276.619   129062276.959       -3122.705          44.000    24118271.286   100381863.396       -2428.733          43.000  
G15  26423852.971                3       -387.568          26.000    26423852.574                3       -301.885          22.000  
E21  25129680.172   132057428.750       -2218.610          48.000    25129680.385   101186897.038       -1699.947          52.000  
E13  25968265.470   136464556.549       -2444.212          49.000    25968264.585   104563856.292       -1872.903          49.000  
E27  28710710.274   150875799.791       -3647.331          41.000    28710710.889   115606138.582       -2794.665          46.000  
G18  23033145.324   121040294.488       -2985.421          48.000    23033139.970    94317223.542       -2326.470          46.000  
E26  24660507.435   129592098.328        -399.180          48.000    24660505.415    99297989.811        -305.875          52.000  
E14  25453550.215   133759376.502       -2613.888          46.000    25453548.807   102490978.308       -2002.864          51.000  
> 2024 04 17 06 44 30.0040000  0 26                     
G31  25459595.462   133790944.092       -3323.045          39.000    25459592.216                       -2589.425          29.000  
G16  22502684.840   118252458.460        1284.144          45.000                                                                  
G26  21577206.316   113389002.095       -1553.499          50.000    21577203.686    88355077.493       -1210.479          46.000  
G27  23995250.226   126095865.701        1755.615          44.000    23995246.407    98256567.263        1368.137          40.000  
G23  21714829.117   114112344.997        -108.828          45.000    21714825.170    88918677.714         -84.662          49.000  
R22  21403896.956   114255609.152       -1622.350          51.000    21403892.020    88865301.987       -1261.841          49.000  
R11  24263841.720   129658609.047       -5086.844          43.000    24263839.877   100845564.317       -3956.658          39.000  
R07  23162918.151   123992922.486        2209.892          52.000    23162912.244    96438975.235        1718.863          49.000  
R13  22280724.377   118977727.312        1083.580          41.000    22280720.925    92538258.940         842.944          40.000  
E08  29497229.795   155008995.768         997.438          35.000    29497229.883   118773126.027         764.391          37.000  
G29  25416768.004   133566152.505       -2947.014          47.000    25416761.752   104077602.776       -2296.353          40.000  
S31  39925751.227   209811327.926        -634.813          44.000  
S33  40880611.042   214829197.604        -634.618          42.000  
G10  22670469.583   119134239.607        2399.182          49.000    22670466.881    92831805.558        1869.373          45.000  
E33  27624348.553   145167017.287        1226.135          42.000    27624348.225   111231845.417         939.350          45.000  
R12  21197914.504   113235580.769       -2505.615          52.000    21197911.039    88072076.763       -1948.871          49.000  
R06  23533098.322   125577125.753        -964.809          35.000                                                                  
R23  22582910.597   120803373.521         720.547          50.000                                                                  
R21  24135775.591   129155933.230       -3121.292          41.000    24135772.965   100454707.136       -2427.522          43.000  
E21  25142379.622   132124164.439       -2230.197          48.000    25142379.774   101238032.162       -1708.960          52.000  
E13  25982225.490   136537917.054       -2446.237          49.000    25982224.059   104620067.578       -1874.398          49.000  
E27  28731539.646   150985256.711       -3649.682          42.000    28731539.638   115690008.074       -2796.593          46.000  
G18  23050203.521   121129936.123       -2990.368          49.000    23050197.796    94387074.128       -2330.223          48.000  
E26  24662807.218   129604183.030        -406.147          48.000    24662804.785    99307249.521        -311.305          52.000  
E14  25468461.979   133837738.979       -2609.958          46.000    25468460.648   102551022.281       -1999.875          51.000  
G15                                                                  26426093.555                3       -309.276          24.000  
