     3.00           OBSERVATION DATA    M: Mixed            RINEX VERSION / TYPE
CONVBIN 2.4.3                           20240417 074442 UTC PGM / RUN BY / DATE 
format: u-blox UBX                                          COMMENT             
log: /home/regis/git/gnsspwv/obsdata/VERT00CHL/2024-04-17/VECOMMENT             
{self.marker}                                               MARKER NAME         
                                                            MARKER NUMBER       
GEODETIC                                                    MARKER TYPE         
{self.observer}     {self.institution}                      OBSERVER / AGENCY   
UNKNOWN             UBLOX-ZED-F9P                           REC # / TYPE / VERS 
UNKNOWN             TWIVSP6037L                             ANT # / TYPE        
  1713381.0000 -5047934.0000 -3490983.0000                  APPROX POSITION XYZ 
        0.0000        0.0000        0.0000                  ANTENNA: DELTA H/E/N
G    8 C1C L1C D1C S1C C2L L2L D2L S2L                      SYS / # / OBS TYPES 
R    8 C1C L1C D1C S1C C2C L2C D2C S2C                      SYS / # / OBS TYPES 
E    8 C1C L1C D1C S1C C7Q L7Q D7Q S7Q                      SYS / # / OBS TYPES 
S    4 C1C L1C D1C S1C                                      SYS / # / OBS TYPES 
  2024    04    17    07    30   00.0050000     GPS         TIME OF FIRST OBS   
  2024    04    17    07    44   30.0050000     GPS         TIME OF LAST OBS    
                                                            END OF HEADER       
> 2024 04 17 07 30 00.0050000  0 26                     
G08  25640866.180                1       2427.888          28.000    25640861.094   104995079.6111       1891.107          33.000  
G16  22237216.595   116857411.5861       -341.650          47.000                                                                  
G26  22801581.584   119823130.8791      -3082.249          47.000    22801579.830    93368682.4881      -2401.791          45.000  
G27  23114942.083   121469821.1111       1566.691          49.000    23114939.259    94651858.3891       1220.575          45.000  
G23  22253299.547   116942023.5051      -1935.333          47.000    22253295.611    91123621.9211      -1508.014          50.000  
R08  23475224.571   125708759.5251       3160.074          49.000    23475218.364    97773512.2501       2457.966          46.000  
R22  22328369.735   119190513.6041      -1966.400          50.000    22328366.771    92703560.3681      -1529.352          49.000  
R07  22465051.972   120257204.2041        355.237          52.000    22465048.024    93533418.0431        276.379          49.000  
R13  22320286.590   119188985.5171      -1266.016          40.000    22320284.435    92702569.5461       -984.546          42.000  
E08  29174373.889   153312399.0611        168.108          34.000    29174374.914   117473102.3931        128.598          39.000  
S31  40250129.354   211515942.7381       -619.300          44.000  
S33  41204884.160   216533260.2401       -619.079          42.000  
G10  21793225.010   114524296.4631        866.364          50.000    21793221.485    89239643.6041        675.060          46.000  
E33  27111193.089   142470371.7621        759.058          45.000    27111192.358   109165586.5701        581.669          50.000  
R12  22954904.809   122621096.6461      -4190.300          47.000    22954904.071    95371918.8251      -3259.049          46.000  
R06  24581479.382   131171416.2491      -3071.383          40.000                                                                  
R23  22335563.107   119480243.0821        280.371          49.000                                                                  
E21  26546993.641   139505455.9801      -3125.837          46.000    26546994.777   106893824.9631      -2395.148          51.000  
E13  27270682.548   143308804.3601      -2482.987          45.000    27270682.769   109808148.6931      -1902.627          50.000  
E31  28349791.381                3       1662.602          26.000    28349793.260   114152887.2261       1273.256          37.000  
E07  28778427.373   151231672.8621       1622.700          42.000    28778430.442   115878825.0251       1243.409          47.000  
G18  24673540.766   129660624.0821      -3201.433          47.000    24673536.138   101034361.8171      -2494.710          45.000  
E26  25012982.330   131444366.0201       -904.069          49.000    25012979.888   100717259.8581       -692.684          52.000  
E14  26711411.785   140369482.9501      -2156.885          47.000    26711410.400   107555864.6701      -1652.646          49.000  
G29                                                                  27042996.997                3      -2601.069          16.000  
R14                                                                  26354919.812                3       1821.673          10.000  
> 2024 04 17 07 30 30.0050000  0 24                     
G08  25627008.463   134670816.6201       2428.981          34.000    25626993.996   104938311.919        1893.076          32.000  
G16  22239224.869   116867965.426        -361.676          47.000                                                                  
G26  22819217.959   119915812.023       -3096.168          47.000    22819215.661    93440901.516       -2412.496          45.000  
G27  23106011.578   121422890.907        1562.238          48.000    23106008.433    94615289.388        1217.251          45.000  
G23  22264401.517   117000366.661       -1953.888          47.000    22264397.670    91169084.127       -1522.461          50.000  
R08  23457546.638   125614100.373        3150.912          49.000    23457541.132    97699888.503        2450.695          47.000  
R22  22339431.771   119249558.674       -1969.659          50.000    22339429.025    92749484.326       -1531.842          50.000  
R07  22463133.016   120246931.202         329.840          52.000    22463127.047    93525427.898         256.635          48.000  
R13  22327471.783   119227351.803       -1291.669          41.000    22327468.790    92732409.954       -1004.584          41.000  
E08  29173451.401   153307542.728         156.117          35.000    29173449.362   117469381.291         119.729          36.000  
S31  40253665.781   211534527.118        -619.368          44.000  
S33  41208418.924   216551836.066        -619.213          42.000  
G10  21788336.896   114498610.180         846.355          50.000    21788333.523    89219628.338         659.590          46.000  
E33  27106872.182   142447669.272         754.476          44.000    27106872.005   109148191.179         578.103          50.000  
R12  22978471.619   122746992.488       -4202.520          46.000    22978471.062    95469837.713       -3268.649          44.000  
R06  24598803.409   131263859.028       -3091.592          39.000                                                                  
R23  22334001.632   119471894.065         276.422          48.000                                                                  
E21  26564861.498   139599352.868       -3133.738          46.000    26564863.021   106965771.879       -2401.171          51.000  
E13  27284856.377   143383289.890       -2482.373          45.000    27284857.966   109865222.011       -1902.163          51.000  
E07  28769171.806   151183031.027        1620.043          43.000    28769173.497   115841554.036        1241.578          46.000  
G18  24691819.999   129756681.477       -3202.194          47.000    24691816.260   101109211.698       -2495.048          46.000  
E26  25018156.127   131471553.185        -908.240          49.000    25018153.219   100738091.589        -695.933          52.000  
E14  26723710.168   140434112.961       -2151.521          47.000    26723709.168   107605386.347       -1648.560          49.000  
E31                                                                  28340329.613   114114784.833        1267.335          35.000  
> 2024 04 17 07 31 00.0050000  0 24                     
G08  25613133.735   134597916.006        2430.802          36.000    25613125.699   104881506.265        1894.342          33.000  
G16  22241345.385   116879108.872        -381.183          47.000                                                                  
G26  22836930.667   120008894.221       -3109.324          47.000    22836929.460    93513433.079       -2422.906          45.000  
G27  23097104.882   121376086.556        1558.027          48.000    23097101.833    94578818.477        1214.162          45.000  
G23  22275607.256   117059253.552       -1971.753          47.000    22275603.441    91214969.995       -1536.481          50.000  
R08  23439919.452   125519707.271        3141.886          48.000    23439914.892    97626471.685        2443.772          48.000  
R22  22350509.217   119308688.191       -1972.241          51.000    22350505.895    92795473.949       -1533.954          49.000  
R07  22461354.462   120237410.427         304.932          52.000    22461350.010    93518022.890         237.152          49.000  
R13  22334799.046   119266477.575       -1316.821          41.000    22334795.930    92762841.093       -1023.944          41.000  
E08  29172592.656   153303021.525         145.265          37.000    29172589.402   117465917.029         111.290          37.000  
S31  40257200.323   211553101.437        -618.721          44.000  
S33  41211952.201   216570401.831        -618.794          43.000  
G10  21783561.245   114473516.520         826.762          50.000    21783558.366    89200074.868         644.272          46.000  
E33  27102575.489   142425097.060         750.165          42.000    27102576.729   109130895.614         574.923          50.000  
R12  23002106.973   122873239.638       -4213.997          48.000    23002105.161    95568029.869       -3277.406          45.000  
R06  24616238.667   131356897.558       -3111.171          39.000                                                                  
R23  22332460.579   119463652.024         273.047          49.000                                                                  
E21  26582773.224   139693476.176       -3141.128          47.000    26582773.934   107037892.312       -2406.970          51.000  
E13  27299025.058   143457750.227       -2481.479          44.000    27299026.952   109922275.996       -1901.422          51.000  
E31  28330907.851                        1645.743          26.000    28330911.097   114076860.425        1261.253          34.000  
E07  28759928.210   151134457.222        1617.879          43.000    28759929.744   115804335.170        1239.814          45.000  
G18  24710100.726   129852746.577       -3202.170          47.000    24710096.413   101184067.597       -2495.282          45.000  
E26  25023351.124   131498856.102        -912.021          49.000    25023348.579   100759012.012        -698.820          52.000  
E14  26735976.314   140498570.117       -2145.616          47.000    26735975.157   107654775.598       -1644.087          49.000  
> 2024 04 17 07 31 30.0050000  0 24                     
G08  25599251.089   134524969.693        2432.309          34.000    25599247.944   104824664.983        1895.101          34.000  
G16  22243578.605   116890844.599        -401.129          47.000                                                                  
G26  22854719.319   120102376.779       -3122.950          46.000    22854717.626    93586276.602       -2433.400          44.000  
G27  23088222.843   121329411.706        1553.611          48.000    23088220.245    94542448.484        1210.656          45.000  
G23  22286916.960   117118684.181       -1990.228          47.000    22286912.615    91261279.566       -1550.781          50.000  
R08  23422344.656   125425587.286        3132.745          49.000    23422339.257    97553267.291        2436.498          49.000  
R22  22361601.814   119367903.977       -1975.397          51.000    22361597.956    92841530.653       -1536.389          48.000  
R07  22459717.615   120228645.915         279.419          52.000    22459711.835    93511206.018         217.261          49.000  
R13  22342268.545   119306363.367       -1342.389          41.000    22342266.116    92793863.338       -1044.177          42.000  
E08  29171796.771   153298838.488         133.688          37.000    29171792.916   117462711.815         102.330          38.000  
S31  40260733.229   211571666.805        -618.753          44.000  
S33  41215483.708   216588959.639        -618.633          43.000  
G10  21778898.809   114449018.679         806.636          49.000    21778896.769    89180985.631         628.472          46.000  
E33  27098306.119   142402656.501         745.550          42.000    27098305.997   109113700.931         571.416          50.000  
R12  23025806.646   122999835.402       -4225.715          50.000    23025804.534    95666493.198       -3286.538          44.000  
R06  24633785.523   131450530.732       -3131.068          38.000                                                                  
R23  22330941.245   119455518.195         269.226          50.000                                                                  
E21  26600727.034   139787826.211       -3148.914          46.000    26600728.066   107110186.466       -2412.799          51.000  
E13  27313190.716   143532186.736       -2481.002          45.000    27313191.535   109979311.748       -1901.088          50.000  
E31  28321544.645   148830671.4621       1637.845          29.000    28321536.078   114039116.583        1255.542          33.000  
E07  28750699.465   151085955.330        1615.538          45.000    28750700.164   115767171.429        1237.750          46.000  
G18  24728383.501   129948820.337       -3202.627          48.000    24728378.972   101258930.253       -2495.535          45.000  
E26  25028568.751   131526275.772        -916.089          48.000    25028566.316   100780021.874        -701.918          52.000  
E14  26748209.535   140562856.102       -2140.292          47.000    26748208.402   107704033.685       -1639.991          49.000  
> 2024 04 17 07 32 00.0050000  0 24                     
G08  25585362.567   134451984.966        2432.835          36.000    25585359.548   104767793.757        1896.077          34.000  
G16  22245926.168   116903179.447        -421.222          47.000                                                                  
G26  22872585.640   120196263.147       -3136.381          47.000    22872583.037    93659434.773       -2444.131          44.000  
G27  23079366.996   121282874.245        1548.843          48.000    23079364.432    94506185.540        1206.926          45.000  
G23  22298330.311   117178662.743       -2008.508          46.000    22298326.137    91308016.098       -1565.027          50.000  
R08  23404820.860   125331751.111        3122.902          49.000    23404815.855    97480283.685        2428.981          47.000  
R22  22372712.357   119427211.956       -1978.650          51.000    22372709.071    92887659.109       -1538.812          50.000  
R07  22458222.691   120220646.108         253.809          51.000    22458218.091    93504983.988         197.382          49.000  
R13  22349880.201   119347013.509       -1367.725          39.000    22349878.272    92825480.076       -1063.769          41.000  
E08  29171066.122   153295000.814         122.283          37.000    29171063.170   117459771.211          93.901          38.000  
S31  40264265.524   211590229.520        -618.889          44.000  
S33  41219014.420   216607514.973        -618.523          43.000  
G10  21774351.862   114425123.989         786.323          49.000    21774349.799    89162366.391         612.778          46.000  
E33  27094062.583   142380353.183         741.216          43.000    27094061.839   109096611.402         567.980          50.000  
R12  23049571.200   123126781.394       -4237.366          48.000    23049569.505    95765228.943       -3295.812          42.000  
R06  24651443.801   131544761.565       -3150.877          37.000                                                                  
R23  22329442.596   119447498.627         265.259          51.000                                                                  
E21  26618725.184   139882407.439       -3156.677          46.000    26618726.629   107182657.769       -2418.660          51.000  
E13  27327352.200   143606605.002       -2480.311          46.000    27327353.173   110036333.516       -1900.396          51.000  
E31  28312199.985                        1629.921          30.000    28312208.392   114001559.410        1248.583          32.000  
E07  28741484.627   151037533.586        1612.555          44.000    28741486.220   115730069.078        1235.685          47.000  
G18  24746668.411   130044907.941       -3203.326          48.000    24746664.113   101333803.664       -2496.000          45.000  
E26  25033809.339   131553817.355        -920.119          48.000    25033807.429   100801125.176        -705.078          52.000  
E14  26760411.449   140626976.826       -2134.666          47.000    26760410.207   107753165.147       -1635.570          50.000  
> 2024 04 17 07 32 30.0050000  0 26                     
G08  25571467.300   134378963.893        2434.729          36.000    25571463.330   104710894.194        1896.820          33.000  
G16  22248387.485   116916114.951        -441.254          47.000                                                                  
G26  22890528.431   120290551.603       -3149.690          46.000    22890525.346    93732906.250       -2454.209          44.000  
G27  23070537.712   121236476.805        1544.250          48.000    23070535.159    94470031.684        1203.248          45.000  
G23  22309847.407   117239188.218       -2026.611          46.000    22309843.902    91355178.799       -1579.181          50.000  
R08  23387351.296   125238204.660        3113.393          49.000    23387344.680    97407525.336        2421.469          46.000  
R22  22383840.757   119486613.015       -1981.567          49.000    22383837.279    92933859.891       -1541.266          50.000  
R14  25087886.255                3       2270.233          26.000                                                                  
R07  22456872.185   120213413.824         228.265          51.000    22456867.149    93499358.886         177.472          49.000  
R13  22357635.517   119388427.319       -1393.274          40.000    22357632.746    92857690.829       -1083.777          40.000  
E08  29170400.798   153291510.466         110.407          38.000    29170399.351   117457096.806          84.818          39.000  
S31  40267797.652   211608791.003        -618.554          44.000  
S33  41222545.011   216626068.200        -618.444          43.000  
G10  21769920.906   114401834.556         766.126          49.000    21769917.841    89144218.779         597.124          47.000  
E33  27089845.418   142358187.456         736.701          44.000    27089843.804   109079627.313         564.432          50.000  
R12  23073400.656   123254073.765       -4248.778          48.000    23073398.847    95864234.071       -3304.512          43.000  
R06  24669214.168   131639588.131       -3170.856          34.000                                                                  
R23  22327963.849   119439593.651         261.639          50.000                                                                  
E21  26636767.385   139977219.153       -3164.193          46.000    26636769.119   107255305.673       -2424.487          51.000  
E13  27341510.226   143681005.505       -2479.660          46.000    27341510.635   110093341.664       -1900.019          50.000  
E31  28302931.841   148732886.633        1621.802          33.000    28302927.929                        1243.027          31.000  
E07  28732285.796   150989194.908        1609.895          43.000    28732288.377   115693030.413        1233.459          47.000  
G18  24764956.098   130141009.373       -3203.593          47.000    24764950.457   101408687.897       -2496.161          44.000  
E26  25039073.090   131581480.904        -924.157          48.000    25039071.635   100822321.916        -708.071          52.000  
E14  26772581.812   140690933.029       -2128.976          47.000    26772580.740   107802170.554       -1631.350          50.000  
R21                                                                  25771349.308                3      -2323.133          14.000  
> 2024 04 17 07 33 00.0050000  0 24                     
G08  25557560.278   134305886.225        2436.885          36.000    25557555.916   104653950.532        1898.712          32.000  
G16  22250959.453   116929629.808        -460.120          47.000                                                                  
G26  22908542.807   120385218.072       -3161.672          46.000    22908540.607    93806672.305       -2463.666          44.000  
G27  23061731.489   121190199.776        1540.618          47.000    23061728.521    94433971.661        1200.450          45.000  
G23  22321465.162   117300237.292       -2043.512          46.000    22321461.530    91402749.510       -1592.383          50.000  
R08  23369933.042   125144930.861        3104.680          49.000    23369925.982    97334979.064        2414.763          46.000  
R22  22394981.959   119546085.229       -1983.484          50.000    22394978.438    92980116.055       -1542.645          50.000  
R07  22455660.655   120206929.134         203.809          51.000    22455655.834    93494315.238         158.490          49.000  
R13  22365529.613   119430581.737       -1417.365          39.000    22365527.101    92890477.585       -1102.332          41.000  
E08  29169799.917   153288347.207          99.963          38.000    29169797.495   117454673.041          76.555          40.000  
S31  40271325.546   211627329.138        -617.409          44.000  
S33  41226071.194   216644598.177        -617.116          43.000  
G10  21765600.799   114379130.171         747.134          50.000    21765597.516    89126527.064         582.170          47.000  
E33  27085648.897   142336137.365         733.179          43.000    27085648.097   109062731.848         561.721          50.000  
R12  23097290.685   123381686.328       -4259.081          47.000    23097288.374    95963488.245       -3312.457          43.000  
R06  24687091.826                       -3189.283          29.000                                                                  
R23  22326503.884   119431780.938         259.033          50.000                                                                  
E21  26654848.949   140072238.294       -3170.505          46.000    26654850.631   107328112.532       -2429.446          52.000  
E13  27355659.789   143755366.351       -2477.926          45.000    27355661.155   110150319.454       -1898.763          50.000  
E31  28293685.697                        1614.802          31.000    28293690.073                        1236.907          30.000  
E07  28723099.539   150940919.980        1608.214          43.000    28723102.012   115656040.555        1232.182          47.000  
G18  24783241.884   130237102.362       -3202.871          47.000    24783236.001   101483565.539       -2495.718          44.000  
E26  25044356.985   131609244.138        -926.989          49.000    25044354.809   100843595.056        -710.303          52.000  
E14  26784716.715   140754703.111       -2122.369          47.000    26784715.836   107851033.339       -1626.365          50.000  
> 2024 04 17 07 33 30.0050000  0 26                     
G08  25543645.734   134232766.865        2437.646          35.000    25543640.412   104596974.363        1899.449          32.000  
G16  22253644.026   116943738.411        -480.627          47.000                                                                  
G26  22926630.709   120480273.560       -3175.300          46.000    22926628.626    93880741.508       -2474.246          43.000  
G27  23052950.907   121144058.586        1535.472          47.000    23052947.855    94398017.514        1196.398          45.000  
G23  22333184.360   117361821.697       -2062.177          45.000    22333180.390    91450737.332       -1606.818          50.000  
R08  23352569.492   125051947.819        3094.076          50.000    23352562.878    97262658.978        2406.583          47.000  
R22  22406137.910   119605642.452       -1987.176          50.000    22406135.327    93026438.290       -1545.459          50.000  
R14  25062557.748                3       2234.498          24.000                                                                  
R07  22454592.410   120201207.890         177.441          50.000    22454587.756    93489865.391         138.129          49.000  
R13  22373564.761   119473488.193       -1443.048          39.000    22373562.997    92923849.243       -1122.522          42.000  
E08  29169262.716   153285525.804          88.067          37.000    29169260.889   117452511.163          67.578          41.000  
S31  40274851.256   211645858.505        -618.023          44.000  
S33  41229595.891   216663119.257        -617.375          43.000  
G10  21761394.204   114357025.670         726.457          50.000    21761391.403    89109302.778         566.138          47.000  
E33  27081477.070   142314216.098         728.394          44.000    27081476.779   109045935.063         557.933          50.000  
R12  23121240.807   123509628.416       -4270.730          46.000    23121238.974    96062998.619       -3321.633          42.000  
R06  24705079.528                       -3209.567          29.000                                                                  
R23  22325062.677   119424073.765         254.797          49.000                                                                  
E21  26672972.483   140167476.923       -3178.572          47.000    26672974.057   107401087.548       -2435.529          52.000  
E13  27369805.886   143829700.711       -2477.598          45.000    27369806.506   110207276.905       -1898.472          50.000  
E31  28284504.537                        1605.196          30.000    28284498.776   113889985.500        1230.349          29.000  
E07  28713927.535   150892724.503        1604.932          42.000    28713930.210   115619111.589        1229.687          47.000  
G18  24801528.726   130333199.616       -3203.556          47.000    24801523.748   101558446.504       -2496.320          45.000  
E26  25049661.641   131637119.841        -931.379          49.000    25049659.560   100864954.370        -713.686          52.000  
E14  26796819.460   140818300.608       -2117.367          48.000    26796818.205   107899763.868       -1622.433          50.000  
R21                                                                  25805957.344                3      -2356.718          13.000  
> 2024 04 17 07 34 00.0050000  0 25                     
G08  25529726.175   134159619.815        2439.052          35.000    25529722.188   104539976.606        1901.075          33.000  
G16  22256444.067   116958453.769        -500.171          47.000                                                                  
G26  22944795.135   120575728.246       -3187.849          46.000    22944793.095    93955121.741       -2484.206          43.000  
G27  23044198.877   121098067.879        1531.055          47.000    23044195.998    94362180.607        1192.887          45.000  
G23  22345006.978   117423952.251       -2079.706          45.000    22345003.132    91499150.751       -1620.477          49.000  
R08  23335264.072   124959273.855        3084.469          50.000    23335256.616    97190579.260        2398.972          47.000  
R22  22417314.591   119665297.360       -1989.612          51.000    22417308.980    93072836.609       -1547.510          47.000  
R14  25050020.793                3       2218.244          22.000                                                                  
R07  22453668.175   120196265.197         152.191          50.000    22453664.594    93486021.079         118.408          49.000  
R13  22381743.066   119517158.486       -1468.366          39.000    22381740.775    92957814.973       -1141.675          41.000  
E08  29168792.267   153283060.048          77.031          36.000    29168792.156   117450621.861          58.803          42.000  
S31  40278378.171   211664391.047        -617.338          45.000  
S33  41233120.853   216681644.271        -617.112          43.000  
G10  21757304.504   114335535.022         706.614          50.000    21757301.832    89092556.843         550.585          48.000  
E33  27077332.906   142292435.997         724.216          44.000    27077332.222   109029246.422         554.908          51.000  
R12  23145255.298   123637908.218       -4281.232          47.000    23145251.630    96162771.799       -3329.899          42.000  
R06  24723175.128   131927535.989       -3228.393          33.000                                                                  
R23  22323643.795   119416485.276         251.434          50.000                                                                  
E21  26691139.889   140262946.209       -3185.591          47.000    26691141.057   107474239.312       -2440.955          51.000  
E13  27383948.210   143904020.959       -2476.512          46.000    27383948.907   110264223.572       -1897.602          49.000  
E31  28275363.084                        1597.661          29.000    28275356.367   113853171.738        1223.901          30.000  
E07  28704774.150   150844623.403        1602.179          41.000    28704776.847   115582254.892        1227.823          47.000  
G18  24819818.458   130429313.139       -3203.608          47.000    24819812.677   101633340.102       -2496.177          43.000  
E26  25054989.614   131665119.942        -934.985          48.000    25054987.810   100886408.989        -716.341          53.000  
E14  26808891.622   140881738.168       -2111.545          48.000    26808889.968   107948371.847       -1617.836          50.000  
> 2024 04 17 07 34 30.0050000  0 25                     
G08  25515799.716   134086428.656        2440.621          35.000    25515795.713   104482944.532        1901.141          35.000  
G16  22259356.840   116973758.238        -520.239          48.000                                                                  
G26  22963031.851   120671561.776       -3201.063          46.000    22963029.128    94029797.191       -2494.254          43.000  
G27  23035472.904   121052211.788        1526.162          46.000    23035469.745    94326448.596        1189.299          46.000  
G23  22356930.579   117486609.336       -2097.589          45.000    22356926.442    91547974.436       -1634.503          49.000  
R08  23318013.138   124866895.704        3074.079          50.000    23318005.529    97118729.625        2390.842          46.000  
R22  22428505.476   119725032.262       -1992.847          52.000    22428499.929    93119297.044       -1550.031          48.000  
R14  25037598.964                        2198.980          26.000    25037604.994                2       1711.131          27.000  
R07  22452887.457   120192084.715         126.392          50.000    22452882.633    93482769.576          98.334          48.000  
R13  22390061.001   119561572.568       -1492.981          38.000    22390057.708    92992359.248       -1161.285          41.000  
E08  29168390.379   153280933.488          65.143          37.000    29168387.221   117448992.391          49.979          43.000  
S31  40281901.943   211682909.513        -617.214          45.000  
S33  41236643.274   216700153.996        -616.994          43.000  
G10  21753329.024   114314641.693         686.301          51.000    21753325.037    89076276.345         534.874          46.000  
E33  27073211.392   142270778.760         719.603          44.000    27073211.228   109012651.942         551.419          51.000  
R12  23169329.612   123766503.259       -4291.985          48.000    23169325.036    96262790.076       -3338.071          41.000  
R06  24741379.352                       -3247.149          32.000                                                                  
R23  22322244.834   119408996.848         247.778          50.000                                                                  
E21  26709347.230   140358626.902       -3193.151          47.000    26709348.363   107547553.061       -2446.617          51.000  
E13  27398085.153   143978308.996       -2475.954          46.000    27398085.782   110321145.553       -1897.134          50.000  
E31  28266261.117                        1589.683          28.000    28266261.375   113816541.946        1217.692          32.000  
E07  28695635.870   150796601.068        1599.072          41.000    28695638.753   115545458.580        1225.418          48.000  
G18  24838108.211   130525424.422       -3203.697          46.000    24838102.705   101708232.018       -2496.654          45.000  
E26  25060337.520   131693225.954        -938.774          48.000    25060336.322   100907944.768        -719.324          53.000  
E14  26820929.274   140944998.026       -2105.847          48.000    26820928.039   107996843.687       -1613.670          50.000  
> 2024 04 17 07 35 00.0050000  0 25                     
G08  25501863.611   134013196.298        2442.360          34.000    25501861.924   104425880.333        1902.889          36.000  
G16  22262382.298   116989654.491        -539.838          48.000                                                                  
G26  22981340.213   120767773.206       -3213.401          46.000    22981337.956    94104767.094       -2503.877          43.000  
G27  23026773.342   121006493.909        1521.562          47.000    23026770.116    94290824.288        1185.654          46.000  
G23  22368954.670   117549792.666       -2114.801          47.000    22368949.195    91597208.218       -1647.943          49.000  
R08  23300817.485   124774819.615        3064.103          49.000    23300810.110    97047114.910        2383.236          45.000  
R22  22439710.054   119784848.575       -1995.282          51.000    22439705.915    93165820.819       -1551.874          48.000  
R14  25025269.413                        2181.870          26.000    25025256.025                1       1697.020          32.000  
R07  22452248.343   120188670.145         101.129          48.000    22452244.665    93480113.809          78.656          48.000  
R13  22398517.963   119606730.666       -1518.011          40.000    22398514.297    93027482.142       -1180.536          41.000  
E08  29168049.401   153279148.909          53.443          35.000    29168047.653   117447624.964          41.373          43.000  
S31  40285423.649   211701415.362        -616.672          45.000  
S33  41240163.414   216718651.311        -616.342          43.000  
G10  21749467.639   114294348.567         666.476          50.000    21749463.076    89060463.524         519.340          46.000  
E33  27069113.377   142249245.675         716.003          43.000    27069113.364   108996152.579         548.480          51.000  
R12  23193461.095   123895410.683       -4301.999          47.000    23193457.239    96363051.394       -3345.931          43.000  
R06  24759691.546   132122451.4641      -3266.086          29.000                                                                  
R23  22320864.323   119401609.736         244.537          51.000                                                                  
E21  26727594.123   140454519.087       -3199.911          46.000    26727595.956   107621028.875       -2451.910          51.000  
E13  27412215.913   144052566.114       -2474.730          46.000    27412216.694   110378043.835       -1896.216          50.000  
E31  28257200.707                        1581.329          29.000    28257211.711   113780098.699        1212.434          35.000  
E07  28686513.684   150748661.311        1596.746          42.000    28686516.001   115508725.554        1223.371          48.000  
G18  24856397.030   130621534.324       -3203.503          45.000    24856391.995   101783122.800       -2496.166          44.000  
E26  25065706.332   131721438.772        -942.093          48.000    25065705.171   100929562.376        -721.896          53.000  
E14  26832933.944   141008081.759       -2099.751          48.000    26832932.451   108045180.559       -1608.897          50.000  
> 2024 04 17 07 35 30.0050000  0 25                     
G08  25487918.289   133939918.538        2443.286          36.000    25487917.988   104368780.788        1903.376          36.000  
G16  22265518.568   117006137.553        -559.406          48.000                                                                  
G26  22999719.387   120864354.294       -3225.756          48.000    22999716.876    94180025.041       -2513.508          44.000  
G27  23018099.244   120960910.470        1516.921          47.000    23018095.608    94255304.744        1182.170          45.000  
G23  22381076.770   117613494.729       -2132.227          47.000    22381071.241    91646846.179       -1661.603          48.000  
R08  23283678.883   124683045.207        3053.809          50.000    23283672.531    96975734.853        2375.080          45.000  
R22  22450929.904   119844740.839       -1997.900          51.000    22450925.216    93212403.675       -1553.925          48.000  
R14  25013000.631   133333496.7931       2165.841          34.000    25012993.329                1       1683.879          28.000  
R07  22451754.631   120186017.557          75.433          51.000    22451747.885    93478050.694          58.752          47.000  
R13  22407112.836   119652625.013       -1542.145          39.000    22407109.019    93063177.731       -1199.621          41.000  
E08  29167774.707   153277701.781          42.114          35.000    29167772.363   117446516.078          32.659          44.000  
S31  40288941.610   211719903.040        -616.169          44.000  
S33  41243679.689   216737131.071        -616.078          43.000  
G10  21745718.704   114274651.100         646.447          50.000    21745715.402    89045114.866         503.754          47.000  
E33  27065037.342   142227830.680         711.527          42.000    27065038.326   108979743.697         545.342          50.000  
R12  23217649.754   124024620.341       -4312.245          47.000    23217646.557    96463547.744       -3353.833          43.000  
R06  24778106.227   132220723.158       -3284.889          34.000                                                                  
R23  22319501.009   119394318.176         241.241          50.000                                                                  
E21  26745881.547   140550615.575       -3206.784          46.000    26745882.524   107694661.211       -2457.193          51.000  
E13  27426339.486   144126786.392       -2473.636          45.000    27426339.493   110434913.893       -1895.433          48.000  
E31  28248201.470   148445308.933        1572.232          32.000    28248206.906   113743839.189        1205.426          36.000  
E07  28677406.771   150700800.713        1593.734          43.000    28677408.583   115472053.162        1221.197          48.000  
G18  24874684.249   130717636.554       -3203.604          44.000    24874679.984   101858007.656       -2496.317          45.000  
E26  25071094.148   131749751.989        -945.679          48.000    25071093.112   100951256.909        -724.661          53.000  
E14  26844903.840   141070983.759       -2094.021          48.000    26844902.402   108093378.188       -1604.466          50.000  
> 2024 04 17 07 36 00.0050000  0 25                     
G08  25473967.233   133866605.459        2444.250          35.000    25473965.538   104311653.680        1905.084          34.000  
G16  22268768.810   117023215.988        -579.376          48.000                                                                  
G26  23018169.696   120961311.149       -3238.312          47.000    23018167.921    94255575.818       -2523.338          45.000  
G27  23009452.664   120915472.161        1512.002          47.000    23009448.861    94219898.288        1178.124          45.000  
G23  22393298.655   117677722.320       -2149.780          47.000    22393293.422    91696893.641       -1675.147          48.000  
R08  23266599.110   124591585.177        3043.229          49.000    23266592.743    96904599.295        2367.063          44.000  
R22  22462164.742   119904717.861       -2000.976          51.000    22462161.195    93259052.443       -1556.238          49.000  
R14  25000865.732   133268807.410        2147.276          34.000    25000866.272   103653488.8881       1669.862          34.000  
R07  22451402.765   120184137.485          49.597          50.000    22451397.769    93476588.458          38.629          46.000  
R13  22415846.135   119699262.791       -1567.230          38.000    22415842.431    93099451.524       -1218.738          41.000  
E08  29167565.432   153276601.920          30.807          36.000    29167563.134   117445673.343          23.651          43.000  
S31  40292457.947   211738381.907        -615.912          44.000  
S33  41247194.493   216755602.199        -615.897          43.000  
G10  21742085.799   114255559.218         626.104          50.000    21742081.948    89030238.079         487.892          47.000  
E33  27060986.794   142206542.006         707.395          43.000    27060986.916   108963431.630         542.061          50.000  
R12  23241894.679   124154136.364       -4322.512          47.000    23241892.048    96564282.320       -3361.863          43.000  
R06  24796627.409   132319561.118       -3304.615          37.000                                                                  
R23  22318156.576   119387130.183         237.677          50.000                                                                  
E21  26764208.163   140646923.562       -3213.904          46.000    26764209.545   107768455.618       -2462.546          51.000  
E13  27440457.441   144200978.224       -2472.782          45.000    27440458.317   110491762.156       -1894.629          49.000  
E31  28239248.036   148398237.208        1565.113          32.000    28239248.859   113707771.321        1198.908          37.000  
E07  28668316.129   150653030.123        1590.731          43.000    28668318.015   115435449.784        1218.840          48.000  
G18  24892972.548   130813738.997       -3203.474          45.000    24892968.552   101932892.635       -2496.315          45.000  
E26  25076502.556   131778173.556        -949.296          48.000    25076501.703   100973034.464        -727.348          53.000  
E14  26856840.556   141133712.673       -2088.130          47.000    26856839.439   108141443.200       -1600.044          50.000  
> 2024 04 17 07 36 30.0050000  0 25                     
G08  25460008.606   133793255.456        2445.557          34.000    25460006.313   104254497.888        1905.884          34.000  
G16  22272131.292   117040887.273        -598.694          48.000                                                                  
G26  23036689.778   121058638.306       -3250.127          46.000    23036688.571    94331415.132       -2532.601          45.000  
G27  23000833.379   120870178.031        1507.736          47.000    23000829.684    94184604.183        1174.694          46.000  
G23  22405619.628   117742470.611       -2166.577          46.000    22405614.962    91747346.862       -1688.422          49.000  
R08  23249579.652   124500442.155        3033.179          50.000    23249573.209    96833710.261        2359.065          46.000  
R22  22473417.534   119964776.812       -2003.155          51.000    22473412.466    93305764.920       -1557.996          49.000  
R14  24988829.885   133204649.129        2129.885          32.000    24988835.611   103603588.061        1656.595          34.000  
R07  22451196.895   120183029.039          24.408          50.000    22451189.404    93475726.354          18.823          46.000  
R13  22424717.612   119746639.206       -1591.412          38.000    22424713.945    93136299.785       -1237.927          40.000  
E08  29167421.604   153275847.613          19.521          37.000    29167419.230   117445095.364          15.146          44.000  
S31  40295972.200   211756848.714        -614.916          44.000  
S33  41250707.050   216774059.971        -614.612          43.000  
G10  21738567.286   114237071.167         606.331          51.000    21738564.358    89015831.809         472.582          47.000  
E33  27056958.907   142185376.412         703.830          43.000    27056959.240   108947213.869         539.174          50.000  
R12  23266195.503   124283951.550       -4331.864          46.000    23266193.547    96665249.595       -3369.268          44.000  
R06  24815255.341   132418959.502       -3322.518          37.000                                                                  
R23  22316831.328   119380043.329         234.894          50.000                                                                  
E21  26782574.246   140743438.627       -3220.323          47.000    26782575.341   107842408.692       -2467.532          51.000  
E13  27454569.500   144275138.374       -2471.331          44.000    27454570.716   110548586.119       -1893.519          49.000  
E31  28230339.570   148351414.583        1556.798          32.000    28230338.082   113671894.268        1192.875          37.000  
E07  28659240.805   150605348.882        1588.084          42.000    28659243.761   115398914.826        1216.825          47.000  
G18  24911259.054   130909838.176       -3202.954          44.000    24911254.861   102007775.099       -2495.850          45.000  
E26  25081930.955   131806699.893        -952.286          48.000    25081929.898   100994892.294        -729.709          53.000  
E14  26868743.899   141196265.616       -2081.832          47.000    26868742.941   108189373.367       -1595.246          51.000  
> 2024 04 17 07 37 00.0050000  0 25                     
G08  25446041.055   133719860.940        2447.473          34.000    25446039.511   104197307.464        1906.067          34.000  
G16  22275605.928   117059143.134        -618.353          48.000                                                                  
G26  23055278.890   121156324.136       -3262.411          47.000    23055277.701    94407533.943       -2542.084          44.000  
G27  22992240.275   120825021.072        1502.933          47.000    22992236.925    94149416.955        1170.977          46.000  
G23  22418036.976   117807728.609       -2183.813          47.000    22418033.260    91798197.266       -1701.636          49.000  
R08  23232617.912   124409611.467        3022.410          49.000    23232612.586    96763064.218        2350.707          48.000  
R22  22484680.771   120024908.565       -2005.668          51.000    22484676.369    93352534.081       -1559.943          46.000  
R14  24976903.775                3       2112.268          28.000    24976896.577   103554095.496        1642.963          34.000  
R07  22451130.852   120182684.604          -1.337          48.000    22451124.402    93475458.457          -1.038          45.000  
R13  22433726.185   119794743.040       -1615.650          38.000    22433722.708    93173713.837       -1256.671          41.000  
E08  29167341.405   153275431.010           7.837          36.000    29167339.639   117444776.145           6.417          43.000  
S31  40299482.597   211775294.949        -614.590          44.000  
S33  41254215.626   216792497.922        -614.534          43.000  
G10  21735163.140   114219179.025         586.337          51.000    21735159.734    89001889.870         456.901          47.000  
E33  27052953.036   142164324.405         699.790          43.000    27052953.199   108931083.124         536.146          50.000  
R12  23290551.793   124414052.030       -4341.378          46.000    23290547.232    96766438.765       -3376.797          43.000  
R06  24833985.942   132518906.114       -3340.858          36.000                                                                  
R23  22315524.457   119373047.758         231.555          51.000                                                                  
E21  26800977.244   140840150.179       -3227.062          45.000    26800978.848   107916512.323       -2472.657          51.000  
E13  27468674.454   144349257.534       -2469.950          45.000    27468674.688   110605378.738       -1892.555          48.000  
E31  28221463.580                        1548.853          29.000    28221473.644   113636202.474        1186.574          38.000  
E07  28650183.758   150557750.172        1585.318          43.000    28650186.143   115362443.088        1214.636          47.000  
G18  24929544.524   131005924.238       -3202.834          44.000    24929539.816   102082647.351       -2495.643          45.000  
E26  25087377.373   131835321.239        -955.708          48.000    25087376.396   101016822.929        -732.341          53.000  
E14  26880612.368   141258633.593       -2075.941          48.000    26880611.177   108237161.809       -1590.691          51.000  
> 2024 04 17 07 37 30.0050000  0 26                     
G08  25432068.133                        2447.986          32.000    25432066.387   104140090.916        1907.483          34.000  
G16  22279192.369   117077993.199        -638.312          47.000                                                                  
G26  23073937.183   121254375.630       -3274.564          46.000    23073936.581    94483937.685       -2551.646          45.000  
G27  22983675.171   120780012.833        1497.626          47.000    22983672.204    94114345.636        1166.893          46.000  
G23  22430553.854   117873504.016       -2201.196          48.000    22430549.322    91849450.819       -1715.234          48.000  
R08  23215715.685   124319107.940        3011.189          49.000    23215711.526    96692672.650        2341.996          48.000  
R22  22495961.640   120085123.107       -2008.700          51.000    22495956.781    93399367.602       -1562.345          48.000  
R14  24965071.468                1       2093.485          30.000    24965062.709   103505021.575        1628.788          32.000  
R07  22451211.036   120183115.713         -27.380          48.000    22451205.082    93475793.826         -21.185          45.000  
R13  22442871.553   119843582.044       -1640.167          37.000    22442869.610    93211699.718       -1275.848          42.000  
E08  29167328.638   153275362.821          -3.476          37.000    29167327.024   117444723.926          -2.750          44.000  
S31  40302990.692   211793729.962        -614.535          44.000  
S33  41257722.095   216810923.543        -614.140          43.000  
G10  21731874.426   114201893.479         565.831          52.000    21731870.940    88988420.615         440.944          48.000  
E33  27048970.669   142143395.207         695.513          43.000    27048970.668   108915046.491         532.868          51.000  
R12  23314959.795   124544443.284       -4351.321          45.000    23314956.752    96867854.122       -3384.494          45.000  
R06  24852821.322   132619407.504       -3359.345          35.000                                                                  
R23  22314235.509   119366153.207         227.954          51.000                                                                  
E21  26819420.416   140937066.337       -3234.042          46.000    26819421.427   107990772.706       -2477.967          51.000  
E13  27482772.193   144423345.121       -2469.256          44.000    27482772.993   110662147.107       -1891.895          48.000  
E07  28641144.635   150510245.809        1581.876          44.000    28641146.193   115326043.638        1212.021          47.000  
G18  24947827.609   131102006.294       -3202.896          43.000    24947822.066   102157516.462       -2495.846          43.000  
E26  25092843.576   131864046.433        -959.273          48.000    25092842.727   101038833.136        -735.069          53.000  
E14  26892447.208   141320826.238       -2070.286          47.000    26892446.024   108284815.902       -1586.239          51.000  
E31                                                                  28212657.531   113600704.654        1179.925          39.000  
G32                                                                  26537653.250                3       1837.041          23.000  
> 2024 04 17 07 38 00.0050000  0 26                     
G08  25418090.403   133572976.927        2449.158          32.000    25418088.463   104082852.437        1908.478          35.000  
G16  22282892.847   117097441.812        -658.466          47.000                                                                  
G26  23092666.295   121352794.007       -3286.754          47.000    23092664.655    94560627.277       -2561.134          44.000  
G27  22975139.940   120735159.175        1492.335          48.000    22975136.944    94079394.742        1162.969          46.000  
G23  22443170.177   117939798.720       -2218.610          48.000    22443164.516    91901108.999       -1728.839          48.000  
R08  23198878.202   124228940.322        2999.776          50.000    23198871.822    96622542.315        2333.196          47.000  
R22  22507258.202   120145424.393       -2011.610          50.000    22507252.909    93446268.540       -1564.621          48.000  
R14  24953331.430   133015329.1941       2076.007          34.000    24953328.053   103456372.164        1613.938          31.000  
R07  22451438.823   120184327.838         -53.699          50.000    22451432.359    93476736.613         -41.687          46.000  
R13  22452155.214   119893158.648       -1665.222          38.000    22452154.566    93250259.256       -1295.117          42.000  
E08  29167383.457   153275648.098         -15.862          35.000    29167380.976   117444942.494         -11.925          44.000  
S31  40306497.398   211812157.764        -614.178          44.000  
S33  41261227.287   216829343.651        -613.895          42.000  
G10  21728701.029   114185219.451         545.590          51.000    21728697.829    88975427.876         425.181          48.000  
E33  27045011.232   142122592.262         691.197          43.000    27045012.005   108899106.602         529.722          51.000  
R12  23339422.829   124675124.542       -4361.032          45.000    23339421.689    96969494.995       -3391.876          46.000  
R06  24871759.749   132720464.587       -3377.535          32.000                                                                  
R23  22312966.368   119359363.231         224.451          51.000                                                                  
G32  26524172.660                1       2363.178          28.000    26524171.307                3       1846.644          23.000  
E21  26837902.070   141034189.392       -3240.899          46.000    26837902.881   108065191.638       -2483.397          50.000  
E13  27496865.603   144497404.619       -2468.231          45.000    27496867.171   110718893.982       -1891.251          49.000  
E07  28632124.169   150462841.842        1578.361          44.000    28632125.916   115289721.101        1209.426          47.000  
G18  24966112.091   131198087.379       -3202.785          43.000    24966106.595   102232384.799       -2495.753          44.000  
E26  25098330.784   131892878.670        -962.867          48.000    25098329.124   101060925.373        -737.802          53.000  
E14  26904249.263   141382847.400       -2064.594          48.000    26904248.098   108332338.611       -1581.911          51.000  
E31                                                                  28203891.148   113565405.097        1173.559          39.000  
> 2024 04 17 07 38 30.0050000  0 26                     
G08  25404107.797   133499498.818        2449.738          34.000    25404106.320   104025596.777        1908.252          36.000  
G16  22286708.535   117117494.183        -678.571          47.000                                                                  
G26  23111465.284   121451581.333       -3299.130          47.000    23111462.587    94637604.399       -2570.435          43.000  
G27  22966634.918   120690466.784        1487.065          47.000    22966632.124    94044569.511        1158.677          46.000  
G23  22455884.750   118006615.367       -2236.053          47.000    22455879.914    91953173.926       -1742.352          48.000  
R08  23182105.023   124139118.454        2988.111          51.000    23182099.497    96552680.928        2324.209          48.000  
R22  22518571.695   120205817.309       -2014.656          51.000    22518567.881    93493240.799       -1566.996          49.000  
R14  24941700.001   132953333.160        2056.925          35.000    24941695.528                        1598.389          32.000  
R07  22451810.846   120186327.667         -79.797          48.000    22451807.832    93478292.062         -62.042          47.000  
R13  22461578.410   119943475.027       -1689.496          39.000    22461577.211    93289394.181       -1314.123          42.000  
E08  29167504.375   153276292.443         -27.163          36.000    29167503.358   117445436.276         -21.118          44.000  
S31  40310003.375   211830583.124        -614.257          44.000  
S33  41264732.093   216847760.644        -613.992          43.000  
G10  21725645.118   114169162.666         524.793          50.000    21725641.974    88962916.109         408.923          48.000  
E33  27041077.956   142101919.867         686.776          43.000    27041078.168   108883266.755         526.230          51.000  
R12  23363942.788   124806096.098       -4370.559          47.000    23363939.915    97071361.717       -3399.373          46.000  
R06  24890803.935                2      -3396.581          30.000                                                                  
R23  22311716.791   119352682.451         220.850          50.000                                                                  
G32  26510683.577                3       2366.463          29.000    26510675.052                        1844.292          27.000  
E21  26856425.094   141131522.491       -3248.077          47.000    26856424.710   108139771.507       -2488.732          50.000  
E13  27510953.993   144571440.489       -2467.586          45.000    27510955.295   110775622.735       -1890.778          49.000  
E31  28195184.706   148166566.6091       1522.304          29.000    28195174.928   113530308.779        1166.639          40.000  
E07  28623124.193   150415545.111        1574.690          45.000    28623125.850   115253480.804        1206.572          48.000  
G18  24984395.771   131294171.621       -3202.953          43.000    24984390.197   102307255.580       -2495.676          43.000  
E26  25103838.668   131921821.932        -966.563          48.000    25103836.407   101083102.694        -740.719          52.000  
E14  26916019.379   141444701.810       -2059.149          47.000    26916018.507   108379733.543       -1577.788          51.000  
> 2024 04 17 07 39 00.0050000  0 26                     
G08  25390118.028   133426009.414        2450.153          34.000    25390121.969   103968332.291        1908.820          36.000  
G16  22290641.604   117138159.455        -698.932          47.000                                                                  
G26  23130335.402   121550744.264       -3311.613          47.000    23130332.911    94714874.175       -2580.296          44.000  
G27  22958163.225   120645946.947        1481.138          47.000    22958160.286    94009878.739        1154.203          46.000  
G23  22468699.940   118073961.267       -2253.583          48.000    22468695.248    92005651.263       -1756.024          48.000  
R08  23165399.635   124049656.434        2976.153          51.000    23165392.946    96483099.374        2314.701          48.000  
R22  22529904.731   120266311.462       -2017.987          51.000    22529899.964    93540291.791       -1569.634          48.000  
R14  24930172.030                        2037.684          30.000    24930170.202                        1585.696          31.000  
R07  22452334.627   120189125.966        -106.531          48.000    22452330.040    93480468.498         -82.843          46.000  
R13  22471141.570   119994539.010       -1714.343          39.000    22471138.797    93329110.569       -1333.453          41.000  
E08  29167698.828   153277306.458         -39.528          36.000    29167696.219   117446213.226         -30.545          44.000  
S31  40313510.997   211849016.031        -614.262          44.000  
S33  41268237.807   216866184.519        -614.117          43.000  
G10  21722708.658   114153733.412         503.987          50.000    21722705.952    88950893.340         392.707          48.000  
E33  27037171.447   142081386.890         682.112          45.000    27037170.866   108867533.688         522.674          51.000  
R12  23388515.622   124937363.036       -4380.242          46.000    23388512.936    97173458.161       -3406.793          46.000  
R06  24909952.411                       -3415.149          29.000                                                                  
R23  22310490.358   119346119.966         216.876          50.000                                                                  
G32  26497151.520                        2370.060          29.000    26497159.423                        1845.809          29.000  
E21  26874987.870   141229073.326       -3255.291          46.000    26874988.305   108214518.225       -2494.317          50.000  
E13  27525040.139   144645461.767       -2467.154          45.000    27525040.988   110832340.322       -1890.290          49.000  
E31  28186509.653                        1512.739          31.000    28186511.802   113495424.146        1159.522          40.000  
E07  28614146.983   150368367.164        1570.825          45.000    28614148.032   115217331.503        1203.458          48.000  
G18  25002682.537   131390267.558       -3203.455          43.000    25002678.378   102382135.522       -2496.125          44.000  
E26  25109368.923   131950884.789        -970.689          48.000    25109366.667   101105371.642        -743.813          52.000  
E14  26927760.567   141506398.806       -2053.858          47.000    26927758.924   108427007.851       -1573.746          51.000  
> 2024 04 17 07 39 30.0050000  0 26                     
G08  25376136.184   133352513.347        2450.250          35.000    25376136.465   103911062.639        1909.045          37.000  
G16  22294691.525   117159441.580        -719.849          47.000                                                                  
G26  23149277.148   121650283.355       -3324.462          47.000    23149274.827    94792437.080       -2590.490          44.000  
G27  22949725.038   120601604.902        1474.999          46.000    22949722.240    93975326.510        1149.442          46.000  
G23  22481616.900   118141837.644       -2271.503          48.000    22481611.370    92058541.967       -1770.050          48.000  
R08  23148760.909   123960562.643        2963.530          50.000    23148755.535    96413804.217        2304.928          49.000  
R22  22541256.509   120326910.333       -2022.008          51.000    22541252.866    93587424.226       -1572.510          48.000  
R14  24918750.661   132831046.590        2018.845          35.000    24918754.763                        1570.521          28.000  
R07  22453007.931   120192727.652        -133.539          49.000    22453001.195    93483269.819        -103.925          45.000  
R13  22480844.713   120046351.831       -1739.423          39.000    22480841.305    93369409.383       -1352.875          40.000  
E08  29167963.116   153278694.378         -52.396          36.000    29167960.545   117447276.666         -40.324          44.000  
S31  40317020.813   211867459.078        -615.057          44.000  
S33  41271745.996   216884619.965        -614.782          43.000  
G10  21719892.549   114138935.893         482.625          49.000    21719890.518    88939362.809         376.169          48.000  
E33  27033289.994   142060996.073         677.196          44.000    27033290.418   108851909.583         518.922          50.000  
R12  23413143.890   125068924.013       -4390.391          47.000    23413141.497    97275783.302       -3414.698          47.000  
R06  24929206.076                       -3434.316          29.000                                                                  
R23  22309286.490   119339679.026         212.537          51.000                                                                  
G32  26483614.467   139172329.3651       2372.963          32.000    26483618.650   108445992.6351       1849.768          31.000  
E21  26893592.902   141326843.645       -3262.795          46.000    26893593.858   108289433.102       -2499.947          50.000  
E13  27539123.832   144719471.421       -2467.143          45.000    27539125.055   110889048.967       -1890.265          49.000  
E31  28177897.504   148075793.068        1503.713          31.000    28177902.116   113460755.020        1151.963          41.000  
E07  28605192.715   150321313.414        1566.274          45.000    28605194.277   115181277.368        1200.056          48.000  
G18  25020970.401   131486377.833       -3204.080          44.000    25020967.260   102457026.617       -2496.570          43.000  
E26  25114922.331   131980069.760        -974.882          48.000    25114920.360   101127734.150        -747.011          52.000  
E14  26939471.310   141567941.678       -2048.854          47.000    26939470.140   108474164.076       -1569.926          51.000  
> 2024 04 17 07 40 00.0050000  0 26                     
G08  25362149.071   133279000.108        2450.830          38.000    25362147.319   103853779.635        1909.808          37.000  
G16  22298856.409   117181328.576        -739.532          48.000                                                                  
G26  23168287.390   121750183.987       -3336.127          47.000    23168285.848    94870281.696       -2599.677          45.000  
G27  22941319.710   120557430.717        1469.661          47.000    22941315.779    93940905.071        1145.114          46.000  
G23  22494631.835   118210230.473       -2288.415          49.000    22494626.240    92111835.068       -1783.128          48.000  
R08  23132190.898   123871829.263        2951.711          49.000    23132185.138    96344789.425        2295.790          49.000  
R22  22552626.546   120387601.828       -2024.630          51.000    22552622.408    93634628.708       -1574.697          49.000  
R14  24907442.603   132770753.541        2000.277          40.000    24907443.261                1       1555.067          28.000  
R07  22453827.487   120197122.136        -159.705          49.000    22453822.538    93486687.774        -124.097          46.000  
R13  22490685.133   120098898.865       -1764.005          38.000    22490681.427    93410279.280       -1371.876          39.000  
E08  29168294.708   153280445.193         -64.512          37.000    29168293.697   117448618.246         -49.403          44.000  
S31  40320529.909   211885900.959        -614.686          44.000  
S33  41275253.385   216903052.168        -614.384          43.000  
G10  21717194.379   114124759.111         462.240          49.000    21717193.009    88928315.975         360.207          48.000  
E33  27029433.888   142040735.075         673.267          44.000    27029434.557   108836384.948         515.815          50.000  
R12  23437823.730   125200762.484       -4399.468          45.000    23437822.445    97378324.235       -3421.632          48.000  
R06  24948564.029                3      -3452.066          24.000                                                                  
R23  22308102.906   119333347.359         209.235          50.000                                                                  
G32  26470055.292   139101083.747        2376.454          32.000    26470059.310   108390476.620        1852.277          33.000  
E21  26912236.939   141424819.892       -3269.249          46.000    26912238.268   108364505.774       -2505.073          51.000  
E13  27553201.806   144793457.207       -2465.778          44.000    27553203.563   110945739.375       -1889.343          48.000  
E31  28169346.284   148030818.035        1494.071          32.000    28169343.545   113426293.586        1145.163          42.000  
E07  28596260.530   150274374.079        1562.583          45.000    28596262.284   115145310.897        1197.442          49.000  
G18  25039260.175   131582489.890       -3203.860          44.000    25039256.910   102531919.108       -2496.531          43.000  
E26  25120496.915   132009364.194        -978.298          48.000    25120495.175   101150180.523        -749.585          52.000  
E14  26951150.529   141629318.491       -2043.100          47.000    26951149.824   108521193.064       -1565.518          51.000  
> 2024 04 17 07 40 30.0050000  0 26                     
G08  25348152.923   133205453.992        2452.502          38.000    25348151.868   103796471.024        1910.529          37.000  
G16  22303133.237   117203802.944        -758.832          48.000                                                                  
G26  23187363.417   121850426.232       -3347.068          47.000    23187361.312    94948392.498       -2608.121          45.000  
G27  22932942.557   120513409.125        1464.897          48.000    22932938.642    93906602.534        1141.555          45.000  
G23  22507741.197   118279120.461       -2304.515          48.000    22507736.030    92165515.576       -1795.853          48.000  
R08  23115684.360   123783444.076        2940.379          49.000    23115679.049    96276045.440        2287.031          48.000  
R22  22564010.822   120448368.648       -2026.749          52.000    22564007.180    93681891.769       -1576.399          49.000  
R14  24896235.743   132711010.377        1982.034          37.000    24896225.785                3       1540.542          25.000  
R07  22454793.881   120202293.389        -185.266          50.000    22454787.462    93490709.896        -144.049          44.000  
R13  22500659.082   120152160.641       -1787.240          39.000    22500656.132    93451705.073       -1390.140          40.000  
E08  29168693.381   153282542.825         -75.530          38.000    29168693.083   117450225.547         -57.770          44.000  
S31  40324035.822   211904323.878        -613.425          44.000  
S33  41278758.218   216921467.984        -613.457          43.000  
G10  21714611.635   114111186.740         442.418          49.000    21714610.004    88917740.100         344.688          48.000  
E33  27025599.415   142020586.213         669.876          44.000    27025600.224   108820946.235         513.272          50.000  
R12  23462553.274   125332856.328       -4407.212          47.000    23462551.121    97481063.830       -3427.967          48.000  
R06  24968016.149                3      -3461.480          23.000                                                                  
R23  22306935.495   119327107.111         206.555          49.000                                                                  
G32  26456476.650   139029720.737        2380.826          35.000    26456475.325   108334869.107        1855.396          35.000  
E21  26930917.447   141522983.244       -3274.980          46.000    26930918.070   108439721.814       -2509.503          50.000  
E13  27567273.312   144867401.684       -2463.940          45.000    27567275.177   111002398.105       -1887.957          49.000  
E31  28160836.883   147986098.508        1486.126          32.000    28160833.620   113392027.946        1138.950          42.000  
E07  28587346.586   150227534.094        1559.824          45.000    28587348.613   115109420.585        1195.072          48.000  
G18  25057546.632   131678585.850       -3202.807          44.000    25057543.508   102606799.048       -2495.586          43.000  
E26  25126088.285   132038750.130        -980.938          48.000    25126087.414   101172697.015        -751.676          53.000  
E14  26962794.785   141690512.060       -2036.633          47.000    26962794.655   108568081.642       -1560.537          51.000  
> 2024 04 17 07 41 00.0050000  0 26                     
G08  25334150.985   133131876.335        2452.765          37.000    25334149.830   103739137.730        1911.456          36.000  
G16  22307522.123   117226864.925        -778.741          48.000                                                                  
G26  23206502.653   121951007.297       -3358.800          46.000    23206501.374    95026767.307       -2617.063          44.000  
G27  22924594.464   120469542.031        1459.458          48.000    22924591.399    93872420.425        1137.043          46.000  
G23  22520944.649   118348505.391       -2321.322          48.000    22520939.896    92219581.744       -1808.898          49.000  
R08  23099245.399   123695411.376        2928.205          50.000    23099239.730    96207575.587        2277.507          47.000  
R22  22575406.875   120509210.914       -2029.591          51.000    22575404.679    93729213.495       -1578.639          48.000  
R14  24885133.401   132651819.572        1962.887          34.000    24885131.143                1       1526.601          27.000  
R07  22455906.131   120208242.207        -211.633          50.000    22455899.691    93495336.753        -164.484          47.000  
R13  22510765.714   120206134.711       -1811.235          38.000    22510764.752    93493684.849       -1408.963          42.000  
E08  29169159.974   153284988.216         -87.627          38.000    29169158.852   117452099.270         -67.129          45.000  
S31  40327538.369   211922729.288        -613.625          44.000  
S33  41282258.723   216939863.522        -613.186          43.000  
G10  21712143.657   114098219.498         422.046          49.000    21712142.455    88907635.770         328.762          48.000  
E33  27021786.606   142000548.925         665.776          44.000    27021787.146   108805593.007         510.235          50.000  
R12  23487329.266   125465200.989       -4415.912          48.000    23487326.487    97583998.490       -3434.734          49.000  
R06  24987563.637                3      -3486.233          22.000                                                                  
R23  22305786.008   119320958.210         203.101          49.000                                                                  
G32  26442874.339   138958242.983        2383.709          38.000    26442873.673   108279172.210        1857.916          36.000  
E21  26949633.425   141621331.996       -3281.682          47.000    26949633.511   108515079.910       -2514.472          51.000  
E13  27581337.692   144941304.438       -2462.977          46.000    27581338.189   111059024.883       -1887.213          49.000  
E31  28152371.149   147941636.113        1477.560          32.000    28152372.277   113357959.331        1132.073          42.000  
E07  28578452.521   150180795.559        1556.064          45.000    28578454.758   115073607.963        1192.217          48.000  
G18  25075830.123   131774664.930       -3202.731          44.000    25075825.495   102681665.891       -2495.504          41.000  
E26  25131698.178   132068226.773        -984.406          48.000    25131697.144   101195283.012        -754.235          53.000  
E14  26974405.228   141751522.261       -2030.768          46.000    26974404.665   108614829.711       -1556.131          51.000  
> 2024 04 17 07 41 30.0050000  0 26                     
G08  25320145.015   133058278.223        2453.918          38.000    25320144.538   103681788.591        1912.164          35.000  
G16  22312024.239   117250524.363        -798.492          48.000                                                                  
G26  23225708.900   122051934.075       -3369.748          47.000    23225705.787    95105411.526       -2625.868          43.000  
G27  22916278.411   120425841.146        1454.050          48.000    22916275.137    93838367.795        1132.988          46.000  
G23  22534243.483   118418392.809       -2337.670          47.000    22534239.302    92274039.465       -1821.596          49.000  
R08  23082874.947   123607746.027        2916.084          51.000    23082868.419    96139391.444        2268.225          48.000  
R22  22586820.949   120570138.499       -2032.123          51.000    22586818.187    93776601.613       -1580.469          47.000  
R14  24874134.482   132593194.433        1945.185          32.000    24874136.428                        1513.066          29.000  
R07  22457163.034   120214980.035        -237.555          50.000    22457159.014    93500577.321        -184.833          47.000  
R13  22521009.115   120260828.814       -1834.710          39.000    22521007.144    93536224.687       -1427.117          41.000  
E08  29169691.328   153287791.952         -99.388          36.000    29169692.578   117454247.602         -76.153          46.000  
S31  40331038.854   211941124.948        -612.638          44.000  
S33  41285757.563   216958250.140        -612.547          43.000  
G10  21709793.270   114085867.898         401.597          48.000    21709791.962    88898011.175         312.770          48.000  
E33  27017996.886   141980632.404         662.172          44.000    27017997.132   108790332.319         507.331          50.000  
R12  23512152.256   125597801.712       -4424.080          48.000    23512150.233    97687132.292       -3440.970          49.000  
R06  25007228.689                3      -3512.706          22.000                                                                  
R23  22304655.780   119314909.994         200.037          49.000                                                                  
G32  26429253.482   138886663.068        2387.867          40.000    26429252.750   108223395.708        1860.598          38.000  
E21  26968385.179   141719874.140       -3287.736          47.000    26968385.592   108590586.202       -2519.167          51.000  
E13  27595394.750   145015174.914       -2461.667          46.000    27595395.783   111115626.909       -1886.144          49.000  
E31  28143960.415   147897442.233        1468.802          33.000    28143962.066   113324096.465        1125.710          42.000  
E07  28569580.163   150134170.290        1552.542          44.000    28569581.949   115037882.117        1189.595          49.000  
G18  25094110.827   131870736.177       -3202.118          44.000    25094109.067   102756526.632       -2495.080          43.000  
E26  25137326.424   132097803.010        -987.204          48.000    25137325.292   101217945.326        -756.513          53.000  
E14  26985982.274   141812358.853       -2024.926          47.000    26985981.514   108661444.756       -1551.489          51.000  
> 2024 04 17 07 42 00.0050000  0 26                     
G08  25306136.353   132984661.548        2454.315          39.000    25306135.006   103624424.981        1912.653          35.000  
G16  22316639.983   117274782.047        -818.408          47.000                                                                  
G26  23244980.092   122153204.277       -3381.189          47.000    23244977.360    95184323.354       -2634.710          43.000  
G27  22907995.030   120382308.834        1448.443          49.000    22907991.217    93804446.523        1128.573          46.000  
G23  22547637.247   118488780.989       -2354.626          47.000    22547633.858    92328887.389       -1834.655          49.000  
R08  23066573.202   123520452.965        2903.571          50.000    23066567.923    96071496.891        2258.335          48.000  
R22  22598250.747   120631151.981       -2035.139          52.000    22598246.224    93824056.550       -1582.813          44.000  
R14  24863246.226   132535138.512        1925.831          36.000    24863245.365   103082825.3581       1497.992          37.000  
R07  22458570.560   120222508.293        -264.056          51.000    22458564.860    93506432.640        -205.353          47.000  
R13  22531385.488   120316240.768       -1858.613          39.000    22531384.036    93579322.865       -1445.618          41.000  
E08  29170295.243   153290955.441        -111.199          38.000    29170294.867   117456671.559         -85.407          46.000  
S31  40334537.984   211959512.787        -612.805          44.000  
S33  41289254.785   216976629.874        -612.269          43.000  
G10  21707559.835   114074133.154         380.998          48.000    21707558.819    88888867.237         296.892          47.000  
E33  27014230.721   141960836.591         657.979          45.000    27014230.450   108775164.112         504.154          50.000  
R12  23537023.354   125730654.328       -4432.442          50.000    23537021.080    97790462.037       -3447.377          50.000  
R06  25026982.792                3      -3520.225          21.000                                                                  
R23  22303543.588   119308963.029         196.710          49.000                                                                  
G32  26415613.904   138814984.286        2390.787          42.000    26415613.450   108167542.124        1863.136          40.000  
E21  26987172.712   141818608.503       -3294.302          46.000    26987174.017   108666239.793       -2524.113          51.000  
E13  27609447.093   145089013.242       -2460.504          47.000    27609446.525   111172204.300       -1885.374          49.000  
E31  28135600.924   147853518.879        1459.825          33.000    28135603.614   113290440.973        1118.544          42.000  
E07  28560729.797   150087660.858        1548.306          44.000    28560731.696   115002245.037        1186.549          49.000  
G18  25112390.969   131966799.339       -3201.764          42.000    25112388.739   102831381.038       -2495.020          42.000  
E26  25142973.770   132127478.547        -990.773          48.000    25142972.382   101240683.701        -759.064          53.000  
E14  26997526.117   141873022.214       -2019.099          47.000    26997525.425   108707927.079       -1547.072          51.000  
> 2024 04 17 07 42 30.0050000  0 25                     
G08  25292124.981   132911027.344        2454.303          39.000    25292122.806   103567047.736        1912.354          34.000  
G16  22321369.800   117299637.324        -838.428          47.000                                                                  
G26  23264315.995   122254814.670       -3392.588          47.000    23264313.733    95263500.267       -2643.771          43.000  
G27  22899743.893   120338946.666        1442.406          49.000    22899739.475    93770657.828        1124.017          46.000  
G23  22561126.661   118559667.321       -2371.115          47.000    22561122.860    92384123.500       -1847.631          49.000  
R08  23050342.559   123433536.837        2890.911          51.000    23050336.108    96003895.498        2248.484          48.000  
R22  22609698.386   120692251.059       -2038.075          53.000    22609691.791    93871578.072       -1585.085          46.000  
R14  24852463.936   132477654.080        1906.848          34.000    24852465.023   103038115.284        1483.066          39.000  
R07  22460124.854   120230828.230        -290.503          51.000    22460120.158    93512903.715        -225.952          48.000  
R13  22541895.808   120372367.835       -1882.801          38.000    22541894.334    93622977.173       -1464.370          40.000  
E08  29170966.463   153294479.229        -123.611          38.000    29170964.969   117459371.555         -94.575          45.000  
S31  40338035.300   211977892.134        -612.387          44.000  
S33  41292750.919   216995000.561        -612.070          43.000  
G10  21705444.446   114063015.629         360.388          48.000    21705442.953    88880204.227         280.766          48.000  
E33  27010486.522   141941160.530         653.935          45.000    27010486.348   108760087.679         501.097          51.000  
R12  23561938.102   125863754.046       -4440.771          48.000    23561937.908    97893983.953       -3453.864          49.000  
R23  22302451.104   119303116.617         193.225          49.000                                                                  
G32  26401955.261   138743209.034        2394.323          43.000    26401955.930   108111613.420        1865.672          42.000  
E21  27005996.864   141917533.067       -3300.553          46.000    27005998.731   108742039.095       -2528.981          51.000  
E13  27623490.745   145162818.686       -2459.531          47.000    27623491.244   111228756.515       -1884.621          49.000  
E31  28127297.494   147809867.392        1450.418          34.000    28127297.200   113256993.767        1111.378          43.000  
E07  28551902.033   150041268.923        1544.527          44.000    28551903.432   114966697.981        1183.449          49.000  
G18  25130670.220   132062853.367       -3201.390          43.000    25130667.431   102906228.292       -2494.609          42.000  
E26  25148639.649   132157252.175        -993.983          48.000    25148638.048   101263497.249        -761.653          53.000  
E14  27009036.735   141933511.956       -2013.530          47.000    27009036.412   108754276.359       -1542.796          51.000  
> 2024 04 17 07 43 00.0050000  0 26                     
G08  25278108.880   132837369.955        2455.560          40.000    25278106.154   103509652.423        1913.507          35.000  
G16  22326212.158   117325083.031        -858.124          47.000                                                                  
G26  23283714.097   122356755.407       -3403.640          46.000    23283712.170    95342934.580       -2652.168          44.000  
G27  22891523.336   120295749.526        1437.037          49.000    22891519.606    93736997.737        1119.725          46.000  
G23  22574709.658   118631042.545       -2387.377          48.000    22574704.994    92439740.546       -1860.274          49.000  
R08  23034181.976   123346995.384        2878.205          51.000    23034174.292    95936585.495        2238.732          47.000  
R22  22621158.934   120753428.734       -2040.776          53.000    22621152.527    93919160.706       -1587.299          45.000  
R14  24841785.838   132420737.483        1888.399          32.000    24841783.881   102993846.759        1468.329          37.000  
R07  22461827.365   120239933.508        -316.797          52.000    22461820.673    93519985.586        -246.460          47.000  
R13  22552539.247   120429200.726       -1906.285          39.000    22552537.625    93667180.515       -1482.869          41.000  
E08  29171704.369   153298357.072        -135.445          39.000    29171702.713   117462342.878        -103.706          45.000  
S31  40341530.010   211996255.835        -612.025          44.000  
S33  41296243.788   217013354.515        -611.628          43.000  
G10  21703445.030   114052508.860         339.946          48.000    21703443.570    88872017.146         264.778          47.000  
E33  27006762.269   141921596.630         650.071          44.000    27006763.574   108745097.204         498.146          51.000  
R12  23586898.972   125997088.878       -4448.635          48.000    23586898.636    97997688.767       -3459.989          49.000  
R06  25066804.173                3      -3540.067          13.000                                                                  
R23  22301375.127   119297363.197         190.167          49.000                                                                  
G32  26388277.406   138671333.048        2397.500          43.000    26388277.354   108055606.243        1868.009          41.000  
E21  27024856.707   142016639.041       -3306.748          46.000    27024857.836   108817977.415       -2533.715          50.000  
E13  27637527.533   145236583.935       -2458.413          47.000    27637528.204   111285277.897       -1883.616          48.000  
E31  28119039.657   147766482.349        1441.260          35.000    28119041.371   113223750.679        1104.486          43.000  
E07  28543094.233   149994989.577        1540.498          43.000    28543097.447   114931237.199        1180.450          50.000  
G18  25148945.199   132158890.568       -3201.186          41.000    25148941.535   102981062.424       -2494.373          41.000  
E26  25154322.086   132187116.121        -997.194          48.000    25154320.920   101286379.992        -764.045          53.000  
E14  27020513.111   141993820.957       -2007.449          46.000    27020512.902   108800487.145       -1538.170          51.000  
> 2024 04 17 07 43 30.0050000  0 25                     
G08  25264089.351   132763699.087        2456.018          39.000    25264087.344   103452246.630        1913.580          35.000  
G16  22331168.107   117351127.109        -878.088          47.000                                                                  
G26  23303176.995   122459031.895       -3414.841          46.000    23303174.650    95422630.533       -2660.930          44.000  
G27  22883336.443   120252727.655        1431.100          49.000    22883333.134    93703474.207        1115.127          46.000  
G23  22588386.300   118702912.643       -2403.871          47.000    22588381.323    92495743.201       -1873.163          49.000  
R08  23018093.405   123260841.398        2865.277          51.000    23018085.483    95869576.855        2228.579          47.000  
R22  22632635.141   120814693.523       -2043.652          51.000    22632628.664    93966811.112       -1589.457          45.000  
R14  24831214.870                        1868.010          30.000    24831212.326   102950028.596        1452.756          37.000  
R07  22463675.806   120249833.784        -343.323          51.000    22463670.285    93527685.792        -267.047          48.000  
R13  22563316.585   120486745.197       -1929.739          40.000    22563313.995    93711937.311       -1501.170          41.000  
E08  29172512.578   153302598.169        -147.406          40.000    29172509.974   117465592.534        -112.991          45.000  
S31  40345023.010   212014612.466        -611.774          44.000  
S33  41299734.581   217031702.146        -611.652          42.000  
G10  21701564.156   114042621.786         319.129          48.000    21701561.688    88864312.917         248.640          47.000  
E33  27003062.162   141902152.651         646.179          44.000    27003063.567   108730198.616         495.057          51.000  
R12  23611903.469   126130662.766       -4456.349          47.000    23611902.912    98101579.540       -3466.067          47.000  
R23  22300319.675   119291710.936         186.749          49.000                                                                  
G32  26374583.485   138599367.466        2400.483          45.000    26374581.526   107999529.237        1870.209          38.000  
E21  27043751.552   142115932.986       -3312.844          46.000    27043752.986   108894059.748       -2538.465          50.000  
E13  27651557.760   145310316.898       -2457.236          46.000    27651558.474   111341774.561       -1882.729          48.000  
E31  28110836.933   147723373.565        1432.037          35.000    28110838.626   113190719.280        1097.387          44.000  
E07  28534311.244   149948833.118        1536.517          42.000    28534313.578   114895870.587        1177.307          49.000  
G18  25167218.814   132254918.476       -3200.863          39.000    25167213.899   103055889.336       -2494.043          40.000  
E26  25160023.750   132217077.801       -1000.371          48.000    25160022.637   101309337.630        -766.533          53.000  
E14  27031956.771   142053957.513       -2001.696          46.000    27031956.498   108846565.799       -1533.840          51.000  
> 2024 04 17 07 44 00.0050000  0 25                     
G08  25250067.517   132690014.329        2455.884          39.000    25250066.147   103394829.956        1913.983          35.000  
G16  22336238.353   117377768.092        -898.218          48.000                                                                  
G26  23322702.097   122561639.466       -3426.027          45.000    23322700.468    95502584.432       -2669.640          44.000  
G27  22875183.078   120209881.125        1425.143          49.000    22875179.930    93670087.327        1110.391          47.000  
G23  22602155.277   118775273.447       -2420.483          47.000    22602150.534    92552128.251       -1886.111          48.000  
R08  23002077.959   123175077.325        2852.076          51.000    23002070.152    95802871.488        2218.329          49.000  
R22  22644128.282   120876043.612       -2046.721          52.000    22644122.970    94014527.796       -1591.958          46.000  
R14  24820759.983                        1848.806          28.000    24820752.534   102906661.416        1437.907          38.000  
R07  22465673.382   120260527.722        -369.830          52.000    22465668.637    93536003.321        -287.714          48.000  
R13  22574225.575   120544996.626       -1953.834          41.000    22574222.814    93757243.933       -1519.553          41.000  
E08  29173388.101   153307201.458        -159.745          41.000    29173385.399   117469119.744        -122.363          44.000  
S31  40348514.299   212032958.993        -611.539          44.000  
S33  41303224.786   217050040.048        -611.370          43.000  
G10  21699800.151   114033353.131         298.478          48.000    21699798.251    88857090.596         232.697          48.000  
E33  26999384.736   141882826.101         641.968          45.000    26999385.851   108715389.986         491.879          51.000  
R12  23636953.149   126264469.218       -4464.407          48.000    23636952.933    98205651.147       -3472.269          49.000  
R23  22299281.434   119286157.907         183.344          48.000                                                                  
G32  26360872.229   138527313.184        2403.025          45.000    26360870.341   107943383.120        1872.706          39.000  
E21  27062683.055   142215411.287       -3319.239          47.000    27062682.943   108970283.361       -2543.347          50.000  
E13  27665582.558   145384015.394       -2456.260          47.000    27665583.524   111398244.825       -1882.009          48.000  
E31  28102686.858   147680540.785        1422.761          36.000    28102687.945   113157899.375        1090.346          45.000  
E07  28525552.219   149902799.764        1532.227          43.000    28525553.168   114860598.295        1174.048          48.000  
G18  25185491.279   132350934.500       -3200.317          39.000    25185485.620   103130707.073       -2493.927          41.000  
E26  25165743.549   132247134.571       -1003.680          49.000    25165742.305   101332368.128        -769.011          53.000  
E14  27043367.004   142113919.689       -1995.959          46.000    27043366.989   108892510.848       -1529.413          51.000  
> 2024 04 17 07 44 30.0050000  0 25                     
G08  25236044.659   132616327.277        2455.579          39.000    25236044.585   103337411.564        1913.470          36.000  
G16  22341423.126   117405015.815        -918.945          48.000                                                                  
G26  23342291.676   122664585.443       -3437.744          45.000    23342290.607    95582802.059       -2678.967          43.000  
G27  22867065.348   120167222.141        1418.228          49.000    22867062.055    93636846.548        1105.205          46.000  
G23  22616019.749   118848132.962       -2437.440          47.000    22616015.305    92608901.891       -1899.455          49.000  
R08  22986136.693   123089718.656        2837.750          50.000    22986130.262    95736481.440        2207.194          48.000  
R22  22655639.040   120937489.545       -2050.451          51.000    22655633.859    94062319.075       -1594.795          46.000  
R14  24810404.672                        1827.388          30.000    24810405.118   102863755.642        1422.291          35.000  
R07  22467821.136   120272026.970        -397.400          51.000    22467815.039    93544947.165        -309.076          47.000  
R13  22585267.723   120603962.956       -1978.042          41.000    22585265.566    93803106.593       -1538.943          41.000  
E08  29174333.165   153312178.027        -172.932          41.000    29174332.404   117472932.987        -132.349          45.000  
S31  40352005.859   212051307.305        -612.324          44.000  
S33  41306714.389   217068379.661        -611.582          43.000  
G10  21698156.371   114024713.758         276.785          49.000    21698154.543    88850358.619         215.714          48.000  
E33  26995731.363   141863626.695         637.406          45.000    26995731.918   108700678.783         488.337          50.000  
R12  23662047.087   126398514.019       -4472.784          47.000    23662046.608    98309908.146       -3478.815          49.000  
R23  22298261.986   119280714.171         179.059          48.000                                                                  
G32  26347147.082   138455183.311        2404.931          46.000    26347144.498   107887178.113        1873.941          39.000  
E21  27081648.901   142315082.504       -3326.156          46.000    27081649.592   109046654.789       -2548.615          50.000  
E13  27679602.416   145457689.403       -2456.039          46.000    27679602.796   111454696.296       -1881.889          47.000  
E31  28094590.454   147637995.832        1412.832          36.000    28094592.008   113125300.017        1082.617          45.000  
E07  28516816.585   149856901.836        1526.967          42.000    28516818.854   114825429.768        1170.062          48.000  
G18  25203760.742   132446948.287       -3201.202          39.000    25203756.347   103205522.988       -2494.202          40.000  
E26  25171483.424   132277295.914       -1007.771          49.000    25171481.577   101355478.760        -772.155          53.000  
E14  27054745.994   142173717.726       -1991.087          46.000    27054746.184   108938330.120       -1525.607          51.000  
