     3.00           OBSERVATION DATA    M: Mixed            RINEX VERSION / TYPE
CONVBIN 2.4.3                           20240417 104442 UTC PGM / RUN BY / DATE 
format: u-blox UBX                                          COMMENT             
log: /home/regis/git/gnsspwv/obsdata/VERT00CHL/2024-04-17/VECOMMENT             
{self.marker}                                               MARKER NAME         
                                                            MARKER NUMBER       
GEODETIC                                                    MARKER TYPE         
{self.observer}     {self.institution}                      OBSERVER / AGENCY   
UNKNOWN             UBLOX-ZED-F9P                           REC # / TYPE / VERS 
UNKNOWN             TWIVSP6037L                             ANT # / TYPE        
  1713381.0000 -5047934.0000 -3490983.0000                  APPROX POSITION XYZ 
        0.0000        0.0000        0.0000                  ANTENNA: DELTA H/E/N
G    8 C1C L1C D1C S1C C2L L2L D2L S2L                      SYS / # / OBS TYPES 
R    8 C1C L1C D1C S1C C2C L2C D2C S2C                      SYS / # / OBS TYPES 
E    8 C1C L1C D1C S1C C7Q L7Q D7Q S7Q                      SYS / # / OBS TYPES 
S    4 C1C L1C D1C S1C                                      SYS / # / OBS TYPES 
  2024    04    17    10    30   00.0090000     GPS         TIME OF FIRST OBS   
  2024    04    17    10    44   30.0090000     GPS         TIME OF LAST OBS    
                                                            END OF HEADER       
> 2024 04 17 10 30 00.0090000  0 22                     
G08  22933813.413   120518048.9451      -1285.591          50.000    22933809.833    93910189.4541      -1001.821          47.000  
E19  28458210.080   149548882.9901       2242.292          41.000    28458209.426   114589418.9951       1718.264          44.000  
G27  24193947.998   127140043.8061      -3335.929          48.000    24193944.616    99070215.5721      -2599.528          46.000  
R08  24721969.188   132385040.2911      -4409.111          48.000    24721961.697   102966179.8881      -3429.243          47.000  
R17  25560235.200   136777835.5071       2825.601          42.000    25560227.283   106382964.1691       2197.885          38.000  
R02  23858048.836   127311159.3361       2996.974          52.000    23858045.738    99019799.1521       2330.911          49.000  
G03  25701085.836   135060106.8101       1724.325          42.000    25701083.839   105241663.7161       1343.828          42.000  
G21  23429908.192   123125020.9711       1465.588          47.000                                                                  
S31  41502371.404   218096547.4871       -596.543          44.000  
S33  42456195.847   223108979.2191       -596.067          42.000  
G10  26251911.935   137954848.2261      -3763.576          42.000    26251908.576   107497216.3591      -2932.852          43.000  
E33  26551894.150   139531269.7981        -46.427          48.000    26551891.437   106913556.1811        -35.505          52.000  
R01  21843219.665   116764506.5221       -702.355          49.000    21843215.991    90816854.0151       -546.259          45.000  
R23  23814766.469   127392990.6941      -2505.447          50.000                                                                  
R24  22463792.357   120124106.0181        784.722          52.000    22463787.203    93429827.4021        610.405          49.000  
G02  24376465.956   128099213.5871       1767.166          50.000                                                                  
G32  24467588.063   128578075.6861      -1811.546          49.000    24467584.469   100190739.9671      -1411.416          45.000  
E12  29660153.865   155865122.2271       1263.531          39.000    29660150.599   119429152.5091        967.922          42.000  
E31  29305696.791   154002429.5051      -2533.337          42.000    29305698.836   118001948.4691      -1941.222          49.000  
E07  28809278.994   151393815.4301      -2232.395          43.000    28809279.691   116003069.4961      -1710.571          48.000  
E26  27713902.239   145637799.6051      -1707.602          46.000    27713899.347   111592748.9901      -1308.368          48.000  
E14  29365716.461   154317953.3351       -679.855          46.000    29365715.802   118243654.5921       -520.879          51.000  
> 2024 04 17 10 30 30.0090000  0 22                     
G08  22941211.285   120556923.558       -1305.787          50.000    22941208.095    93940481.336       -1017.494          47.000  
E19  28445424.138   149481690.269        2237.229          41.000    28445422.786   114537933.664        1714.273          44.000  
G27  24213032.852   127240331.310       -3349.912          48.000    24213028.585    99148361.637       -2610.347          46.000  
R08  24746698.775   132517467.491       -4419.256          49.000    24746692.442   103069178.804       -3437.191          48.000  
R17  25544389.872   136693049.341        2826.804          42.000    25544381.902   106317019.429        2198.469          38.000  
R02  23841242.467   127221481.667        2981.665          51.000    23841239.645    98950049.816        2319.132          49.000  
G03  25691266.221   135008498.238        1715.990          43.000    25691262.287   105201449.258        1337.190          41.000  
G21  23421563.806   123081169.379        1458.044          48.000                                                                  
S31  41505777.038   218114443.892        -596.680          44.000  
S33  42459598.144   223126860.844        -596.195          42.000  
G10  26273398.298   138067761.901       -3763.609          42.000    26273395.282   107585200.945       -2933.158          42.000  
E33  26552166.446   139532702.722         -49.101          48.000    26552164.350   106914654.137         -37.641          52.000  
R01  21847232.473   116785960.166        -727.685          49.000    21847228.749    90833540.193        -565.939          44.000  
R23  23828856.370   127468366.154       -2519.597          48.000                                                                  
R24  22459425.587   120100753.350         772.189          52.000    22459420.241    93411664.221         600.538          49.000  
G02  24366391.689   128046275.160        1762.184          50.000                                                                  
G32  24477987.153   128632719.891       -1831.590          49.000    24477982.092   100233319.857       -1427.428          43.000  
E12  29652939.347   155827204.531        1264.802          39.000    29652934.947   119400098.719         968.941          43.000  
E31  29320179.635   154078534.757       -2540.224          43.000    29320181.215   118060262.866       -1946.560          49.000  
E07  28822057.606   151460961.988       -2243.905          43.000    28822056.909   116054519.432       -1719.267          48.000  
E26  27723661.950   145689087.770       -1711.521          46.000    27723659.100   111632047.661       -1311.429          48.000  
E14  29369594.399   154338325.891        -678.430          47.000    29369592.669   118259264.695        -519.754          51.000  
> 2024 04 17 10 31 00.0090000  0 22                     
G08  22948725.152   120596409.191       -1325.902          50.000    22948721.715    93971249.337       -1033.266          47.000  
E19  28432670.381   149414659.299        2232.148          42.000    28432667.311   114486572.246        1710.326          45.000  
G27  24232197.193   127341039.555       -3363.685          48.000    24232192.212    99226835.584       -2621.041          46.000  
R08  24771486.263   132650199.816       -4428.969          49.000    24771479.313   103172415.039       -3444.752          48.000  
R17  25528537.542   136608234.809        2828.055          41.000    25528531.748   106251052.548        2199.829          38.000  
R02  23824524.629   127132268.692        2966.502          52.000    23824521.061    98880661.952        2307.173          49.000  
G03  25681494.135   134957146.175        1707.837          43.000    25681490.695   105161434.670        1330.666          42.000  
G21  23413262.641   123037547.821        1450.763          48.000                                                                  
S31  41509183.949   218132348.466        -596.282          44.000  
S33  42463002.930   223144752.382        -596.160          42.000  
G10  26294887.649   138180690.885       -3763.956          42.000    26294884.583   107673197.471       -2933.093          42.000  
E33  26552455.772   139534223.760         -51.725          48.000    26552453.906   106915819.606         -39.674          52.000  
R01  21851390.019   116808180.285        -752.889          49.000    21851385.417    90850822.524        -585.669          44.000  
R23  23843028.904   127544174.663       -2533.705          49.000                                                                  
R24  22455131.118   120077787.869         759.507          52.000    22455125.357    93393802.170         590.737          48.000  
G02  24356347.654   127993495.268        1757.071          50.000                                                                  
G32  24488500.180   128687967.491       -1851.062          47.000    24488495.249   100276369.875       -1442.385          43.000  
E12  29645717.875   155789257.698        1265.641          39.000    29645713.549   119371022.606         969.702          43.000  
E31  29334703.451   154154855.605       -2547.084          43.000    29334704.385   118118742.479       -1951.712          48.000  
E07  28834900.290   151528455.094       -2255.250          42.000    28834900.675   116106234.846       -1727.912          48.000  
E26  27733443.968   145740497.810       -1715.179          45.000    27733442.763   111671439.710       -1314.323          49.000  
E14  29373463.030   154358658.857        -676.688          46.000    29373461.870   118274844.471        -518.539          51.000  
> 2024 04 17 10 31 30.0090000  0 22                     
G08  22956353.303   120636494.872       -1346.167          51.000    22956349.425    94002484.934       -1049.035          47.000  
E19  28419943.856   149347781.407        2226.908          42.000    28419940.496   114435328.153        1706.203          45.000  
G27  24251438.503   127442155.743       -3377.198          48.000    24251435.170    99305627.380       -2631.606          46.000  
R08  24796327.908   132783222.688       -4438.800          49.000    24796320.919   103275877.230       -3452.452          47.000  
R17  25512681.509   136523383.151        2828.675          42.000    25512676.459   106185056.920        2200.283          38.000  
R02  23807892.186   127043512.714        2950.888          53.000    23807888.647    98811629.537        2294.995          49.000  
G03  25671768.648   134906040.236        1699.423          43.000    25671765.172   105121611.868        1324.220          42.000  
G21  23405003.477   122994147.583        1443.048          47.000                                                                  
S31  41512591.215   218150252.252        -596.834          44.000  
S33  42466407.397   223162642.366        -596.383          42.000  
G10  26316377.670   138293622.929       -3764.282          40.000    26316375.480   107761196.353       -2933.450          42.000  
E33  26552759.672   139535822.911         -54.551          48.000    26552758.042   106917044.929         -41.814          52.000  
R01  21855688.072   116831154.982        -778.340          49.000    21855682.559    90868691.756        -605.503          44.000  
R23  23857279.507   127620405.337       -2547.948          50.000                                                                  
R24  22450907.156   120055200.850         746.630          52.000    22450901.472    93376234.464         580.750          49.000  
G02  24346332.318   127940865.006        1751.857          49.000                                                                  
G32  24499125.197   128743806.409       -1871.119          48.000    24499121.262   100319880.737       -1457.870          43.000  
E12  29638489.249   155751271.199        1266.892          39.000    29638485.012   119341916.112         970.707          43.000  
E31  29349264.733   154231379.404       -2553.952          42.000    29349266.626   118177377.611       -1956.924          49.000  
E07  28847806.844   151596282.679       -2266.403          41.000    28847807.673   116158206.595       -1736.576          48.000  
E26  27743248.660   145792019.701       -1719.337          45.000    27743246.743   111710917.460       -1317.299          49.000  
E14  29377323.955   154378941.983        -675.085          47.000    29377321.711   118290386.054        -517.282          51.000  
> 2024 04 17 10 32 00.0090000  0 22                     
G08  22964094.623   120677176.681       -1365.919          50.000    22964091.214    94034185.032       -1064.344          47.000  
E19  28407246.044   149281054.711        2221.589          42.000    28407243.232   114384199.902        1702.326          45.000  
G27  24270756.537   127543674.173       -3390.564          48.000    24270753.205    99384732.585       -2641.832          46.000  
R08  24821221.803   132916528.125       -4448.021          49.000    24821215.263   103379559.152       -3459.562          48.000  
R17  25496818.145   136438492.233        2830.625          44.000    25496814.215   106119030.694        2201.605          39.000  
R02  23791345.062   126955213.275        2935.767          53.000    23791340.862    98742952.196        2283.404          48.000  
G03  25662089.912   134855177.153        1691.443          43.000    25662087.343   105081978.321        1318.303          43.000  
G21  23396786.046   122950967.245        1435.785          47.000                                                                  
S31  41515997.142   218168150.954        -596.423          44.000  
S33  42469810.327   223180526.985        -595.986          42.000  
G10  26337867.769   138406553.169       -3764.209          40.000    26337864.262   107849193.796       -2933.074          40.000  
E33  26553078.379   139537497.447         -57.107          48.000    26553076.568   106918328.007         -43.716          52.000  
R01  21860125.342   116854879.348        -803.183          48.000    21860121.256    90887144.040        -624.744          44.000  
R23  23871607.688   127697054.935       -2561.878          48.000                                                                  
R24  22446753.541   120032991.615         734.098          53.000    22446748.100    93358960.609         570.936          49.000  
G02  24336345.247   127888382.654        1747.073          49.000                                                                  
G32  24509862.756   128800231.863       -1890.460          47.000    24509858.261   100363848.613       -1473.154          43.000  
E12  29631252.370   155713241.688        1268.722          40.000    29631248.122   119312776.661         971.818          43.000  
E31  29363864.834   154308100.772       -2560.779          42.000    29363866.079   118236164.099       -1962.142          48.000  
E07  28860776.795   151664439.977       -2277.233          41.000    28860777.212   116210430.977       -1745.066          48.000  
E26  27753072.996   145843650.505       -1722.762          46.000    27753071.997   111750478.696       -1320.117          49.000  
E14  29381172.307   154399172.154        -673.478          46.000    29381171.131   118305887.076        -516.015          50.000  
> 2024 04 17 10 32 30.0090000  0 22                     
G08  22971951.500   120718462.840       -1386.059          51.000    22971947.873    94066356.057       -1080.134          47.000  
E19  28394579.664   149214489.943        2216.164          43.000    28394576.296   114333195.724        1698.213          46.000  
G27  24290152.206   127645601.246       -3404.104          47.000    24290148.791    99464156.255       -2652.687          46.000  
R08  24846169.756   133050121.260       -4457.613          49.000    24846162.395   103483464.883       -3467.057          47.000  
R17  25480949.915   136353573.441        2831.240          45.000    25480945.635   106052982.746        2201.899          39.000  
R02  23774885.142   126867382.357        2919.994          52.000    23774880.242    98674639.272        2271.030          47.000  
G03  25652458.854   134804565.746        1682.824          42.000    25652455.557   105042540.872        1311.398          43.000  
G21  23388612.746   122908017.359        1428.021          47.000                                                                  
S31  41519403.651   218186052.993        -596.697          44.000  
S33  42473214.524   223198414.855        -596.084          43.000  
G10  26359359.459   138519488.597       -3764.323          40.000    26359354.457   107937195.310       -2933.034          38.000  
E33  26553413.516   139539256.624         -59.840          48.000    26553411.339   106919675.939         -45.893          52.000  
R01  21864705.492   116879360.803        -828.417          48.000    21864701.998    90906185.177        -644.298          44.000  
R23  23886016.784   127774132.553       -2576.254          49.000                                                                  
R24  22442673.733   120011171.735         721.073          53.000    22442667.750    93341989.588         560.836          48.000  
G02  24326387.945   127836058.009        1741.725          49.000                                                                  
G32  24520712.008   128857250.964       -1910.424          47.000    24520708.700   100408279.068       -1488.552          43.000  
E12  29624008.510   155675177.874        1269.357          39.000    29624005.048   119283610.903         972.806          44.000  
E31  29378503.445   154385026.186       -2567.415          43.000    29378504.112   118295106.934       -1967.149          48.000  
E07  28873809.195   151732934.184       -2288.500          40.000    28873811.771   116262913.517       -1753.574          48.000  
E26  27762920.281   145895399.419       -1726.734          46.000    27762919.539   111790130.404       -1323.114          49.000  
E14  29385014.007   154419358.344        -671.937          47.000    29385012.406   118321354.405        -514.811          50.000  
> 2024 04 17 10 33 00.0090000  0 22                     
G08  22979920.850   120760342.765       -1405.675          51.000    22979916.938    94098989.721       -1095.279          47.000  
E19  28381942.203   149148078.543        2211.364          44.000    28381938.673   114282309.057        1694.399          46.000  
G27  24309623.529   127747924.600       -3417.016          47.000    24309620.847    99543888.702       -2662.595          47.000  
R08  24871168.099   133183987.084       -4466.399          48.000    24871161.559   103587582.687       -3473.943          48.000  
R17  25465074.182   136268618.168        2832.713          46.000    25465069.323   105986906.416        2203.313          38.000  
R02  23758511.481   126780012.972        2904.796          52.000    23758506.646    98606685.295        2259.342          45.000  
G03  25642873.899   134754196.045        1675.324          43.000    25642869.921   105003291.776        1305.464          42.000  
G21  23380482.643   122865289.894        1420.720          48.000                                                                  
S31  41522808.982   218203948.285        -596.083          44.000  
S33  42476617.640   223216298.592        -595.552          43.000  
G10  26380849.863   138632417.673       -3763.819          41.000    26380845.526   108025191.844       -2932.961          40.000  
E33  26553762.354   139541091.007         -62.200          49.000    26553760.193   106921081.516         -47.651          51.000  
R01  21869424.637   116904587.656        -853.038          48.000    21869420.578    90925806.046        -663.397          43.000  
R23  23900503.802   127851627.691       -2589.865          49.000                                                                  
R24  22438664.259   119989733.359         708.528          52.000    22438658.432    93325315.305         551.020          49.000  
G02  24316458.559   127783882.351        1736.842          48.000                                                                  
G32  24531673.133   128914852.196       -1929.435          47.000    24531670.288   100453163.096       -1503.339          44.000  
E12  29616755.960   155637069.708        1271.232          39.000    29616753.738   119254411.189         974.163          44.000  
E31  29393178.663   154462143.551       -2573.317          42.000    29393178.720   118354196.890       -1971.880          47.000  
E07  28886907.062   151801753.854       -2299.135          41.000    28886907.412   116315645.408       -1761.659          48.000  
E26  27772789.412   145947256.883       -1730.139          46.000    27772787.454   111829865.277       -1325.689          48.000  
E14  29388843.978   154439490.802        -670.132          46.000    29388843.448   118336780.544        -513.292          50.000  
> 2024 04 17 10 33 30.0090000  0 23                     
G08  22988001.068   120802805.700       -1425.243          51.000    22987996.594    94132077.717       -1110.537          46.000  
E19  28369331.974   149081812.301        2206.122          44.000    28369328.796   114231533.607        1690.636          46.000  
G27  24329168.298   127850631.716       -3430.211          47.000    24329165.948    99623920.150       -2672.697          46.000  
R08  24896214.661   133318111.133       -4475.142          48.000    24896208.667   103691901.372       -3480.698          49.000  
R17  25449189.889   136183617.989        2834.054          45.000    25449185.410                        2205.005          30.000  
R02  23742222.968   126693097.662        2889.475          51.000    23742218.997    98539084.486        2247.390          47.000  
G03  25633333.231   134704057.966        1667.211          43.000    25633329.202   104964223.150        1298.968          42.000  
G21  23372392.740   122822776.117        1413.383          49.000                                                                  
S31  41526211.468   218221828.241        -595.913          44.000  
S33  42480017.391   223234162.975        -595.433          43.000  
G10  26402336.250   138745328.485       -3763.495          38.000    26402332.686   108113174.198       -2932.581          41.000  
E33  26554124.338   139542990.996         -64.571          48.000    26554121.890   106922537.338         -49.443          51.000  
R01  21874281.151   116930548.220        -877.718          48.000    21874276.700    90945997.591        -682.646          43.000  
R23  23915066.486   127929530.103       -2603.800          47.000                                                                  
R24  22434724.957   119968668.965         695.700          52.000    22434719.880    93308931.870         541.168          49.000  
G02  24306557.022   127731847.187        1732.061          48.000                                                                  
G32  24542743.882   128973023.733       -1948.613          47.000    24542740.294   100498491.528       -1518.292          44.000  
E12  29609492.768   155598907.087        1273.116          38.000    29609492.000   119225169.763         975.259          45.000  
E31  29407887.640   154539440.586       -2579.627          42.000    29407888.035   118413424.479       -1976.783          47.000  
E07  28900063.445   151870887.312       -2309.939          40.000    28900063.251   116368617.722       -1769.721          48.000  
E26  27782676.552   145999213.185       -1733.660          46.000    27782674.346   111869675.894       -1328.388          48.000  
E14  29392664.323   154459559.574        -667.950          47.000    29392662.366   118352157.896        -511.804          49.000  
G28                                                                  28009531.092                1       1267.276          26.000  
> 2024 04 17 10 34 00.0090000  0 23                     
G08  22996193.032   120845854.608       -1445.083          50.000    22996188.620    94165622.308       -1126.004          46.000  
E19  28356749.369   149015696.012        2201.075          43.000    28356747.380   114180873.069        1686.654          46.000  
G27  24348786.278   127953723.724       -3442.987          48.000    24348782.621    99704251.588       -2682.785          46.000  
R08  24921309.583   133452492.950       -4483.955          47.000    24921303.564   103796420.483       -3487.410          49.000  
R17  25433298.103   136098578.688        2834.865          45.000    25433296.957   105854653.683        2205.409          35.000  
R02  23726020.975   126606642.823        2873.792          50.000    23726018.474    98471841.803        2235.201          48.000  
G03  25623837.350   134654155.060        1659.048          43.000    25623832.922   104925337.822        1292.925          42.000  
G21  23364344.670   122780481.768        1405.864          48.000                                                                  
S31  41529611.187   218239692.986        -595.564          45.000  
S33  42483414.665   223252015.871        -595.199          43.000  
G10  26423818.459   138858223.145       -3763.354          37.000    26423816.260   108201143.890       -2932.172          39.000  
E33  26554499.005   139544960.770         -67.139          48.000    26554496.803   106924046.646         -51.444          51.000  
R01  21879274.675   116957244.509        -902.541          48.000    21879270.447    90966761.368        -701.727          42.000  
R23  23929706.649   128007843.821       -2617.635          48.000                                                                  
R24  22430856.873   119947984.924         682.775          52.000    22430851.871    93292844.256         531.100          49.000  
G02  24296683.328   127679957.579        1726.787          49.000                                                                  
G32  24553922.252   129031767.574       -1967.900          46.000    24553919.294   100544265.905       -1533.271          45.000  
E12  29602220.932   155560693.625        1274.122          38.000    29602219.978   119195889.342         976.336          45.000  
E31  29422631.138   154616918.690       -2585.817          43.000    29422631.519   118472790.802       -1981.352          47.000  
E07  28913279.478   151940336.523       -2320.682          41.000    28913279.100   116421832.015       -1778.028          48.000  
E26  27792582.335   146051272.351       -1737.228          46.000    27792581.101   111909565.336       -1331.168          49.000  
E14  29396471.634   154479568.508        -666.415          47.000    29396469.818   118367489.392        -510.546          50.000  
G28                                                                  28000245.203                        1266.463          28.000  
> 2024 04 17 10 34 30.0090000  0 23                     
G08  23004498.439   120889502.172       -1464.743          50.000    23004494.694    94199633.380       -1141.218          46.000  
E19  28344198.800   148949745.066        2195.732          42.000    28344197.604   114130339.225        1682.479          46.000  
G27  24368478.826   128057211.632       -3456.008          47.000    24368475.810    99784891.495       -2693.062          46.000  
G28  27990970.861                1       1623.832          30.000    27990965.232                        1266.039          29.000  
R08  24946454.817   133587142.220       -4492.581          47.000    24946448.342   103901147.631       -3494.183          50.000  
R17  25417402.032   136013515.600        2835.983          44.000    25417404.503   105788493.487        2205.924          34.000  
R02  23709909.129   126520665.068        2858.020          51.000    23709906.143    98404970.249        2223.000          48.000  
G03  25614387.415   134604500.751        1651.052          42.000    25614382.813   104886646.191        1286.677          41.000  
G21  23356341.346   122738422.275        1398.131          48.000                                                                  
S31  41533010.670   218257558.484        -595.446          45.000  
S33  42486811.612   223269868.177        -595.091          43.000  
G10  26445299.093   138971113.336       -3762.842          38.000    26445297.177   108289110.155       -2931.647          38.000  
E33  26554889.966   139547014.235         -69.689          48.000    26554887.690   106925620.068         -53.361          51.000  
R01  21884408.160   116984688.783        -927.078          47.000    21884404.756    90988106.926        -720.836          43.000  
R23  23944426.626   128086581.678       -2631.577          49.000                                                                  
R24  22427062.636   119927696.983         669.783          52.000    22427057.355    93277064.731         521.057          49.000  
G02  24286839.746   127628228.102        1721.783          49.000                                                                  
G32  24565211.765   129091095.395       -1987.201          46.000    24565208.995   100590495.352       -1548.275          45.000  
E12  29594942.360   155522442.606        1275.589          38.000    29594940.708   119166580.133         977.625          44.000  
E31  29437411.566   154694589.088       -2592.210          43.000    29437411.470   118532304.449       -1986.109          47.000  
E07  28926558.705   152010113.452       -2331.382          41.000    28926556.920   116475297.355       -1786.136          48.000  
E26  27802511.624   146103448.180       -1740.952          47.000    27802509.852   111949544.169       -1333.962          48.000  
E14  29400271.168   154499531.149        -664.466          47.000    29400268.457   118382785.417        -509.130          49.000  
> 2024 04 17 10 35 00.0090000  0 23                     
G08  23012916.640   120933739.257       -1484.654          50.000    23012912.609    94234103.810       -1156.901          47.000  
E19  28331678.774   148883952.541        2190.274          42.000    28331677.427   114079926.757        1678.248          46.000  
G27  24388245.481   128161084.582       -3469.201          48.000    24388242.268    99865831.420       -2703.264          46.000  
G28  27981695.299                3       1623.522          31.000    27981692.168                        1265.115          32.000  
R08  24971646.779   133722045.911       -4501.242          47.000    24971639.781   104006072.666       -3501.019          49.000  
R17  25401499.795   135928422.139        2836.674          41.000    25401500.557                        2206.810          24.000  
R02  23693885.346   126435158.528        2842.090          51.000    23693881.554    98338465.145        2210.457          48.000  
G03  25604983.109   134555086.585        1642.858          43.000    25604980.133   104848141.693        1280.256          42.000  
G21  23348380.968   122696590.828        1390.244          48.000                                                                  
S31  41536408.533   218275414.434        -595.049          45.000  
S33  42490207.045   223287711.605        -594.787          43.000  
G10  26466779.891   139083988.914       -3762.372          39.000    26466776.576   108377065.087       -2931.867          37.000  
E33  26555295.114   139549143.502         -72.513          47.000    26555292.901   106927251.575         -55.534          52.000  
R01  21889681.141   117012870.100        -951.964          48.000    21889677.381    91010025.770        -740.498          43.000  
R23  23959223.809   128165735.320       -2645.719          48.000                                                                  
R24  22423341.168   119907799.410         656.481          52.000    22423336.363    93261588.825         510.614          49.000  
G02  24277024.926   127576651.863        1716.438          49.000                                                                  
G32  24576610.582   129150997.088       -2006.435          45.000    24576607.772   100637171.950       -1563.524          45.000  
E12  29587655.532   155484145.619        1277.081          39.000    29587652.331   119137235.727         978.644          44.000  
E31  29452226.604   154772441.113       -2598.353          43.000    29452226.175   118591957.299       -1990.816          47.000  
E07  28939897.073   152080207.951       -2342.091          41.000    28939895.779   116529006.118       -1794.521          48.000  
E26  27812461.337   146155732.690       -1744.865          47.000    27812458.485   111989606.276       -1337.017          48.000  
E14  29404058.826   154519439.283        -662.901          46.000    29404057.029   118398039.677        -508.050          50.000  
> 2024 04 17 10 35 30.0090000  0 23                     
G08  23021449.108   120978578.835       -1504.720          50.000    23021445.651    94269043.718       -1172.493          47.000  
E19  28319191.143   148818333.864        2184.517          41.000    28319190.455   114029647.502        1673.729          46.000  
G27  24408087.496   128265353.771       -3482.052          47.000    24408084.760    99947080.106       -2713.590          47.000  
G28  27972425.811                        1622.982          31.000    27972425.367   114542397.3161       1264.085          34.000  
R08  24996888.797   133857213.683       -4509.975          47.000    24996880.715   104111203.036       -3507.814          48.000  
R17  25385594.676   135843314.174        2836.935          40.000    25385587.828                3       2204.501          26.000  
R02  23677953.813   126350140.473        2825.781          52.000    23677949.978    98272339.995        2197.760          49.000  
G03  25595629.093   134505926.307        1634.716          44.000    25595625.719   104809835.022        1273.560          43.000  
G21  23340466.532   122655002.865        1382.091          47.000                                                                  
S31  41539807.450   218293275.655        -595.580          45.000  
S33  42493603.733   223305560.713        -595.114          43.000  
G10  26488258.204   139196862.225       -3762.219          37.000    26488255.838   108465018.132       -2931.067          34.000  
E33  26555717.028   139551362.858         -75.497          48.000    26555715.102   106928952.117         -57.859          52.000  
R01  21895094.477   117041801.150        -976.753          49.000    21895089.434    91032527.690        -760.156          43.000  
R23  23974099.607   128245318.523       -2660.014          47.000                                                                  
R24  22419697.002   119888308.766         642.856          52.000    22419691.336    93246429.431         500.011          49.000  
G02  24267242.325   127525244.131        1710.760          49.000                                                                  
G32  24588120.900   129211484.613       -2026.008          46.000    24588118.220   100684305.016       -1578.781          45.000  
E12  29580361.482   155445816.388        1278.230          39.000    29580358.326   119107866.610         979.529          44.000  
E31  29467078.816   154850486.324       -2604.525          44.000    29467078.359   118651758.175       -1995.846          47.000  
E07  28953293.275   152150632.274       -2352.810          36.000    28953297.546   116582967.552       -1802.771          48.000  
E26  27822433.677   146208139.942       -1748.911          47.000    27822431.466   112029762.453       -1340.051          48.000  
E14  29407840.194   154539306.833        -661.709          47.000    29407837.728   118413262.806        -506.878          50.000  
> 2024 04 17 10 36 00.0090000  0 23                     
G08  23030096.206   121024018.196       -1524.730          50.000    23030092.891    94304451.004       -1188.140          47.000  
E19  28306738.257   148752888.549        2178.385          42.000    28306736.625   113979501.063        1669.238          46.000  
G27  24428003.481   128370014.917       -3495.445          46.000    24428000.641   100028634.166       -2723.541          46.000  
G28  27963165.456   146947439.4271       1621.708          35.000    27963165.903   114504481.534        1263.512          36.000  
R08  25022178.941   133992639.528       -4518.577          46.000    25022171.415   104216534.170       -3514.539          50.000  
R17  25369686.181   135758191.859        2837.604          37.000    25369694.685   105589770.1881       2206.576          33.000  
R02  23662114.251   126265611.416        2809.302          53.000    23662108.992    98206595.171        2184.991          48.000  
G03  25586322.554   134457017.977        1626.025          44.000    25586318.575   104771724.643        1266.950          43.000  
G21  23332598.699   122613658.354        1373.942          47.000                                                                  
S31  41543207.085   218311139.874        -595.486          45.000  
S33  42497000.677   223323411.586        -595.123          43.000  
G10  26509736.853   139309729.658       -3762.256          37.000    26509730.794                       -2931.555          31.000  
E33  26556155.806   139553670.938         -78.509          47.000    26556154.443   106930720.643         -60.189          51.000  
R01  21900645.543   117071478.251       -1001.987          48.000    21900641.379    91055609.848        -779.296          43.000  
R23  23989057.264   128325329.488       -2674.336          49.000                                                                  
R24  22416129.235   119869225.283         629.164          53.000    22416123.171    93231586.722         489.246          50.000  
G02  24257491.676   127474004.257        1705.087          48.000                                                                  
G32  24599743.200   129272554.336       -2045.658          47.000    24599738.755   100731891.778       -1593.966          43.000  
E12  29573060.756   155407452.976        1279.414          38.000    29573058.338   119078471.322         980.067          44.000  
E31  29481965.485   154928720.581       -2610.918          44.000    29481966.052   118711703.915       -2000.602          48.000  
E07  28966758.980   152221382.926       -2364.145          39.000    28966760.996   116637179.036       -1811.294          48.000  
E26  27832429.567   146260668.534       -1753.021          46.000    27832427.839   112070011.573       -1343.328          48.000  
E14  29411612.412   154559132.060        -660.084          46.000    29411610.631   118428453.532        -505.833          50.000  
> 2024 04 17 10 36 30.0090000  0 23                     
G08  23038857.126   121070055.419       -1544.462          50.000    23038853.729    94340324.140       -1203.494          47.000  
E19  28294318.047   148687617.222        2172.960          42.000    28294316.151   113929487.952        1664.805          46.000  
G27  24447993.212   128475064.222       -3508.132          46.000    24447990.869   100110490.718       -2733.816          46.000  
G28  27953916.325   146898823.842        1619.799          39.000    27953914.666   114466599.190        1262.385          40.000  
R08  25047515.144   134128318.023       -4526.903          44.000    25047508.594   104322061.814       -3520.827          49.000  
R17  25353776.443   135673055.875        2837.846          36.000    25353779.369   105523553.239        2207.212          37.000  
R02  23646364.871   126181573.036        2793.018          52.000    23646360.431    98141231.990        2172.369          49.000  
G03  25577062.540   134408360.333        1617.565          45.000    25577059.467   104733809.620        1260.396          43.000  
G21  23324777.405   122572558.236        1365.953          47.000                                                                  
S31  41546606.831   218329005.498        -595.390          44.000  
S33  42500398.097   223341264.781        -594.990          43.000  
G10  26531214.013   139422588.416       -3761.755          39.000    26531206.767   108640908.366       -2931.238          32.000  
E33  26556612.699   139556067.157         -81.318          48.000    26556610.525   106932556.683         -62.279          51.000  
R01  21906334.660   117101898.468       -1026.332          46.000    21906331.663    91079270.002        -798.299          42.000  
R23  24004094.425   128405766.504       -2688.361          48.000                                                                  
R24  22412636.502   119850550.589         615.665          53.000    22412631.040    93217061.947         478.788          49.000  
G02  24247772.666   127422932.362        1699.574          48.000                                                                  
G32  24611474.182   129334203.254       -2064.638          47.000    24611470.009   100779929.837       -1608.779          44.000  
E12  29565754.030   155369054.199        1280.689          39.000    29565750.964   119049048.924         981.234          44.000  
E31  29496887.768   155007140.567       -2617.014          43.000    29496889.032   118771791.935       -2005.246          48.000  
E07  28980282.296   152292457.037       -2374.125          36.000    28980285.722   116691638.396       -1819.420          48.000  
E26  27842448.003   146313317.600       -1756.819          46.000    27842446.318   112110353.011       -1346.254          48.000  
E14  29415377.228   154578913.998        -658.874          47.000    29415375.376   118443611.076        -504.735          50.000  
> 2024 04 17 10 37 00.0090000  0 23                     
G08  23047728.947   121116677.283       -1563.816          50.000    23047725.600    94376652.841       -1218.538          47.000  
E19  28281927.898   148622508.835        2167.666          42.000    28281926.180   113879599.697        1660.792          46.000  
G27  24468055.237   128580486.891       -3520.566          47.000    24468052.183   100192638.196       -2743.245          46.000  
G28  27944671.630   146850241.420        1618.976          42.000    27944670.854   114428742.696        1261.371          43.000  
R08  25072896.798   134264232.334       -4534.348          43.000    25072889.879   104427772.845       -3526.743          49.000  
R17  25337863.807   135587895.526        2839.513          35.000    25337860.854   105457317.418        2208.288          37.000  
R02  23630705.617   126098015.770        2777.106          52.000    23630702.379    98076243.011        2159.912          50.000  
G03  25567848.711   134359940.929        1609.855          45.000    25567846.297   104696080.241        1254.506          43.000  
G21  23317000.872   122531691.653        1358.368          48.000                                                                  
S31  41550004.167   218346859.849        -595.217          44.000  
S33  42503793.074   223359105.568        -594.703          43.000  
G10  26552687.445   139535424.471       -3760.809          41.000    26552680.694   108728832.359       -2930.432          34.000  
E33  26557083.316   139558539.648         -83.738          48.000    26557080.828   106934451.173         -64.162          51.000  
R01  21912161.408   117133047.296       -1050.386          47.000    21912158.204    91103496.832        -817.175          42.000  
R23  24019208.019   128486617.002       -2702.049          48.000                                                                  
R24  22409218.871   119832274.382         602.413          53.000    22409213.718    93202847.105         468.534          50.000  
G02  24238084.258   127372017.699        1694.471          48.000                                                                  
G32  24623313.419   129396417.224       -2083.193          48.000    24623309.114   100828408.202       -1623.381          43.000  
E12  29558437.934   155330607.762        1282.189          39.000    29558434.827   119019589.970         982.695          44.000  
E31  29511844.498   155085731.652       -2622.849          43.000    29511843.894   118832011.065       -2009.486          48.000  
E07  28993869.823   152363840.783       -2384.825          40.000    28993870.017   116746334.928       -1827.103          49.000  
E26  27852487.374   146366075.223       -1760.425          46.000    27852485.901   112150777.622       -1348.944          48.000  
E14  29419129.919   154598640.416        -656.620          46.000    29419128.965   118458726.089        -503.121          50.000  
> 2024 04 17 10 37 30.0090000  0 23                     
G08  23056712.251   121163884.883       -1582.974          50.000    23056709.334    94413437.968       -1233.512          47.000  
E19  28269569.689   148557567.267        2162.281          42.000    28269568.561   113829839.248        1656.741          46.000  
G27  24488187.729   128686282.304       -3532.358          48.000    24488183.899   100275076.157       -2752.436          45.000  
G28  27935434.101   146801696.761        1617.748          43.000    27935432.304   114390915.645        1260.698          43.000  
R08  25098321.981   134400380.252       -4541.776          43.000    25098314.192   104533665.556       -3532.463          49.000  
R17  25321951.493   135502714.953        2840.206          35.000    25321938.501   105391065.871        2208.945          37.000  
R02  23615137.407   126014944.346        2761.328          51.000    23615135.058    98011631.887        2147.748          49.000  
G03  25558680.300   134311761.718        1602.381          44.000    25558677.606   104658538.011        1248.623          43.000  
G21  23309270.135   122491062.491        1350.793          48.000                                                                  
S31  41553399.890   218364704.158        -594.581          44.000  
S33  42507186.428   223376938.038        -593.901          42.000  
G10  26574155.823   139648238.304       -3759.528          41.000    26574150.600   108816739.146       -2929.364          34.000  
E33  26557568.220   139561090.986         -86.020          47.000    26557566.350   106936406.081         -65.984          51.000  
R01  21918125.973   117164924.831       -1074.327          48.000    21918121.890    91128290.471        -835.466          42.000  
R23  24034400.203   128567882.536       -2715.426          49.000                                                                  
R24  22405876.046   119814401.426         589.382          52.000    22405871.416    93188945.893         458.452          50.000  
G02  24228426.022   127321263.769        1689.466          48.000                                                                  
G32  24635259.788   129459196.344       -2101.673          47.000    24635254.999   100877326.986       -1637.710          42.000  
E12  29551112.668   155292115.484        1284.175          39.000    29551109.910   118990095.911         983.987          44.000  
E31  29526831.337   155164493.573       -2627.929          42.000    29526831.720   118892361.104       -2013.473          48.000  
E07  29007512.629   152435534.335       -2394.496          40.000    29007512.767   116801268.933       -1834.703          48.000  
E26  27862547.725   146418943.706       -1763.651          46.000    27862546.863   112191287.193       -1351.369          48.000  
E14  29422873.303   154618313.470        -654.491          46.000    29422872.625   118473800.217        -501.582          50.000  
> 2024 04 17 10 38 00.0090000  0 23                     
G08  23065807.219   121211677.581       -1602.909          50.000    23065803.872    94450678.995       -1248.970          47.000  
E19  28257244.004   148492794.041        2156.159          42.000    28257242.740   113780207.809        1652.160          46.000  
G27  24508390.473   128792448.226       -3544.985          48.000    24508386.810   100357802.814       -2762.404          45.000  
G28  27926203.247   146753192.846        1616.138          43.000    27926202.283   114353120.385        1259.447          43.000  
R08  25123789.679   134536758.239       -4549.676          41.000    25123781.617   104639737.195       -3538.643          48.000  
R17  25306045.104                3       2840.895          21.000    25306015.848   105324800.290        2209.250          37.000  
R02  23599661.955   125932361.515        2744.586          52.000    23599659.596    97947400.783        2134.741          50.000  
G03  25549557.570   134263822.802        1593.946          45.000    25549554.580   104621182.991        1242.319          42.000  
G21  23301584.467   122450673.108        1342.346          49.000                                                                  
S31  41556793.952   218382540.436        -594.514          44.000  
S33  42510578.015   223394760.275        -593.752          42.000  
G10  26595618.257   139761028.634       -3759.113          37.000    26595613.415   108904627.619       -2928.821          35.000  
E33  26558068.665   139563721.923         -88.976          47.000    26558066.898   106938421.991         -68.200          51.000  
R01  21924225.490   117197529.475       -1098.898          48.000    21924220.708    91153649.669        -854.700          41.000  
R23  24049669.547   128649563.348       -2729.549          48.000                                                                  
R24  22402609.449   119796934.108         575.388          52.000    22402604.671    93175360.198         447.603          50.000  
G02  24218798.030   127270671.929        1683.730          48.000                                                                  
G32  24647312.676   129522539.001       -2120.766          48.000    24647308.547   100926684.888       -1652.406          42.000  
E12  29543779.836   155253577.696        1285.171          40.000    29543776.445   118960566.977         984.884          44.000  
E31  29541851.880   155243424.378       -2633.908          43.000    29541852.003   118952840.536       -2018.100          48.000  
E07  29021215.349   152507536.459       -2405.248          41.000    29021214.538   116856439.316       -1842.918          48.000  
E26  27872629.816   146471923.774       -1767.725          46.000    27872629.020   112231882.243       -1354.617          49.000  
E14  29426607.124   154637933.577        -653.054          46.000    29426606.480   118488833.757        -500.326          51.000  
> 2024 04 17 10 38 30.0090000  0 23                     
G08  23075015.087   121260065.713       -1622.921          49.000    23075012.116    94488384.013       -1264.552          48.000  
E19  28244952.849   148428202.311        2149.983          41.000    28244951.002   113730715.404        1647.405          45.000  
G27  24528665.778   128898993.358       -3557.856          48.000    24528661.848   100440824.967       -2772.580          45.000  
G28  27916983.813   146704743.737        1614.086          42.000    27916983.673   114315367.851        1257.819          44.000  
R08  25149301.488   134673372.815       -4557.691          40.000    25149293.092   104745992.836       -3544.975          47.000  
R17  25290200.809                3       2843.205          18.000    25290091.971   105258531.002        2208.715          38.000  
R02  23584279.836   125850281.940        2727.539          52.000    23584277.701    97883561.095        2121.399          50.000  
G03  25540483.541   134216135.410        1585.166          46.000    25540480.579   104584023.993        1235.343          42.000  
G21  23293946.486   122410536.196        1333.599          49.000                                                                  
S31  41560188.153   218400377.443        -594.721          44.000  
S33  42513969.942   223412586.534        -594.152          42.000  
G10  26617076.204   139873805.116       -3758.710          36.000    26617075.841   108992505.260       -2928.815          37.000  
E33  26558586.421   139566444.318         -92.319          47.000    26558584.818   106940507.969         -70.780          50.000  
R01  21930462.661   117230870.751       -1123.669          48.000    21930457.869    91179581.792        -873.996          42.000  
R23  24065018.892   128731670.508       -2744.080          49.000                                                                  
R24  22399421.416   119779886.778         561.113          51.000    22399416.587    93162101.157         436.370          50.000  
G02  24209203.915   127220255.294        1677.641          47.000                                                                  
G32  24659476.110   129586454.623       -2140.050          49.000    24659471.298   100976489.252       -1667.641          42.000  
E12  29536440.882   155215005.643        1286.165          41.000    29536436.857   118931011.797         985.571          44.000  
E31  29556905.877   155322533.074       -2639.906          42.000    29556905.485   119013456.279       -2022.820          46.000  
E07  29034976.809   152579856.673       -2415.768          41.000    29034976.752   116911853.494       -1851.139          48.000  
E26  27882735.208   146525027.021       -1772.233          46.000    27882734.390   112272571.700       -1357.959          49.000  
E14  29430332.952   154657512.198        -652.112          46.000    29430332.337   118503835.514        -499.580          51.000  
> 2024 04 17 10 39 00.0090000  0 23                     
G08  23084336.660   121309051.242       -1642.825          50.000    23084333.282    94526554.524       -1280.006          47.000  
E19  28232695.740   148363796.316        2143.795          41.000    28232694.946   113681365.347        1642.634          45.000  
G27  24549013.334   129005918.036       -3570.522          48.000    24549008.961   100524142.820       -2782.117          45.000  
G28  27907775.975   146656354.980        1611.879          43.000    27907775.120   114277662.280        1255.985          42.000  
R08  25174857.428   134810223.395       -4565.565          40.000    25174849.893   104852432.103       -3551.077          48.000  
R02  23568993.961   125768710.782        2710.608          52.000    23568991.102    97820116.856        2108.197          50.000  
G03  25531457.302   134168702.288        1576.786          46.000    25531454.218   104547063.129        1228.628          42.000  
G21  23286357.348   122370656.393        1324.966          48.000                                                                  
S31  41563583.572   218418219.807        -594.915          44.000  
S33  42517362.738   223430414.788        -594.460          42.000  
G10  26638534.158   139986569.026       -3758.532          37.000    26638535.055   109080373.199       -2929.041          37.000  
E33  26559122.960   139569261.615         -95.494          47.000    26559120.887   106942666.662         -73.194          50.000  
R01  21936836.890   117264949.566       -1148.181          48.000    21936833.469    91206087.501        -893.038          43.000  
R23  24080447.521   128814206.740       -2758.275          48.000                                                                  
R24  22396313.021   119763264.612         546.971          52.000    22396308.243    93149172.786         425.287          50.000  
G02  24199644.129   127170017.828        1671.489          47.000                                                                  
G32  24671748.345   129650944.175       -2159.213          49.000    24671743.476   101026740.813       -1682.340          42.000  
E12  29529095.167   155176402.212        1287.517          41.000    29529090.991   118901432.595         986.401          44.000  
E31  29571993.272   155401820.311       -2645.563          42.000    29571992.763   119074208.839       -2027.261          46.000  
E07  29048801.109   152652496.326       -2426.745          43.000    29048800.207   116967512.370       -1859.248          49.000  
E26  27892864.567   146578256.741       -1776.481          45.000    27892863.334   112313358.062       -1361.196          48.000  
E14  29434051.286   154677052.321        -650.638          46.000    29434050.847   118518807.769        -498.517          51.000  
R17                                                                  25274172.213   105192261.977        2209.174          40.000  
> 2024 04 17 10 39 30.0090000  0 23                     
G08  23093769.770   121358622.071       -1662.116          50.000    23093765.643    94565181.111       -1295.297          47.000  
E19  28220474.049   148299566.822        2137.949          41.000    28220472.496   113632150.519        1638.103          45.000  
G27  24569429.611   129113208.605       -3582.439          47.000    24569425.415   100607745.828       -2791.573          45.000  
G28  27898577.759   146608018.266        1610.173          41.000    27898575.735   114239997.327        1254.767          42.000  
R08  25200454.578   134947294.405       -4572.600          41.000    25200446.308   104959042.800       -3556.516          47.000  
R17  25258370.745                3       2836.992          22.000    25258248.917   105125986.119        2209.448          40.000  
R02  23553801.282   125687639.782        2693.915          52.000    23553798.311    97757061.619        2095.355          49.000  
G03  25522477.373   134121512.285        1568.779          46.000    25522475.331   104510291.718        1222.235          43.000  
G21  23278815.286   122331025.355        1316.838          48.000                                                                  
S31  41566977.344   218436055.475        -594.397          44.000  
S33  42520754.267   223448237.559        -594.006          42.000  
G10  26659988.385   140099307.895       -3757.678          39.000    26659989.415   109168221.515       -2927.985          39.000  
E33  26559675.425   139572163.312         -98.226          48.000    26559673.038   106944890.027         -75.202          50.000  
R01  21943347.165   117299752.705       -1172.209          48.000    21943344.944    91233156.584        -911.831          44.000  
R23  24095955.659   128897160.323       -2772.174          49.000                                                                  
R24  22393282.940   119747059.085         533.096          52.000    22393277.995    93136568.479         414.623          50.000  
G02  24190117.074   127119950.145        1666.018          47.000                                                                  
G32  24684127.491   129715994.649       -2177.850          49.000    24684122.521   101077429.445       -1697.092          42.000  
E12  29521739.953   155137756.466        1288.994          40.000    29521737.151   118871820.942         987.500          44.000  
E31  29587112.232   155481272.808       -2651.034          42.000    29587112.552   119135088.014       -2031.381          46.000  
E07  29062682.077   152725442.635       -2436.786          43.000    29062680.788   117023406.231       -1867.004          48.000  
E26  27903016.135   146631602.250       -1780.101          46.000    27903014.667   112354233.142       -1363.960          48.000  
E14  29437760.575   154696543.103        -648.889          46.000    29437759.888   118533742.230        -497.159          51.000  
> 2024 04 17 10 40 00.0090000  0 23                     
G08  23103312.948   121408772.715       -1681.231          50.000    23103309.160    94604259.511       -1310.102          47.000  
E19  28208284.512   148235510.617        2132.515          42.000    28208282.858   113583068.473        1633.946          45.000  
G27  24589914.410   129220857.894       -3594.214          47.000    24589910.026   100691628.360       -2800.646          44.000  
G28  27889389.727   146559731.794        1608.561          43.000    27889386.312   114202371.504        1253.613          41.000  
R08  25226091.300   135084576.889       -4579.669          42.000    25226083.696   105065817.915       -3561.730          47.000  
R17  25242373.970                1       2841.267          27.000    25242322.974   105059701.449        2209.829          42.000  
R02  23538702.218   125607066.972        2677.448          52.000    23538698.510    97694393.840        2082.489          48.000  
G03  25513542.466   134074560.701        1561.201          46.000    25513540.776   104473706.095        1216.593          43.000  
G21  23271320.691   122291640.016        1308.695          47.000                                                                  
S31  41570369.223   218453879.341        -593.710          44.000  
S33  42524143.736   223466049.272        -593.108          42.000  
G10  26681437.886   140212015.561       -3756.378          41.000    26681435.869   109256045.441       -2926.740          36.000  
E33  26560243.616   139575145.425        -100.732          48.000    26560240.704   106947174.998         -77.118          50.000  
R01  21949993.176   117335273.334       -1195.858          49.000    21949989.948    91260783.700        -929.970          44.000  
R23  24111541.082   128980526.366       -2785.702          49.000                                                                  
R24  22390330.038   119731267.746         519.568          52.000    22390324.406    93124286.301         404.008          50.000  
G02  24180621.565   127070049.165        1660.667          48.000                                                                  
G32  24696610.934   129781599.517       -2195.831          49.000    24696606.659   101128550.095       -1711.211          43.000  
E12  29514376.788   155099063.756        1290.573          40.000    29514374.137   118842173.296         988.950          44.000  
E31  29602262.791   155560883.764       -2656.160          43.000    29602262.434   119196088.611       -2035.310          47.000  
E07  29076620.260   152798689.428       -2446.382          43.000    29076619.444   117079530.345       -1874.515          48.000  
E26  27913188.641   146685059.346       -1783.579          46.000    27913187.193   112395193.731       -1366.761          48.000  
E14  29441458.925   154715980.104        -647.003          46.000    29441458.590   118548635.476        -495.774          51.000  
> 2024 04 17 10 40 30.0090000  0 23                     
G08  23112968.637   121459512.320       -1701.211          49.000    23112964.685    94643796.852       -1325.680          47.000  
E19  28196131.252   148171639.436        2125.959          43.000    28196129.072   113534128.192        1628.887          46.000  
G27  24610468.908   129328873.591       -3606.552          47.000    24610465.013   100775796.401       -2810.459          44.000  
G28  27880213.270   146511508.426        1606.413          43.000    27880210.535   114164794.834        1251.819          42.000  
R08  25251768.443   135222077.343       -4586.842          44.000    25251760.242   105172762.623       -3567.586          47.000  
R17  25226423.345                1       2840.112          31.000    25226397.795   104993417.720        2209.462          42.000  
R02  23523698.291   125527005.529        2660.297          51.000    23523695.362    97632123.824        2069.116          49.000  
G03  25504655.587   134027857.680        1552.686          46.000    25504652.747   104437314.133        1209.760          43.000  
G21  23263874.969   122252512.461        1300.012          48.000                                                                  
S31  41573760.640   218471701.405        -593.804          44.000  
S33  42527532.671   223483857.790        -593.429          42.000  
G10  26702882.239   140324700.721       -3755.679          42.000    26702878.452   109343851.933       -2926.801          36.000  
E33  26560828.682   139578218.762        -103.985          48.000    26560825.652   106949529.865         -79.683          50.000  
R01  21956774.482   117371520.029       -1220.292          49.000    21956770.079    91288975.569        -949.067          43.000  
R23  24127204.875   129064314.988       -2799.907          49.000                                                                  
R24  22387456.759   119715903.487         504.938          52.000    22387451.416    93112336.321         392.746          50.000  
G02  24171159.504   127020326.508        1654.458          47.000                                                                  
G32  24709201.946   129847767.117       -2214.948          49.000    24709198.622   101180109.205       -1726.019          42.000  
E12  29507006.350   155060334.400        1291.537          39.000    29507004.203   118812497.573         989.685          44.000  
E31  29617443.429   155640661.158       -2662.146          43.000    29617444.118   119257216.733       -2039.720          48.000  
E07  29090616.353   152872245.231       -2457.046          43.000    29090617.328   117135891.218       -1882.689          49.000  
E26  27923384.933   146738638.692       -1787.945          46.000    27923383.040   112436247.951       -1369.976          48.000  
E14  29445149.437   154735373.710        -645.584          46.000    29445149.057   118563495.470        -494.796          50.000  
> 2024 04 17 10 41 00.0090000  0 23                     
G08  23122735.966   121510838.668       -1720.735          50.000    23122731.717    94683791.379       -1340.803          47.000  
E19  28184011.609   148107953.867        2119.781          43.000    28184009.976   113485330.153        1624.114          46.000  
G27  24631093.160   129437251.801       -3618.671          47.000    24631089.161   100860246.902       -2819.635          45.000  
G28  27871048.869   146463349.738        1603.809          43.000    27871046.828   114127268.531        1249.994          43.000  
R08  25277484.714   135359790.136       -4594.167          45.000    25277476.763   105279872.435       -3572.988          46.000  
R17  25210487.910   134906591.2071       2840.792          38.000    25210472.778   104927135.430        2209.104          43.000  
R02  23508791.266   125447456.792        2642.963          52.000    23508788.394    97570252.592        2055.585          49.000  
G03  25495815.976   133981401.847        1544.335          47.000    25495812.484   104401114.785        1203.408          45.000  
G21  23256477.907   122213642.825        1291.320          47.000                                                                  
S31  41577151.601   218489520.812        -593.983          44.000  
S33  42530921.316   223501664.748        -593.275          42.000  
G10  26724320.511   140437360.723       -3755.636          40.000    26724316.007   109431638.722       -2926.173          35.000  
E33  26561430.924   139581382.660        -106.995          49.000    26561427.576   106951954.128         -81.985          50.000  
R01  21963689.914   117408489.381       -1244.382          48.000    21963685.794    91317729.530        -967.843          43.000  
R23  24142945.509   129148524.853       -2814.118          47.000                                                                  
R24  22384663.412   119700967.510         490.680          51.000    22384658.067    93100719.443         381.630          50.000  
G02  24161731.621   126970782.453        1648.406          48.000                                                                  
G32  24721900.426   129914494.137       -2233.613          49.000    24721896.201   101232104.272       -1740.565          42.000  
E12  29499629.102   155021567.132        1292.715          39.000    29499626.823   118782792.808         990.720          44.000  
E31  29632655.114   155720601.520       -2667.380          43.000    29632656.214   119318469.727       -2043.812          47.000  
E07  29104672.434   152946107.167       -2467.170          44.000    29104672.309   117192486.638       -1890.460          49.000  
E26  27933604.635   146792339.370       -1792.045          46.000    27933601.748   112477395.180       -1373.273          47.000  
E14  29448831.934   154754722.877        -644.306          46.000    29448830.936   118578321.406        -493.641          50.000  
> 2024 04 17 10 41 30.0090000  0 23                     
G08  23132614.005   121562748.798       -1740.211          49.000    23132610.383    94724240.788       -1356.099          47.000  
E19  28171928.701   148044453.496        2113.586          43.000    28171926.115   113436674.003        1619.332          46.000  
G27  24651785.488   129545988.076       -3630.511          47.000    24651781.414   100944976.421       -2829.031          45.000  
G28  27861896.812   146415256.643        1601.846          42.000    27861895.062   114089793.333        1248.094          44.000  
R08  25303239.244   135497709.384       -4600.793          45.000    25303232.155   105387142.856       -3578.463          47.000  
R17  25194558.382   134821373.480        2840.601          40.000    25194547.444   104860855.058        2209.136          44.000  
R02  23493980.725   125368421.220        2625.818          52.000    23493977.277    97508780.441        2042.273          50.000  
G03  25487022.477   133935191.192        1536.050          46.000    25487018.834   104365106.503        1196.825          44.000  
G21  23249130.529   122175031.478        1282.561          47.000                                                                  
S31  41580541.961   218507335.576        -593.913          44.000  
S33  42534308.699   223519466.768        -593.625          42.000  
G10  26745753.481   140549992.094       -3754.056          39.000    26745749.966   109519403.212       -2925.217          35.000  
E33  26562049.666   139584635.890        -110.107          49.000    26562046.383   106954446.847         -84.347          50.000  
R01  21970741.129   117446177.304       -1268.369          49.000    21970735.839    91347042.389        -986.601          43.000  
R23  24158764.504   129233153.405       -2827.896          46.000                                                                  
R24  22381950.367   119686460.747         476.303          52.000    22381945.456    93089436.373         370.365          50.000  
G02  24152337.460   126921416.712        1642.365          47.000                                                                  
G32  24734703.551   129981776.781       -2252.104          48.000    24734699.353   101284532.282       -1755.057          41.000  
E12  29492244.643   154982760.195        1294.201          39.000    29492241.771   118753057.689         991.493          43.000  
E31  29647898.149   155800700.786       -2672.768          42.000    29647898.613   119379844.473       -2048.009          47.000  
E07  29118785.464   153020271.713       -2477.253          45.000    29118785.606   117249313.953       -1898.098          49.000  
E26  27943845.867   146846159.963       -1796.102          46.000    27943843.311   112518634.306       -1376.319          47.000  
E14  29452505.342   154774025.918        -642.759          46.000    29452504.241   118593111.999        -492.479          50.000  
> 2024 04 17 10 42 00.0090000  0 23                     
G08  23142604.442   121615251.298       -1760.132          49.000    23142601.796    94765151.802       -1371.632          48.000  
E19  28159882.298   147981149.601        2106.877          43.000    28159879.640   113388168.403        1614.250          45.000  
G27  24672546.421   129655089.506       -3642.910          47.000    24672541.988   101029990.456       -2838.740          44.000  
G28  27852760.875   146367241.511        1599.248          42.000    27852758.310   114052378.879        1245.962          45.000  
R08  25329034.724   135635840.991       -4607.946          45.000    25329027.713   105494578.482       -3584.053          48.000  
R17  25178631.964   134736169.754        2839.615          41.000    25178624.542   104794585.498        2208.606          45.000  
R02  23479267.730   125289911.532        2607.977          52.000    23479264.454    97447717.353        2028.424          50.000  
G03  25478276.385   133889235.229        1527.463          46.000    25478273.883   104329296.684        1190.177          45.000  
G21  23241834.288   122136690.155        1273.284          47.000                                                                  
S31  41583932.344   218525154.365        -594.089          44.000  
S33  42537696.971   223537272.571        -593.759          42.000  
G10  26767181.352   140662603.179       -3753.998          36.000    26767180.188   109607151.939       -2924.789          34.000  
E33  26562687.208   139587988.699        -113.657          49.000    26562684.498   106957015.863         -87.161          50.000  
R01  21977926.336   117484591.444       -1292.599          48.000    21977922.057    91376920.017       -1005.576          44.000  
R23  24174667.535   129318210.228       -2842.539          49.000                                                                  
R24  22379320.220   119672395.224         461.224          52.000    22379315.200    93078496.498         358.804          50.000  
G02  24142979.484   126872240.316        1635.811          47.000                                                                  
G32  24747613.927   130049622.672       -2271.054          48.000    24747610.232   101337399.162       -1769.695          42.000  
E12  29484854.351   154943923.297        1294.779          40.000    29484851.053   118723299.585         992.151          43.000  
E31  29663171.988   155880966.324       -2678.330          43.000    29663172.505   119441346.657       -2052.481          47.000  
E07  29132956.494   153094746.869       -2487.829          44.000    29132958.227   117306379.249       -1906.225          49.000  
E26  27954111.611   146900110.580       -1800.728          45.000    27954110.411   112559973.038       -1379.769          48.000  
E14  29456171.983   154793292.645        -641.764          46.000    29456170.567   118607874.766        -491.731          50.000  
> 2024 04 17 10 42 30.0090000  0 23                     
G08  23152710.055   121668356.390       -1780.188          49.000    23152708.375    94806532.367       -1387.196          48.000  
E19  28147875.369   147918054.854        2099.796          43.000    28147872.908   113339823.056        1608.895          45.000  
G27  24693378.459   129764564.757       -3655.471          47.000    24693375.172   101115295.772       -2848.233          45.000  
G28  27843640.673   146319318.405        1595.853          41.000    27843639.460   114015036.199        1243.468          44.000  
R08  25354870.968   135774192.375       -4615.378          46.000    25354865.043   105602184.980       -3589.749          48.000  
R17  25162713.859   134650994.174        2838.674          43.000    25162707.853   104728337.855        2207.884          45.000  
R02  23464656.452   125211941.970        2589.941          52.000    23464652.830    97387074.376        2014.319          49.000  
G03  25469582.015   133843545.199        1518.599          46.000    25469578.905   104293694.087        1183.328          45.000  
G21  23234591.972   122098632.096        1263.941          47.000                                                                  
S31  41587326.405   218542989.279        -594.699          44.000  
S33  42541088.509   223555094.853        -594.447          42.000  
G10  26788609.068   140775203.838       -3752.528          36.000    26788609.453   109694892.547       -2924.030          37.000  
E33  26563346.414   139591453.060        -117.280          49.000    26563343.624   106959670.341         -89.851          50.000  
R01  21985249.508   117523741.144       -1317.188          48.000    21985246.932    91407369.740       -1024.490          44.000  
R23  24190650.298   129403706.369       -2857.215          51.000    24189409.400                3      -2147.990          10.000  
R24  22376775.296   119658784.857         446.031          52.000    22376770.110    93067910.639         346.839          50.000  
G02  24133660.059   126823266.385        1628.977          48.000                                                                  
G32  24760633.446   130118041.140       -2290.045          49.000    24760630.315   101390712.246       -1784.547          42.000  
E12  29477460.759   154905067.872        1295.597          40.000    29477456.785   118693527.266         992.663          43.000  
E31  29678479.168   155961407.278       -2684.138          43.000    29678479.854   119502983.224       -2056.755          47.000  
E07  29147190.418   153169542.338       -2498.484          46.000    29147191.032   117363689.981       -1914.493          49.000  
E26  27964405.042   146954202.873       -1805.428          44.000    27964403.363   112601420.325       -1383.329          47.000  
E14  29459833.149   154812534.577        -640.981          46.000    29459832.204   118622618.540        -491.217          50.000  
> 2024 04 17 10 43 00.0090000  0 23                     
G08  23162929.425   121722060.657       -1800.226          49.000    23162927.458    94848379.824       -1402.784          47.000  
E19  28135909.093   147855168.837        2092.662          44.000    28135906.292   113291637.632        1603.410          45.000  
G27  24714281.120   129874408.940       -3667.631          47.000    24714276.818   101200888.579       -2858.093          44.000  
G28  27834538.212   146271487.857        1593.029          42.000    27834536.484   113977765.575        1241.169          43.000  
R08  25380747.579   135912756.898       -4622.355          47.000    25380741.795   105709957.269       -3595.123          49.000  
R17  25146801.892   134565846.293        2837.833          44.000    25146796.491   104662111.770        2207.114          46.000  
R02  23450144.326   125134512.560        2572.040          51.000    23450142.635    97326851.497        2000.482          49.000  
G03  25460937.430   133798118.642        1509.679          47.000    25460933.962   104258296.805        1176.423          44.000  
G21  23227403.675   122060856.974        1254.388          47.000                                                                  
S31  41590722.964   218560837.382        -594.899          44.000  
S33  42544482.241   223572928.422        -594.966          42.000  
G10  26810033.314   140887790.270       -3752.512          35.000    26810034.386   109782622.048       -2923.781          37.000  
E33  26564026.714   139595027.309        -121.115          49.000    26564023.752   106962409.023         -92.741          50.000  
R01  21992710.785   117563621.895       -1341.577          49.000    21992707.642    91438388.077       -1043.334          44.000  
R23  24206714.646   129489638.855       -2871.643          49.000                                                                  
R24  22374315.065   119645629.940         430.878          51.000    22374310.217    93057679.001         335.077          50.000  
G02  24124378.931   126774494.053        1622.485          47.000                                                                  
G32  24773762.186   130187027.862       -2309.080          49.000    24773757.593   101444468.060       -1799.000          42.000  
E12  29470062.595   154866191.725        1295.955          39.000    29470059.052   118663739.084         993.224          43.000  
E31  29693818.735   156042019.143       -2689.995          42.000    29693819.667   119564750.750       -2061.079          46.000  
E07  29161483.952   153244654.131       -2508.997          45.000    29161484.965   117421243.077       -1922.485          49.000  
E26  27974724.928   147008434.980       -1810.001          44.000    27974723.722   112642974.760       -1387.010          48.000  
E14  29463489.369   154831749.610        -640.099          46.000    29463488.717   118637341.692        -490.457          50.000  
> 2024 04 17 10 43 30.0090000  0 23                     
G08  23173260.683   121776353.284       -1819.429          49.000    23173259.163    94890685.745       -1417.775          47.000  
E19  28123980.586   147792483.344        2086.274          44.000    28123977.695   113243605.856        1598.651          45.000  
G27  24735251.339   129984609.750       -3679.192          46.000    24735247.183   101286759.288       -2866.896          44.000  
G28  27825453.175   146223743.113        1590.043          44.000    27825450.896   113940561.802        1239.142          42.000  
R08  25406661.070   136051520.841       -4628.546          47.000    25406654.766   105817884.681       -3599.973          49.000  
R17  25130892.088   134480718.756        2837.449          43.000    25130889.035   104595901.495        2206.821          48.000  
R02  23435734.416   125057616.381        2554.388          51.000    23435731.443    97267043.346        1986.743          49.000  
G03  25452341.004   133752945.791        1501.579          46.000    25452338.009   104223097.186        1170.104          44.000  
G21  23220268.305   122023357.250        1245.494          48.000                                                                  
S31  41594119.812   218578688.313        -594.854          44.000  
S33  42547876.925   223590767.388        -594.775          42.000  
G10  26831455.335   141000351.461       -3751.384          39.000    26831453.656   109870331.902       -2923.098          37.000  
E33  26564726.130   139598702.403        -123.993          48.000    26564723.287   106965224.976         -94.944          50.000  
R01  22000305.503   117604221.721       -1365.190          50.000    22000302.265    91469965.718       -1061.923          44.000  
R23  24222857.281   129575998.103       -2885.582          48.000                                                                  
R24  22371938.329   119632923.124         416.212          50.000    22371934.118    93047795.917         323.701          50.000  
G02  24115134.400   126725915.111        1616.174          47.000                                                                  
G32  24786995.785   130256571.069       -2327.177          49.000    24786990.229   101498657.533       -1813.222          41.000  
E12  29462658.262   154827285.307        1297.442          38.000    29462656.069   118633927.711         994.047          43.000  
E31  29709189.160   156122790.047       -2694.867          42.000    29709189.768   119626640.157       -2064.927          46.000  
E07  29175836.147   153320070.946       -2518.875          46.000    29175836.628   117479029.879       -1930.034          50.000  
E26  27985070.014   147062797.641       -1814.075          44.000    27985069.021   112684629.187       -1390.057          48.000  
E14  29467139.015   154850928.282        -638.565          46.000    29467138.081   118652036.986        -489.239          49.000  
> 2024 04 17 10 44 00.0090000  0 23                     
G08  23183702.498   121831224.033       -1838.542          49.000    23183700.484    94933442.137       -1432.678          48.000  
E19  28112088.789   147729991.008        2079.779          44.000    28112086.030   113195722.086        1593.680          46.000  
G27  24756287.826   130095155.498       -3690.314          46.000    24756283.403   101372898.776       -2875.786          44.000  
G28  27816383.075   146176077.707        1587.661          44.000    27816380.447   113903419.909        1237.044          43.000  
R08  25432608.760   136190471.053       -4634.723          48.000    25432602.228   105925956.956       -3604.895          47.000  
R17  25114985.327   134395604.348        2836.942          42.000    25114982.940   104529701.393        2206.554          47.000  
R02  23421423.282   124981246.289        2536.920          51.000    23421420.499    97207644.375        1973.132          49.000  
G03  25443790.788   133708017.339        1493.662          46.000    25443788.745   104188088.021        1163.945          44.000  
G21  23213182.640   121986125.065        1236.658          48.000                                                                  
S31  41597515.845   218596533.970        -594.729          44.000  
S33  42551270.454   223608600.585        -594.451          42.000  
G10  26852868.644   141112876.858       -3750.031          39.000    26852866.858   109958013.894       -2922.587          38.000  
E33  26565442.620   139602469.912        -127.135          48.000    26565440.140   106968111.744         -97.402          50.000  
R01  22008032.533   117645529.045       -1388.636          49.000    22008029.513    91502093.627       -1080.002          45.000  
R23  24239077.621   129662774.074       -2899.443          46.000                                                                  
R24  22369643.927   119620657.438         401.476          50.000    22369640.264    93038255.883         312.205          50.000  
G02  24105925.340   126677522.134        1610.007          47.000                                                                  
G32  24800333.685   130326659.619       -2345.187          50.000    24800328.918   101553271.947       -1827.473          44.000  
E12  29455246.911   154788339.595        1298.591          38.000    29455245.102   118604086.209         995.249          44.000  
E31  29724587.479   156203708.607       -2699.699          41.000    29724588.067   119688642.690       -2068.547          47.000  
E07  29190243.208   153395781.991       -2528.533          45.000    29190243.751   117537042.137       -1937.498          49.000  
E26  27995438.527   147117282.214       -1818.264          44.000    27995436.585   112726377.027       -1393.146          48.000  
E14  29470780.370   154870061.632        -636.988          46.000    29470778.978   118666697.563        -488.049          49.000  
> 2024 04 17 10 44 30.0090000  0 23                     
G08  23194255.248   121886676.573       -1858.510          50.000    23194252.548    94976651.890       -1448.195          47.000  
E19  28100233.079   147667698.033        2072.582          43.000    28100232.266   113147991.072        1588.032          46.000  
G27  24777390.170   130206048.382       -3702.802          46.000    24777386.140   101459308.730       -2885.311          44.000  
G28  27807328.301   146128499.377        1584.006          42.000    27807326.606   113866345.819        1234.086          40.000  
R08  25458591.319   136329608.499       -4641.549          47.000    25458585.318   106034174.805       -3609.949          49.000  
R17  25099083.482   134310510.081        2835.685          42.000    25099080.955   104463516.966        2205.421          47.000  
R02  23407212.719   124905410.126        2518.427          52.000    23407208.814    97148660.673        1958.819          49.000  
G03  25435289.076   133663338.100        1484.724          46.000    25435286.517   104153273.027        1156.876          45.000  
G21  23206150.307   121949167.725        1226.835          47.000                                                                  
S31  41600911.526   218614379.114        -595.333          44.000  
S33  42554663.626   223626432.106        -595.160          42.000  
G10  26874275.515   141225370.133       -3749.538          37.000    26874273.784   110045670.720       -2921.720          39.000  
E33  26566177.952   139606335.329        -130.899          48.000    26566175.565   106971073.542        -100.296          50.000  
R01  22015893.664   117687546.322       -1412.924          49.000    22015889.821    91534773.730       -1099.067          45.000  
R23  24255379.762   129749971.299       -2914.022          49.000                                                                  
R24  22367434.376   119608840.408         385.911          50.000    22367430.777    93029064.841         300.171          50.000  
G02  24096753.537   126629321.490        1602.998          48.000                                                                  
G32  24813774.801   130397296.301       -2364.261          49.000    24813770.790   101608313.490       -1842.297          43.000  
E12  29447829.438   154749359.608        1299.231          38.000    29447827.674   118574218.429         995.690          44.000  
E31  29740013.522   156284777.541       -2705.347          41.000    29740015.040   119750760.454       -2072.892          47.000  
E07  29204706.772   153471790.545       -2539.115          44.000    29204707.638   117595282.350       -1945.513          49.000  
E26  28005831.735   147171893.959       -1823.045          44.000    28005829.263   112768222.318       -1396.905          48.000  
E14  29474414.217   154889154.780        -636.286          47.000    29474412.572   118681327.339        -487.521          49.000  
