     3.00           OBSERVATION DATA    M: Mixed            RINEX VERSION / TYPE
CONVBIN 2.4.3                           20240417 062942 UTC PGM / RUN BY / DATE 
format: u-blox UBX                                          COMMENT             
log: /home/regis/git/gnsspwv/obsdata/VERT00CHL/2024-04-17/VECOMMENT             
{self.marker}                                               MARKER NAME         
                                                            MARKER NUMBER       
GEODETIC                                                    MARKER TYPE         
{self.observer}     {self.institution}                      OBSERVER / AGENCY   
UNKNOWN             UBLOX-ZED-F9P                           REC # / TYPE / VERS 
UNKNOWN             TWIVSP6037L                             ANT # / TYPE        
  1713381.0000 -5047934.0000 -3490983.0000                  APPROX POSITION XYZ 
        0.0000        0.0000        0.0000                  ANTENNA: DELTA H/E/N
G    8 C1C L1C D1C S1C C2L L2L D2L S2L                      SYS / # / OBS TYPES 
R    8 C1C L1C D1C S1C C2C L2C D2C S2C                      SYS / # / OBS TYPES 
E    8 C1C L1C D1C S1C C7Q L7Q D7Q S7Q                      SYS / # / OBS TYPES 
S    4 C1C L1C D1C S1C                                      SYS / # / OBS TYPES 
  2024    04    17    06    15   00.0030000     GPS         TIME OF FIRST OBS   
  2024    04    17    06    29   30.0030000     GPS         TIME OF LAST OBS    
                                                            END OF HEADER       
> 2024 04 17 06 15 00.0030000  0 26                     
G31  24361152.012   128018611.8821      -3144.632          36.000    24361148.802    99754882.3521      -2450.390          33.000  
G16  23070270.483   121235136.1991       2030.637          48.000                                                                  
G26  21247985.529   111658941.5901       -406.669          50.000    21247982.742    87006978.9861       -316.904          45.000  
G27  24586519.607   129202998.9731       1737.390          45.000    24586517.196   100677707.9521       1353.687          41.000  
G23  21878789.181   114973951.1091       1050.873          48.000    21878783.433    89590058.4961        818.756          47.000  
R22  20926649.409   111708031.8881      -1233.548          51.000    20926645.621    86883853.2561       -959.456          50.000  
R11  22624429.482   120898110.7651      -4737.655          51.000    22624425.087    94031849.8711      -3684.735          48.000  
R07  24006537.439   128508875.9381       2797.105          49.000    24006533.081    99951381.0101       2175.567          47.000  
R13  22860318.931   122072731.3551       2346.768          39.000    22860316.640    94945483.5711       1825.122          40.000  
G29  24465117.685   128565198.7921      -2714.081          44.000    24465110.590   100180757.0001      -2114.800          35.000  
S31  39712453.877   208690444.2151       -637.652          44.000  
S33  40667347.257   213708485.8991       -637.654          42.000  
G10  23589138.084   123961868.4751       2988.414          47.000    23589136.463    96593591.8701       2328.566          44.000  
E33  28094195.376   147636069.4061       1556.310          40.000    28094197.457   113123712.4731       1192.330          44.000  
R12  20620038.483   110148672.1891       -955.925          52.000    20620035.168    85671148.7501       -743.441          50.000  
R06  23449805.147   125132657.6901        428.568          38.000    23449485.789                3        546.972          10.000  
R23  22889527.735   122443567.5401       1144.414          48.000                                                                  
R21  23090472.527   123562290.7741      -3195.491          51.000    23090466.362    96104097.0351      -2485.311          48.000  
E21  24511422.321   128808466.5561      -1513.802          47.000    24511422.115    98697433.3011      -1159.862          51.000  
E13  25185287.755   132349987.7701      -2268.016          48.000    25185287.917   101411135.2501      -1737.775          53.000  
E27  27535777.143   144701506.2331      -3429.801          45.000    27535777.750   110875190.6961      -2628.091          48.000  
G18  22103246.498   116153645.8661      -2599.793          47.000    22103241.717    90509445.8641      -2025.833          48.000  
E26  24601967.972   129284472.8341         54.372          48.000    24601966.755    99062276.2471         41.703          51.000  
E14  24558422.107   129055445.3571      -2775.866          46.000    24558420.284    98886667.3381      -2127.055          50.000  
E15                                                                  29372136.930                3      -2403.049          22.000  
G28                                                                  25866866.290                3      -2778.929          20.000  
> 2024 04 17 06 15 30.0030000  0 26                     
G31  24379125.907   128113055.621       -3151.272          36.000    24379121.474    99828474.775       -2455.689          33.000  
G16  23058707.404   121174372.187        2019.990          48.000                                                                  
G26  21250362.535   111671428.837        -426.273          50.000    21250359.274    87016709.275        -332.099          45.000  
G27  24576599.206   129150867.345        1737.694          44.000    24576596.799   100637085.942        1354.156          41.000  
G23  21872841.596   114942697.971        1032.410          48.000    21872836.004    89565705.403         804.486          47.000  
R22  20933604.326   111745158.521       -1241.969          51.000    20933600.976    86912729.513        -965.981          50.000  
R11  22651053.767   121040387.799       -4747.830          50.000    22651050.296    94142509.673       -3692.726          49.000  
R07  23990876.807   128425044.039        2791.334          48.000    23990872.881    99886178.450        2171.200          46.000  
R13  22847186.390   122002601.511        2328.031          39.000    22847183.696    94890938.172        1810.914          40.000  
G29  24480621.398   128646675.374       -2718.294          42.000    24480616.239   100244245.166       -2117.716          36.000  
S31  39716094.475   208709575.800        -638.052          44.000  
S33  40670987.401   213727616.499        -638.068          42.000  
G10  23572097.159   123872317.655        2981.285          47.000    23572095.219    96523812.084        2323.148          44.000  
E33  28085326.773   147589465.331        1550.445          39.000    28085328.637   113088002.951        1188.065          44.000  
R12  20625484.375   110177762.700        -983.686          52.000    20625480.373    85693774.698        -765.107          49.000  
R06  23447456.739   125120127.167         406.442          38.000                                                                  
R23  22883132.587   122409357.118        1136.155          48.000                                                                  
R21  23108384.502   123658142.369       -3195.056          51.000    23108378.141    96178648.310       -2484.973          48.000  
E21  24520100.002   128854065.913       -1526.584          48.000    24520099.405    98732373.065       -1169.740          51.000  
E13  25198247.857   132418090.673       -2272.589          48.000    25198247.311   101463317.985       -1741.257          53.000  
E27  27555371.669   144804476.278       -3435.205          44.000    27555372.148   110954089.778       -2632.133          48.000  
G18  22118113.054   116231771.024       -2608.874          47.000    22118108.100    90570322.601       -2032.888          48.000  
E26  24601682.094   129282967.486          45.600          48.000    24601680.266    99061122.802          34.869          52.000  
E14  24574265.077   129138696.859       -2774.674          47.000    24574262.502    98950457.444       -2125.979          50.000  
E15                                                                  29390062.054                3      -2406.971          22.000  
G28                                                                  25887199.197                3      -2767.152          20.000  
> 2024 04 17 06 16 00.0030000  0 26                     
G31  24397132.874   128207683.565       -3157.377          36.000    24397129.996    99902210.684       -2459.545          32.000  
G16  23047203.647   121113918.113        2009.906          48.000                                                                  
G26  21252849.451   111684498.270        -445.451          50.000    21252845.829    87026893.250        -347.042          45.000  
G27  24566674.957   129098715.601        1738.769          44.000    24566672.578   100596448.261        1355.104          41.000  
G23  21866999.012   114911994.795        1014.240          47.000    21866993.443    89541780.869         790.308          47.000  
R22  20940605.286   111782531.886       -1249.985          50.000    20940601.893    86941797.673        -972.154          50.000  
R11  22677735.452   121182966.362       -4757.566          51.000    22677731.357    94253404.056       -3700.507          48.000  
R07  23975248.201   128341383.293        2785.585          47.000    23975244.260    99821109.030        2166.689          47.000  
R13  22834155.813   121933022.860        2310.356          39.000    22834154.123    94836821.484        1796.657          39.000  
G29  24496147.404   128728268.022       -2721.742          42.000    24496141.787   100307823.815       -2121.473          34.000  
S31  39719735.899   208728710.052        -637.759          44.000  
S33  40674628.352   213746748.044        -638.010          42.000  
G10  23555097.379   123782979.733        2974.433          48.000    23555093.711    96454198.151        2317.545          43.000  
E33  28076489.554   147543029.438        1545.057          38.000    28076491.841   113052422.315        1183.909          43.000  
R12  20631084.420   110207682.133       -1011.229          52.000    20631080.552    85717045.342        -786.508          49.000  
R06  23445232.199   125108258.805         384.908          38.000                                                                  
R23  22876783.413   122375391.721        1128.144          48.000                                                                  
R21  23126293.237   123753979.370       -3194.380          50.000    23126287.214    96253188.143       -2484.399          47.000  
E21  24528849.295   128900043.397       -1538.801          48.000    24528848.562    98767602.557       -1179.197          51.000  
E13  25211231.525   132486325.069       -2276.665          47.000    25211231.776   101515601.477       -1744.409          53.000  
E27  27574994.367   144907601.046       -3440.126          43.000    27574996.284   111033107.386       -2635.930          48.000  
G18  22133029.660   116310157.636       -2617.270          47.000    22133024.563    90631403.080       -2039.423          48.000  
E26  24601445.340   129281722.322          37.090          48.000    24601443.366    99060168.714          28.427          52.000  
E14  24590099.064   129221906.620       -2773.003          47.000    24590096.785    99014215.586       -2124.687          50.000  
E15                                                                  29407974.718                3      -2402.327          24.000  
G28                                                                  25907461.962                3      -2760.466          20.000  
> 2024 04 17 06 16 30.0030000  0 26                     
G31  24415163.468   128302465.671       -3161.786          33.000    24415168.422                       -2465.081          31.000  
G16  23035753.806   121053749.709        2000.868          48.000                                                                  
G26  21255442.299   111698123.357        -463.268          50.000    21255438.928    87037510.191        -360.960          45.000  
G27  24556742.279   129046517.206        1740.944          43.000    24556739.945   100555774.228        1356.518          42.000  
G23  21861256.205   114881816.671         997.461          47.000    21861251.388    89518265.486         777.167          48.000  
R22  20947647.626   111820123.065       -1256.474          51.000    20947643.637    86971035.246        -977.321          50.000  
R11  22704467.086   121325814.724       -4766.002          50.000    22704463.376    94364508.273       -3706.929          47.000  
R07  23959647.445   128257870.771        2781.283          48.000    23959642.694    99756154.879        2163.267          46.000  
R13  22821224.192   121863972.223        2293.176          38.000    22821222.853    94783115.472        1783.182          39.000  
G29  24511690.019   128809950.199       -2723.998          41.000    24511687.025   100371472.211       -2123.101          35.000  
S31  39723372.332   208747820.156        -636.610          44.000  
S33  40678264.741   213765857.178        -636.327          42.000  
G10  23538132.619   123693830.975        2968.592          47.000    23538129.511    96384731.621        2313.044          43.000  
E33  28067681.222   147496735.143        1541.172          39.000    28067682.472   113016950.176        1180.721          44.000  
R12  20636834.585   110238402.782       -1037.235          51.000    20636831.011    85740939.158        -806.780          48.000  
R06  23443126.729   125097028.027         363.943          35.000                                                                  
R23  22870474.325   122341643.489        1121.411          48.000    22869318.191                3       1016.555          15.000  
R21  23144194.895   123849773.304       -3192.306          50.000    23144188.980    96327694.512       -2483.001          48.000  
E21  24537665.217   128946372.065       -1550.031          48.000    24537664.849    98803101.124       -1187.711          51.000  
E13  25224235.256   132554662.755       -2279.394          46.000    25224236.084   101567964.107       -1746.620          53.000  
E27  27594642.815   145010852.361       -3443.694          43.000    27594644.162   111112221.955       -2638.775          48.000  
G18  22147990.741   116388776.703       -2624.287          47.000    22147985.318    90692664.679       -2044.895          48.000  
E26  24601252.522   129280709.803          29.963          48.000    24601250.702    99059392.904          22.992          52.000  
E14  24605920.051   129305046.247       -2769.939          47.000    24605917.890    99077919.990       -2122.476          50.000  
E15                                                                  29425864.251                3      -2403.441          23.000  
G28                                                                  25927700.949                3      -2762.526          18.000  
> 2024 04 17 06 17 00.0030000  0 25                     
G31  24433224.377                       -3165.913          29.000    24433234.068                       -2467.279          31.000  
G16  23024355.428   120993850.084        1992.303          48.000                                                                  
G26  21258137.483   111712285.744        -481.009          50.000    21258134.140    87048545.786        -374.813          46.000  
G27  24546796.694   128994253.399        1743.286          43.000    24546794.443   100515049.225        1358.175          42.000  
G23  21855609.644   114852146.417         980.511          46.000    21855604.962    89495145.845         764.063          47.000  
R22  20954726.483   111857910.851       -1262.792          51.000    20954722.510    87000425.744        -982.156          50.000  
R11  22731245.633   121468909.226       -4773.904          50.000    22731241.446    94475803.963       -3713.072          47.000  
R07  23944071.168   128174491.467        2777.042          48.000    23944066.977    99691304.392        2160.021          46.000  
R13  22808390.055   121795433.570        2276.066          38.000    22808387.516    94729807.624        1770.663          38.000  
G29  24527248.341   128891702.798       -2726.093          42.000    24527243.819   100435175.497       -2124.169          36.000  
S31  39727000.714   208766887.794        -635.007          44.000  
S33  40681892.640   213784923.217        -634.537          42.000  
G10  23521201.141   123604855.480        2963.068          47.000    23521198.411    96315400.137        2308.790          43.000  
E33  28058894.627   147450563.559        1537.178          36.000    28058896.128   112981572.033        1177.842          43.000  
R12  20642732.481   110269904.543       -1063.065          52.000    20642728.276    85765440.525        -826.788          48.000  
R06  23441137.808   125086417.812         343.333          36.000                                                                  
R23  22864202.724   122308091.592        1115.126          49.000                                                                  
R21  23162084.659   123945503.663       -3189.899          51.000    23162077.852    96402151.418       -2481.050          47.000  
E21  24546545.064   128993032.598       -1560.825          48.000    24546543.934    98838853.976       -1195.885          51.000  
E13  25237255.679   132623083.159       -2281.887          47.000    25237256.206   101620390.136       -1748.496          53.000  
E27  27614311.365   145114209.729       -3446.906          44.000    27614312.410   111191417.812       -2641.195          48.000  
G18  22162991.050   116467606.843       -2631.096          48.000    22162985.838    90754090.805       -2050.254          47.000  
E26  24601099.406   129279910.069          23.188          47.000    24601098.128    99058780.144          17.770          52.000  
E14  24621723.650   129388095.000       -2766.705          47.000    24621721.718    99141554.751       -2119.809          50.000  
E15                                                                  29443731.749                       -2396.380          26.000  
> 2024 04 17 06 17 30.0030000  0 25                     
G31  24451313.910   128492416.250       -3169.997          33.000    24451317.013                       -2470.584          31.000  
G16  23013007.365   120934215.631        1983.466          48.000                                                                  
G26  21260933.735   111726979.577        -498.766          50.000    21260930.436    87059995.513        -388.532          46.000  
G27  24536837.360   128941918.112        1745.530          43.000    24536835.068   100474268.497        1360.358          42.000  
G23  21850058.302   114822979.584         963.843          45.000    21850055.163    89472418.459         751.050          48.000  
R22  20961840.941   111895887.093       -1268.946          51.000    20961836.984    87029962.811        -986.965          50.000  
R11  22758067.701   121612239.439       -4781.525          49.000    22758063.794    94587282.975       -3718.832          47.000  
R07  23928519.344   128091243.591        2772.816          49.000    23928514.677    99626556.119        2156.612          46.000  
R13  22795650.188   121727404.072        2259.380          39.000    22795648.592    94676895.863        1757.189          39.000  
G29  24542818.307   128973520.221       -2728.309          44.000    24542812.806   100498929.351       -2125.823          36.000  
S31  39730619.631   208785905.329        -632.955          44.000  
S33  40685511.564   213803939.068        -633.286          42.000  
G10  23504301.752   123516050.041        2957.530          47.000    23504298.732    96246201.151        2304.303          42.000  
E33  28050130.551   147404508.412        1533.344          38.000    28050131.821   112946283.185        1174.823          42.000  
R12  20648775.266   110302180.571       -1088.726          53.000    20648771.064    85790544.096        -846.769          49.000  
R06  23439264.099   125076423.647         323.259          33.000                                                                  
R23  22857964.827   122274729.000        1108.947          47.000                                                                  
R21  23179960.659   124041163.379       -3187.357          50.000    23179954.495    96476553.410       -2479.025          48.000  
E21  24555486.665   129040018.423       -1571.561          49.000    24555485.172    98874856.101       -1204.182          51.000  
E13  25250290.397   132691578.495       -2284.329          48.000    25250290.348   101672873.566       -1750.266          53.000  
E27  27633998.499   145217665.493       -3449.994          44.000    27633999.409   111270689.050       -2643.638          47.000  
G18  22178030.583   116546639.529       -2637.798          47.000    22178025.204    90815674.711       -2055.336          47.000  
E26  24600986.346   129279316.049          16.506          48.000    24600985.174    99058325.005          12.607          52.000  
E14  24637508.260   129471044.899       -2763.238          47.000    24637506.672    99205113.768       -2117.316          51.000  
E15                                                                  29461573.632                3      -2393.815          25.000  
> 2024 04 17 06 18 00.0030000  0 25                     
G31  24469417.025   128587570.402       -3174.099          33.000    24469422.317                       -2473.484          27.000  
G16  23001709.911   120874847.724        1974.116          48.000                                                                  
G26  21263830.695   111742203.996        -516.688          50.000    21263828.440    87071858.673        -402.569          46.000  
G27  24526863.943   128889510.254        1747.700          42.000    24526861.302   100433431.218        1362.047          40.000  
G23  21844604.572   114794316.601         946.698          45.000    21844600.928    89450083.671         737.616          48.000  
R22  20968989.081   111934048.500       -1275.453          50.000    20968986.234    87059643.920        -991.955          50.000  
R11  22784932.358   121755799.286       -4789.481          49.000    22784929.261    94698940.542       -3725.127          48.000  
R07  23912992.772   128008130.145        2767.794          48.000    23912988.729    99561912.399        2152.858          47.000  
R13  22783007.136   121659886.086        2241.491          40.000    22783004.895    94624381.918        1743.241          40.000  
G29  24558398.447   129055400.830       -2730.488          41.000    24558393.817   100562732.414       -2128.188          35.000  
S31  39734228.664   208804872.566        -631.834          44.000  
S33  40689120.391   213822904.187        -631.651          42.000  
G10  23487435.601   123427416.459        2951.204          48.000    23487432.371    96177136.061        2299.538          43.000  
E33  28041387.813   147358568.530        1529.512          37.000    28041389.776   112911082.653        1171.589          43.000  
R12  20654961.335   110335228.564       -1114.769          52.000    20654958.054    85816248.097        -867.013          49.000  
R06  23437507.580   125067046.741         301.856          34.000                                                                  
R23  22851762.491   122241553.235        1102.404          47.000                                                                  
R21  23197822.692   124136749.801       -3185.372          49.000    23197817.364    96550898.376       -2477.310          48.000  
E21  24564488.973   129087327.920       -1582.664          49.000    24564488.104    98911106.233       -1212.752          51.000  
E13  25263338.426   132760145.961       -2287.187          48.000    25263338.254   101725412.270       -1752.440          53.000  
E27  27653703.405   145321216.833       -3453.638          44.000    27653704.596   111350033.529       -2646.322          47.000  
G18  22193107.474   116625871.103       -2644.561          47.000    22193102.302    90877413.620       -2060.901          47.000  
E26  24600911.786   129278925.589           9.297          47.000    24600910.685    99058025.834           7.101          51.000  
E14  24653273.655   129553892.904       -2760.104          47.000    24653272.327    99268594.704       -2114.854          51.000  
E15                                                                  29479390.031                3      -2390.982          21.000  
> 2024 04 17 06 18 30.0030000  0 26                     
G31  24487556.336   128682867.495       -3179.217          36.000    24487554.468                       -2477.702          30.000  
G16  22990468.957   120815777.673        1963.460          48.000                                                                  
G26  21266833.979   111757988.183        -536.033          49.000    21266832.076    87084158.031        -417.585          47.000  
G27  24516882.591   128837058.832        1748.570          41.000    24516879.270   100392560.031        1362.622          39.000  
G23  21839251.165   114766188.004         928.333          46.000    21839248.181    89428165.306         723.236          48.000  
R22  20976178.332   111972422.500       -1283.240          51.000    20976174.730    87089490.395        -998.082          51.000  
R11  22811845.340   121899613.893       -4798.540          49.000    22811842.566    94810796.271       -3732.210          48.000  
R07  23897498.389   127925184.980        2761.508          49.000    23897494.692    99497399.536        2147.812          48.000  
R13  22770465.237   121592912.233        2222.664          39.000    22770462.661    94572291.134        1728.812          39.000  
G29  24573997.703   129137373.049       -2734.456          43.000    24573992.066   100626606.778       -2130.759          35.000  
S31  39737834.139   208823817.963        -631.637          44.000  
S33  40692724.896   213841846.013        -631.469          43.000  
G10  23470608.095   123338986.583        2943.365          48.000    23470605.010    96108229.704        2293.642          44.000  
E33  28032672.799   147312772.863        1523.260          37.000    28032675.536   112875992.584        1167.419          42.000  
R12  20661298.534   110369077.230       -1142.235          53.000    20661294.996    85842574.823        -888.365          50.000  
R06  23435875.279   125058318.521         279.961          37.000                                                                  
R23  22845600.397   122208592.918        1094.406          47.000                                                                  
R21  23215677.340   124232291.237       -3184.554          49.000    23215671.363    96625208.355       -2476.904          48.000  
E21  24573558.677   129134989.615       -1595.099          49.000    24573557.899    98947626.222       -1222.319          51.000  
E13  25276405.244   132828812.824       -2291.198          47.000    25276405.275   101778027.131       -1755.490          53.000  
E27  27673432.133   145424891.136       -3458.408          44.000    27673433.150   111429472.211       -2650.006          47.000  
G18  22208227.492   116705328.153       -2652.931          47.000    22208222.200    90939328.158       -2067.329          47.000  
E26  24600881.273   129278766.635           0.700          47.000    24600880.286    99057904.039           0.655          51.000  
E14  24669025.038   129636666.191       -2758.446          48.000    24669023.534    99332018.400       -2113.635          51.000  
E15                                                                  29497190.166                3      -2380.680          22.000  
G28                                                                  26008330.617                3      -2744.343          22.000  
> 2024 04 17 06 19 00.0030000  0 26                     
G31  24505719.246   128778326.351       -3184.866          36.000    24505718.505   100346866.763       -2481.389          33.000  
G16  22979289.513   120757029.955        1952.846          48.000                                                                  
G26  21269947.694   111774354.634        -555.350          49.000    21269946.057    87096911.125        -432.660          46.000  
G27  24506897.722   128784586.283        1749.444          41.000    24506894.358   100351672.386        1363.158          40.000  
G23  21834004.783   114738617.644         909.662          47.000    21834001.278    89406681.902         708.862          48.000  
R22  20983410.917   112011029.798       -1290.810          51.000    20983407.928    87119518.286       -1004.012          51.000  
R11  22838809.921   122043701.177       -4807.416          50.000    22838806.933    94922864.045       -3738.957          48.000  
R07  23882040.857   127842435.049        2755.067          50.000    23882036.457    99433038.583        2142.761          47.000  
R13  22758029.197   121526508.378        2203.877          40.000    22758026.897    94520643.706        1713.969          39.000  
G29  24589617.915   129219460.051       -2738.123          42.000    24589612.305   100690570.669       -2134.265          35.000  
S31  39741439.019   208842761.895        -631.412          44.000  
S33  40696329.780   213860789.589        -631.423          43.000  
G10  23453823.882   123250785.537        2936.200          47.000    23453820.719    96039501.661        2287.815          44.000  
E33  28023990.246   147267143.462        1518.335          38.000    28023992.262   112841029.924        1163.248          42.000  
R12  20667788.600   110403747.939       -1169.400          52.000    20667785.909    85869540.898        -909.543          50.000  
R06  23434366.695   125050263.320         257.072          37.000                                                                  
R23  22839483.669   122175869.319        1086.807          48.000    22837961.079                3       1026.109          14.000  
R21  23233527.049   124327809.343       -3183.564          49.000    23233521.481    96699500.185       -2476.144          48.000  
E21  24582698.721   129183025.264       -1607.310          48.000    24582698.736    98984432.747       -1231.610          51.000  
E13  25289495.107   132897599.682       -2294.804          47.000    25289494.954   101830733.938       -1758.390          53.000  
E27  27693188.163   145528709.035       -3462.815          44.000    27693188.746   111509020.929       -2653.506          46.000  
G18  22223395.065   116785030.432       -2660.759          47.000    22223389.336    91001433.824       -2073.455          47.000  
E26  24600899.274   129278860.436          -7.400          47.000    24600898.038    99057975.929          -5.608          51.000  
E14  24684765.833   129719385.170       -2756.230          48.000    24684764.329    99395400.482       -2111.986          51.000  
E15                                                                  29514971.998                3      -2386.699          23.000  
G28                                                                  26028405.242                3      -2746.612          14.000  
> 2024 04 17 06 19 30.0030000  0 25                     
G31  24523914.678   128873947.669       -3190.651          38.000    24523910.759   100421376.809       -2485.171          33.000  
G16  22968172.586   120698610.826        1941.463          48.000                                                                  
G26  21273173.762   111791307.556        -575.313          49.000    21273171.357    87110121.203        -448.355          45.000  
G27  24496909.621   128732096.653        1749.524          42.000    24496906.757   100310771.399        1363.262          41.000  
G23  21828866.583   114711611.076         890.472          47.000    21828861.998    89385637.838         693.756          47.000  
R22  20990686.737   112049872.421       -1299.153          51.000    20990684.547    87149729.197       -1010.427          51.000  
R11  22865825.126   122188060.735       -4816.964          50.000    22865821.523    95035143.646       -3746.537          47.000  
R07  23866620.367   127759888.585        2747.596          50.000    23866615.801    99368835.788        2137.058          47.000  
R13  22745701.708   121460682.038        2184.161          40.000    22745699.200    94469445.433        1699.058          39.000  
G29  24605261.753   129301665.180       -2742.651          43.000    24605257.618   100754626.513       -2136.884          37.000  
S31  39745044.603   208861709.783        -631.871          44.000  
S33  40699934.725   213879735.425        -632.155          43.000  
G10  23437084.326   123162820.271        2927.701          47.000    23437082.012    95970957.366        2281.366          44.000  
E33  28015340.211   147221684.310        1511.764          38.000    28015341.628   112806197.675        1158.292          42.000  
R12  20674432.362   110439243.971       -1197.508          52.000    20674430.595    85897148.912        -931.412          49.000  
R06  23432983.713   125042887.161         233.652          34.000                                                                  
R23  22833411.701   122143385.293        1078.305          48.000                                                                  
R21  23251374.281   124423306.778       -3183.358          50.000    23251367.753    96773775.916       -2475.945          47.000  
E21  24591911.597   129231438.390       -1620.536          48.000    24591911.384    99021528.496       -1241.656          51.000  
E13  25302607.713   132966508.903       -2299.451          46.000    25302607.939   101883534.491       -1761.911          53.000  
E27  27712971.868   145632672.926       -3468.413          43.000    27712972.315   111588681.500       -2657.663          45.000  
G18  22238609.058   116864979.514       -2669.615          48.000    22238603.541    91063731.794       -2080.115          48.000  
E26  24600966.275   129279209.963         -16.486          48.000    24600964.506    99058243.769         -12.597          51.000  
E14  24700496.900   129802052.038       -2755.119          48.000    24700495.314    99458742.642       -2111.160          51.000  
E15                                                                  29532735.311                3      -2383.193          21.000  
> 2024 04 17 06 20 00.0030000  0 25                     
G31  24542143.757   128969739.145       -3195.557          41.000    24542139.056   100496019.453       -2490.166          34.000  
G16  22957120.586   120640533.737        1930.317          48.000                                                                  
G26  21276513.620   111808858.283        -594.640          49.000    21276511.711    87123797.100        -463.403          45.000  
G27  24486920.288   128679601.210        1750.177          42.000    24486917.761   100269865.896        1363.744          42.000  
G23  21823836.825   114685180.997         871.588          47.000    21823831.841    89365042.993         679.071          46.000  
R22  20998009.175   112088959.708       -1306.851          51.000    20998005.930    87180130.449       -1016.470          50.000  
R11  22892892.385   122332699.242       -4825.756          49.000    22892888.003    95147640.226       -3753.265          46.000  
R07  23851240.517   127677561.494        2740.695          50.000    23851236.230    99304803.629        2131.770          46.000  
R13  22733485.058   121395447.503        2164.642          40.000    22733483.475    94418707.515        1683.686          40.000  
G29  24620930.239   129383999.555       -2746.454          43.000    24620924.452   100818783.160       -2140.100          38.000  
S31  39748653.100   208880671.749        -632.037          44.000  
S33  40703542.538   213898694.561        -632.121          43.000  
G10  23420392.503   123075104.883        2919.781          48.000    23420389.725    95902607.800        2275.134          44.000  
E33  28006725.432   147176406.456        1506.450          39.000    28006725.657   112771504.332        1154.355          43.000  
R12  20681234.155   110475575.532       -1224.768          52.000    20681231.227    85925406.787        -952.666          48.000  
R06  23431728.772   125036203.305         211.673          34.000                                                                  
R23  22827386.627   122111151.197        1070.419          49.000                                                                  
R21  23269217.939   124518793.955       -3182.503          49.000    23269210.950    96848043.728       -2475.338          46.000  
E21  24601198.127   129280239.642       -1632.922          48.000    24601197.720    99058921.667       -1251.259          51.000  
E13  25315744.907   133035550.011       -2303.320          46.000    25315746.008   101936436.115       -1764.927          53.000  
E27  27732785.566   145736792.321       -3473.073          44.000    27732786.061   111668461.255       -2661.137          45.000  
G18  22253871.729   116945184.146       -2677.491          48.000    22253866.504    91126228.906       -2086.379          49.000  
E26  24601083.732   129279825.408         -24.729          48.000    24601081.539    99058715.349         -18.875          51.000  
E14  24716219.679   129884676.185       -2753.230          48.000    24716218.129    99522052.057       -2109.645          51.000  
E15                                                                  29550489.619                3      -2375.868          22.000  
> 2024 04 17 06 20 30.0030000  0 25                     
G31  24560405.076   129065693.444       -3201.133          41.000    24560398.402   100570788.915       -2494.556          36.000  
G16  22946133.689   120582797.407        1918.677          47.000                                                                  
G26  21279966.214   111827003.238        -614.836          49.000    21279963.946    87137936.025        -479.050          44.000  
G27  24476928.919   128627096.344        1750.172          42.000    24476926.243   100228953.049        1363.795          42.000  
G23  21818917.036   114659325.119         852.155          47.000    21818911.937    89344895.578         663.989          47.000  
R22  21005376.272   112128285.994       -1315.014          50.000    21005372.946    87210717.534       -1022.839          50.000  
R11  22920010.280   122477608.635       -4835.003          50.000    22920006.736    95260347.434       -3760.483          47.000  
R07  23835902.116   127595454.280        2733.092          50.000    23835897.254    99240942.537        2125.717          46.000  
R13  22721379.911   121330804.767        2144.562          41.000    22721378.452    94368429.855        1667.843          41.000  
G29  24636621.090   129466459.639       -2751.050          42.000    24636615.859   100883037.762       -2143.561          38.000  
S31  39752263.304   208899643.576        -632.778          44.000  
S33  40707152.614   213917665.113        -632.780          43.000  
G10  23403748.682   122987638.572        2911.196          48.000    23403745.186    95834452.258        2268.562          44.000  
E33  27998143.447   147131306.007        1500.126          39.000    27998143.304   112736946.910        1149.631          43.000  
R12  20688191.201   110512737.769       -1252.653          51.000    20688188.524    85954310.749        -974.399          49.000  
R06  23430604.259   125030209.864         188.151          35.000                                                                  
R23  22821406.353   122079162.095        1062.077          47.000                                                                  
R21  23287058.499   124614266.052       -3182.373          49.000    23287052.814    96922299.797       -2475.075          47.000  
E21  24610557.984   129329424.770       -1646.151          48.000    24610557.322    99096608.952       -1261.335          51.000  
E13  25328907.264   133104717.588       -2307.926          46.000    25328908.227   101989434.620       -1768.325          53.000  
E27  27752627.248   145841061.812       -3478.250          43.000    27752628.634   111748356.030       -2665.157          46.000  
G18  22269181.729   117025638.140       -2686.086          47.000    22269176.267    91188920.327       -2093.069          49.000  
E26  24601250.477   129280702.004         -33.816          48.000    24601248.725    99059387.042         -25.927          51.000  
E14  24731933.418   129967252.059       -2751.922          48.000    24731931.668    99585324.488       -2108.669          51.000  
E15                                                                  29568225.768                3      -2372.960          17.000  
> 2024 04 17 06 21 00.0030000  0 25                     
G31  24578693.946   129161802.774       -3206.003          42.000    24578690.196   100645679.173       -2498.322          36.000  
G16  22935211.771   120525400.017        1907.680          48.000                                                                  
G26  21283531.595   111845738.316        -634.314          49.000    21283529.021    87152534.771        -494.183          44.000  
G27  24466934.590   128574577.961        1750.867          41.000    24466932.729   100188029.674        1364.147          43.000  
G23  21814105.644   114634040.722         833.307          48.000    21814101.166    89325193.484         649.310          47.000  
R22  21012787.548   112167844.935       -1322.411          50.000    21012783.580    87241485.603       -1028.584          50.000  
R11  22947177.258   122622779.811       -4843.516          49.000    22947173.391    95373258.252       -3767.045          47.000  
R07  23820605.377   127513566.823        2725.891          50.000    23820599.681    99177252.315        2120.060          47.000  
R13  22709385.187   121266752.346        2125.328          41.000    22709383.197    94318611.305        1653.306          40.000  
G29  24652335.725   129549040.946       -2754.565          41.000    24652330.793   100947386.841       -2146.411          40.000  
S31  39755874.586   208918621.047        -632.408          44.000  
S33  40710763.207   213936640.738        -632.445          42.000  
G10  23387151.794   122900419.996        2903.152          49.000    23387148.213    95766489.789        2262.188          44.000  
E33  27989594.576   147086378.627        1494.838          40.000    27989594.106   112702522.121        1145.257          44.000  
R12  20695302.513   110550725.140       -1279.964          52.000    20695299.233    85983856.460        -995.496          49.000  
R06  23429611.539   125024904.249         165.704          36.000                                                                  
R23  22815470.784   122047412.380        1054.360          48.000                                                                  
R21  23304895.323   124709717.380       -3181.233          49.000    23304890.303    96996539.705       -2474.362          47.000  
E21  24619989.441   129378988.968       -1658.465          47.000    24619988.905    99134586.711       -1270.788          51.000  
E13  25342093.177   133174005.769       -2311.583          46.000    25342093.229   102042525.542       -1771.213          53.000  
E27  27772496.148   145945475.591       -3483.023          43.000    27772497.992   111828361.315       -2668.562          47.000  
G18  22284537.582   117106334.847       -2693.806          47.000    22284532.849    91251800.860       -2099.130          49.000  
E26  24601465.658   129281834.439         -41.983          48.000    24601464.256    99060254.776         -32.195          52.000  
E14  24747636.621   130049773.639       -2749.742          47.000    24747634.928    99648555.321       -2107.093          51.000  
E15                                                                  29585949.078                3      -2377.794          17.000  
> 2024 04 17 06 21 30.0030000  0 25                     
G31  24597011.650   129258061.012       -3210.980          42.000    24597006.751   100720685.516       -2502.033          35.000  
G16  22924354.107   120468340.747        1896.186          48.000                                                                  
G26  21287208.261   111865060.638        -653.957          49.000    21287205.649    87167591.124        -509.707          44.000  
G27  24456937.860   128522043.213        1751.144          42.000    24456935.649   100147093.515        1364.659          42.000  
G23  21809403.058   114609326.306         814.124          47.000    21809397.663    89305935.501         634.393          47.000  
R22  21020240.666   112207631.488       -1330.101          50.000    21020236.705    87272430.708       -1034.507          50.000  
R11  22974392.028   122768205.508       -4851.877          50.000    22974387.299    95486367.034       -3773.604          47.000  
R07  23805349.473   127431900.284        2718.309          50.000    23805344.857    99113733.946        2114.284          49.000  
R13  22697500.564   121203290.370        2105.518          40.000    22697498.120    94269252.059        1637.396          40.000  
G29  24668073.240   129631740.382       -2758.746          42.000    24668068.400   101011827.882       -2149.988          40.000  
S31  39759486.305   208937601.310        -632.877          44.000  
S33  40714374.712   213955617.810        -632.879          42.000  
G10  23370601.453   122813449.065        2894.614          49.000    23370598.493    95698720.309        2255.585          45.000  
E33  27981075.823   147041621.257        1488.770          39.000    27981077.341   112668227.611        1140.977          44.000  
R12  20702568.247   110589533.304       -1307.407          53.000    20702564.231    86014040.584       -1016.852          48.000  
R06  23428749.180   125020285.250         142.330          37.000    23427573.693                3        -45.000          11.000  
R23  22809578.025   122015898.046        1046.320          46.000                                                                  
R21  23322728.217   124805143.875       -3180.582          48.000    23322723.895    97070760.285       -2473.602          48.000  
E21  24629493.036   129428928.772       -1670.886          48.000    24629492.450    99172852.262       -1280.427          51.000  
E13  25355299.603   133243409.912       -2315.429          46.000    25355300.595   102095705.342       -1774.207          52.000  
E27  27792391.752   146050029.031       -3487.467          43.000    27792393.724   111908473.625       -2672.255          46.000  
G18  22299938.831   117187268.832       -2701.847          48.000    22299934.295    91314866.309       -2105.457          50.000  
E26  24601728.944   129283218.729         -50.466          48.000    24601727.778    99061315.485         -38.740          51.000  
E14  24763328.520   130132236.238       -2747.842          47.000    24763326.962    99711740.949       -2105.455          51.000  
E15                                                                  29603656.352                3      -2367.767          15.000  
> 2024 04 17 06 22 00.0030000  0 24                     
G31  24615357.799   129354472.950       -3216.180          42.000    24615353.977   100795811.604       -2505.969          36.000  
G16  22913562.546   120411630.356        1884.335          48.000                                                                  
G26  21290999.618   111884978.713        -674.067          50.000    21290996.226    87183111.677        -525.091          44.000  
G27  24446939.620   128469500.641        1751.250          43.000    24446936.509   100106151.323        1364.500          41.000  
G23  21804810.041   114585191.666         794.647          47.000    21804804.884    89287129.314         619.128          47.000  
R22  21027738.296   112247652.366       -1337.970          50.000    21027734.243    87303558.067       -1040.741          50.000  
R11  23001655.392   122913889.261       -4860.631          51.000    23001650.056    95599676.528       -3780.462          47.000  
R07  23790136.363   127350467.615        2710.319          48.000    23790132.225    99050397.515        2108.117          47.000  
R13  22685729.210   121140430.909        2084.866          41.000    22685727.269    94220361.379        1621.789          41.000  
G29  24683833.535   129714566.323       -2762.958          41.000    24683827.543   101076367.616       -2153.253          38.000  
S31  39763100.011   208956590.919        -632.833          44.000  
S33  40717988.052   213974605.453        -633.238          42.000  
G10  23354100.700   122726737.149        2885.908          49.000    23354097.703    95631152.628        2248.774          45.000  
E33  27972592.726   146997042.159        1482.777          39.000    27972594.261   112634069.694        1136.125          44.000  
R12  20709988.677   110629169.709       -1335.152          52.000    20709984.483    86044868.917       -1038.410          49.000  
R06  23428014.351   125016363.260         118.838          35.000                                                                  
R23  22803732.178   121984626.072        1038.121          47.000                                                                  
R21  23340557.361   124900553.100       -3180.276          48.000    23340552.925    97144967.440       -2473.467          46.000  
E21  24639070.264   129479252.058       -1684.009          49.000    24639068.742    99211411.647       -1290.317          51.000  
E13  25368529.857   133312936.866       -2319.916          46.000    25368531.034   102148979.226       -1777.535          52.000  
E27  27812315.826   146154728.937       -3492.681          43.000    27812317.163   111988698.166       -2676.194          46.000  
G18  22315386.200   117268446.163       -2710.017          48.000    22315382.063    91378121.356       -2111.748          50.000  
E26  24602041.589   129284862.289         -59.268          48.000    24602040.597    99062574.843         -45.479          51.000  
E14  24779010.526   130214646.540       -2746.422          47.000    24779009.140    99774886.509       -2104.424          51.000  
> 2024 04 17 06 22 30.0030000  0 24                     
G31  24633732.311   129451035.880       -3221.204          41.000    24633730.077   100871055.356       -2510.156          36.000  
G16  22902838.250   120355272.152        1872.978          48.000                                                                  
G26  21294903.276   111905493.604        -693.628          49.000    21294900.558    87199097.319        -540.466          45.000  
G27  24436939.337   128416951.514        1751.725          42.000    24436935.838   100065204.005        1365.064          41.000  
G23  21800327.744   114561639.326         775.415          47.000    21800323.317    89268776.845         604.315          47.000  
R22  21035280.034   112287906.693       -1345.568          51.000    21035274.549    87334866.996       -1046.515          49.000  
R11  23028965.811   123059828.018       -4868.646          50.000    23028961.132    95713184.375       -3786.663          48.000  
R07  23774968.672   127269273.923        2702.482          47.000    23774963.939    98987246.893        2101.846          46.000  
R13  22674072.325   121078177.873        2065.040          42.000    22674069.194    94171942.339        1606.309          40.000  
G29  24699618.549   129797520.099       -2767.370          40.000    24699614.372   101141006.900       -2156.323          40.000  
S31  39766715.645   208975591.876        -633.735          44.000  
S33  40721603.289   213993603.931        -633.431          42.000  
G10  23337649.607   122640288.184        2877.192          49.000    23337647.157    95563789.854        2242.098          44.000  
E33  27964142.431   146952642.234        1477.485          38.000    27964145.152   112600049.093        1131.891          43.000  
R12  20717563.641   110669634.070       -1362.434          52.000    20717559.973    86076341.189       -1059.814          49.000  
R06  23427410.077   125013141.097          95.734          34.000                                                                  
R23  22797933.129   121953597.021        1030.318          49.000                                                                  
R21  23358383.169   124995945.212       -3179.285          47.000    23358378.728    97219161.287       -2472.801          45.000  
E21  24648719.588   129529959.276       -1696.579          49.000    24648717.765    99250265.227       -1299.976          51.000  
E13  25381784.236   133382586.026       -2323.534          46.000    25381784.967   102202346.757       -1780.355          53.000  
E27  27832267.067   146259574.667       -3497.127          43.000    27832268.731   112069034.450       -2679.599          47.000  
G18  22330879.828   117349865.407       -2717.869          47.000    22330875.499    91441564.902       -2117.842          49.000  
E26  24602403.390   129286765.094         -67.587          47.000    24602402.436    99064032.845         -51.825          51.000  
E14  24794682.555   130297003.783       -2744.051          47.000    24794681.294    99837991.424       -2102.643          51.000  
> 2024 04 17 06 23 00.0030000  0 24                     
G31  24652133.935   129547735.184       -3225.183          42.000    24652130.832   100946405.322       -2513.013          36.000  
G16  22892179.179   120299257.099        1861.896          48.000                                                                  
G26  21298918.701   111926593.953        -712.781          50.000    21298916.334    87215539.125        -555.303          45.000  
G27  24426935.138   128364384.493        1752.480          42.000    24426932.676   100024242.717        1365.832          41.000  
G23  21795954.122   114538659.173         757.111          46.000    21795950.851    89250870.252         589.673          48.000  
R22  21042861.810   112328380.806       -1352.392          51.000    21042857.658    87366346.862       -1051.812          50.000  
R11  23056320.794   123206005.585       -4876.097          49.000    23056316.891    95826877.950       -3792.590          48.000  
R07  23759843.693   127188312.415        2695.217          48.000    23759839.655    98924276.842        2096.366          46.000  
R13  22662526.474   121016523.172        2045.484          41.000    22662522.892    94123988.721        1591.098          40.000  
G29  24715427.169   129880589.983       -2770.172          41.000    24715422.018   101205736.657       -2159.088          40.000  
S31  39770331.656   208994592.712        -632.921          44.000  
S33  40725218.517   214012602.861        -632.732          42.000  
G10  23321247.985   122554093.661        2869.215          49.000    23321244.664    95496625.327        2235.758          44.000  
E33  27955724.345   146908409.989        1472.050          38.000    27955726.489   112566156.902        1127.972          41.000  
R12  20725291.007   110710913.239       -1389.238          52.000    20725287.296    86108447.203       -1080.514          49.000  
R06  23426935.242   125010608.657          73.250          33.000                                                                  
R23  22792175.449   121922797.695        1023.173          49.000                                                                  
R21  23376203.365   125091307.179       -3177.782          45.000    23376198.796    97293331.674       -2471.660          44.000  
E21  24658439.226   129581038.412       -1708.396          49.000    24658437.980    99289403.775       -1309.022          51.000  
E13  25395058.533   133452344.296       -2326.835          46.000    25395059.541   102255797.890       -1782.810          53.000  
E27  27852244.139   146364553.138       -3501.036          44.000    27852245.864   112149472.439       -2682.553          47.000  
G18  22346416.704   117431512.754       -2724.885          47.000    22346411.902    91505186.206       -2123.432          49.000  
E26  24602813.080   129288914.649         -75.273          48.000    24602811.404    99065679.925         -57.842          51.000  
E14  24810341.796   130379294.861       -2741.472          47.000    24810341.089    99901045.639       -2100.672          52.000  
> 2024 04 17 06 23 30.0030000  0 24                     
G31  24670556.309   129644541.722       -3228.619          41.000    24670551.769   101021838.879       -2516.040          35.000  
G16  22881580.229   120243561.715        1851.266          48.000                                                                  
G26  21303041.137   111948254.026        -731.221          50.000    21303037.541    87232417.097        -569.771          45.000  
G27  24416923.669   128311774.054        1754.702          42.000    24416921.905    99983247.607        1367.113          41.000  
G23  21791686.245   114516226.959         738.715          47.000    21791682.221    89233390.582         575.635          48.000  
R22  21050479.646   112369046.696       -1358.508          51.000    21050475.869    87397975.901       -1056.747          51.000  
R11  23083713.914   123352391.381       -4882.878          48.000    23083711.596    95940733.471       -3797.650          49.000  
R07  23744758.076   127107561.016        2688.328          48.000    23744755.123    98861470.192        2090.837          47.000  
R13  22651086.615   120955443.615        2026.466          39.000    22651084.796    94076482.439        1576.055          41.000  
G29  24731253.281   129963750.011       -2773.431          42.000    24731246.746   101270536.641       -2161.316          40.000  
S31  39773941.905   209013565.804        -632.072          44.000  
S33  40728828.593   214031573.014        -631.705          42.000  
G10  23304890.069   122468130.809        2861.493          49.000    23304886.338    95429641.302        2229.704          44.000  
E33  27947334.438   146864319.519        1467.475          38.000    27947336.519   112532373.350        1124.350          41.000  
R12  20733165.959   110752979.990       -1415.201          52.000    20733161.938    86141165.755       -1100.681          49.000  
R06  23426584.486                          51.351          30.000                                                                  
R23  22786454.711   121892200.438        1016.700          48.000                                                                  
R21  23394014.486   125186611.966       -3175.673          47.000    23394007.578    97367457.627       -2469.987          44.000  
E21  24668224.378   129632463.212       -1719.860          48.000    24668223.866    99328807.171       -1317.791          51.000  
E13  25408348.054   133522184.387       -2329.171          46.000    25408349.746   102309311.720       -1784.791          53.000  
E27  27872241.623   146469637.031       -3504.376          44.000    27872242.992   112229991.194       -2685.149          47.000  
G18  22361992.212   117513360.114       -2731.361          48.000    22361986.980    91568963.363       -2128.475          49.000  
E26  24603264.450   129291284.244         -82.559          49.000    24603262.443    99067495.593         -63.302          51.000  
E14  24825983.739   130461492.396       -2738.185          47.000    24825982.970    99964028.164       -2098.205          52.000  
> 2024 04 17 06 24 00.0030000  0 24                     
G31  24688996.397   129741441.233       -3231.469          42.000    24688990.897   101097344.892       -2518.079          36.000  
G16  22871040.301   120188177.605        1840.876          47.000                                                                  
G26  21307267.012   111970463.087        -749.446          51.000    21307263.520    87249722.857        -584.109          44.000  
G27  24406903.075   128259109.662        1756.335          43.000    24406900.554    99942210.445        1368.652          42.000  
G23  21787519.767   114494333.165         720.837          47.000    21787515.765    89216330.497         561.707          48.000  
R22  21058132.028   112409891.600       -1364.436          52.000    21058127.391    87429744.170       -1061.262          51.000  
R11  23111144.096   123498969.565       -4889.168          48.000    23111142.196    96054738.623       -3802.795          49.000  
R07  23729710.587   127027013.213        2681.533          48.000    23729708.307    98798822.004        2085.658          48.000  
R13  22639753.941   120894931.396        2007.527          39.000    22639752.221    94029417.394        1561.281          40.000  
G29  24747093.380   130046989.418       -2776.074          43.000    24747086.508   101335398.476       -2163.348          39.000  
S31  39777545.425   209032501.731        -630.479          44.000  
S33  40732431.649   214050506.981        -630.296          42.000  
G10  23288574.094   122382391.725        2854.218          49.000    23288570.965    95362831.662        2224.163          45.000  
E33  27938969.182   146820359.922        1463.380          39.000    27938970.882   112498690.065        1121.060          41.000  
R12  20741185.717   110795821.772       -1440.875          52.000    20741181.636    86174487.106       -1120.692          48.000  
R06  23426357.385   125007530.903          29.003          34.000                                                                  
R23  22780770.692   121861793.532        1010.371          49.000                                                                  
R21  23411811.791   125281847.826       -3173.423          48.000    23411804.960    97441529.943       -2468.271          45.000  
E21  24678073.666   129684222.288       -1730.940          48.000    24678073.151    99368466.721       -1326.271          51.000  
E13  25421651.709   133592093.965       -2331.511          46.000    25421653.121   102362878.775       -1786.384          53.000  
E27  27892256.062   146574813.965       -3507.459          43.000    27892257.198   112310581.243       -2687.586          47.000  
G18  22377601.943   117595394.346       -2737.649          46.000    22377598.122    91632886.129       -2133.137          50.000  
E26  24603754.512   129293862.049         -89.406          48.000    24603752.803    99069470.802         -68.465          51.000  
E14  24841605.100   130543583.907       -2734.550          47.000    24841604.389   100026929.450       -2095.307          52.000  
> 2024 04 17 06 24 30.0030000  0 24                     
G31  24707451.590   129838424.821       -3233.649          40.000    24707447.701   101172916.432       -2519.971          38.000  
G16  22860559.467   120133101.683        1830.978          47.000                                                                  
G26  21311596.108   111993215.684        -767.071          49.000    21311593.199    87267452.150        -597.810          44.000  
G27  24396870.963   128206386.087        1758.963          44.000    24396867.627    99901127.190        1370.571          41.000  
G23  21783455.706   114472973.781         703.436          48.000    21783450.815    89199686.826         548.157          48.000  
R22  21065815.754   112450908.058       -1369.682          52.000    21065811.103    87461645.842       -1065.336          50.000  
R11  23138609.998   123645730.275       -4894.679          48.000    23138605.678    96168885.748       -3806.934          48.000  
R07  23714702.478   126946667.737        2675.181          50.000    23714699.353    98736331.193        2080.659          47.000  
R13  22628529.540   120834984.470        1989.031          41.000    22628526.155    93982792.012        1547.308          40.000  
G29  24762946.758   130130302.982       -2778.503          41.000    24762940.050   101400318.094       -2164.423          39.000  
S31  39781140.561   209051394.556        -628.412          44.000  
S33  40736026.040   214069396.667        -628.544          42.000  
G10  23272300.558   122296873.988        2847.367          49.000    23272297.492    95296194.530        2218.799          45.000  
E33  27930628.548   146776525.684        1459.362          40.000    27930629.322   112465102.855        1117.979          41.000  
R12  20749348.988   110839431.733       -1466.069          52.000    20749344.974    86208405.947       -1140.307          48.000  
R06  23426253.706   125006972.177           7.573          32.000                                                                  
R23  22775121.739   121831570.265        1004.892          49.000                                                                  
R21  23429594.065   125377007.879       -3170.337          48.000    23429588.670    97515543.312       -2465.974          43.000  
E21  24687984.941   129736309.689       -1741.355          47.000    24687985.073    99408377.835       -1334.337          51.000  
E13  25434967.464   133662065.996       -2333.129          47.000    25434968.477   102416493.703       -1787.672          53.000  
E27  27912286.334   146680076.833       -3509.871          43.000    27912288.095   112391237.136       -2689.407          47.000  
G18  22393246.212   117677607.689       -2743.066          46.000    22393243.027    91696948.485       -2137.427          50.000  
E26  24604283.460   129296641.615         -95.637          49.000    24604281.882    99071600.612         -73.328          51.000  
E14  24857205.402   130625562.352       -2730.361          48.000    24857204.334   100089744.099       -2092.149          52.000  
> 2024 04 17 06 25 00.0030000  0 24                     
G31  24725922.048   129935488.833       -3237.366          40.000    24725918.216   101248550.545       -2522.205          38.000  
G16  22850138.201   120078336.254        1819.971          47.000                                                                  
G26  21316028.970   112016511.651        -785.884          49.000    21316026.670    87285604.849        -612.522          44.000  
G27  24386826.563   128153603.461        1759.909          44.000    24386823.450    99859997.910        1371.459          41.000  
G23  21779492.785   114452149.967         684.894          48.000    21779488.619    89183460.523         533.624          48.000  
R22  21073530.637   112492094.110       -1376.042          51.000    21073525.960    87493679.441       -1070.280          50.000  
R11  23166107.218   123792668.800       -4901.279          48.000    23166103.020    96283171.162       -3812.052          49.000  
R07  23699732.939   126866528.802        2667.476          51.000    23699727.855    98674000.964        2074.790          45.000  
R13  22617409.986   120775605.612        1969.049          40.000    22617405.923    93936608.484        1531.724          39.000  
G29  24778814.348   130213690.330       -2780.896          42.000    24778807.610   101465295.266       -2166.736          38.000  
S31  39784726.845   209070241.964        -627.737          44.000  
S33  40739612.490   214088243.140        -627.871          42.000  
G10  23256069.077   122211580.403        2839.068          48.000    23256066.658    95229732.044        2212.137          45.000  
E33  27922312.502   146732816.574        1454.462          42.000    27922311.882   112431611.517        1114.598          42.000  
R12  20757656.354   110883808.200       -1492.298          52.000    20757653.047    86242920.958       -1160.674          49.000  
R06  23426270.853   125007067.075         -14.124          35.000                                                                  
R23  22769506.020   121801529.007         997.975          49.000                                                                  
R21  23447363.916   125472091.248       -3168.454          48.000    23447356.757    97589497.062       -2464.219          43.000  
E21  24697959.431   129788724.679       -1752.936          47.000    24697959.409    99448539.946       -1343.108          51.000  
E13  25448294.299   133732098.770       -2335.807          47.000    25448295.362   102470155.163       -1789.697          53.000  
E27  27932333.292   146785423.927       -3513.365          42.000    27932334.509   112471957.575       -2691.959          46.000  
G18  22408923.704   117759997.639       -2749.497          46.000    22408920.921    91761148.436       -2142.545          49.000  
E26  24604850.947   129299621.800        -102.959          49.000    24604849.148    99073884.142         -78.850          52.000  
E14  24872783.899   130707425.978       -2727.139          48.000    24872782.440   100152470.755       -2089.562          52.000  
> 2024 04 17 06 25 30.0030000  0 24                     
G31  24744411.885   130032649.717       -3240.576          40.000    24744407.280   101324260.284       -2524.896          38.000  
G16  22839779.953   120023903.532        1808.677          47.000                                                                  
G26  21320569.344   112040370.856        -804.842          50.000    21320566.414    87304196.417        -627.150          44.000  
G27  24376774.359   128100781.952        1761.062          42.000    24376771.377    99818838.311        1372.312          40.000  
G23  21775636.475   114431882.949         666.046          49.000    21775631.808    89167668.060         519.025          48.000  
R22  21081280.541   112533468.180       -1382.570          50.000    21081276.738    87525859.262       -1075.311          50.000  
R11  23193640.928   123939801.056       -4907.900          49.000    23193637.667    96397607.242       -3817.223          50.000  
R07  23684804.233   126786621.175        2659.483          48.000    23684798.439    98611850.579        2068.551          45.000  
R13  22606400.323   120716818.023        1949.588          38.000    22606396.822    93890884.854        1516.320          38.000  
G29  24794700.555   130297171.326       -2784.735          42.000    24794693.632   101530345.417       -2169.837          38.000  
S31  39788309.136   209089066.029        -627.410          44.000  
S33  40743193.912   214107064.243        -627.152          42.000  
G10  23239885.294   122126533.806        2830.333          47.000    23239882.830    95163462.006        2205.402          45.000  
E33  27914022.046   146689252.264        1449.719          42.000    27914022.249   112398231.173        1110.672          43.000  
R12  20766110.888   110928969.877       -1518.674          52.000    20766108.486    86278046.726       -1181.215          50.000  
R06  23426413.585   125007837.392         -36.940          36.000                                                                  
R23  22763927.091   121771689.210         991.093          48.000                                                                  
R21  23465122.309   125567117.253       -3166.846          49.000    23465114.099    97663406.185       -2463.062          42.000  
E21  24707999.862   129841486.556       -1764.620          48.000    24708000.009    99488967.881       -1352.121          52.000  
E13  25461636.904   133802210.649       -2338.469          48.000    25461637.158   102523877.243       -1791.881          53.000  
E27  27952399.706   146890873.494       -3516.844          41.000    27952400.752   112552756.560       -2694.913          45.000  
G18  22424639.669   117842581.806       -2756.147          46.000    22424635.486    91825499.700       -2147.722          49.000  
E26  24605459.439   129302821.455        -110.480          48.000    24605457.892    99076335.840         -84.678          51.000  
E14  24888343.819   130789193.035       -2724.089          48.000    24888342.105   100215123.430       -2087.331          52.000  
> 2024 04 17 06 26 00.0030000  0 24                     
G31  24762924.027   130129929.902       -3244.452          40.000    24762920.403   101400062.958       -2528.217          39.000  
G16  22829490.082   119969831.419        1796.577          46.000                                                                  
G26  21325221.809   112064818.725        -824.519          50.000    21325218.274    87323246.715        -642.531          43.000  
G27  24366719.425   128047947.326        1761.610          41.000    24366717.251    99777668.506        1372.582          40.000  
G23  21771890.845   114412199.549         646.478          49.000    21771885.695    89152330.353         503.802          47.000  
R22  21089071.380   112575054.249       -1389.534          51.000    21089068.019    87558203.993       -1080.776          51.000  
R11  23221214.908   124087148.559       -4914.945          49.000    23221212.423    96512210.720       -3822.669          50.000  
R07  23669924.787   126706974.960        2650.657          47.000    23669920.111    98549903.613        2061.549          45.000  
R13  22595506.710   120658650.862        1928.852          38.000    22595503.780    93845643.709        1500.281          38.000  
G29  24810609.121   130380771.658       -2788.898          43.000    24810603.463   101595488.512       -2172.693          39.000  
S31  39791891.665   209107890.776        -627.401          44.000  
S33  40746775.826   214125886.560        -627.156          42.000  
G10  23223753.448   122041762.601        2821.328          47.000    23223750.695    95097406.579        2198.453          44.000  
E33  27905764.303   146645858.208        1444.029          40.000    27905764.994   112364981.275        1106.167          40.000  
R12  20774715.983   110974941.033       -1545.714          51.000    20774714.402    86313802.058       -1202.189          50.000  
R06  23426689.941   125009310.511         -60.803          37.000                                                                  
R23  22758390.464   121742075.476         983.540          48.000                                                                  
R21  23482874.828   125662110.937       -3165.705          49.000    23482865.682    97737290.157       -2462.335          42.000  
E21  24718110.677   129894620.263       -1777.086          48.000    24718111.357    99529680.706       -1361.662          52.000  
E13  25474998.379   133872425.615       -2341.960          48.000    25474998.673   102577678.299       -1794.464          53.000  
E27  27972490.895   146996449.463       -3521.187          41.000    27972491.254   112633652.359       -2697.921          45.000  
G18  22440396.675   117925383.279       -2763.553          47.000    22440392.343    91890020.337       -2153.407          49.000  
E26  24606114.691   129306265.066        -118.591          49.000    24606112.880    99078974.472         -90.973          51.000  
E14  24903889.958   130870887.451       -2721.784          49.000    24903887.960   100277720.439       -2085.420          52.000  
> 2024 04 17 06 26 30.0030000  0 24                     
G31  24781459.529   130227335.404       -3248.663          39.000    24781455.222   101475963.277       -2531.567          38.000  
G16  22819271.408   119916132.034        1783.817          47.000                                                                  
G26  21329988.001   112089864.912        -844.831          50.000    21329984.019    87342763.225        -658.296          43.000  
G27  24356664.672   127995109.621        1761.192          41.000    24356662.707    99736496.293        1372.552          40.000  
G23  21768258.660   114393110.759         626.337          49.000    21768253.147    89137455.970         488.062          48.000  
R22  21096903.684   112616860.348       -1397.113          52.000    21096899.782    87590719.840       -1086.715          50.000  
R11  23248829.591   124234716.445       -4922.465          49.000    23248827.504    96626985.632       -3828.663          49.000  
R07  23655097.531   126627604.779        2641.016          47.000    23655093.306    98488171.326        2054.125          47.000  
R13  22584733.343   120601117.146        1907.425          38.000    22584729.449    93800895.256        1483.376          38.000  
G29  24826542.744   130464500.919       -2792.999          43.000    24826537.010   101660732.039       -2176.398          40.000  
S31  39795475.827   209126726.186        -627.831          44.000  
S33  40750359.983   214144719.670        -628.013          42.000  
G10  23207677.288   121957279.579        2811.040          48.000    23207673.326    95031575.716        2190.341          43.000  
E33  27897541.879   146602644.108        1437.420          44.000    27897541.759   112331869.239        1101.375          45.000  
R12  20783474.985   111021730.033       -1573.238          51.000    20783473.543    86350193.488       -1223.685          50.000  
R06  23427100.036   125011497.796         -84.794          37.000                                                                  
R23  22752898.461   121712696.659         975.281          49.000                                                                  
R21  23500621.250   125757081.256       -3165.201          47.000    23500613.629    97811155.980       -2461.702          42.000  
E21  24728294.574   129948134.933       -1790.086          48.000    24728294.678    99570685.437       -1371.752          52.000  
E13  25488380.265   133942751.855       -2346.079          47.000    25488381.452   102631564.636       -1797.616          53.000  
E27  27992605.354   147102159.934       -3525.845          39.000    27992607.735   112714651.242       -2701.693          45.000  
G18  22456196.950   118008409.545       -2771.213          48.000    22456192.046    91954716.122       -2159.415          49.000  
E26  24606818.621   129309961.365        -127.424          49.000    24606815.983    99081806.690         -97.555          51.000  
E14  24919423.666   130952517.384       -2719.908          48.000    24919421.584   100340268.052       -2084.123          52.000  
> 2024 04 17 06 27 00.0030000  0 24                     
G31  24800021.290   130324874.877       -3253.314          40.000    24800015.881   101551967.952       -2535.218          38.000  
G16  22809126.969   119862819.563        1770.844          47.000                                                                  
G26  21334870.275   112115521.276        -865.231          50.000    21334867.339    87362755.177        -674.072          44.000  
G27  24346612.999   127942281.034        1760.960          41.000    24346609.928    99695331.194        1372.433          40.000  
G23  21764741.703   114374629.774         606.250          48.000    21764736.071    89123055.214         472.284          47.000  
R22  21104778.589   112658896.869       -1404.836          52.000    21104774.185    87623414.899       -1092.576          50.000  
R11  23276487.558   124382512.956       -4930.142          49.000    23276484.797    96741938.367       -3834.346          48.000  
R07  23640326.601   126548527.064        2631.246          49.000    23640322.085    98426666.432        2046.568          48.000  
R13  22574079.563   120544232.227        1885.640          37.000    22574077.014    93756651.414        1466.932          39.000  
G29  24842502.050   130548370.969       -2797.614          42.000    24842496.577   101726085.320       -2179.974          38.000  
S31  39799064.098   209145583.534        -628.689          44.000  
S33  40753947.313   214163573.743        -628.397          42.000  
G10  23191658.925   121873099.603        2801.008          48.000    23191654.273    94965980.959        2182.764          43.000  
E33  27889354.618   146559621.652        1430.990          44.000    27889354.624   112298904.050        1096.535          45.000  
R12  20792390.587   111069347.455       -1600.780          53.000    20792387.870    86387229.229       -1245.029          50.000  
R06  23427645.680   125014412.868        -109.460          37.000                                                                  
R23  22747452.687   121683563.768         967.182          48.000                                                                  
R21  23518366.151   125852039.463       -3164.854          47.000    23518359.869    97885012.300       -2461.349          43.000  
E21  24738552.701   130002041.877       -1803.217          48.000    24738552.546    99611990.736       -1381.624          52.000  
E13  25501785.480   134013199.795       -2350.037          47.000    25501787.298   102685544.217       -1800.643          53.000  
E27  28012748.953   147208015.262       -3530.785          39.000    28012751.807   112795761.081       -2705.293          46.000  
G18  22472040.891   118091670.264       -2778.865          47.000    22472036.274    92019594.610       -2165.499          49.000  
E26  24607572.110   129313921.295        -136.030          49.000    24607569.734    99084840.924        -104.337          51.000  
E14  24934946.615   131034093.219       -2718.077          48.000    24934944.928   100402774.211       -2082.635          51.000  
> 2024 04 17 06 27 30.0030000  0 24                     
G31  24818606.404   130422540.581       -3257.843          39.000    24818601.366   101628070.974       -2538.312          38.000  
G16  22799055.442   119809892.264        1757.683          48.000                                                                  
G26  21339867.767   112141783.502        -885.572          50.000    21339865.211    87383219.221        -690.133          45.000  
G27  24336561.633   127889457.759        1760.041          41.000    24336557.539    99654170.243        1371.820          40.000  
G23  21761339.433   114356753.678         585.730          47.000    21761334.016    89109125.794         456.372          47.000  
R22  21112695.424   112701157.782       -1412.626          52.000    21112691.237    87656284.477       -1098.623          50.000  
R11  23304186.864   124530528.742       -4937.712          48.000    23304183.650    96857061.678       -3840.397          48.000  
R07  23625608.286   126469741.996        2621.029          48.000    23625603.493    98365389.158        2038.484          47.000  
R13  22563547.222   120487994.778        1863.749          36.000    22563545.420    93712911.194        1449.506          38.000  
G29  24858487.236   130632377.381       -2802.643          42.000    24858482.223   101791544.846       -2183.569          38.000  
S31  39802655.880   209164458.310        -629.604          44.000  
S33  40757538.653   214182446.269        -629.385          42.000  
G10  23175696.951   121789221.456        2790.801          48.000    23175693.552    94900621.425        2174.633          44.000  
E33  27881202.971   146516786.582        1424.547          43.000    27881203.131   112266082.471        1091.486          44.000  
R12  20801458.965   111117787.364       -1628.609          53.000    20801455.712    86424904.713       -1266.594          50.000  
R06  23428326.464   125018052.857        -133.666          38.000                                                                  
R23  22742052.206   121654671.628         958.941          49.000                                                                  
R21  23536107.250   125946980.610       -3164.529          47.000    23536101.479    97958855.461       -2461.302          43.000  
E21  24748884.422   130056336.341       -1816.390          48.000    24748884.496    99653592.983       -1391.798          52.000  
E13  25515213.587   134083763.773       -2354.232          47.000    25515215.091   102739612.711       -1803.884          53.000  
E27  28032919.575   147314009.638       -3535.781          41.000    28032922.110   112876977.467       -2709.170          46.000  
G18  22487927.762   118175159.027       -2786.984          46.000    22487923.253    92084650.753       -2171.701          49.000  
E26  24608374.883   129318139.673        -145.162          49.000    24608372.684    99088073.185        -111.140          51.000  
E14  24950458.537   131115609.256       -2716.307          48.000    24950456.983   100465234.547       -2081.283          51.000  
> 2024 04 17 06 28 00.0030000  0 24                     
G31  24837216.098   130520336.440       -3261.908          39.000    24837210.652   101704275.415       -2541.254          36.000  
G16  22789057.821   119757359.149        1744.844          48.000                                                                  
G26  21344981.828   112168658.085        -905.787          50.000    21344979.190    87404160.450        -705.830          45.000  
G27  24326511.642   127836646.685        1760.530          42.000    24326506.989    99613018.807        1371.548          39.000  
G23  21758053.529   114339490.317         565.546          47.000    21758049.314    89095673.850         440.649          47.000  
R22  21120655.580   112743648.015       -1420.002          52.000    21120650.881    87689332.423       -1104.400          50.000  
R11  23331927.683   124678766.548       -4944.613          49.000    23331924.588    96972357.653       -3845.788          48.000  
R07  23610946.719   126391260.684        2611.132          49.000    23610942.688    98304348.200        2030.705          46.000  
R13  22553139.682   120432414.619        1842.029          39.000    22553137.059    93669682.203        1432.653          37.000  
G29  24874500.718   130716527.471       -2807.343          43.000    24874496.624   101857116.304       -2187.622          39.000  
S31  39806252.362   209183357.643        -630.105          44.000  
S33  40761134.272   214201342.210        -630.130          43.000  
G10  23159793.830   121705654.806        2780.308          48.000    23159791.634    94835504.605        2166.435          44.000  
E33  27873088.094   146474145.434        1418.267          43.000    27873088.071   112233409.463        1086.652          43.000  
R12  20810681.696   111167054.575       -1655.751          52.000    20810678.763    86463223.670       -1287.920          50.000  
R06  23429145.996   125022425.870        -158.055          37.000                                                                  
R23  22736696.645   121626025.416         951.098          49.000                                                                  
R21  23553847.914   126041910.757       -3163.874          47.000    23553841.952    98032690.026       -2461.234          42.000  
E21  24759291.080   130111024.339       -1829.223          48.000    24759291.262    99695496.767       -1401.734          52.000  
E13  25528664.657   134154448.920       -2358.019          48.000    25528665.860   102793774.057       -1806.849          53.000  
E27  28053117.723   147420148.085       -3540.156          42.000    28053119.883   112958304.258       -2712.579          47.000  
G18  22503859.241   118258880.125       -2794.259          47.000    22503854.871    92149887.983       -2177.445          49.000  
E26  24609227.355   129322622.079        -153.653          48.000    24609225.850    99091507.785        -117.703          52.000  
E14  24965960.105   131197070.630       -2714.339          48.000    24965958.562   100527653.006       -2079.815          51.000  
> 2024 04 17 06 28 30.0030000  0 24                     
G31  24855846.829   130618242.835       -3265.124          39.000    24855841.050   101780565.946       -2544.055          35.000  
G16  22779133.346   119705206.621        1732.147          47.000                                                                  
G26  21350209.692   112196128.935        -925.651          50.000    21350206.995    87425566.309        -721.366          45.000  
G27  24316460.768   127783832.291        1760.623          42.000    24316457.112    99571864.791        1371.748          39.000  
G23  21754882.872   114322824.937         545.593          48.000    21754877.603    89082687.834         425.269          47.000  
R22  21128655.178   112786349.576       -1426.694          52.000    21128650.526    87722544.752       -1109.692          50.000  
R11  23359706.436   124827205.593       -4951.096          49.000    23359703.488    97087810.101       -3850.736          48.000  
R07  23596341.024   126313071.359        2601.488          49.000    23596336.707    98243534.274        2023.383          46.000  
R13  22542852.472   120377478.460        1820.549          39.000    22542849.629    93626954.148        1415.917          38.000  
G29  24890539.048   130800804.946       -2811.192          43.000    24890533.714   101922787.045       -2190.565          38.000  
S31  39809850.374   209202264.427        -630.240          44.000  
S33  40764731.886   214220247.620        -630.250          42.000  
G10  23143948.192   121622386.598        2770.681          47.000    23143946.025    94770620.340        2159.091          44.000  
E33  27865006.890   146431682.154        1412.732          42.000    27865007.487   112200872.719        1082.467          43.000  
R12  20820055.800   111217131.334       -1682.580          52.000    20820052.899    86502172.258       -1308.677          49.000  
R06  23430100.731   125027517.035        -181.414          39.000                                                                  
R23  22731383.472   121597608.141         943.612          48.000                                                                  
R21  23571582.312   126136812.652       -3162.917          46.000    23571575.534    98106502.554       -2459.969          42.000  
E21  24769769.747   130166089.290       -1841.648          48.000    24769769.906    99737689.358       -1411.102          52.000  
E13  25542135.689   134225237.790       -2361.155          47.000    25542136.583   102848014.864       -1809.215          53.000  
E27  28073339.361   147526413.085       -3544.091          42.000    28073341.557   113039727.990       -2715.445          47.000  
G18  22519831.612   118342815.390       -2801.257          47.000    22519827.642    92215292.054       -2182.874          50.000  
E26  24610126.481   129327351.565        -161.577          47.000    24610125.745    99095131.704        -123.791          52.000  
E14  24981447.920   131278459.854       -2711.546          48.000    24981446.249   100590016.175       -2077.620          51.000  
> 2024 04 17 06 29 00.0030000  0 24                     
G31  24874494.131   130716230.228       -3266.925          40.000    24874486.470   101856919.638       -2545.850          34.000  
G16  22769277.070   119653410.883        1720.984          47.000                                                                  
G26  21355545.549   112224169.740        -943.898          50.000    21355542.871    87447416.291        -735.413          45.000  
G27  24306404.944   127730988.871        1762.273          43.000    24306401.754    99530688.119        1373.211          40.000  
G23  21751820.630   114306732.611         527.094          47.000    21751814.886    89070148.373         410.883          46.000  
R22  21136688.211   112829234.327       -1432.192          52.000    21136684.187    87755899.540       -1113.862          50.000  
R11  23387516.723   124975815.016       -4955.897          49.000    23387514.150    97203395.122       -3854.731          48.000  
R07  23581784.573   126235152.234        2593.171          49.000    23581781.855    98182930.599        2016.906          47.000  
R13  22532680.034   120323162.817        1800.583          39.000    22532677.806    93584708.644        1399.984          39.000  
G29  24906595.950   130885183.664       -2814.077          44.000    24906588.420   101988536.659       -2192.819          36.000  
S31  39813444.618   209221153.280        -629.039          44.000  
S33  40768325.574   214239132.476        -628.951          42.000  
G10  23128155.466   121539393.790        2762.203          48.000    23128152.100    94705950.643        2152.505          43.000  
E33  27856955.119   146389370.541        1408.144          43.000    27856956.177   112168452.168        1079.061          44.000  
R12  20829576.906   111267989.302       -1707.894          52.000    20829573.313    86541728.436       -1328.308          50.000  
R06  23431185.616   125033301.331        -204.104          39.000                                                                  
R23  22726108.816   121569391.810         937.618          48.000                                                                  
R21  23589306.585   126231658.831       -3160.224          46.000    23589299.952    98180271.817       -2457.946          43.000  
E21  24780315.104   130221504.499       -1852.571          48.000    24780315.156    99780150.347       -1419.520          52.000  
E13  25555621.048   134296102.862       -2362.982          48.000    25555621.632   102902314.065       -1810.623          53.000  
E27  28093579.836   147632776.930       -3546.789          43.000    28093581.832   113121227.495       -2717.651          47.000  
G18  22535839.429   118426936.465       -2806.707          47.000    22535835.147    92280840.927       -2187.040          49.000  
E26  24611067.957   129332301.062        -168.281          47.000    24611067.357    99098924.197        -128.982          51.000  
E14  24996916.933   131359749.428       -2707.565          48.000    24996914.969   100652303.004       -2074.696          51.000  
> 2024 04 17 06 29 30.0030000  0 24                     
G31  24893149.889   130814272.406       -3268.991          39.000    24893144.404   101933316.040       -2547.061          35.000  
G16  22759485.322   119601951.746        1709.812          48.000                                                                  
G26  21360984.793   112252757.610        -961.737          48.000    21360983.006    87469692.551        -749.574          45.000  
G27  24296339.245   127678094.029        1764.111          42.000    24296335.818    99489471.370        1374.521          40.000  
G23  21748863.211   114291191.786         508.929          47.000    21748858.024    89058038.668         396.606          47.000  
R22  21144751.192   112872277.364       -1437.327          51.000    21144747.868    87789377.445       -1117.830          50.000  
R11  23415353.079   125124567.354       -4960.564          49.000    23415351.390    97319091.270       -3858.156          48.000  
R07  23567276.137   126157483.820        2584.889          50.000    23567271.705    98122521.883        2010.583          47.000  
R13  22522621.163   120269447.598        1780.711          41.000    22522619.204    93542930.149        1384.537          39.000  
G29  24922667.284   130969640.902       -2816.594          44.000    24922659.426   102054347.500       -2194.186          35.000  
S31  39817031.073   209240000.269        -627.173          44.000  
S33  40771911.507   214257976.450        -627.380          43.000  
G10  23112411.660   121456656.579        2753.831          49.000    23112408.169    94641480.117        2146.002          44.000  
E33  27848927.488   146347187.736        1404.054          43.000    27848929.151   112136130.311        1075.987          45.000  
R12  20839238.608   111319603.554       -1732.810          52.000    20839235.158    86581872.824       -1347.758          49.000  
R06  23432395.747   125039757.142        -226.184          38.000                                                                  
R23  22720867.820   121541352.388         931.808          49.000                                                                  
R21  23607017.601   126326425.628       -3157.383          48.000    23607009.719    98253979.338       -2455.752          42.000  
E21  24790922.655   130277246.601       -1863.303          48.000    24790922.304    99822861.812       -1427.819          52.000  
E13  25569115.963   134367019.873       -2364.770          48.000    25569116.819   102956653.063       -1811.823          53.000  
E27  28113834.698   147739215.308       -3549.038          43.000    28113836.544   113202784.101       -2719.343          47.000  
G18  22551877.970   118511218.423       -2812.021          46.000    22551873.158    92346515.141       -2191.147          49.000  
E26  24612047.106   129337446.813        -174.694          47.000    24612046.443    99102867.054        -133.778          51.000  
E14  25012362.372   131440915.096       -2703.349          48.000    25012360.173   100714494.877       -2071.398          51.000  
