     3.00           OBSERVATION DATA    M: Mixed            RINEX VERSION / TYPE
CONVBIN 2.4.3                           20240417 124442 UTC PGM / RUN BY / DATE 
format: u-blox UBX                                          COMMENT             
log: /home/regis/git/gnsspwv/obsdata/VERT00CHL/2024-04-17/VECOMMENT             
{self.marker}                                               MARKER NAME         
                                                            MARKER NUMBER       
GEODETIC                                                    MARKER TYPE         
{self.observer}     {self.institution}                      OBSERVER / AGENCY   
UNKNOWN             UBLOX-ZED-F9P                           REC # / TYPE / VERS 
UNKNOWN             TWIVSP6037L                             ANT # / TYPE        
  1713381.0000 -5047934.0000 -3490983.0000                  APPROX POSITION XYZ 
        0.0000        0.0000        0.0000                  ANTENNA: DELTA H/E/N
G    8 C1C L1C D1C S1C C2L L2L D2L S2L                      SYS / # / OBS TYPES 
R    8 C1C L1C D1C S1C C2C L2C D2C S2C                      SYS / # / OBS TYPES 
E    8 C1C L1C D1C S1C C7Q L7Q D7Q S7Q                      SYS / # / OBS TYPES 
S    4 C1C L1C D1C S1C                                      SYS / # / OBS TYPES 
  2024    04    17    12    30   00.0120000     GPS         TIME OF FIRST OBS   
  2024    04    17    12    44   30.0120000     GPS         TIME OF LAST OBS    
                                                            END OF HEADER       
> 2024 04 17 12 30 00.0120000  0 24                     
G08  27317916.653   143556547.5681      -4341.980          39.000    27317922.111   111862236.0341      -3383.332          38.000  
G31  26867813.148   141191331.8491        541.875          44.000    26867812.663   110019192.7391        422.202          43.000  
E19  26903974.274   141381283.8101       -323.946          42.000    26903974.903   108331119.9101       -248.155          46.000  
G28  27147437.718   142660707.9481      -1065.879          43.000    27147435.538   111164162.1111       -830.606          43.000  
R18  25558147.662   136431108.9191       3128.235          49.000    25558147.489   106113022.8441       2433.004          46.000  
R03  24533276.051   131328434.8831       1554.120          51.000    24533273.278   102144537.9641       1208.813          50.000  
R17  22800033.267   122007783.4811        170.310          51.000    22800029.184    94894721.5291        132.526          49.000  
R02  23061829.801   123062349.7661      -1878.069          53.000    23061829.235    95715161.0751      -1460.677          50.000  
G03  24653119.305   129552975.8971        -92.068          47.000    24653119.316   100950359.9261        -71.649          47.000  
G21  23550658.611   123759521.6331      -2207.163          50.000                                                                  
S31  42361957.449   222613638.7841       -699.187          45.000  
S33  43315220.050   227623106.8861       -698.724          42.000  
E33  27463836.947   144323511.6131      -1612.335          48.000    27463838.588   110585519.9341      -1235.458          55.000  
R01  25772378.123   137768030.9601      -4129.210          48.000    25772380.259   107152907.1961      -3211.605          39.000  
R24  24325097.980   130077281.2141      -3813.495          51.000    24325098.412   101171168.7881      -2966.107          50.000  
G02  23603901.720   124039324.3791      -1252.503          50.000                                                                  
G09  28067585.485                3       2804.356          33.000    28067577.971                1       2184.410          27.000  
E12  27971848.460   146992990.6501        886.451          43.000    27971848.533   112631016.9721        679.096          49.000  
G04  24739198.267   130005334.6331       1741.494          45.000    24739196.895   101302792.9781       1357.010          45.000  
E10  29515106.550   155102892.3831       1603.285          43.000    29515110.089   118845070.1611       1228.358          48.000  
E04  30042903.543   157876514.5691       1976.233          45.000    30042906.829   120970315.6311       1514.224          48.000  
E26  30907536.104   162420319.5391      -3060.501          43.000    30907543.746   124452043.5061      -2345.094          46.000  
G17  25874793.328   135972714.2961        940.178          43.000    25874790.341   105952912.8021        732.516          41.000  
E14                                                                  30188254.371                3       -463.911          18.000  
> 2024 04 17 12 30 30.0120000  0 24                     
G08  27342710.012   143686832.959       -4343.555          39.000    27342714.752   111963756.784       -3384.772          38.000  
G31  26864759.170   141175288.961         527.590          45.000    26864760.006   110006691.804         411.012          44.000  
E19  26905862.538   141391203.287        -337.415          43.000    26905862.945   108338720.523        -258.493          47.000  
G28  27153574.720   142692962.260       -1084.701          42.000    27153573.919   111189295.268        -845.272          43.000  
R18  25540592.738   136337395.990        3119.245          48.000    25540592.117   106040135.013        2426.032          47.000  
R03  24524612.052   131282055.627        1537.616          51.000    24524609.324   102108465.194        1196.045          50.000  
R17  22799148.014   122003044.857         145.439          51.000    22799143.788    94891035.887         113.027          49.000  
R02  23072435.916   123118943.886       -1894.946          53.000    23072434.445    95759178.691       -1473.954          49.000  
G03  24653662.563   129555832.571         -98.326          46.000    24653662.677   100952585.862         -76.658          47.000  
G21  23563317.474   123826039.670       -2227.458          50.000                                                                  
S31  42365951.017   222634624.848        -700.279          44.000  
S33  43319211.204   227644081.603        -699.710          42.000  
E33  27473070.868   144372039.942       -1622.812          47.000    27473073.450   110622703.910       -1243.507          55.000  
R01  25795558.740   137891942.595       -4131.590          49.000    25795561.593   107249282.699       -3213.550          40.000  
R24  24346543.452   130191960.960       -3831.921          51.000    24346544.232   101260364.013       -2980.316          50.000  
G02  23611106.629   124077187.683       -1271.874          50.000                                                                  
G09  28051594.642                        2797.899          33.000    28051605.216                        2180.531          28.000  
E12  27966807.399   146966499.071         879.690          43.000    27966807.375   112610718.185         674.029          49.000  
G04  24729300.705   129953320.538        1726.092          45.000    24729299.762   101262262.527        1344.808          46.000  
E10  29505961.863   155054837.376        1600.373          42.000    29505965.766   118808248.725        1226.187          48.000  
E04  30031640.698   157817329.347        1969.408          45.000    30031644.197   120924965.918        1508.942          48.000  
E26  30925026.688   162512229.549       -3066.849          44.000    30925033.868   124522467.726       -2349.882          45.000  
G17  25869484.846   135944819.661         919.351          42.000    25869481.576   105931176.647         716.326          40.000  
E14                                                                  30191713.261                3       -470.151          13.000  
> 2024 04 17 12 31 00.0120000  0 23                     
G08  27367514.538   143817176.411       -4345.697          39.000    27367517.975   112065322.719       -3386.298          34.000  
G31  26861788.522   141159670.931         513.764          46.000    26861788.064   109994521.921         400.093          44.000  
E19  26907827.477   141401525.589        -350.595          43.000    26907827.457   108346629.793        -268.615          47.000  
G28  27159819.763   142725782.532       -1103.445          41.000    27159819.910   111214869.415        -859.736          44.000  
R18  25523087.020   136243950.989        3110.389          48.000    25523086.884   105967455.562        2419.394          47.000  
R03  24516038.853   131236165.856        1521.674          50.000    24516036.136   102072773.111        1183.588          49.000  
R17  22798400.968   121999051.294         120.909          51.000    22798396.430    94887929.745          94.002          49.000  
R02  23083135.089   123176039.120       -1911.324          52.000    23083133.659    95803586.034       -1486.580          49.000  
G03  24654241.322   129558874.067        -104.291          46.000    24654241.372   100954955.834         -81.383          47.000  
G21  23576090.252   123893162.208       -2247.268          50.000                                                                  
S31  42369950.334   222655641.481        -700.770          45.000  
S33  43323208.616   227665086.318        -700.318          42.000  
E33  27482365.399   144420879.476       -1633.021          47.000    27482367.191   110660126.322       -1251.256          55.000  
R01  25818751.360   138015918.289       -4133.418          49.000    25818754.844   107345707.997       -3214.855          39.000  
R24  24368092.445   130307186.503       -3849.768          52.000    24368092.372   101349983.735       -2994.342          50.000  
G02  23618420.796   124115626.603       -1290.667          50.000                                                                  
G09  28035634.721   147328253.7721       2792.328          36.000    28035640.762   114801211.7141       2175.863          32.000  
E12  27961804.176   146940203.720         873.496          44.000    27961803.610   112590569.779         669.114          49.000  
G04  24719489.726   129901765.739        1711.194          45.000    24719489.663   101222089.954        1333.183          47.000  
E10  29496832.337   155006862.977        1597.718          41.000    29496836.608   118771489.044        1224.513          48.000  
E04  30020415.914   157758344.835        1963.087          44.000    30020419.284   120879770.008        1504.070          47.000  
E26  30942551.173   162604324.640       -3072.670          43.000    30942559.102   124593033.757       -2354.491          44.000  
G17  25864293.464   135917540.750         898.988          42.000    25864290.409   105909920.290         700.625          40.000  
> 2024 04 17 12 31 30.0120000  0 23                     
G08  27392329.975   143947576.197       -4347.687          39.000    27392330.864                       -3388.647          30.000  
G31  26858898.836   141144481.058         499.407          47.000    26858897.936   109982685.655         389.209          43.000  
E19  26909868.113   141412251.819        -364.103          43.000    26909868.420   108354848.567        -279.013          47.000  
G28  27166172.967   142759170.328       -1122.156          41.000    27166173.981   111240885.792        -874.249          45.000  
R18  25505631.621   136150779.228        3101.409          47.000    25505632.752   105894988.622        2412.232          47.000  
R03  24507558.082   131190767.333        1505.383          50.000    24507555.602   102037463.163        1170.837          49.000  
R17  22797794.704   121995806.120          95.901          51.000    22797790.459    94885405.684          74.599          49.000  
R02  23093928.187   123233633.759       -1927.821          52.000    23093927.358    95848381.820       -1499.448          49.000  
G03  24654855.494   129562101.339        -110.227          46.000    24654855.350   100957470.574         -86.031          47.000  
G21  23588978.265   123960890.569       -2267.451          49.000                                                                  
S31  42373955.407   222676689.349        -701.821          45.000  
S33  43327211.884   227686123.144        -701.706          43.000  
E33  27491718.352   144470032.066       -1643.430          47.000    27491720.705   110697788.621       -1259.229          55.000  
R01  25841955.746   138139957.118       -4135.279          50.000    25841958.782   107442182.444       -3216.360          40.000  
R24  24389741.791   130422956.639       -3867.688          52.000    24389741.809   101440027.029       -3008.258          50.000  
G02  23625845.955   124154642.899       -1309.950          50.000                                                                  
G09  28019708.108   147244561.553        2787.239          36.000    28019714.148                        2171.597          30.000  
E12  27956837.784   146914107.431         866.760          44.000    27956837.540   112570573.892         664.084          49.000  
G04  24709766.845   129850673.213        1695.803          45.000    24709766.453   101182277.577        1321.317          46.000  
E10  29487719.997   154958971.870        1595.501          42.000    29487723.238   118734793.222        1222.354          48.000  
E04  30009231.261   157699563.587        1956.231          45.000    30009233.394   120834729.821        1499.067          47.000  
E26  30960111.903   162696605.741       -3078.812          43.000    30960120.241   124663742.310       -2359.011          45.000  
G17  25859219.855   135890880.185         878.779          42.000    25859217.520   105889145.790         684.845          40.000  
> 2024 04 17 12 32 00.0120000  0 23                     
G08  27417152.534   144078023.361       -4349.127          37.000    27417151.884                       -3389.044          29.000  
G31  26856088.793   141129715.058         485.201          47.000    26856087.476   109971179.713         378.053          43.000  
E19  26911984.369   141423375.570        -377.383          43.000    26911984.904   108363371.936        -289.145          47.000  
G28  27172633.401   142793119.742       -1140.843          41.000    27172634.153   111267339.834        -889.105          44.000  
R18  25488227.632   136057878.526        3092.272          47.000    25488229.042   105822732.500        2405.053          47.000  
R03  24499168.527   131145854.429        1489.056          51.000    24499165.562   102002530.909        1158.154          50.000  
R17  22797327.769   121993305.682          70.926          51.000    22797323.580    94883460.860          55.131          49.000  
R02  23104812.980   123291718.962       -1944.342          52.000    23104812.531    95893559.137       -1512.218          49.000  
G03  24655504.495   129565508.011        -116.581          47.000    24655503.295   100960125.079         -90.736          46.000  
G21  23601979.751   124029218.312       -2287.495          49.000                                                                  
S31  42377965.907   222697764.255        -702.839          45.000  
S33  43331220.132   227707187.120        -702.334          42.000  
E33  27501130.359   144519492.036       -1653.830          47.000    27501132.581   110735686.447       -1267.151          55.000  
R01  25865170.428   138264050.510       -4137.222          50.000    25865173.060   107538699.266       -3218.068          37.000  
R24  24411491.458   130539262.582       -3885.724          52.000    24411491.144   101530487.073       -3022.290          49.000  
G02  23633379.909   124194231.359       -1329.169          50.000                                                                  
G09  28003813.820   147161037.582        2781.483          36.000    28003817.733                        2167.157          29.000  
E12  27951908.563   146888205.587         860.152          44.000    27951908.414   112550727.004         659.014          49.000  
G04  24700131.469   129800038.391        1680.217          45.000    24700130.196   101142821.876        1309.191          46.000  
E10  29478621.818   154911159.320        1592.365          42.000    29478624.844   118698157.581        1220.245          48.000  
E04  29998083.310   157640980.589        1949.417          46.000    29998085.997   120789841.534        1493.796          47.000  
E26  30977706.820   162789066.281       -3085.138          43.000    30977715.857   124734588.336       -2363.929          46.000  
G17  25854263.959   135864833.058         858.047          44.000    25854261.176   105868849.271         668.474          42.000  
> 2024 04 17 12 32 30.0120000  0 23                     
G08  27441984.778   144208521.373       -4351.697          35.000    27441988.208                       -3390.741          29.000  
G31  26853362.040   141115381.563         470.323          46.000    26853359.600   109960010.770         366.203          41.000  
E19  26914178.032   141434902.775        -391.363          42.000    26914178.528   108372204.442        -299.937          47.000  
G28  27179203.020   142827637.354       -1160.354          41.000    27179203.299   111294236.566        -904.244          45.000  
R18  25470876.705   135965259.318        3082.233          47.000    25470878.482   105750695.311        2397.315          47.000  
R03  24490870.697   131101433.962        1472.296          52.000    24490866.805   101967981.646        1145.099          49.000  
R17  22797001.567   121991558.370          45.324          51.000    22796997.350    94882101.795          35.293          49.000  
R02  23115790.800   123350298.341       -1961.083          52.000    23115790.591    95939120.833       -1525.308          49.000  
G03  24656188.489   129569099.977        -122.873          48.000    24656187.496   100962923.999         -95.943          47.000  
G21  23615097.823   124098151.421       -2308.143          49.000                                                                  
S31  42381982.540   222718870.571        -704.402          45.000  
S33  43335234.610   227728282.552        -704.273          42.000  
E33  27510601.502   144569266.193       -1664.602          46.000    27510604.346   110773825.012       -1275.511          55.000  
R01  25888395.771   138388202.597       -4139.548          49.000    25888398.029   107635261.818       -3219.861          38.000  
R24  24433343.203   130656108.228       -3904.120          52.000    24433341.926   101621366.878       -3036.584          49.000  
G02  23641023.315   124234398.187       -1348.822          50.000                                                                  
G09  27987952.856   147077689.985        2775.076          37.000    27987967.161                1       2162.194          28.000  
E12  27947018.484   146862506.091         852.943          44.000    27947017.876   112531035.144         653.689          49.000  
G04  24690585.600   129749869.110        1664.541          46.000    24690583.682   101103728.936        1296.916          46.000  
E10  29469540.140   154863432.932        1589.263          43.000    29469543.039   118661587.958        1217.721          48.000  
E04  29986974.279   157582603.235        1942.179          46.000    29986977.240   120745110.865        1488.136          47.000  
E26  30995337.912   162881712.082       -3091.561          44.000    30995346.074   124805576.308       -2368.744          47.000  
G17  25849425.784   135839407.849         836.838          44.000    25849423.229   105849037.341         651.854          42.000  
> 2024 04 17 12 33 00.0120000  0 23                     
G08  27466826.925                       -4352.826          32.000    27466834.090                       -3391.956          27.000  
G31  26850718.469   141101494.940         455.403          46.000    26850716.131   109949190.003         354.718          41.000  
E19  26916449.785   141446845.257        -405.093          42.000    26916451.062   108381355.153        -310.388          46.000  
G28  27185881.692   142862735.619       -1179.524          37.000    27185881.938   111321585.805        -919.086          44.000  
R18  25453582.492   135872938.037        3072.460          48.000    25453583.427   105678889.877        2389.592          47.000  
R03  24482667.463   131057519.127        1455.322          52.000    24482663.382   101933825.654        1131.927          48.000  
R17  22796818.737   121990579.304          19.813          51.000    22796814.236    94881340.260          15.363          49.000  
R02  23126863.351   123409381.675       -1977.795          52.000    23126862.450    95985074.509       -1538.382          49.000  
G03  24656909.769   129572889.318        -129.465          48.000    24656909.138   100965876.687        -101.004          47.000  
G21  23628332.767   124167701.164       -2328.633          49.000                                                                  
S31  42386007.445   222740021.870        -705.898          45.000  
S33  43339257.280   227749422.096        -705.277          43.000  
E33  27520135.410   144619367.386       -1675.519          46.000    27520138.340   110812214.169       -1283.860          54.000  
R01  25911633.375   138512423.394       -4141.810          48.000    25911636.189   107731877.743       -3221.383          41.000  
R24  24455296.656   130773503.976       -3922.357          52.000    24455296.410   101712674.527       -3050.769          50.000  
G02  23648779.143   124275156.435       -1368.462          50.000                                                                  
G09  27972127.139   146994532.990        2768.771          35.000    27972134.189   114541222.4791       2157.578          30.000  
E12  27942169.931   146837022.695         845.692          45.000    27942168.636   112511508.880         648.020          49.000  
G04  24681130.342   129700179.231        1648.515          46.000    24681128.025   101065009.572        1284.475          47.000  
E10  29460476.956   154815806.454        1585.881          43.000    29460480.036   118625094.888        1215.234          48.000  
E04  29975907.324   157524445.058        1934.870          46.000    29975909.778   120700548.103        1482.620          46.000  
E26  31013005.419   162974555.032       -3098.004          43.000    31013013.871   124876715.361       -2373.928          47.000  
G17  25844708.431   135814618.177         815.601          44.000    25844705.541   105829720.656         635.449          41.000  
> 2024 04 17 12 33 30.0120000  0 23                     
G08  27491682.281   144469759.3561      -4354.541          33.000    27491686.862                       -3393.048          30.000  
G31  26848160.129   141088051.711         440.628          45.000    26848158.773   109938714.749         343.401          42.000  
E19  26918800.841   141459197.000        -418.624          42.000    26918801.199   108390819.446        -320.675          46.000  
G28  27192669.513   142898409.095       -1198.578          38.000    27192669.512   111349383.298        -933.972          42.000  
R18  25436342.526   135780913.125        3062.367          47.000    25436343.988   105607314.943        2381.940          47.000  
R03  24474557.384   131014104.290        1438.763          52.000    24474553.417   101900058.551        1118.860          47.000  
R17  22796779.029   121990364.851          -5.595          51.000    22796774.201    94881173.401          -4.435          49.000  
R02  23138027.838   123468960.287       -1994.320          52.000    23138026.874    96031413.382       -1551.186          49.000  
G03  24657666.936   129576869.989        -135.929          48.000    24657666.498   100968978.472        -105.885          47.000  
G21  23641683.959   124237861.473       -2348.982          50.000                                                                  
S31  42390040.003   222761212.643        -707.157          44.000  
S33  43343287.759   227770601.512        -706.655          42.000  
E33  27529730.381   144669790.463       -1686.271          46.000    27529733.516   110850849.964       -1291.988          54.000  
R01  25934883.332   138636705.055       -4143.708          48.000    25934885.515   107828540.964       -3222.956          39.000  
R24  24477351.871   130891441.164       -3940.313          53.000    24477350.656   101804403.299       -3064.655          49.000  
G02  23656646.421   124316501.088       -1387.949          50.000                                                                  
G09  27956338.539   146911562.840        2762.600          34.000    27956346.039                        2152.924          32.000  
E12  27937360.996   146811751.330         838.882          46.000    27937359.781   112492145.077         642.729          49.000  
G04  24671765.301   129650964.703        1632.578          47.000    24671762.278   101026660.616        1272.080          47.000  
E10  29451432.478   154768275.641        1582.685          43.000    29451435.225   118588675.128        1212.659          48.000  
E04  29964880.689   157466501.533        1927.704          45.000    29964883.427   120656149.818        1477.031          46.000  
E26  31030709.086   163067588.987       -3104.274          43.000    31030717.978   124948000.770       -2378.664          47.000  
G17  25840111.587   135790460.298         794.550          46.000    25840108.519   105810896.310         619.061          41.000  
> 2024 04 17 12 34 00.0120000  0 23                     
G08  27516546.627                3      -4355.829          33.000    27516547.467   112675577.208       -3393.994          32.000  
G31  26845684.750   141075044.496         426.312          44.000    26845683.332   109928579.244         332.073          42.000  
E19  26921227.348   141471948.596        -431.623          42.000    26921227.640   108400590.133        -330.639          46.000  
G28  27199568.000   142934648.783       -1217.485          40.000    27199566.923   111377621.926        -948.513          44.000  
R18  25419157.289   135689179.244        3052.997          47.000    25419159.453   105535966.346        2374.606          47.000  
R03  24466539.485   130971180.317        1422.656          52.000    24466533.873   101866673.193        1106.500          47.000  
R17  22796880.332   121990907.825         -30.629          52.000    22796876.108    94881595.653         -23.853          50.000  
R02  23149284.114   123529022.190       -2010.067          53.000    23149282.604    96078128.154       -1563.402          49.000  
G03  24658459.120   129581032.550        -141.734          48.000    24658457.934   100972222.011        -110.507          46.000  
G21  23655150.253   124308622.581       -2368.550          50.000                                                                  
S31  42394078.230   222782433.112        -707.592          44.000  
S33  43347323.735   227791809.799        -707.256          42.000  
E33  27539385.847   144720526.705       -1696.256          46.000    27539388.472   110889725.714       -1299.704          55.000  
R01  25958142.770   138761035.718       -4145.019          49.000    25958144.182   107925242.340       -3223.960          42.000  
R24  24499505.285   131009907.984       -3957.623          51.000    24499505.282   101896544.028       -3078.156          50.000  
G02  23664624.004   124358423.089       -1406.919          50.000                                                                  
G09  27940585.241   146828772.439        2756.295          34.000    27940591.040   114412058.434        2147.897          33.000  
E12  27932590.477   146786684.297         832.297          45.000    27932589.670   112472937.845         637.728          49.000  
G04  24662488.767   129602217.848        1617.119          47.000    24662486.222   100988676.075        1260.035          46.000  
E10  29442404.564   154720832.646        1580.061          43.000    29442407.234   118552322.660        1210.771          48.000  
E04  29953892.896   157408764.588        1921.321          45.000    29953896.926   120611909.841        1472.096          46.000  
E26  31048447.885   163160804.355       -3110.152          42.000    31048456.626   125019425.172       -2383.054          47.000  
G17  25835632.641   135766926.281         774.312          44.000    25835630.520   105792558.069         603.442          42.000  
> 2024 04 17 12 34 30.0120000  0 23                     
G08  27541416.339                       -4357.025          33.000    27541419.845   112777410.421       -3395.398          36.000  
G31  26843291.976   141062475.369         411.942          43.000    26843292.475   109918785.132         320.916          43.000  
E19  26923729.652   141485099.577        -444.866          42.000    26923730.225   108410666.833        -340.932          45.000  
G28  27206573.097   142971454.654       -1235.881          39.000    27206570.417   111406301.759        -963.313          43.000  
R18  25402028.155   135597740.478        3043.334          48.000    25402030.171   105464847.286        2366.704          48.000  
R03  24458611.407   130928747.801        1406.409          51.000    24458606.859   101833670.138        1093.817          47.000  
R17  22797123.864   121992210.286         -55.974          52.000    22797118.932    94882608.629         -43.613          49.000  
R02  23160630.115   123589564.609       -2025.913          53.000    23160629.007    96125216.660       -1575.766          49.000  
G03  24659285.493   129585376.633        -147.853          47.000    24659284.834   100975606.995        -115.208          47.000  
G21  23668729.822   124379984.089       -2388.507          50.000                                                                  
S31  42398122.076   222803682.739        -708.872          44.000  
S33  43351365.434   227813048.910        -708.064          42.000  
E33  27549100.745   144771576.515       -1706.780          47.000    27549102.881   110928841.723       -1307.802          54.000  
R01  25981410.115   138885413.619       -4146.553          48.000    25981412.274   108021980.430       -3224.970          42.000  
R24  24521757.884   131128901.886       -3975.067          51.000    24521757.929   101989094.685       -3091.791          50.000  
G02  23672711.623   124400923.063       -1426.157          50.000                                                                  
G09  27924865.406   146746163.461        2750.542          33.000    27924870.306   114347687.766        2143.773          33.000  
E12  27927859.816   146761823.038         825.397          45.000    27927858.807   112453888.267         632.510          49.000  
G04  24653302.228   129553940.103        1601.539          47.000    24653299.144   100951057.040        1248.084          45.000  
E10  29433392.726   154673478.798        1577.255          43.000    29433396.128   118516038.504        1208.493          48.000  
E04  29942945.041   157351235.337        1914.230          44.000    29942949.245   120567828.995        1466.779          46.000  
E26  31066220.609   163254200.527       -3116.205          42.000    31066229.384   125090988.132       -2387.652          47.000  
G17  25831272.608   135744016.816         753.313          43.000    25831271.641   105774706.484         587.148          42.000  
> 2024 04 17 12 35 00.0120000  0 23                     
G08  27566293.657   144861842.2081      -4358.222          34.000    27566296.934   112879269.744       -3396.265          37.000  
G31  26840983.254   141050346.027         396.788          43.000    26840983.958   109909333.684         309.071          43.000  
E19  26926308.060   141498648.949        -458.305          42.000    26926308.698   108421048.802        -351.297          46.000  
G28  27213684.901   143008826.537       -1255.318          39.000    27213683.141   111435422.624        -978.187          43.000  
R18  25384955.399   135506600.579        3032.922          49.000    25384956.887   105393960.655        2358.874          47.000  
R03  24450776.910   130886806.676        1389.740          52.000    24450772.631   101801049.265        1080.939          48.000  
R17  22797509.271   121994274.126         -81.622          51.000    22797504.785    94884213.796         -63.509          50.000  
R02  23172065.356   123650584.115       -2042.008          52.000    23172064.231    96172676.230       -1588.268          49.000  
G03  24660146.676   129589901.612        -154.008          48.000    24660146.632   100979132.922        -120.122          47.000  
G21  23682423.868   124451944.839       -2408.773          51.000                                                                  
S31  42402171.489   222824963.012        -709.955          44.000  
S33  43355412.968   227834317.590        -709.529          42.000  
E33  27558873.988   144822940.079       -1717.634          45.000    27558876.940   110968198.120       -1315.978          54.000  
R01  26004685.675   139009835.612       -4148.265          47.000    26004688.367   108118752.833       -3226.300          42.000  
R24  24544109.005   131248419.909       -3992.773          52.000    24544108.386   102082052.997       -3105.420          49.000  
G02  23680908.971   124444000.636       -1445.594          49.000                                                                  
G09  27909181.942   146663737.505        2744.696          34.000    27909184.951                        2138.040          31.000  
E12  27923168.326   146737168.815         818.225          45.000    27923167.329   112434997.339         626.917          49.000  
G04  24644204.979   129506132.610        1585.612          47.000    24644201.867   100913804.441        1235.531          46.000  
E10  29424399.093   154626215.204        1573.833          43.000    29424402.140   118479823.496        1205.825          48.000  
E04  29932037.120   157293914.543        1907.140          44.000    29932041.187   120523907.887        1461.298          46.000  
E26  31084026.827   163347776.725       -3122.234          42.000    31084036.053   125162689.039       -2392.362          46.000  
G17  25827033.323   135721734.729         731.949          45.000    25827031.096   105757343.776         570.534          42.000  
> 2024 04 17 12 35 30.0120000  0 23                     
G08  27591173.845   144992587.106       -4358.422          34.000    27591177.721   112981148.577       -3396.645          38.000  
G31  26838758.107   141038652.820         382.155          42.000    26838759.612   109900222.065         297.825          44.000  
E19  26928961.865   141512590.769        -471.677          43.000    26928961.928   108431731.475        -361.278          46.000  
G28  27220902.294   143046758.745       -1273.951          37.000    27220900.928   111464980.088        -992.405          42.000  
R18  25367937.516   135415757.872        3022.833          49.000    25367938.969   105323305.196        2350.957          48.000  
R03  24443031.858   130845351.136        1373.547          52.000    24443028.969   101768806.065        1068.317          48.000  
R17  22798035.504   121997095.256        -106.842          51.000    22798032.424    94886407.965         -83.190          49.000  
R02  23183587.700   123712072.377       -2057.586          53.000    23183586.538    96220500.382       -1600.339          49.000  
G03  24661041.296   129594601.403        -159.837          48.000    24661040.579   100982795.052        -124.598          46.000  
G21  23696230.236   124524498.849       -2428.568          50.000                                                                  
S31  42406225.476   222846267.019        -710.820          44.000  
S33  43359465.011   227855610.653        -710.465          42.000  
E33  27568707.311   144874611.986       -1727.712          46.000    27568709.891   111007790.812       -1323.898          54.000  
R01  26027968.846   139134293.911       -4149.462          47.000    26027971.159   108215553.514       -3227.468          41.000  
R24  24566555.675   131368453.466       -4009.851          52.000    24566555.300   102175412.290       -3118.805          49.000  
G02  23689215.195   124487650.493       -1464.755          49.000                                                                  
G09  27893534.199                        2737.533          30.000    27893530.606                        2133.597          30.000  
E12  27918514.966   146712717.413         811.487          45.000    27918514.336   112416261.830         621.728          49.000  
G04  24635196.177   129458791.104        1570.089          48.000    24635193.399   100876914.937        1223.324          46.000  
E10  29415421.355   154579037.494        1570.769          43.000    29415424.499   118443674.285        1203.666          48.000  
E04  29921167.921   157236797.574        1900.441          43.000    29921172.075   120480142.953        1456.208          46.000  
E26  31101868.157   163441526.710       -3128.085          42.000    31101876.370   125234523.105       -2396.828          46.000  
G17  25822911.684   135700074.982         711.462          45.000    25822908.525   105740466.027         553.992          41.000  
> 2024 04 17 12 36 00.0120000  0 23                     
G08  27616059.361   145123360.785       -4360.349          34.000    27616063.964   113083049.780       -3397.138          37.000  
G31  26836619.328   141027404.127         367.361          47.000    26836618.938   109891456.844         286.258          44.000  
E19  26931691.079   141526931.171        -484.990          43.000    26931690.869   108442719.539        -371.455          46.000  
G28  27228226.463   143085257.758       -1292.959          36.000    27228226.195   111494979.298       -1007.546          40.000  
R18  25350977.577   135325223.000        3012.385          49.000    25350978.448   105252889.132        2342.875          47.000  
R03  24435380.642   130804388.203        1357.056          52.000    24435376.909   101736946.014        1055.420          49.000  
R17  22798705.966   122000682.611        -132.568          51.000    22798703.272    94889198.077        -103.099          50.000  
R02  23195199.210   123774033.102       -2073.494          53.000    23195197.701    96268692.003       -1612.746          48.000  
G03  24661970.045   129599482.285        -166.075          48.000    24661969.145   100986598.283        -129.432          46.000  
G21  23710151.151   124597651.810       -2448.637          50.000                                                                  
S31  42410285.491   222867601.299        -711.923          44.000  
S33  43363522.592   227876933.041        -711.569          42.000  
E33  27578599.781   144926599.263       -1738.196          46.000    27578602.769   111047625.158       -1332.027          54.000  
R01  26051258.407   139258792.815       -4150.833          47.000    26051261.429   108312385.717       -3228.848          41.000  
R24  24589100.470   131489006.701       -4027.417          52.000    24589098.736   102269175.760       -3132.379          48.000  
G02  23697632.619   124531879.982       -1484.152          50.000                                                                  
G09  27877917.068                        2731.700          26.000    27877914.065   114155428.616        2129.412          32.000  
E12  27913901.975   146688476.972         804.236          45.000    27913901.650   112397687.943         616.265          49.000  
G04  24626277.678   129411923.498        1554.159          48.000    24626275.351   100840394.741        1210.956          46.000  
E10  29406462.259   154531953.563        1567.745          44.000    29406464.583   118407596.952        1201.159          48.000  
E04  29910339.267   157179892.018        1892.990          43.000    29910343.456   120436540.010        1450.605          47.000  
E26  31119741.674   163535456.509       -3134.226          41.000    31119751.085   125306494.959       -2401.567          46.000  
G17  25818908.725   135679045.143         690.294          44.000    25818906.444   105724079.062         537.887          40.000  
> 2024 04 17 12 36 30.0120000  0 23                     
G08  27640948.670   145254163.081       -4360.840          33.000    27640955.433   113184973.296       -3397.970          38.000  
G31  26834565.393   141016604.753         352.201          47.000    26834563.884   109883041.707         274.430          44.000  
E19  26934495.752   141541672.311        -498.070          43.000    26934495.819   108454014.678        -381.689          46.000  
G28  27235660.377   143124326.481       -1312.068          38.000    27235660.428   111525422.439       -1022.833          39.000  
R18  25334076.535   135235002.872        3001.754          50.000    25334077.295   105182717.879        2334.609          47.000  
R03  24427820.374   130763921.219        1340.277          51.000    24427818.309   101705471.703        1042.474          50.000  
R17  22799520.393   122005040.878        -158.495          51.000    22799517.499    94892587.808        -123.264          49.000  
R02  23206898.179   123836466.424       -2089.340          51.000    23206898.635    96317251.188       -1624.956          49.000  
G03  24662933.891   129604546.685        -172.140          48.000    24662933.181   100990544.524        -134.092          47.000  
G21  23724184.900   124671405.680       -2468.709          49.000                                                                  
S31  42414351.532   222888969.398        -713.095          44.000  
S33  43367586.417   227898289.767        -712.636          42.000  
E33  27588553.452   144978905.149       -1749.010          46.000    27588556.336   111087703.620       -1340.226          54.000  
R01  26074556.024   139383332.934       -4152.232          46.000    26074558.689   108409249.959       -3229.341          41.000  
R24  24611741.289   131610079.746       -4044.725          52.000    24611740.793   102363343.518       -3145.968          49.000  
G02  23706159.916   124576691.912       -1503.694          49.000                                                                  
G09  27862334.393   146417563.628        2725.642          34.000    27862334.924   114091635.912        2124.257          33.000  
E12  27909329.760   146664451.610         797.011          45.000    27909329.856   112379278.873         610.700          49.000  
G04  24617449.681   129365534.079        1538.031          47.000    24617447.554   100804247.134        1198.350          46.000  
E10  29397520.342   154484967.615        1564.273          44.000    29397523.254   118371594.698        1198.541          48.000  
E04  29899551.009   157123201.754        1885.921          43.000    29899556.204   120393102.047        1445.104          48.000  
E26  31137652.404   163629568.448       -3140.558          42.000    31137660.390   125378606.314       -2406.184          46.000  
G17  25815028.018   135658649.860         668.992          44.000    25815025.615   105708186.583         521.250          41.000  
> 2024 04 17 12 37 00.0120000  0 23                     
G08  27665846.160   145384996.836       -4361.554          34.000    27665852.467   113286921.301       -3398.457          35.000  
G31  26832596.769   141006262.213         337.335          47.000    26832595.296   109874982.560         262.915          44.000  
E19  26937377.939   141556819.346        -511.442          42.000    26937378.324   108465620.798        -391.877          46.000  
G28  27243203.999   143163970.542       -1330.768          38.000    27243204.617   111556313.794       -1037.014          38.000  
R18  25317236.558   135145107.379        2991.364          49.000    25317236.918   105112799.164        2326.527          47.000  
R03  24420354.925   130723955.929        1324.023          51.000    24420352.315   101674387.597        1029.822          49.000  
R17  22800480.842   122010177.932        -184.052          51.000    22800477.574    94896583.258        -143.188          50.000  
R02  23218688.142   123899374.888       -2104.543          52.000    23218687.981    96366179.951       -1636.891          49.000  
G03  24663933.768   129609800.000        -177.983          49.000    24663932.924   100994637.984        -138.660          47.000  
G21  23738336.089   124745765.792       -2488.527          50.000                                                                  
S31  42418425.386   222910376.621        -713.927          44.000  
S33  43371658.053   227919685.272        -713.483          42.000  
E33  27598569.232   145031535.639       -1759.464          46.000    27598571.896   111128030.812       -1348.190          55.000  
R01  26097862.995   139507917.777       -4153.269          47.000    26097865.054   108506149.033       -3230.272          41.000  
R24  24634480.515   131731675.580       -4061.601          51.000    24634479.492   102457917.899       -3159.078          49.000  
G02  23714799.159   124622092.033       -1522.901          49.000                                                                  
G09  27846795.226   146335895.916        2719.196          37.000    27846796.734   114027998.739        2118.687          34.000  
E12  27904800.639   146640648.591         790.061          44.000    27904800.266   112361040.174         605.249          49.000  
G04  24608714.238   129319629.853        1522.341          47.000    24608712.419   100768477.604        1186.250          46.000  
E10  29388599.065   154438086.701        1561.178          44.000    29388601.972   118335672.927        1196.252          48.000  
E04  29888804.619   157066733.517        1878.769          42.000    29888810.726   120349834.243        1439.529          48.000  
E26  31155597.244   163723867.567       -3146.197          43.000    31155605.155   125450861.109       -2410.643          46.000  
G17  25811269.699   135638895.962         647.966          46.000    25811267.101   105692793.875         504.858          41.000  
> 2024 04 17 12 37 30.0120000  0 23                     
G08  27690747.770   145515850.551       -4362.480          33.000    27690753.181   113388884.842       -3399.110          34.000  
G31  26830713.871   140996369.777         322.045          47.000    26830712.516   109867274.151         250.959          44.000  
E19  26940335.762   141572363.249        -525.023          43.000    26940336.737   108477531.034        -402.321          47.000  
G28  27250856.653   143204181.323       -1349.821          38.000    27250857.221   111587646.693       -1051.744          40.000  
R18  25300455.755   135055531.889        2980.259          49.000    25300456.300   105043129.321        2318.059          47.000  
R03  24412981.268   130684483.762        1307.397          52.000    24412978.294   101643687.034        1016.779          49.000  
R17  22801586.031   122016086.897        -210.015          52.000    22801581.246    94901179.065        -163.428          48.000  
R02  23230564.157   123962747.179       -2120.302          52.000    23230562.790    96415469.412       -1649.148          48.000  
G03  24664967.909   129615233.316        -184.273          49.000    24664966.321   100998871.683        -143.536          46.000  
G21  23752599.530   124820722.449       -2508.718          50.000                                                                  
S31  42422504.894   222931813.956        -715.282          44.000  
S33  43375735.722   227941112.224        -714.848          42.000  
E33  27608643.843   145084482.590       -1770.404          46.000    27608647.767   111168600.476       -1356.572          55.000  
R01  26121176.048   139632536.504       -4154.725          47.000    26121177.155   108603074.427       -3231.392          40.000  
R24  24657315.952   131853782.704       -4078.885          52.000    24657315.063   102552889.952       -3172.548          49.000  
G02  23723548.303   124668071.763       -1542.575          48.000                                                                  
G09  27831291.217   146254420.931        2712.455          37.000    27831292.306   113964511.794        2113.569          35.000  
E12  27900311.688   146617060.808         782.346          44.000    27900311.704   112342966.390         599.419          49.000  
G04  24600069.951   129274203.613        1506.031          47.000    24600068.615   100733080.532        1173.574          47.000  
E10  29379696.076   154391303.592        1557.572          43.000    29379699.373   118299826.096        1193.413          48.000  
E04  29878100.594   157010479.783        1871.380          42.000    29878105.745   120306730.761        1433.834          47.000  
E26  31173576.051   163818344.757       -3152.573          43.000    31173584.091   125523252.333       -2415.420          46.000  
G17  25807631.254   135619775.669         626.565          46.000    25807628.168   105677894.853         488.227          41.000  
> 2024 04 17 12 38 00.0120000  0 23                     
G08  27715648.905   145646718.804       -4362.381          28.000    27715655.139   113490859.755       -3399.661          32.000  
G31  26828916.746   140986926.826         306.964          47.000    26828915.603   109859915.998         239.271          44.000  
E19  26943368.647   141588300.868        -538.005          42.000    26943369.813   108489742.927        -412.234          47.000  
G28  27258614.965   143244956.066       -1368.956          37.000    27258617.889   111619419.143       -1066.430          40.000  
R18  25283735.168   134966277.879        2969.423          48.000    25283736.323   104973709.522        2309.573          47.000  
R03  24405698.970   130645502.164        1291.034          51.000    24405696.409   101613367.998        1004.273          49.000  
R17  22802834.575   122022766.990        -235.763          52.000    22802830.170    94906374.624        -183.367          49.000  
R02  23242526.006   124026577.838       -2135.532          53.000    23242524.080    96465115.392       -1660.937          48.000  
G03  24666035.588   129620843.744        -190.206          50.000    24666034.009   101003243.397        -148.057          46.000  
G21  23766976.563   124896272.309       -2528.410          49.000                                                                  
S31  42426589.593   222953279.448        -716.009          44.000  
S33  43379818.346   227962566.165        -715.762          42.000  
E33  27618780.243   145137743.774       -1780.846          47.000    27618783.038   111209410.909       -1364.482          55.000  
R01  26144492.808   139757184.518       -4155.553          45.000    26144496.133   108700022.565       -3232.329          42.000  
R24  24680245.419   131976395.943       -4095.665          52.000    24680244.132   102648255.618       -3185.562          49.000  
G02  23732408.610   124714629.183       -1561.741          49.000                                                                  
G09  27815822.987   146173138.002        2705.766          37.000    27815823.815   113901174.483        2108.700          36.000  
E12  27895864.288   146593687.218         775.273          44.000    27895863.680   112325056.699         594.056          48.000  
G04  24591516.371   129229254.147        1490.254          47.000    24591515.063   100698054.961        1161.165          47.000  
E10  29370812.240   154344617.137        1554.605          44.000    29370815.410   118264053.329        1191.050          48.000  
E04  29867437.750   156954439.051        1864.300          43.000    29867441.586   120263790.453        1428.475          47.000  
E26  31191588.385   163912996.895       -3158.196          43.000    31191596.689   125595777.638       -2419.935          47.000  
G17  25804113.834   135601288.884         605.496          46.000    25804110.431   105663489.500         471.626          41.000  
> 2024 04 17 12 38 30.0120000  0 23                     
G08  27740539.441                3      -4361.879          23.000    27740557.427                       -3399.443          29.000  
G31  26827205.020   140977932.896         292.340          47.000    26827204.644   109852907.733         227.720          44.000  
E19  26946475.885   141604629.413        -550.807          42.000    26946477.187   108502254.349        -422.031          47.000  
G28  27266482.028   143286292.412       -1387.004          40.000    27266485.200   111651629.080       -1080.884          40.000  
R18  25267075.194   134877347.149        2958.787          48.000    25267076.593   104904541.133        2301.392          48.000  
R03  24398506.748   130607009.175        1275.031          50.000    24398505.937   101583429.019         991.577          49.000  
R17  22804226.861   122030217.468        -261.210          52.000    22804221.993    94912169.393        -203.134          49.000  
R02  23254573.577   124090861.414       -2150.281          53.000    23254571.473    96515113.685       -1672.534          48.000  
G03  24667136.377   129626628.617        -195.711          49.000    24667134.733   101007751.040        -152.619          46.000  
G21  23781465.029   124972412.427       -2547.879          49.000                                                                  
S31  42430679.255   222974770.243        -716.916          44.000  
S33  43383905.677   227984046.167        -716.534          42.000  
E33  27628975.213   145191317.147       -1791.027          47.000    27628977.726   111250460.570       -1372.349          55.000  
R01  26167816.855   139881856.798       -4156.185          46.000    26167818.755   108796989.638       -3232.542          42.000  
R24  24703268.178   132099510.187       -4112.130          52.000    24703267.381   102744010.941       -3198.215          48.000  
G02  23741376.523   124761761.867       -1580.720          48.000                                                                  
G09  27800391.702   146092046.543        2699.963          38.000    27800392.837   113837986.377        2103.819          36.000  
E12  27891457.548   146570526.920         768.365          45.000    27891456.512   112307310.448         588.666          48.000  
G04  24583053.049   129184780.415        1474.500          46.000    24583051.583   100663400.082        1148.798          46.000  
E10  29361946.173   154298026.332        1551.431          44.000    29361949.187   118228353.847        1188.724          48.000  
E04  29856813.158   156898609.916        1857.357          42.000    29856817.567   120221012.312        1423.152          47.000  
E26  31209633.213   164007821.020       -3163.607          43.000    31209641.664   125668434.722       -2424.169          46.000  
G17  25800716.346   135583434.220         584.636          47.000    25800713.189   105649576.720         455.490          42.000  
> 2024 04 17 12 39 00.0120000  0 23                     
G31  26825579.115   140969388.469         277.080          47.000    26825579.044   109846249.716         215.743          44.000  
E19  26949657.755   141621347.196        -564.024          43.000    26949658.323   108515064.028        -432.202          47.000  
G28  27274456.417   143328188.916       -1406.129          39.000    27274460.024   111684275.578       -1096.008          40.000  
R18  25250477.097   134788742.568        2947.756          48.000    25250478.024   104835626.451        2292.726          48.000  
R03  24391406.860   130569003.538        1258.411          51.000    24391406.212   101553869.058         978.833          50.000  
R17  22805763.264   122038438.930        -287.165          52.000    22805758.255    94918563.825        -223.448          49.000  
R02  23266703.866   124155593.838       -2165.509          52.000    23266701.994    96565461.019       -1684.315          48.000  
G03  24668269.462   129632586.416        -201.786          49.000    24668268.100   101012393.441        -157.256          45.000  
G21  23796065.934   125049140.469       -2567.754          49.000                                                                  
S31  42434773.731   222996286.588        -718.192          44.000  
S33  43387998.176   228005550.110        -717.549          42.000  
E33  27639228.935   145245201.888       -1801.534          47.000    27639231.790   111291748.809       -1380.476          55.000  
R01  26191143.883   140006550.554       -4157.066          46.000    26191145.471   108893973.348       -3233.281          42.000  
R24  24726383.542   132223121.077       -4128.899          52.000    24726382.822   102840152.573       -3211.379          48.000  
G02  23750454.827   124809468.953       -1600.063          48.000                                                                  
G09  27784995.877   146011147.128        2692.982          36.000    27784998.937   113774947.963        2098.317          38.000  
E12  27887091.372   146547580.218         760.980          45.000    27887089.975   112289727.868         583.150          48.000  
G04  24574679.541   129140782.482        1458.423          45.000    24574678.558   100629115.981        1136.340          47.000  
E10  29353098.586   154251531.348        1547.929          44.000    29353101.333   118192727.784        1186.107          48.000  
E04  29846230.418   156842992.264        1850.053          43.000    29846233.744   120178396.197        1417.607          47.000  
E26  31227708.481   164102815.383       -3169.468          42.000    31227719.080   125741222.249       -2428.667          47.000  
G17  25797438.469   135566211.220         563.367          46.000    25797436.044   105636156.150         438.862          43.000  
G08                                                                  27765462.095                       -3400.480          25.000  
> 2024 04 17 12 39 30.0120000  0 23                     
G31  26824040.523   140961304.098         261.785          47.000    26824040.650   109839950.200         204.172          44.000  
E19  26952914.701   141638462.290        -577.264          43.000    26952914.857   108528178.148        -442.176          47.000  
G28  27282536.871   143370654.192       -1425.116          37.000    27282539.186   111717365.287       -1110.559          34.000  
R18  25233942.778   134700476.939        2936.405          49.000    25233942.973   104766975.397        2283.777          48.000  
R03  24384400.393   130531494.472        1241.968          51.000    24384398.937   101524695.347         965.985          50.000  
R17  22807445.784   122047442.314        -313.188          52.000    22807441.139    94925566.390        -243.584          50.000  
R02  23278918.885   124220781.152       -2180.500          52.000    23278918.570    96616162.181       -1695.954          48.000  
G03  24669437.777   129638725.632        -207.805          49.000    24669437.151   101017177.175        -161.912          46.000  
G21  23810779.956   125126464.554       -2587.440          49.000                                                                  
S31  42438874.352   223017834.732        -719.121          45.000  
S33  43392096.502   228027087.340        -718.400          42.000  
E33  27649543.712   145299407.112       -1812.284          47.000    27649546.680   111333282.598       -1388.613          54.000  
R01  26214476.001   140131271.905       -4157.906          45.000    26214477.793   108990978.604       -3234.059          41.000  
R24  24749593.323   132347234.794       -4145.505          51.000    24749593.180   102936685.314       -3224.275          48.000  
G02  23759644.526   124857759.414       -1619.508          48.000                                                                  
G09  27769640.372   145930450.383        2686.365          38.000    27769643.575   113712067.455        2093.113          38.000  
E12  27882767.907   146524857.346         753.629          46.000    27882765.892   112272316.785         577.427          48.000  
G04  24566399.494   129097270.433        1442.249          46.000    24566397.818   100595210.504        1123.749          46.000  
E10  29344271.252   154205142.403        1544.425          43.000    29344273.882   118157182.970        1183.376          48.000  
E04  29835689.182   156787595.870        1842.830          42.000    29835692.446   120135949.605        1411.949          47.000  
E26  31245819.858   164197988.186       -3175.468          42.000    31245829.931   125814146.489       -2433.185          46.000  
G17  25794283.281   135549630.169         542.077          46.000    25794280.940   105623235.792         422.299          43.000  
G08                                                                  27790366.607                3      -3398.237          17.000  
> 2024 04 17 12 40 00.0120000  0 24                     
G31  26822590.297   140953680.560         246.536          48.000    26822588.973   109834009.777         192.136          43.000  
E19  26956247.207   141655973.073        -590.055          43.000    26956247.187   108541595.471        -452.187          47.000  
G19  28091782.060                3       1682.819          27.000                                                                  
G28  27290724.249   143413687.039       -1443.945          36.000    27290726.920   111750897.257       -1124.933          36.000  
R18  25217471.683   134612553.472        2925.135          49.000    25217472.470   104698590.496        2275.105          48.000  
R03  24377486.796   130494480.495        1225.641          52.000    24377484.178   101495906.677         953.284          50.000  
R17  22809273.984   122057227.930        -339.110          52.000    22809269.661    94933177.380        -263.679          49.000  
R02  23291218.981   124286419.604       -2195.307          51.000    23291219.651    96667214.235       -1707.412          48.000  
G03  24670640.650   129645044.837        -213.456          49.000    24670640.132   101022101.200        -166.411          47.000  
G21  23825607.966   125204382.541       -2607.010          49.000                                                                  
S31  42442981.288   223039415.770        -719.809          44.000  
S33  43396201.233   228048656.778        -719.343          42.000  
E33  27659919.077   145353932.026       -1822.606          46.000    27659922.480   111375061.335       -1396.620          54.000  
R01  26237812.902   140256017.723       -4158.463          45.000    26237814.366   109088002.890       -3234.344          42.000  
R24  24772896.816   132471847.509       -4161.876          52.000    24772896.765   103033606.154       -3237.038          48.000  
G02  23768945.776   124906632.110       -1638.631          48.000                                                                  
G09  27754324.315   145849956.931        2679.802          38.000    27754326.795   113649345.338        2088.236          38.000  
E12  27878486.833   146502358.747         746.330          46.000    27878484.647   112255077.552         571.876          48.000  
G04  24558212.654   129054244.486        1426.196          46.000    24558209.938   100561683.762        1111.298          46.000  
E10  29335464.374   154158859.719        1541.001          44.000    29335466.721   118121719.588        1180.869          48.000  
E04  29825189.589   156732420.613        1835.398          42.000    29825193.145   120093672.490        1406.387          48.000  
E26  31263964.673   164293337.660       -3181.148          42.000    31263973.777   125887206.134       -2437.579          45.000  
G17  25791249.212   135533690.571         520.737          46.000    25791248.023   105610815.302         405.908          44.000  
G08                                                                  27815289.083                3      -3403.748          19.000  
> 2024 04 17 12 40 30.0120000  0 24                     
G31  26821224.890   140946504.745         231.393          48.000    26821224.010   109828418.206         180.376          44.000  
E19  26959651.809   141673863.875        -602.916          44.000    26959651.935   108555303.957        -461.948          47.000  
G19  28082178.627                        1670.376          27.000                                                                  
G28  27299016.079                       -1462.048          30.000    27299019.661   111784859.605       -1139.716          35.000  
R18  25201061.924   134524961.007        2913.996          49.000    25201063.526   104630463.028        2266.415          48.000  
R03  24370662.329   130457946.750        1209.601          52.000    24370659.279   101467491.534         940.814          49.000  
R17  22811245.572   122067782.421        -364.833          51.000    22811242.308    94941386.380        -283.723          50.000  
R02  23303602.491   124352490.706       -2209.774          53.000    23303600.899    96718602.794       -1718.804          48.000  
G03  24671873.966   129651528.783        -219.113          49.000    24671874.310   101027153.580        -170.683          47.000  
G21  23840544.939   125282878.785       -2626.281          50.000                                                                  
S31  42447090.916   223061014.524        -720.351          44.000  
S33  43400308.953   228070243.306        -719.936          42.000  
E33  27670353.193   145408762.003       -1833.049          46.000    27670356.195   111417073.808       -1404.537          54.000  
R01  26261149.812   140380771.171       -4159.038          44.000    26261152.276   109185033.039       -3234.395          41.000  
R24  24796289.243   132596941.237       -4177.960          51.000    24796290.102   103130901.084       -3249.594          48.000  
G02  23778353.459   124956072.257       -1657.766          49.000                                                                  
G09  27739042.523   145769653.538        2673.353          36.000    27739044.853   113586771.319        2083.388          35.000  
E12  27874245.425   146480070.923         739.225          46.000    27874243.257   112237999.828         566.355          48.000  
G04  24550115.331   129011690.854        1410.297          46.000    24550112.661   100528525.056        1099.005          45.000  
E10  29326674.368   154112669.766        1537.812          43.000    29326677.428   118086327.262        1178.408          48.000  
E04  29814728.297   156677452.509        1828.695          40.000    29814733.208   120051554.086        1401.146          48.000  
E26  31282138.803   164388848.267       -3186.549          41.000    31282149.267   125960389.246       -2441.696          45.000  
G17  25788335.682   135518379.515         499.605          47.000    25788335.021   105598884.560         389.342          44.000  
G08                                                                  27840213.222                3      -3400.537          21.000  
> 2024 04 17 12 41 00.0120000  0 23                     
G31  26819946.098   140939785.970         215.721          47.000    26819946.307   109823182.779         168.222          44.000  
E19  26963129.975   141692141.849        -616.156          43.000    26963130.210   108569309.119        -472.167          47.000  
G28  27307421.574   143501417.035       -1481.201          32.000    27307420.363   111819257.998       -1154.144          35.000  
R18  25184717.111   134437711.376        2902.005          48.000    25184718.307   104562602.192        2257.262          47.000  
R03  24363928.130   130421901.056        1192.889          52.000    24363926.212   101439455.985         927.795          49.000  
R17  22813363.669   122079114.913        -391.285          51.000    22813359.637    94950200.493        -304.208          49.000  
R02  23316066.416   124418999.271       -2224.754          53.000    23316065.398    96770331.587       -1730.374          49.000  
G03  24673140.468   129658184.841        -225.230          48.000    24673140.808   101032340.055        -175.472          47.000  
G21  23855594.491   125361959.972       -2646.201          50.000                                                                  
S31  42451205.691   223082636.972        -721.479          44.000  
S33  43404421.647   228091854.999        -721.235          42.000  
E33  27680847.004   145463904.910       -1843.780          46.000    27680849.775   111459326.086       -1412.779          54.000  
R01  26284489.826   140505537.172       -4159.428          42.000    26284492.555   109282073.008       -3235.212          41.000  
R24  24819774.590   132722520.893       -4194.637          52.000    24819774.094   103228573.985       -3262.515          49.000  
G02  23787871.353   125006087.172       -1677.239          48.000                                                                  
G09  27723798.717   145689549.642        2666.265          36.000    27723800.357   113524352.695        2077.643          34.000  
E12  27870045.954   146458002.924         731.550          46.000    27870044.023   112221090.538         560.490          48.000  
G04  24542109.711   128969618.377        1393.891          46.000    24542106.578   100495741.293        1086.249          45.000  
E10  29317903.638   154066581.571        1534.184          44.000    29317907.027   118051012.911        1175.494          48.000  
E04  29804308.999   156622700.136        1821.225          38.000    29804314.227   120009601.035        1395.400          48.000  
E26  31300345.173   164484526.994       -3192.720          40.000    31300356.991   126033701.144       -2446.201          46.000  
G17  25785544.639   135503705.282         478.027          48.000    25785542.513   105587450.020         372.545          44.000  
G08                                                                  27865129.857                3      -3401.833          13.000  
> 2024 04 17 12 41 30.0120000  0 22                     
G31  26818756.818   140933532.690         200.592          47.000    26818756.040   109818310.074         156.422          43.000  
E19  26966682.738   141710812.955        -628.906          43.000    26966683.313   108583615.511        -481.905          47.000  
R18  25168438.359   134350815.380        2890.646          48.000    25168440.004   104495016.427        2248.315          47.000  
R03  24357287.441   130386349.518        1176.727          51.000    24357284.437   101411804.791         915.247          49.000  
R17  22815628.607   122091233.826        -417.133          51.000    22815624.734    94959626.272        -324.568          49.000  
R02  23328612.393   124485949.339       -2238.988          53.000    23328611.328    96822403.781       -1741.514          49.000  
G03  24674441.173   129665019.159        -230.811          48.000    24674441.497   101037665.437        -179.750          47.000  
G21  23870755.535   125441631.509       -2665.663          50.000                                                                  
S31  42455326.488   223104290.843        -722.402          44.000  
S33  43408540.503   228113497.879        -721.661          42.000  
E33  27691401.587   145519367.578       -1854.214          46.000    27691403.950   111501823.364       -1420.714          54.000  
R01  26307832.716   140630320.781       -4159.731          41.000    26307836.457   109379126.639       -3235.146          40.000  
R24  24843350.298   132848590.003       -4210.495          51.000    24843349.577   103326627.589       -3274.840          48.000  
G02  23797499.165   125056683.963       -1696.288          48.000                                                                  
G09  27708593.752   145609653.477        2659.840          36.000    27708596.815   113462095.935        2072.836          36.000  
E12  27865890.054   146436162.814         724.202          46.000    27865887.936   112204355.864         554.881          48.000  
G04  24534196.376   128928034.737        1377.978          47.000    24534193.686   100463338.485        1073.639          46.000  
E10  29309154.995   154020603.008        1530.707          44.000    29309157.666   118015782.550        1172.916          49.000  
E04  29793934.062   156568171.078        1813.911          38.000    29793937.514   119967819.086        1389.859          48.000  
E26  31318587.556   164580379.763       -3198.055          41.000    31318597.557   126107146.402       -2450.516          46.000  
G17  25782874.869   135489675.640         456.821          47.000    25782872.786   105576517.767         356.025          44.000  
G28                                                                  27315927.301   111854097.490       -1168.347          33.000  
> 2024 04 17 12 42 00.0120000  0 23                     
G31  26817655.016   140927745.012         185.211          47.000    26817653.617   109813800.176         144.274          43.000  
E19  26970310.031   141729875.177        -641.873          43.000    26970310.663   108598221.598        -491.787          47.000  
G19  28053947.478                3       1630.258          26.000                                                                  
G28  27324556.621                1      -1518.329          30.000    27324543.895   111889376.725       -1183.502          36.000  
R18  25152226.044   134264275.810        2878.808          48.000    25152228.559   104427707.880        2239.088          47.000  
R03  24350737.124   130351291.257        1160.486          51.000    24350734.329   101384537.267         902.515          50.000  
R17  22818040.032   122104139.309        -443.234          51.000    22818036.180    94969663.824        -344.666          49.000  
R02  23341241.022   124553336.331       -2253.378          53.000    23341239.131    96874815.802       -1752.609          48.000  
G03  24675775.369   129672030.156        -236.521          49.000    24675775.413   101043128.493        -184.372          46.000  
G21  23886028.679   125521891.090       -2684.979          50.000                                                                  
S31  42459453.079   223125975.269        -723.239          44.000  
S33  43412664.350   228135170.079        -722.900          42.000  
E33  27702015.985   145575148.999       -1864.588          46.000    27702018.636   111544564.885       -1428.726          54.000  
R01  26331180.705   140755118.416       -4160.044          44.000    26331182.405   109476191.211       -3235.579          40.000  
R24  24867016.664   132975144.368       -4226.473          52.000    24867016.269   103425058.583       -3287.200          48.000  
G02  23807238.320   125107860.890       -1715.422          48.000                                                                  
G09  27693428.243   145529965.455        2652.719          36.000    27693433.442   113400001.399        2066.976          35.000  
E12  27861777.053   146414550.726         716.653          45.000    27861775.218   112187795.902         549.105          48.000  
G04  24526376.479   128886939.895        1361.713          46.000    24526373.375   100431316.535        1061.151          45.000  
E10  29300426.095   153974734.210        1527.149          44.000    29300429.437   117980636.296        1170.271          49.000  
E04  29783600.817   156513864.969        1806.517          38.000    29783603.165   119926207.934        1384.228          47.000  
E26  31336861.182   164676404.594       -3203.662          42.000    31336870.877   126180723.498       -2454.587          46.000  
G17  25780327.147   135476290.225         435.496          47.000    25780324.825   105566087.545         339.180          44.000  
> 2024 04 17 12 42 30.0120000  0 22                     
G31  26816643.285   140922425.948         169.112          47.000    26816640.856   109809655.397         131.745          42.000  
E19  26974012.070   141749328.992        -655.247          43.000    26974012.496   108613127.752        -502.100          47.000  
R18  25136081.721   134178098.223        2866.084          48.000    25136084.828   104360680.847        2229.268          48.000  
R03  24344280.452   130316727.650        1143.591          52.000    24344277.811   101357654.445         889.465          49.000  
R17  22820598.604   122117834.165        -470.023          50.000    22820595.603    94980315.324        -365.466          50.000  
R02  23353951.177   124621158.876       -2268.311          52.000    23353949.536    96927566.618       -1764.243          48.000  
G03  24677143.757   129679218.889        -242.987          50.000    24677143.349   101048730.039        -189.271          47.000  
G21  23901413.476   125602739.095       -2705.071          50.000                                                                  
S31  42463585.200   223147690.728        -724.764          44.000  
S33  43416794.801   228156874.421        -724.208          43.000  
E33  27712692.117   145631250.736       -1875.627          46.000    27712694.641   111587551.858       -1437.199          54.000  
R01  26354529.917   140879929.371       -4161.134          42.000    26354531.704   109573266.114       -3236.249          42.000  
R24  24890774.113   133102182.501       -4242.991          52.000    24890772.865   103523865.830       -3300.054          48.000  
G02  23817087.906   125159619.210       -1735.313          48.000                                                                  
G09  27678304.769   145450488.617        2645.044          37.000    27678309.728   113338071.460        2061.104          34.000  
E12  27857707.690   146393169.469         708.719          44.000    27857706.592   112171412.827         542.954          48.000  
G04  24518649.228   128846336.296        1344.928          47.000    24518646.862   100399677.408        1048.004          45.000  
E10  29291719.732   153928977.879        1523.039          44.000    29291722.475   117945576.234        1166.996          49.000  
E04  29773308.402   156459784.051        1798.733          38.000    29773311.818   119884769.327        1378.221          47.000  
E26  31355167.412   164772602.241       -3209.753          43.000    31355177.181   126254433.013       -2459.427          46.000  
G17  25777902.856   135463551.416         413.604          46.000    25777900.681   105556161.128         322.235          44.000  
G28                                                                  27333267.280   111925096.389       -1198.212          34.000  
> 2024 04 17 12 43 00.0120000  0 23                     
G31  26815721.348   140917581.515         153.405          46.000    26815720.060   109805880.464         119.443          43.000  
E19  26977789.382   141769178.238        -668.447          43.000    26977789.787   108628336.875        -512.158          47.000  
R18  25120007.390   134092290.908        2853.700          49.000    25120010.392   104293941.793        2219.613          48.000  
R03  24337917.861   130282662.678        1127.008          52.000    24337914.121   101331159.455         876.581          50.000  
R17  22823307.096   122132324.276        -496.555          51.000    22823304.456    94991585.353        -386.151          51.000  
R02  23366742.364   124689418.126       -2282.716          52.000    23366742.025    96980657.039       -1775.551          49.000  
G03  24678546.024   129686589.319        -248.869          50.000    24678546.125   101054473.170        -193.874          47.000  
G21  23916911.438   125684178.905       -2724.672          51.000                                                                  
S31  42467724.380   223169441.600        -725.731          44.000  
S33  43420931.744   228178613.520        -725.471          43.000  
E33  27723430.185   145687677.332       -1886.482          46.000    27723432.623   111630787.717       -1445.458          54.000  
R01  26377882.858   141004755.746       -4161.440          43.000    26377883.177   109670352.986       -3236.508          42.000  
R24  24914621.206   133229705.784       -4259.107          51.000    24914621.335   103623050.405       -3312.517          49.000  
G02  23827048.068   125211963.471       -1754.781          48.000                                                                  
G09  27663223.776   145371228.959        2638.124          40.000    27663225.977   113276310.700        2055.921          34.000  
E12  27853684.099   146372024.818         700.590          44.000    27853682.815   112155211.030         536.877          48.000  
G04  24511017.227   128806229.400        1328.394          46.000    24511014.297   100368425.261        1035.046          45.000  
E10  29283034.833   153883339.698        1519.047          45.000    29283037.821   117910606.703        1163.919          49.000  
E04  29763060.949   156405933.579        1790.765          37.000    29763064.595   119843507.285        1372.373          47.000  
E26  31373507.247   164868976.217       -3215.404          43.000    31373516.767   126328277.652       -2463.828          46.000  
G17  25775603.119   135451464.560         391.818          46.000    25775601.407   105546742.762         305.238          45.000  
R11                                                                  28159750.182                3        552.648          14.000  
G28                                                                  27342099.922   111961259.736       -1213.257          37.000  
> 2024 04 17 12 43 30.0120000  0 23                     
G31  26814888.113   140913211.001         137.498          45.000    26814889.589   109802474.878         107.288          44.000  
E19  26981641.273   141789419.868        -681.663          43.000    26981641.415   108643846.659        -522.206          46.000  
R18  25104002.805   134006855.517        2841.375          49.000    25104005.514   104227492.068        2209.923          48.000  
R03  24331647.472   130249093.964        1110.492          52.000    24331642.548   101305050.447         863.770          49.000  
R17  22826162.500   122147608.429        -522.890          50.000    22826160.363    95003472.984        -406.667          50.000  
R11  28155829.634                3        697.376          10.000                                                                  
R02  23379614.691   124758108.691       -2297.081          52.000    23379614.722    97034082.994       -1786.592          49.000  
G03  24679982.521   129694138.700        -254.802          49.000    24679982.617   101060355.754        -198.477          46.000  
G21  23932520.743   125766206.692       -2744.277          50.000                                                                  
S31  42471869.364   223191225.568        -727.064          44.000  
S33  43425074.702   228200385.477        -726.406          43.000  
E33  27734229.935   145744426.536       -1897.189          46.000    27734231.614   111674270.790       -1453.620          54.000  
R01  26401235.329   141129593.079       -4161.771          42.000    26401237.022   109767448.381       -3236.663          43.000  
R24  24938558.031   133357708.608       -4275.012          51.000    24938558.273   103722607.960       -3325.043          48.000  
G02  23837119.938   125264891.194       -1774.247          47.000                                                                  
G09  27648183.707   145292185.763        2630.870          41.000    27648184.345   113214718.604        2049.629          32.000  
E12  27849705.467   146351115.699         692.882          44.000    27849704.105   112139189.724         530.977          48.000  
G04  24503478.922   128766617.813        1311.920          47.000    24503477.221   100337559.088        1022.406          46.000  
E10  29274373.155   153837818.599        1515.037          45.000    29274375.130   117875726.872        1161.052          49.000  
E04  29752854.852   156352311.944        1783.384          36.000    29752860.813   119802420.638        1366.440          47.000  
E26  31391878.974   164965523.466       -3221.103          41.000    31391889.636   126402255.056       -2468.169          46.000  
G17  25773426.713   135440028.036         370.044          47.000    25773424.824   105537831.118         288.402          44.000  
G28                                                                  27351039.347   111997864.343       -1227.722          37.000  
> 2024 04 17 12 44 00.0120000  0 23                     
G31  26814148.125   140909316.794         121.413          46.000    26814149.003   109799440.409          94.438          43.000  
E19  26985567.693   141810053.913        -694.723          43.000    26985567.617   108659657.134        -532.302          46.000  
G19  28017334.083                3       1575.033          25.000                                                                  
R18  25088068.673   133921797.166        2828.413          49.000    25088070.458   104161335.567        2199.929          48.000  
R03  24325469.349   130216022.204        1093.738          53.000    24325465.107   101279327.958         850.684          48.000  
R17  22829168.221   122163689.027        -549.766          51.000    22829165.034    95015980.077        -427.531          50.000  
R02  23392569.371   124827228.882       -2311.517          53.000    23392567.531    97087843.093       -1797.900          48.000  
G03  24681453.684   129701867.713        -260.898          49.000    24681453.032   101066378.299        -203.283          46.000  
G21  23948241.926   125848822.466       -2764.067          50.000                                                                  
S31  42476021.330   223213043.476        -728.007          44.000  
S33  43429224.329   228222192.030        -727.991          42.000  
E33  27745090.001   145801499.493       -1908.307          46.000    27745092.126   111718001.952       -1462.082          54.000  
R01  26424590.796   141254440.343       -4162.058          41.000    26424592.700   109864551.518       -3237.208          42.000  
R24  24962585.716   133486188.988       -4291.134          51.000    24962584.769   103822536.963       -3337.505          48.000  
G02  23847303.205   125318403.037       -1793.921          48.000                                                                  
G09  27633183.820   145213361.609        2623.396          41.000    27633184.185   113153297.193        2044.740          32.000  
E12  27845771.942   146330444.601         684.519          44.000    27845770.736   112123350.789         524.607          48.000  
G04  24496036.579   128727503.591        1295.013          47.000    24496034.755   100307080.484        1009.265          47.000  
E10  29265733.426   153792416.909        1510.968          45.000    29265735.401   117840938.562        1157.761          49.000  
E04  29742695.431   156298921.073        1775.397          37.000    29742700.731   119761510.762        1360.518          47.000  
E26  31410283.915   165062244.225       -3227.150          40.000    31410295.283   126476365.374       -2472.845          46.000  
G17  25771374.897   135429243.636         348.210          48.000    25771372.206   105529427.653         271.333          43.000  
G28                                                                  27360088.455   112034910.765       -1242.328          38.000  
> 2024 04 17 12 44 30.0120000  0 23                     
G31  26813497.193   140905898.082         105.928          45.000    26813496.610   109796776.434          82.237          42.000  
E19  26989568.488   141831077.280        -707.424          43.000    26989568.238   108675765.910        -541.993          46.000  
G19  28008357.642                2       1562.313          28.000                                                                  
G28  27369221.618                3      -1613.474          24.000    27369242.490   112072396.710       -1256.909          36.000  
R18  25072205.328   133837117.601        2816.221          49.000    25072207.110   104095473.707        2190.400          47.000  
R03  24319383.579   130183444.881        1077.637          52.000    24319379.090   101253990.019         838.013          48.000  
R17  22832321.377   122180564.746        -575.922          51.000    22832319.275    95029105.603        -447.917          50.000  
R02  23405601.191   124896772.847       -2325.248          52.000    23405599.533    97141932.758       -1808.581          48.000  
G03  24682958.051   129709773.552        -266.605          49.000    24682957.463   101072538.656        -207.592          46.000  
G21  23964073.985   125932022.613       -2783.084          49.000                                                                  
S31  42480179.335   223234892.723        -728.611          44.000  
S33  43433380.049   228244028.924        -728.338          43.000  
E33  27756012.026   145858893.958       -1918.520          47.000    27756014.260   111761979.440       -1470.066          54.000  
R01  26447945.094   141379292.886       -4162.209          33.000    26447948.994   109961658.841       -3236.981          43.000  
R24  24986699.931   133615141.643       -4306.260          51.000    24986700.080   103922833.287       -3349.390          48.000  
G02  23857596.586   125372496.254       -1813.006          47.000                                                                  
G09  27618225.249   145134755.683        2616.648          42.000    27618225.648   113092045.869        2040.031          32.000  
E12  27841883.493   146310010.475         677.133          44.000    27841882.378   112107693.448         518.795          49.000  
G04  24488687.202   128688885.283        1278.809          47.000    24488685.568   100276988.313         996.509          47.000  
E10  29257116.342   153747133.572        1507.391          46.000    29257118.139   117806240.931        1154.984          49.000  
E04  29732579.188   156245759.376        1768.460          39.000    29732584.345   119720776.519        1354.844          47.000  
E26  31428722.142   165159135.277       -3232.584          39.000    31428732.694   126550606.219       -2476.874          45.000  
G17  25769446.360   135419110.074         326.914          48.000    25769443.823   105521531.328         254.770          43.000  
