     3.00           OBSERVATION DATA    M: Mixed            RINEX VERSION / TYPE
CONVBIN 2.4.3                           20240417 121441 UTC PGM / RUN BY / DATE 
format: u-blox UBX                                          COMMENT             
log: /home/regis/git/gnsspwv/obsdata/VERT00CHL/2024-04-17/VECOMMENT             
{self.marker}                                               MARKER NAME         
                                                            MARKER NUMBER       
GEODETIC                                                    MARKER TYPE         
{self.observer}     {self.institution}                      OBSERVER / AGENCY   
UNKNOWN             UBLOX-ZED-F9P                           REC # / TYPE / VERS 
UNKNOWN             TWIVSP6037L                             ANT # / TYPE        
  1713381.0000 -5047934.0000 -3490983.0000                  APPROX POSITION XYZ 
        0.0000        0.0000        0.0000                  ANTENNA: DELTA H/E/N
G    8 C1C L1C D1C S1C C2L L2L D2L S2L                      SYS / # / OBS TYPES 
R    8 C1C L1C D1C S1C C2C L2C D2C S2C                      SYS / # / OBS TYPES 
E    8 C1C L1C D1C S1C C7Q L7Q D7Q S7Q                      SYS / # / OBS TYPES 
S    4 C1C L1C D1C S1C                                      SYS / # / OBS TYPES 
  2024    04    17    12    00   00.0110000     GPS         TIME OF FIRST OBS   
  2024    04    17    12    14   30.0120000     GPS         TIME OF LAST OBS    
                                                            END OF HEADER       
> 2024 04 17 12 00 00.0110000  0 24                     
G08  25866251.715   135928048.2821      -4070.112          46.000    25866250.980   105917965.4071      -3171.422          44.000  
G31  27176594.713   142813984.6961       1215.210          44.000    27176593.085   111283597.4831        946.735          43.000  
E19  26926481.140   141499562.0461        458.464          44.000    26926480.956   108421750.6851        351.182          48.000  
G28  26965988.708   141707205.6581        -10.084          42.000    26965988.461   110421177.2851         -7.968          42.000  
R18  26670544.658   142369162.1901       3400.987          35.000    26670544.398                        2646.466          32.000  
R03  25209364.652   134947581.5971       2449.385          46.000    25209361.790   104959430.9301       1905.013          44.000  
R17  23082630.466   123520029.3431       1450.934          52.000    23082625.857    96070915.2121       1128.555          50.000  
R02  22609764.675   120650052.6831       -752.077          52.000    22609761.857    93838932.9021       -584.968          49.000  
G03  24682127.256   129705422.3361        274.436          49.000    24682125.318   101069152.1061        213.870          45.000  
G21  22996553.279   120847693.8101      -1030.941          49.000                                                                  
S31  42126930.356   221378585.5281       -670.838          45.000  
S33  43080315.925   226388707.7551       -670.167          43.000  
E33  27007970.299   141927933.3141      -1060.147          49.000    27007970.141   108749951.4431       -812.273          52.000  
R01  24416290.802   130519007.8411      -3864.569          45.000    24416290.755   101514788.6871      -3005.831          44.000  
R24  23234312.183   124244380.1061      -2629.578          53.000    23234308.146    96634474.7571      -2045.017          47.000  
G02  23360449.067   122759988.3551       -187.450          50.000                                                                  
G32  27783601.611   146003748.1721      -4227.350          44.000    27783605.484   113769160.9741      -3293.939          39.000  
E12  28326406.481   148856214.9611       1159.289          43.000    28326405.781   114058685.0001        888.347          50.000  
G04  25474313.508   133868389.3331       2514.250          45.000    25474311.984   104312966.0121       1959.209          47.000  
E10  30077157.013   158056494.0141       1659.479          35.000    30077158.372   121108222.6561       1271.415          43.000  
E04  30774026.020   161718597.7111       2270.303          40.000    30774028.783   123914251.0381       1739.844          42.000  
E26  29919377.112   157227568.4801      -2700.705          42.000    29919381.238   120473198.1001      -2069.379          48.000  
E14  29980123.863   157546588.5621       -605.181          43.000    29980126.798   120717520.8481       -463.631          47.000  
G17                                                                  26387451.066                        1566.362          30.000  
> 2024 04 17 12 00 30.0110000  0 24                     
G08  25889510.941   136050276.489       -4078.431          46.000    25889510.131   106013207.982       -3177.892          43.000  
G31  27169684.260   142777672.894        1205.530          46.000    27169684.170   111255302.615         939.594          44.000  
E19  26923904.829   141486019.614         444.470          44.000    26923904.080   108411373.972         340.530          48.000  
G28  26966096.096   141707768.687         -27.505          41.000    26966095.578   110421615.965         -21.530          42.000  
R18  26651434.037   142267157.000        3398.768          34.000    26651435.727   110652173.871        2643.766          31.000  
R03  25195678.757   134874320.048        2434.730          47.000    25195675.422   104902449.723        1893.746          43.000  
R17  23074550.053   123476787.328        1431.903          53.000    23074545.594    96037282.476        1113.665          50.000  
R02  22614053.546   120672941.207        -773.802          52.000    22614050.445    93856735.051        -601.943          48.000  
G03  24680581.884   129697300.806         266.823          49.000    24680580.310   101062823.587         207.927          45.000  
G21  23002495.255   120878919.159       -1050.874          49.000                                                                  
S31  42130763.035   221398727.425        -672.070          44.000  
S33  43084146.451   226408838.182        -671.633          43.000  
E33  27014049.636   141959878.450       -1069.511          49.000    27014049.100   108774428.804        -819.499          52.000  
R01  24438003.462   130635071.177       -3872.925          48.000    24438002.258   101605060.043       -3012.208          43.000  
R24  23249126.605   124323596.896       -2651.673          53.000    23249121.876    96696087.737       -2062.321          47.000  
G02  23361569.003   122765874.326        -204.930          49.000                                                                  
G32  27807752.647   146130659.267       -4233.271          44.000    27807756.366   113868052.446       -3298.756          40.000  
E12  28319799.961   148821496.925        1155.138          43.000    28319799.426   114032082.831         885.090          50.000  
G04  25459994.141   133793137.024        2502.477          46.000    25459991.810   104254327.840        1950.065          47.000  
E10  30067688.432   158006730.481        1658.516          36.000    30067688.833   121070092.077        1270.630          44.000  
E04  30761077.459   161650552.468        2265.962          40.000    30761080.113   123862112.473        1736.126          42.000  
E26  29934814.141   157308695.019       -2707.717          42.000    29934819.290   120535359.796       -2074.747          48.000  
E14  29983581.234   157564758.547        -606.192          43.000    29983584.646   120731443.029        -464.514          47.000  
G17                                                                  26376017.439   108005383.710        1554.226          32.000  
> 2024 04 17 12 01 00.0110000  0 24                     
G08  25912815.187   136172745.365       -4086.020          45.000    25912815.479   106108638.126       -3183.845          43.000  
G31  27162827.510   142741639.751        1196.765          46.000    27162826.533   111227224.860         932.465          43.000  
E19  26921404.152   141472880.303         431.573          44.000    26921403.566   108401306.137         330.582          48.000  
G28  26966300.026   141708840.690         -44.056          40.000    26966298.106   110422451.214         -34.136          40.000  
R18  26632330.328   142165204.293        3397.940          33.000    26632340.531   110572877.219        2643.032          35.000  
R03  25182072.254   134801486.611        2420.915          45.000    25182068.191   104845801.436        1882.995          42.000  
R17  23066574.463   123434106.038        1413.615          53.000    23066569.477    96004085.876        1099.519          50.000  
R02  22618462.977   120696471.802        -794.771          52.000    22618460.962    93875036.572        -618.108          49.000  
G03  24679077.234   129689393.197         260.189          49.000    24679076.299   101056661.737         202.817          46.000  
G21  23008549.470   120910733.550       -1070.033          49.000                                                                  
S31  42134601.460   221418897.282        -672.576          44.000  
S33  43087982.791   226428998.836        -672.197          42.000  
E33  27020179.411   141992093.440       -1078.145          49.000    27020179.354   108799112.941        -826.132          52.000  
R01  24459759.042   130751369.449       -3880.150          47.000    24459757.837   101695514.163       -3017.930          43.000  
R24  23264062.124   124403464.630       -2672.815          53.000    23264058.364    96758206.995       -2078.770          47.000  
G02  23362786.730   122772272.402        -221.546          50.000                                                                  
G32  27831936.305   146257743.490       -4238.683          44.000    27831939.813   113967078.806       -3302.933          40.000  
E12  28313214.868   148786891.864        1152.049          43.000    28313214.222   114005567.233         882.567          50.000  
G04  25445738.798   133718226.065        2491.518          45.000    25445736.700   104195955.641        1941.443          48.000  
E10  30058221.124   157956979.548        1658.245          36.000    30058221.648   121031971.144        1270.719          44.000  
E04  30748152.053   161582631.879        2262.092          41.000    30748155.276   123810069.394        1733.294          42.000  
E26  29950290.846   157390023.108       -2714.150          42.000    29950294.932   120597675.893       -2079.640          47.000  
E14  29987042.262   157582945.130        -606.164          42.000    29987045.486   120745377.922        -464.516          47.000  
G17                                                                  26364674.436   107958937.144        1542.459          34.000  
> 2024 04 17 12 01 30.0110000  0 24                     
G08  25936163.772   136295444.748       -4093.456          44.000    25936164.739   106204247.847       -3189.713          43.000  
G31  27156024.045   142705880.945        1187.366          48.000    27156022.161   111199360.829         925.208          44.000  
E19  26918979.270   141460137.418         418.294          44.000    26918979.081   108391542.051         320.557          48.000  
G28  26966600.409   141710416.239         -60.919          39.000    26966597.083   110423678.818         -47.407          40.000  
R18  26613234.053   142063300.049        3395.955          31.000    26613249.208   110493618.180        2641.319          35.000  
R03  25168543.560   134729075.574        2406.837          46.000    25168540.099   104789481.745        1872.051          42.000  
R17  23058702.589   123391981.903        1394.985          53.000    23058697.771    95971322.633        1084.976          51.000  
R02  22622991.330   120720635.320        -815.944          52.000    22622989.041    93893830.381        -634.548          48.000  
G03  24677611.760   129681691.834         253.413          49.000    24677611.121   101050660.612         197.406          45.000  
G21  23014714.358   120943130.883       -1089.480          48.000                                                                  
S31  42138443.731   221439089.393        -673.391          44.000  
S33  43091823.408   226449179.938        -672.972          43.000  
E33  27026359.950   142024572.099       -1086.854          49.000    27026360.065   108823999.099        -832.875          52.000  
R01  24481557.256   130867892.740       -3887.633          46.000    24481555.961   101786143.255       -3023.795          42.000  
R24  23279117.807   124483975.131       -2694.241          53.000    23279114.256    96820826.179       -2095.536          47.000  
G02  23364101.090   122779176.963        -238.461          50.000                                                                  
G32  27856151.465   146384991.099       -4244.146          44.000    27856154.532   114066232.485       -3307.413          40.000  
E12  28306650.529   148752393.942        1148.147          43.000    28306649.641   113979133.699         879.834          50.000  
G04  25431548.414   133643651.655        2480.263          46.000    25431546.218   104137845.706        1932.702          48.000  
E10  30048754.026   157907235.041        1658.399          36.000    30048755.813   120993855.151        1270.548          44.000  
E04  30735249.526   161514830.178        2258.146          41.000    30735252.916   123758117.414        1730.323          41.000  
E26  29965804.339   157471545.527       -2720.663          43.000    29965808.072   120660140.914       -2084.584          46.000  
E14  29990504.551   157601141.284        -606.753          42.000    29990508.309   120759320.152        -464.870          46.000  
G17                                                                  26353428.502   107912861.807        1529.204          35.000  
> 2024 04 17 12 02 00.0110000  0 24                     
G08  25959555.927   136418371.265       -4101.605          44.000    25959557.298   106300034.535       -3195.811          43.000  
G31  27149270.981   142670398.698        1178.003          46.000    27149270.136   111171712.307         917.987          43.000  
E19  26916629.479   141447791.188         404.688          43.000    26916629.949   108382081.917         310.117          49.000  
G28  26966994.896   141712496.598         -77.778          39.000    26966993.216   110425299.886         -60.733          40.000  
R18  26594158.438   141961447.066        3394.155          37.000    26594169.526   110414399.093        2639.593          37.000  
R03  25155096.581   134657088.052        2392.432          47.000    25155092.858   104733491.411        1860.666          43.000  
R17  23050935.122   123350418.453        1375.906          52.000    23050930.465    95938995.454        1070.100          51.000  
R02  22627636.847   120745429.791        -837.135          51.000    22627635.672    93913114.926        -651.129          49.000  
G03  24676185.407   129674195.927         246.367          49.000    24676183.783   101044819.577         191.863          44.000  
G21  23020990.501   120976112.075       -1109.251          48.000                                                                  
S31  42142290.516   221459303.594        -674.334          44.000  
S33  43095668.257   226469383.570        -673.641          43.000  
E33  27032591.485   142057314.999       -1096.003          49.000    27032591.090   108849087.732        -839.734          52.000  
R01  24503397.932   130984637.060       -3895.304          49.000    24503395.701   101876944.232       -3029.482          42.000  
R24  23294293.843   124565127.446       -2715.971          53.000    23294289.305    96883944.536       -2112.416          47.000  
G02  23365511.703   122786589.333        -255.697          51.000                                                                  
G32  27880397.214   146512399.217       -4249.627          44.000    27880399.513   114165511.226       -3311.494          39.000  
E12  28300107.056   148718004.176        1144.361          44.000    28300105.438   113952783.058         876.818          50.000  
G04  25417421.634   133569415.831        2468.707          46.000    25417419.201   104079999.618        1923.611          47.000  
E10  30039289.115   157857497.726        1657.767          36.000    30039291.159   120955744.662        1270.219          44.000  
E04  30722370.705   161447148.561        2253.887          41.000    30722374.037   123706257.434        1726.875          42.000  
E26  29981354.906   157553262.025       -2727.318          42.000    29981358.293   120722754.623       -2089.777          46.000  
G17  26342275.694   138429566.9311       1946.657          33.000    26342265.403   107867159.519        1517.320          35.000  
E14  29993969.071   157619346.739        -607.244          42.000    29993972.439   120773269.522        -465.354          45.000  
> 2024 04 17 12 02 30.0110000  0 24                     
G08  25982990.559   136541519.190       -4108.525          45.000    25982991.319   106395993.787       -3201.362          43.000  
G31  27142571.262   142635193.333        1168.945          46.000    27142570.098   111144279.566         910.834          42.000  
E19  26914355.131   141435839.063         391.873          43.000    26914355.393   108372923.748         300.308          49.000  
G28  26967487.638   141715080.851         -94.588          39.000    26967484.985   110427313.554         -73.812          41.000  
R18  26575091.926   141859645.935        3392.416          39.000    26575098.815   110335220.313        2638.757          36.000  
R03  25141727.144   134585523.168        2378.514          46.000    25141726.967   104677829.835        1849.882          45.000  
R17  23043273.171   123309416.282        1357.479          53.000    23043268.170    95907104.822        1055.871          50.000  
R02  22632401.744   120770850.872        -857.646          52.000    22632400.061    93932886.825        -667.019          49.000  
G03  24674797.373   129666902.301         239.730          49.000    24674794.640   101039136.164         187.024          44.000  
G21  23027377.445   121009675.102       -1128.347          49.000                                                                  
S31  42146140.827   221479535.950        -674.841          44.000  
S33  43099516.411   226489605.316        -674.389          42.000  
E33  27038871.299   142090320.392       -1104.379          49.000    27038871.840   108874377.505        -846.229          52.000  
R01  24525277.789   131101596.748       -3902.141          48.000    24525275.768   101967912.764       -3035.019          40.000  
R24  23309589.808   124646917.819       -2736.857          53.000    23309585.215    96947559.181       -2128.646          47.000  
G02  23367018.861   122794508.743        -272.299          50.000                                                                  
G32  27904671.815   146639962.633       -4254.818          44.000    27904674.130   114264910.979       -3315.413          39.000  
E12  28293583.076   148683721.185        1140.999          44.000    28293581.763   113926514.233         874.374          50.000  
G04  25403359.410   133495518.310        2457.712          46.000    25403357.023   104022417.120        1915.208          47.000  
E10  30029824.236   157807765.912        1657.627          36.000    30029827.514   120917638.394        1270.323          45.000  
E04  30709514.563   161379585.751        2250.364          42.000    30709517.680   123654488.469        1724.267          43.000  
E26  29996941.285   157635169.811       -2733.169          42.000    29996945.698   120785514.932       -2094.406          47.000  
G17  26331196.522   138371394.702        1931.254          29.000    26331194.683   107821830.481        1505.114          34.000  
E14  29997434.250   157637558.931        -606.997          42.000    29997438.261   120787224.062        -465.208          44.000  
> 2024 04 17 12 03 00.0110000  0 24                     
G08  26006466.654   136664884.801       -4115.704          45.000    26006466.962   106492122.667       -3206.997          42.000  
G31  27135925.271   142600266.741        1159.601          45.000    27135923.896   111117064.030         903.394          43.000  
E19  26912155.666   141424281.034         378.740          43.000    26912155.968   108364067.558         290.282          48.000  
G28  26968070.752   141718169.872        -111.927          34.000    26968074.996   110429720.504         -86.953          43.000  
R18  26556034.333   141757899.245        3390.741          40.000    26556039.536   110256083.839        2637.287          38.000  
R03  25128436.732   134514381.674        2364.347          46.000    25128435.091   104622497.452        1839.017          42.000  
R17  23035715.976   123268978.292        1338.506          53.000    23035711.277    95875653.019        1041.021          50.000  
R02  22637282.552   120796895.887        -878.577          52.000    22637280.694    93953144.029        -683.324          49.000  
G03  24673447.829   129659809.763         232.998          49.000    24673445.166   101033609.481         181.526          45.000  
G21  23033875.176   121043820.140       -1147.902          49.000                                                                  
S31  42149994.465   221499787.684        -675.335          44.000  
S33  43103368.258   226509846.869        -674.841          42.000  
E33  27045201.815   142123588.498       -1113.363          48.000    27045202.727   108899868.575        -853.096          52.000  
R01  24547196.432   131218767.637       -3909.282          47.000    24547194.689   102059045.505       -3040.220          40.000  
R24  23325003.644   124729344.197       -2758.166          53.000    23324999.775    97011668.484       -2145.263          47.000  
G02  23368622.635   122802935.804        -289.372          50.000                                                                  
G32  27928975.805   146767678.065       -4259.646          44.000    27928978.048   114364429.208       -3319.647          39.000  
E12  28287080.040   148649545.700        1137.483          45.000    28287078.382   113900327.764         871.471          50.000  
G04  25389361.681   133421960.655        2446.236          46.000    25389359.407   103965099.458        1906.158          47.000  
E10  30020362.247   157758039.972        1657.147          36.000    30020365.193   120879536.609        1270.005          45.000  
E04  30696681.288   161312142.549        2246.086          42.000    30696683.965   123602811.152        1721.091          44.000  
E26  30012564.889   157717268.132       -2739.668          43.000    30012569.558   120848421.230       -2099.237          48.000  
G17  26320217.742   138313668.5481       1914.850          32.000    26320215.857   107776876.233        1492.350          32.000  
E14  30000901.667   157655777.242        -607.428          43.000    30000905.459   120801183.284        -465.504          44.000  
> 2024 04 17 12 03 30.0110000  0 24                     
G08  26029982.371   136788461.270       -4122.804          45.000    26029983.405   106588415.811       -3212.523          42.000  
G31  27129330.574   142565617.582        1150.098          43.000    27129330.176   111090064.693         896.277          43.000  
E19  26910030.172   141413113.475         365.443          43.000    26910030.591   108355510.565         280.130          48.000  
G28  26968757.128   141721761.322        -128.167          39.000    26968758.165   110432519.041        -100.144          42.000  
R18  26536984.901   141656206.421        3388.470          42.000    26536990.115   110176989.339        2635.794          37.000  
R03  25115225.966   134443661.166        2350.152          47.000    25115223.847   104567492.585        1827.754          41.000  
R17  23028265.220   123229104.520        1319.394          54.000    23028260.220    95844640.045        1026.227          50.000  
R02  22642279.205   120823559.268        -899.281          52.000    22642277.575    93973882.170        -699.500          49.000  
G03  24672135.606   129652913.967         226.428          50.000    24672133.834   101028236.101         176.473          45.000  
G21  23040483.397   121078544.479       -1167.493          49.000                                                                  
S31  42153851.132   221520053.532        -676.077          44.000  
S33  43107222.970   226530102.523        -675.600          42.000  
E33  27051582.089   142157116.349       -1122.192          48.000    27051582.869   108925558.672        -859.867          52.000  
R01  24569153.376   131336143.141       -3916.163          47.000    24569151.993   102150337.457       -3045.875          40.000  
R24  23340536.466   124812402.128       -2779.302          53.000    23340532.750    97076269.004       -2161.756          47.000  
G02  23370321.966   122811868.234        -306.427          50.000                                                                  
G32  27953307.080   146895539.255       -4264.629          44.000    27953309.178   114464060.950       -3323.303          38.000  
E12  28280596.658   148615475.176        1133.812          45.000    28280595.083   113874221.736         868.680          50.000  
G04  25375428.150   133348741.366        2434.817          46.000    25375425.914   103908045.462        1896.994          46.000  
E10  30010899.436   157708317.058        1656.949          37.000    30010903.236   120841437.157        1269.857          45.000  
E04  30683869.691   161244816.471        2242.136          41.000    30683872.122   123551223.588        1717.839          44.000  
E26  30028222.836   157799553.176       -2745.958          42.000    30028228.750   120911470.598       -2104.190          49.000  
G17  26309335.913   138256457.163        1898.230          34.000    26309329.424   107732295.937        1479.677          35.000  
E14  30004368.206   157673997.873        -607.599          42.000    30004373.187   120815144.281        -465.537          45.000  
> 2024 04 17 12 04 00.0110000  0 24                     
G08  26053539.154   136912248.933       -4129.825          46.000    26053538.602   106684873.547       -3217.917          41.000  
G31  27122791.758   142531252.214        1140.765          46.000    27122792.072   111063286.513         888.837          44.000  
E19  26907980.925   141402340.123         352.427          43.000    26907980.228   108347255.628         270.085          47.000  
G28  26969538.545   141725860.198        -145.028          41.000    26969536.850   110435712.945        -113.236          41.000  
R18  26517946.784   141554574.141        3386.529          41.000    26517950.714   110097941.941        2634.257          37.000  
R03  25102095.409   134373366.821        2335.932          49.000    25102090.517   104512819.085        1817.107          39.000  
R17  23020920.318   123189801.811        1300.513          53.000    23020915.780    95814071.233        1011.559          50.000  
R02  22647392.510   120850842.430        -919.904          52.000    22647390.644    93995102.350        -715.417          49.000  
G03  24670861.706   129646217.909         219.897          49.000    24670860.336   101023018.352         171.411          46.000  
G21  23047202.162   121113852.408       -1186.707          48.000                                                                  
S31  42157710.919   221540337.368        -676.313          44.000  
S33  43111080.638   226550374.225        -676.299          42.000  
E33  27058012.774   142190908.295       -1130.783          48.000    27058013.135   108951451.126        -866.460          52.000  
R01  24591150.303   131453723.311       -3922.802          47.000    24591147.854   102241788.596       -3050.923          40.000  
R24  23356187.522   124896093.874       -2800.358          54.000    23356184.007    97141362.484       -2178.015          48.000  
G02  23372118.697   122821310.899        -323.443          49.000                                                                  
G32  27977666.432   147023547.022       -4269.447          43.000    27977668.412   114563806.935       -3326.964          38.000  
E12  28274133.900   148581514.383        1130.226          45.000    28274132.589   113848199.776         866.057          50.000  
G04  25361560.239   133275866.161        2423.238          46.000    25361558.348   103851259.569        1888.367          47.000  
E10  30001439.094   157658601.616        1657.401          37.000    30001443.098   120803343.458        1269.630          46.000  
E04  30671080.546   161177612.418        2238.401          40.000    30671083.617   123499729.534        1714.939          44.000  
E26  30043916.489   157882028.286       -2752.297          42.000    30043923.489   120974665.580       -2108.795          50.000  
G17  26298539.374   138199731.726        1882.023          34.000    26298536.108   107688094.211        1467.373          36.000  
E14  30007835.466   157692224.388        -607.483          41.000    30007841.979   120829109.768        -465.572          45.000  
> 2024 04 17 12 04 30.0110000  0 24                     
G08  26077134.368   137036241.033       -4136.455          45.000    26077133.692   106781490.595       -3223.392          42.000  
G31  27116306.370   142497169.906        1131.232          46.000    27116305.861   111036728.876         881.427          43.000  
E19  26906004.117   141391957.569         339.782          43.000    26906004.351   108339300.123         260.398          47.000  
G28  26970415.143   141730464.402        -161.965          39.000    26970413.141   110439300.576        -126.186          42.000  
R18  26498918.892   141453002.018        3384.878          41.000    26498922.611   110018941.305        2632.588          35.000  
R03  25089043.264   134303496.532        2321.869          48.000    25089038.969   104458475.457        1806.027          43.000  
R17  23013681.663   123151069.900        1281.514          52.000    23013678.062    95783946.362         996.666          50.000  
R02  22652620.969   120878739.831        -940.196          53.000    22652619.441    94016800.272        -731.220          50.000  
G03  24669624.613   129639717.325         213.413          50.000    24669623.632   101017952.898         166.371          46.000  
G21  23054031.394   121149740.836       -1205.948          48.000                                                                  
S31  42161573.485   221560636.374        -676.862          44.000  
S33  43114941.557   226570662.869        -676.521          42.000  
E33  27064492.379   142224961.463       -1139.445          48.000    27064493.057   108977543.741        -873.067          52.000  
R01  24613182.440   131571501.201       -3929.075          47.000    24613181.646   102333393.516       -3055.885          41.000  
R24  23371955.901   124980414.511       -2821.135          54.000    23371951.583    97206945.101       -2194.249          47.000  
G02  23374012.331   122831261.752        -340.171          49.000                                                                  
G32  28002052.516   147151695.134       -4273.851          41.000    28002054.424   114663662.242       -3330.670          37.000  
E12  28267691.406   148547660.980        1126.687          44.000    28267690.270   113822260.116         863.280          49.000  
G04  25347758.000   133203333.636        2411.987          47.000    25347755.904   103794740.705        1879.460          46.000  
E10  29991980.330   157608891.040        1657.207          38.000    29991983.708   120765253.452        1269.632          46.000  
E04  30658315.971   161110528.076        2234.171          40.000    30658317.705   123448327.209        1711.878          44.000  
E26  30059649.058   157964689.679       -2758.502          44.000    30059653.627   121038003.320       -2113.654          50.000  
G17  26287833.410   138143491.268        1866.287          32.000    26287833.747   107644270.374        1454.385          36.000  
E14  30011305.247   157710453.122        -607.515          41.000    30011310.660   120843076.940        -465.677          44.000  
> 2024 04 17 12 05 00.0110000  0 24                     
G08  26100767.694   137160431.645       -4142.595          45.000    26100766.727   106878262.302       -3227.821          42.000  
G31  27109874.320   142463370.357        1122.028          46.000    27109872.607   111010391.568         874.365          41.000  
E19  26904102.309   141381963.448         327.093          43.000    26904102.606   108331642.272         250.585          47.000  
G28  26971385.558   141735572.491        -178.880          38.000    26971387.188   110443280.877        -139.131          44.000  
R18  26479901.991   141351490.592        3383.074          38.000    26479904.570   109939987.879        2631.033          36.000  
R03  25076069.066   134234048.418        2308.141          48.000    25076065.635   104404460.227        1795.253          45.000  
R17  23006550.574   123112909.846        1262.649          52.000    23006546.875    95754266.292         981.978          50.000  
R02  22657962.583   120907246.551        -960.183          52.000    22657961.059    94038972.119        -746.759          49.000  
G03  24668424.314   129633408.883         207.203          49.000    24668423.051   101013037.178         161.508          46.000  
G21  23060970.421   121186208.138       -1225.021          47.000                                                                  
S31  42165438.924   221580946.775        -677.176          44.000  
S33  43118804.315   226590962.752        -676.819          42.000  
E33  27071021.965   142259273.912       -1147.789          48.000    27071022.444   109003835.030        -879.476          52.000  
R01  24635250.825   131689471.188       -3935.188          46.000    24635250.655   102425147.828       -3060.852          40.000  
R24  23387841.159   125065360.066       -2841.688          54.000    23387837.203    97273013.774       -2210.194          47.000  
G02  23376002.767   122841719.329        -356.887          50.000                                                                  
G32  28026464.375   147279978.277       -4277.991          39.000    28026466.296   114763622.774       -3333.823          36.000  
E12  28261269.282   148513913.499        1123.291          44.000    28261268.190   113796401.600         860.775          49.000  
G04  25334020.417   133131143.211        2400.982          46.000    25334018.824   103738488.398        1870.910          46.000  
E10  29982521.282   157559183.476        1657.137          39.000    29982524.741   120727165.761        1269.787          47.000  
E04  30645572.521   161043562.005        2230.563          40.000    30645574.715   123397015.499        1708.992          45.000  
E26  30075414.022   158047534.447       -2764.307          45.000    30075418.337   121101481.555       -2118.062          49.000  
G17  26277225.870                        1850.581          32.000    26277223.343   107600824.267        1441.956          36.000  
E14  30014774.424   157728681.241        -607.319          42.000    30014779.461   120857043.651        -465.461          44.000  
> 2024 04 17 12 05 30.0110000  0 24                     
G08  26124437.764   137284822.558       -4149.730          45.000    26124437.477   106975190.113       -3233.651          42.000  
G31  27103497.545   142429860.758        1112.170          47.000    27103495.606   110984280.184         866.376          40.000  
E19  26902275.397   141372362.873         313.264          42.000    26902275.654   108324285.964         240.047          47.000  
G28  26972454.726   141741190.794        -196.176          40.000    26972455.896   110447658.723        -152.582          44.000  
R18  26460897.611   141250047.750        3380.254          38.000    26460901.638   109861087.815        2628.813          34.000  
R03  25063177.052   134165029.524        2293.423          48.000    25063172.754   104350778.859        1783.681          46.000  
R17  22999528.659   123075329.692        1242.963          53.000    22999523.777    95725037.256         966.696          50.000  
R02  22663419.324   120936365.986        -980.918          52.000    22663418.065    94061620.516        -763.000          49.000  
G03  24667260.204   129627296.789         200.493          49.000    24667259.234   101008274.489         156.061          46.000  
G21  23068020.944   121223259.747       -1244.858          47.000                                                                  
S31  42169307.102   221601273.991        -678.009          44.000  
S33  43122670.854   226611279.160        -677.554          42.000  
E33  27077602.399   142293851.269       -1157.090          48.000    27077602.686   109030329.298        -886.575          52.000  
R01  24657356.030   131807634.548       -3942.001          47.000    24657356.026   102517052.529       -3065.801          41.000  
R24  23403843.989   125150934.374       -2862.982          53.000    23403839.843    97339571.461       -2226.734          47.000  
G02  23378090.603   122852689.970        -374.311          50.000                                                                  
G32  28050902.275   147408398.684       -4283.095          37.000    28050904.247   114863690.240       -3337.614          35.000  
E12  28254868.725   148480277.989        1119.015          44.000    28254867.620   113770628.889         857.512          49.000  
G04  25320349.657   133059301.924        2388.898          47.000    25320347.720   103682508.165        1861.393          47.000  
E10  29973064.626   157509484.701        1656.222          39.000    29973067.486   120689084.817        1269.073          47.000  
E04  30632853.015   160976720.444        2225.797          40.000    30632855.245   123345799.162        1705.575          45.000  
E26  30091214.796   158130567.321       -2771.002          44.000    30091218.890   121165103.895       -2123.334          48.000  
G17  26266709.059                        1834.008          31.000    26266705.506   107557761.698        1428.362          34.000  
E14  30018245.197   157746913.596        -607.934          43.000    30018249.188   120871013.620        -466.075          44.000  
> 2024 04 17 12 06 00.0110000  0 24                     
G08  26148147.336   137409413.685       -4156.396          45.000    26148146.757   107072273.890       -3238.485          43.000  
G31  27097177.602   142396647.095        1102.063          47.000    27097173.802   110958399.325         858.704          39.000  
E19  26900523.587   141363158.919         300.115          42.000    26900524.701   108317233.564         230.022          47.000  
G28  26973623.593   141747323.748        -212.953          41.000    26973623.263   110452437.584        -165.980          45.000  
R18  26441906.917   141148680.066        3377.435          38.000    26441909.836   109782246.231        2626.683          33.000  
R03  25050364.360   134096443.723        2278.851          47.000    25050359.898   104297434.317        1772.456          45.000  
R17  22992615.433   123038336.049        1223.232          53.000    22992610.498    95696264.375         951.434          50.000  
R02  22668991.303   120966098.844       -1001.347          53.000    22668990.400    94084746.004        -778.844          49.000  
G03  24666135.481   129621383.649         193.802          49.000    24666134.339   101003666.780         151.108          46.000  
G21  23075183.717   121260899.361       -1264.530          47.000                                                                  
S31  42173178.890   221621620.718        -678.494          44.000  
S33  43126540.707   226631615.480        -678.259          42.000  
E33  27084232.775   142328697.382       -1165.986          47.000    27084233.843   109057029.494        -893.433          52.000  
R01  24679497.061   131925991.572       -3948.437          46.000    24679496.993   102609107.855       -3071.168          42.000  
R24  23419964.240   125237139.321       -2884.062          53.000    23419959.625    97406619.638       -2243.087          46.000  
G02  23380276.554   122864178.151        -391.653          49.000                                                                  
G32  28075365.555   147536956.786       -4287.708          35.000    28075369.084   114963865.021       -3340.664          34.000  
E12  28248490.188   148446758.899        1115.361          44.000    28248489.319   113744945.376         854.669          49.000  
G04  25306746.066   132987815.025        2376.877          47.000    25306744.691   103626804.075        1851.986          47.000  
E10  29963609.550   157459798.773        1655.935          41.000    29963612.458   120651013.726        1268.991          47.000  
E04  30620157.255   160910007.761        2221.551          39.000    30620160.447   123294681.584        1702.202          45.000  
E26  30107051.368   158213791.116       -2777.275          45.000    30107055.474   121228872.559       -2128.091          47.000  
G17  26256293.430   137977706.271        1817.867          34.000    26256281.605                        1415.232          31.000  
E14  30021716.950   157765153.187        -608.163          44.000    30021720.637   120884989.106        -465.822          44.000  
> 2024 04 17 12 06 30.0110000  0 24                     
G08  26171893.920   137534203.928       -4162.816          45.000    26171894.259   107169512.826       -3243.755          43.000  
G31  27090913.479   142363733.844        1092.139          46.000    27090913.156   110932752.675         851.141          41.000  
E19  26898848.394   141354354.103         286.947          42.000    26898849.323   108310486.987         219.944          48.000  
G28  26974889.401   141753974.750        -229.943          40.000    26974888.017   110457620.172        -179.501          44.000  
R18  26422931.477   141047392.759        3375.153          38.000    26422932.978                        2624.751          30.000  
R03  25037632.672   134028294.641        2264.561          46.000    25037629.378   104244429.447        1761.368          47.000  
R17  22985812.385   123001934.402        1203.630          52.000    22985808.137    95667951.936         936.272          50.000  
R02  22674678.441   120996445.622       -1021.559          52.000    22674676.091    94108349.024        -794.675          49.000  
G03  24665048.752   129615670.850         187.264          49.000    24665047.575   100999215.212         146.075          46.000  
G21  23082458.837   121299129.779       -1284.060          48.000                                                                  
S31  42177055.069   221641989.408        -679.236          44.000  
S33  43130414.618   226651973.771        -678.812          43.000  
E33  27090916.391   142363815.107       -1175.078          48.000    27090916.623   109083937.795        -900.336          52.000  
R01  24701674.474   132044540.717       -3954.461          46.000    24701674.986   102701312.601       -3075.950          43.000  
R24  23436203.349   125323975.552       -2904.812          53.000    23436198.247    97474158.814       -2259.222          46.000  
G02  23382561.614   122876187.170        -408.787          49.000                                                                  
G32  28099854.368   147665652.124       -4292.226          33.000    28099859.668   115064146.740       -3344.717          33.000  
E12  28242134.528   148413359.496        1111.403          44.000    28242133.598   113719353.571         851.655          49.000  
G04  25293210.864   132916686.728        2365.044          46.000    25293209.470   103571379.397        1842.879          46.000  
E10  29954157.868   157410128.756        1655.555          41.000    29954160.526   120612954.831        1268.498          47.000  
E04  30607486.196   160843427.273        2217.624          38.000    30607490.779   123243665.331        1698.931          45.000  
E26  30122925.022   158297207.747       -2783.612          45.000    30122929.444   121292788.990       -2132.921          47.000  
G17  26245966.432                        1800.570          29.000    26245957.154   107472804.062        1403.161          34.000  
E14  30025190.030   157783402.069        -608.360          44.000    30025193.990   120898971.761        -466.178          44.000  
> 2024 04 17 12 07 00.0110000  0 24                     
G08  26195676.098   137659179.589       -4169.093          45.000    26195676.657   107266896.224       -3248.466          43.000  
G31  27084705.720   142331113.020        1082.288          45.000    27084705.068   110907333.878         843.329          41.000  
E19  26897246.678   141345937.684         274.093          42.000    26897247.487   108304038.019         210.001          48.000  
G28  26976251.606   141761134.605        -247.385          39.000    26976249.894   110463199.198        -192.604          43.000  
R18  26403970.487   140946178.468        3372.594          40.000    26403969.490                        2622.691          31.000  
R03  25024981.889   133960572.933        2250.247          46.000    25024978.586   104191756.985        1750.222          46.000  
R17  22979118.751   122966117.597        1184.050          52.000    22979115.102    95640094.387         920.865          50.000  
R02  22680477.769   121027392.952       -1041.666          52.000    22680475.326    94132419.133        -810.195          49.000  
G03  24663997.161   129610147.235         180.864          48.000    24663995.737   100994911.041         140.922          46.000  
G21  23089844.207   121337941.141       -1303.484          48.000                                                                  
S31  42180933.166   221662368.955        -679.596          44.000  
S33  43134290.846   226672342.823        -679.227          43.000  
E33  27097648.734   142399194.597       -1183.709          48.000    27097649.164   109111046.672        -906.989          52.000  
R01  24723884.921   132163268.711       -3960.644          46.000    24723885.463   102793656.426       -3080.573          43.000  
R24  23452557.931   125411430.918       -2925.614          53.000    23452553.890    97542179.544       -2275.548          47.000  
G02  23384944.015   122888707.751        -426.049          49.000                                                                  
G32  28124367.246   147794471.455       -4296.089          33.000    28124373.954   115164525.108       -3348.013          33.000  
E12  28235799.877   148380070.458        1107.751          44.000    28235798.912   113693846.338         848.777          49.000  
G04  25279742.356   132845908.572        2353.320          46.000    25279741.647   103516227.548        1833.809          47.000  
E10  29944707.040   157360465.013        1655.438          41.000    29944709.760   120574900.723        1268.394          47.000  
E04  30594839.602   160776969.749        2213.110          37.000    30594844.450   123192743.276        1695.840          45.000  
E26  30138832.650   158380806.444       -2789.708          44.000    30138838.635   121356844.890       -2137.528          48.000  
G17  26235725.649   137869673.989        1783.743          33.000    26235727.352   107430905.977        1389.857          37.000  
E14  30028661.539   157801649.590        -608.366          44.000    30028667.423   120912953.322        -466.109          45.000  
> 2024 04 17 12 07 30.0110000  0 24                     
G08  26219494.396   137784342.518       -4175.321          44.000    26219494.676   107364425.580       -3253.472          43.000  
G31  27078555.930   142298792.493        1072.052          47.000    27078555.472   110882149.087         835.461          42.000  
E19  26895720.177   141337914.990         260.791          42.000    26895721.097   108297890.742         199.777          48.000  
G28  26977711.608   141768809.461        -264.385          40.000    26977709.580   110469179.576        -205.962          43.000  
R18  26385024.421   140845045.343        3369.447          38.000    26385028.951                        2620.475          30.000  
R03  25012410.190   133893284.925        2235.562          44.000    25012408.205   104139421.844        1738.833          46.000  
R17  22972536.456   122930893.992        1163.998          52.000    22972532.243    95612698.169         905.317          49.000  
R02  22686390.516   121058943.951       -1061.878          53.000    22686388.261    94156958.757        -825.861          49.000  
G03  24662982.690   129604817.250         174.327          48.000    24662982.004   100990757.783         135.841          47.000  
G21  23097341.715   121377338.861       -1323.056          48.000                                                                  
S31  42184814.755   221682765.455        -680.051          45.000  
S33  43138170.377   226692727.263        -680.059          43.000  
E33  27104431.871   142434841.612       -1192.812          48.000    27104432.640   109138360.545        -913.883          53.000  
R01  24746129.878   132282177.085       -3966.654          46.000    24746129.357   102886140.572       -3085.220          42.000  
R24  23469028.866   125499509.406       -2946.430          53.000    23469024.468    97610684.922       -2291.656          47.000  
G02  23387425.125   122901746.281        -443.353          49.000                                                                  
G32  28148905.671   147923417.326       -4300.172          32.000    28148912.673   115265002.042       -3351.157          32.000  
E12  28229487.322   148346898.088        1103.719          44.000    28229486.445   113668428.485         845.749          49.000  
G04  25266341.569   132775487.719        2341.134          46.000    25266340.851   103461354.144        1824.431          47.000  
E10  29935258.882   157310813.560        1654.781          41.000    29935261.436   120536856.039        1267.899          47.000  
E04  30582217.985   160710641.493        2208.431          38.000    30582222.447   123141920.279        1692.285          45.000  
E26  30154777.430   158464592.002       -2796.025          44.000    30154781.805   121421043.981       -2142.328          47.000  
G17  26225597.908   137816406.643        1766.702          37.000    26225592.134   107389398.885        1376.800          37.000  
E14  30032135.033   157819900.744        -608.472          43.000    30032140.992   120926937.659        -466.363          45.000  
> 2024 04 17 12 08 00.0110000  0 24                     
G08  26243347.322   137909691.160       -4181.622          44.000    26243347.858   107462099.642       -3258.341          42.000  
G31  27072464.147   142266775.791        1061.719          46.000    27072462.813   110857200.984         827.509          42.000  
E19  26894268.869   141330287.830         247.297          42.000    26894269.611   108292046.524         189.392          48.000  
G28  26979271.133   141777002.404        -282.212          42.000    26979269.554   110475563.662        -219.919          44.000  
R18  26366095.695   140743998.638        3366.413          38.000    26366097.793   109467493.810        2618.656          33.000  
R03  24999922.063   133826433.463        2220.892          46.000    24999920.231   104087426.245        1727.255          47.000  
R17  22966066.516   122896268.657        1143.796          52.000    22966061.517    95585767.328         889.663          49.000  
R02  22692416.124   121091098.178       -1082.137          52.000    22692414.930    94181967.542        -841.631          49.000  
G03  24662005.023   129599681.878         167.628          47.000    24662005.364   100986756.160         130.670          47.000  
G21  23104951.034   121417325.135       -1343.058          48.000                                                                  
S31  42188699.419   221703178.966        -681.086          45.000  
S33  43142052.800   226713131.497        -680.576          43.000  
E33  27111266.986   142470758.491       -1201.989          48.000    27111267.817   109165881.192        -920.949          53.000  
R01  24768406.607   132401264.348       -3972.898          46.000    24768407.720   102978763.846       -3090.007          44.000  
R24  23485616.514   125588211.220       -2967.486          53.000    23485612.827    97679675.147       -2308.150          47.000  
G02  23390005.394   122915305.609        -460.968          49.000                                                                  
G32  28173467.733                       -4304.708          32.000    28173474.167   115365576.717       -3353.972          32.000  
E12  28223197.682   148313845.275        1099.527          44.000    28223196.839   113643102.264         842.352          49.000  
G04  25253010.311   132705427.878        2329.052          47.000    25253008.408   103406762.035        1814.776          47.000  
E10  29925813.823   157261176.949        1654.031          41.000    29925815.505   120498822.723        1267.375          47.000  
E04  30569622.484   160644445.389        2203.760          39.000    30569625.768   123091198.526        1688.824          44.000  
E26  30170757.399   158548565.761       -2802.496          45.000    30170762.404   121485387.301       -2147.383          47.000  
G17  26215556.971   137763645.399        1750.082          35.000    26215551.356   107348286.205        1363.582          35.000  
E14  30035610.281   157838157.055        -609.059          43.000    30035615.468   120940925.916        -466.516          46.000  
> 2024 04 17 12 08 30.0110000  0 24                     
G08  26267234.410   138035219.001       -4187.320          44.000    26267235.595   107559913.367       -3262.785          43.000  
G31  27066430.045   142235062.532        1051.996          47.000    27066428.729   110832489.335         819.879          42.000  
E19  26892891.845   141323052.933         234.647          42.000    26892892.803   108286502.874         179.796          48.000  
G28  26980927.557   141785711.178        -299.025          40.000    26980926.356   110482349.677        -232.990          43.000  
R18  26347182.984   140643037.971        3363.876          39.000    26347188.385   109388968.812        2615.711          33.000  
R03  24987516.138   133760016.504        2206.688          46.000    24987512.572   104035768.639        1716.040          47.000  
R17  22959707.502   122862241.339        1124.191          52.000    22959702.604    95559301.610         874.247          49.000  
R02  22698553.663   121123849.868       -1101.654          53.000    22698552.935    94207441.038        -856.965          50.000  
G03  24661064.880   129594737.216         161.624          48.000    24661064.064   100982903.111         125.957          47.000  
G21  23112671.983   121457897.277       -1362.125          49.000                                                                  
S31  42192586.527   221723606.573        -681.061          45.000  
S33  43145938.616   226733548.361        -680.961          43.000  
E33  27118151.807   142506942.603       -1210.607          47.000    27118153.453   109193606.602        -927.658          53.000  
R01  24790717.620   132520524.059       -3978.097          47.000    24790718.407   103071521.239       -3094.119          43.000  
R24  23502320.155   125677531.458       -2987.654          52.000    23502316.516    97749146.355       -2323.800          48.000  
G02  23392684.247   122929384.005        -477.948          49.000                                                                  
G32  28198052.866   148181679.564       -4309.280          32.000    28198060.575                       -3357.667          30.000  
E12  28216930.123   148280909.890        1095.931          44.000    28216929.605   113617866.001         839.617          49.000  
G04  25239746.230   132635727.740        2317.261          47.000    25239744.917   103352450.225        1805.688          47.000  
E10  29916371.265   157211552.758        1653.969          42.000    29916372.289   120460798.945        1267.319          47.000  
E04  30557050.056   160578379.284        2199.899          39.000    30557053.746   123040576.405        1685.592          43.000  
E26  30186772.486   158632724.128       -2808.329          44.000    30186776.972   121549872.054       -2151.821          47.000  
G17  26205608.740   137711389.220        1733.339          28.000    26205606.803   107307567.131        1350.190          35.000  
E14  30039084.951   157856415.014        -608.584          43.000    30039089.535   120954915.485        -466.464          45.000  
> 2024 04 17 12 09 00.0110000  0 24                     
G08  26291155.998   138160925.806       -4193.417          44.000    26291157.806   107657866.511       -3267.686          45.000  
G31  27060453.546   142203658.106        1041.248          46.000    27060451.463   110808018.359         811.432          41.000  
E19  26891590.731   141316213.276         221.164          43.000    26891591.346   108281262.065         169.412          48.000  
G28  26982682.979   141794939.916        -316.620          39.000    26982683.382   110489540.912        -246.863          43.000  
R18  26328287.287   140542169.815        3360.468          41.000    26328289.663   109310515.733        2613.633          35.000  
R03  24975191.126   133694038.083        2191.542          46.000    24975187.876   103984452.128        1704.450          46.000  
R17  22953461.647   122828818.279        1103.686          52.000    22953457.173    95533305.829         858.387          49.000  
R02  22704803.342   121157200.098       -1121.938          52.000    22704802.668    94233380.077        -872.677          50.000  
G03  24660160.905   129589985.534         154.813          48.000    24660159.539   100979200.492         120.625          46.000  
G21  23120504.578   121499058.766       -1382.206          48.000                                                                  
S31  42196477.118   221744052.043        -681.943          45.000  
S33  43149826.852   226753982.703        -681.800          43.000  
E33  27125089.505   142543397.585       -1219.986          47.000    27125090.675   109221539.570        -934.818          53.000  
R01  24813060.218   132639956.038       -3984.246          48.000    24813060.177   103164412.660       -3098.986          44.000  
R24  23519139.256   125767471.841       -3008.670          52.000    23519136.963    97819099.897       -2340.016          48.000  
G02  23395462.984   122943985.137        -495.692          49.000                                                                  
G32  28222661.671   148310990.312       -4312.566          30.000    28222664.950                1      -3360.297          28.000  
E12  28210685.692   148248096.177        1091.432          44.000    28210685.244   113592722.976         836.251          49.000  
G04  25226552.665   132566392.381        2304.677          48.000    25226550.479   103298422.659        1795.920          46.000  
E10  29906930.602   157161944.972        1653.059          41.000    29906932.360   120422787.739        1266.441          47.000  
E04  30544503.278   160512447.427        2195.269          40.000    30544507.786   122990057.169        1681.840          43.000  
E26  30202823.352   158717069.772       -2814.905          44.000    30202827.011   121614500.353       -2156.939          46.000  
E14  30042560.620   157874677.540        -609.127          43.000    30042564.347   120968908.548        -466.710          44.000  
G17                                                                  26195760.450   107267245.814        1337.220          37.000  
> 2024 04 17 12 09 30.0110000  0 24                     
G08  26315110.600   138286808.169       -4198.875          44.000    26315112.762   107755956.418       -3271.843          45.000  
G31  27054536.301   142172564.813        1031.372          44.000    27054534.839   110783789.809         803.699          42.000  
E19  26890364.946   141309768.608         208.566          43.000    26890364.922   108276323.916         159.721          48.000  
G28  26984539.582   141804689.651        -333.502          41.000    26984539.183   110497138.037        -260.059          44.000  
R18  26309409.698   140441397.150        3357.681          42.000    26309411.463   109232136.975        2611.231          35.000  
R03  24962947.648   133628499.355        2177.449          48.000    24962943.930   103933477.528        1693.711          45.000  
R17  22947330.217   122796002.852        1083.875          53.000    22947325.068    95507782.683         842.974          49.000  
R02  22711165.438   121191146.426       -1141.279          53.000    22711164.127    94259782.710        -887.666          49.000  
G03  24659293.127   129585425.959         149.114          48.000    24659291.339   100975647.527         116.118          46.000  
G21  23128449.722   121540809.886       -1401.277          48.000                                                                  
S31  42200371.166   221764514.185        -682.045          44.000  
S33  43153719.048   226774434.045        -681.751          43.000  
E33  27132078.005   142580123.881       -1228.645          47.000    27132079.477   109249680.412        -941.326          53.000  
R01  24835433.406   132759556.923       -3989.142          47.000    24835434.427   103257435.397       -3102.726          45.000  
R24  23536074.180   125858030.281       -3028.682          52.000    23536071.715    97889534.142       -2355.641          48.000  
G02  23398341.594   122959110.032        -512.729          50.000                                                                  
G32  28247292.106                       -4315.736          29.000    28247294.225                       -3363.160          28.000  
E12  28204464.792   148215405.068        1087.645          43.000    28204464.488   113567673.895         833.587          48.000  
G04  25213428.739   132497423.543        2292.960          48.000    25213426.081   103244680.706        1786.724          47.000  
E10  29897493.502   157112354.276        1652.806          42.000    29897495.728   120384789.602        1266.495          47.000  
E04  30531984.315   160446650.857        2191.000          42.000    30531987.371   122939641.554        1678.896          43.000  
E26  30218909.373   158801602.238       -2820.765          43.000    30218913.436   121679271.763       -2161.343          47.000  
G17  26186008.119   137608205.6711       1699.183          31.000    26186011.671   107227323.849        1324.457          36.000  
E14  30046035.897   157892944.245        -608.635          43.000    30046040.646   120982904.838        -466.607          44.000  
> 2024 04 17 12 10 00.0110000  0 24                     
G08  26339096.969   138412857.914       -4204.887          44.000    26339098.950   107854176.758       -3276.304          44.000  
G31  27048678.223   142141780.008        1020.569          45.000    27048677.590   110759801.669         794.873          42.000  
E19  26889212.754   141303714.330         194.950          43.000    26889212.806   108271684.897         149.320          48.000  
G28  26986494.259   141814956.432        -351.349          41.000    26986493.316   110505138.074        -273.694          45.000  
R18  26290549.489   140340718.158        3354.027          43.000    26290553.004   109153831.050        2608.571          38.000  
R03  24950786.604   133563396.150        2162.568          49.000    24950782.675   103882841.662        1681.925          47.000  
R17  22941310.927   122763793.006        1063.170          52.000    22941305.976    95482730.537         826.905          49.000  
R02  22717637.481   121225681.220       -1161.337          53.000    22717635.647    94286643.075        -903.233          49.000  
G03  24658460.505   129581052.761         142.219          47.000    24658459.512   100972239.795         110.957          46.000  
G21  23136505.923   121583146.030       -1421.356          48.000                                                                  
S31  42204267.327   221784987.968        -683.079          45.000  
S33  43157613.061   226794897.642        -682.771          43.000  
E33  27139117.896   142617117.154       -1237.928          48.000    27139119.187   109278025.826        -948.579          53.000  
R01  24857838.482   132879318.461       -3995.034          48.000    24857838.759   103350583.113       -3107.286          45.000  
R24  23553123.186   125949200.439       -3049.564          52.000    23553121.621    97960444.174       -2371.846          48.000  
G02  23401318.423   122974754.929        -530.558          50.000                                                                  
G32  28271942.688                       -4320.212          26.000    28271947.153                       -3366.107          28.000  
E12  28198266.245   148182832.864        1083.341          43.000    28198266.185   113542715.938         830.111          48.000  
G04  25200373.000   132428818.260        2280.456          48.000    25200371.550   103191222.022        1776.990          47.000  
E10  29888058.606   157062776.598        1651.954          41.000    29888061.575   120346801.459        1265.764          47.000  
E04  30519489.922   160380985.710        2186.379          43.000    30519491.473   122889326.658        1675.244          42.000  
E26  30235029.760   158886316.184       -2827.068          43.000    30235034.186   121744182.206       -2166.337          46.000  
G17  26176356.909   137557482.055        1681.671          33.000    26176360.107   107187798.928        1310.438          37.000  
E14  30049511.346   157911210.058        -609.322          42.000    30049516.965   120996900.399        -466.966          45.000  
> 2024 04 17 12 10 30.0110000  0 24                     
G08  26363117.050   138539080.536       -4210.184          43.000    26363118.578   107952531.845       -3280.635          44.000  
G31  27042881.227   142111314.781        1010.284          45.000    27042879.504   110736062.465         787.207          41.000  
E19  26888137.121   141298058.910         182.036          44.000    26888136.764   108267351.480         139.440          48.000  
G28  26988548.053   141825750.156        -368.518          41.000    26988546.488   110513548.725        -286.987          44.000  
R18  26271709.605   140240145.189        3350.417          43.000    26271717.315   109075607.544        2606.300          38.000  
R03  24938708.950   133498738.967        2147.941          48.000    24938704.570   103832552.699        1670.595          46.000  
R17  22935406.371   122732200.885        1042.924          52.000    22935402.074    95458158.850         811.215          50.000  
R02  22724220.942   121260811.485       -1180.593          53.000    22724219.004    94313966.574        -918.375          49.000  
G03  24657665.393   129576874.300         136.379          47.000    24657664.784   100968983.795         106.372          46.000  
G21  23144675.338   121626076.468       -1440.742          48.000                                                                  
S31  42208167.414   221805482.958        -683.503          44.000  
S33  43161511.298   226815381.343        -683.233          43.000  
E33  27146210.667   142654386.815       -1246.850          48.000    27146211.141   109306583.006        -955.295          53.000  
R01  24880273.860   132999246.588       -4000.339          48.000    24880273.788   103443860.373       -3111.072          45.000  
R24  23570288.569   126040989.266       -3069.826          52.000    23570286.236    98031835.370       -2387.647          48.000  
G02  23404397.093   122990930.085        -547.852          50.000                                                                  
G32  28296614.000                       -4323.004          25.000    28296620.257                       -3368.757          28.000  
E12  28192093.437   148150389.518        1079.619          43.000    28192092.366   113517856.704         827.138          48.000  
G04  25187388.409   132360587.312        2268.312          47.000    25187388.158   103138055.044        1767.604          47.000  
E10  29878628.639   157013221.681        1651.494          41.000    29878631.874   120308830.736        1265.389          47.000  
E04  30507020.258   160315462.004        2181.845          43.000    30507022.734   122839120.135        1671.799          41.000  
E26  30251187.419   158971220.034       -2833.150          45.000    30251190.647   121809238.204       -2170.702          46.000  
G17  26166808.329   137507279.873        1664.790          37.000    26166807.133   107148680.243        1297.229          37.000  
E14  30052988.941   157929483.523        -608.877          41.000    30052994.752   121010901.804        -466.497          46.000  
> 2024 04 17 12 11 00.0110000  0 25                     
G08  26387167.259   138665466.716       -4216.021          43.000    26387169.621   108051014.344       -3285.116          45.000  
G31  27037142.787   142081165.495         999.329          45.000    27037142.884   110712569.515         778.619          42.000  
E19  26887135.015   141292796.139         168.554          43.000    26887135.454   108263318.934         129.130          48.000  
G28  26990700.934   141837065.743        -386.194          40.000    26990700.583   110522366.024        -301.050          44.000  
R18  26252888.091   140139675.293        3346.932          40.000    26252898.275   108997464.241        2603.216          38.000  
R03  24926712.477   133434522.188        2132.886          47.000    24926708.269   103782606.296        1658.980          45.000  
R17  22929617.746   122701223.768        1021.904          52.000    22929614.116    95434065.499         794.867          50.000  
R02  22730913.975   121296528.128       -1200.570          53.000    22730912.652    94341746.131        -933.801          50.000  
G03  24656906.151   129572883.631         129.556          47.000    24656905.650   100965874.148         100.956          47.000  
G21  23152956.599   121669595.347       -1460.778          48.000                                                                  
S31  42212070.044   221825991.492        -684.238          45.000  
S33  43165411.939   226835879.569        -683.926          43.000  
E33  27153354.775   142691927.354       -1256.139          48.000    27153355.020   109335347.748        -962.542          53.000  
R01  24902737.395   133119331.681       -4005.702          48.000    24902738.169   103537259.754       -3115.565          46.000  
R24  23587567.363   126133389.275       -3090.432          52.000    23587565.080    98103701.938       -2403.683          47.000  
G02  23407575.331   123007630.148        -565.763          50.000                                                                  
G32  28321306.478                       -4328.198          24.000    28321314.284                       -3371.981          27.000  
E12  28185942.913   148118070.133        1074.849          43.000    28185942.088   113493092.449         823.790          48.000  
G04  25174474.760   132292726.546        2255.483          48.000    25174474.403   103085176.502        1757.588          47.000  
E10  29869203.248   156963684.261        1650.626          42.000    29869205.490   120270873.437        1264.743          47.000  
E04  30494577.047   160250074.746        2176.982          42.000    30494580.490   122789018.194        1668.143          41.000  
E26  30267379.382   159056307.387       -2839.643          46.000    30267382.894   121874434.779       -2175.767          46.000  
G17  26157356.196   137457594.922        1647.406          41.000    26157352.037   107109964.676        1283.622          37.000  
E14  30056467.050   157947758.388        -609.346          41.000    30056472.686   121024904.296        -466.912          46.000  
R23                                                                  28112384.597                3      -3699.457          13.000  
> 2024 04 17 12 11 30.0110000  0 24                     
G08  26411248.733   138792016.827       -4221.347          43.000    26411251.855   108149624.599       -3289.419          45.000  
G31  27031467.403   142051338.406         988.416          46.000    27031467.020   110689327.619         770.178          42.000  
E19  26886208.045   141287929.819         155.288          42.000    26886209.481   108259590.172         118.964          48.000  
G28  26992955.069   141848907.912        -403.986          40.000    26992954.188   110531593.572        -314.563          44.000  
R18  26234087.566   140039315.471        3343.049          39.000    26234098.030   108919406.506        2600.137          35.000  
R03  24914798.173   133370751.115        2117.744          47.000    24914795.306   103733006.574        1647.435          44.000  
R17  22923945.841   122670868.157        1000.977          53.000    22923941.600    95410455.530         778.517          50.000  
R02  22737717.129   121332833.005       -1220.396          53.000    22737716.371    94369983.197        -949.119          50.000  
G03  24656183.418   129569083.779         122.799          47.000    24656182.187   100962913.175          95.825          46.000  
G21  23161350.923   121713706.794       -1480.937          48.000                                                                  
S31  42215976.505   221846518.485        -685.278          45.000  
S33  43169316.083   226856395.255        -684.652          43.000  
E33  27160550.909   142729743.031       -1265.532          48.000    27160551.389   109364323.309        -969.667          53.000  
R01  24925231.268   133239574.428       -4011.182          48.000    24925231.846   103630781.734       -3119.834          45.000  
R24  23604962.122   126226402.268       -3111.047          52.000    23604959.303    98176045.281       -2419.855          48.000  
G02  23410854.410   123024859.776        -583.674          50.000                                                                  
E12  28179817.537   148085879.588        1070.370          43.000    28179816.324   113468426.925         820.239          48.000  
G04  25161632.506   132225241.515        2242.738          47.000    25161632.448   103032590.732        1747.525          47.000  
E10  29859781.094   156914168.949        1649.619          43.000    29859783.097   120232933.077        1263.965          47.000  
E04  30482161.672   160184828.798        2171.802          42.000    30482165.383   122739024.509        1664.333          42.000  
E26  30283606.370   159141581.455       -2845.982          46.000    30283610.803   121939774.421       -2180.786          47.000  
G17  26147999.396   137408433.033        1629.353          40.000    26147996.376   107071656.657        1269.683          38.000  
E14  30059945.163   157966038.098        -609.624          41.000    30059951.699   121038910.491        -467.357          46.000  
G32                                                                  28346027.915                3      -3374.892          25.000  
> 2024 04 17 12 12 00.0110000  0 24                     
G08  26435360.945   138918726.656       -4226.269          44.000    26435364.005   108248359.284       -3293.245          45.000  
G31  27025853.479   142021834.595         977.893          46.000    27025852.798   110666337.607         762.122          42.000  
E19  26885357.752   141283458.811         142.462          43.000    26885358.634   108256164.291         109.164          48.000  
G28  26995309.046   141861276.547        -421.198          40.000    26995307.751   110541231.353        -328.137          44.000  
R18  26215307.595   139939067.984        3339.307          37.000    26215312.980   108841436.169        2597.989          33.000  
R03  24902969.403   133307425.229        2103.295          47.000    24902964.376   103683753.062        1635.940          43.000  
R17  22918389.139   122641135.992         980.615          52.000    22918384.963    95387330.465         762.741          50.000  
R02  22744630.952   121369722.209       -1239.411          53.000    22744629.868    94398674.744        -963.944          50.000  
G03  24655496.526   129565472.937         117.272          48.000    24655495.211   100960099.500          91.379          46.000  
G21  23169857.673   121758409.992       -1499.959          47.000                                                                  
S31  42219885.586   221867061.627        -684.967          45.000  
S33  43173223.168   226876926.843        -684.783          43.000  
E33  27167798.557   142767833.400       -1274.283          47.000    27167799.785   109393509.351        -976.457          53.000  
R01  24947754.360   133359970.432       -4015.664          49.000    24947754.578   103724422.881       -3123.272          45.000  
R24  23622470.776   126320025.349       -3130.997          53.000    23622467.223    98248863.124       -2435.176          48.000  
G02  23414234.065   123042619.186        -600.850          49.000                                                                  
E12  28173716.945   148053818.013        1066.514          43.000    28173715.175   113443860.214         817.191          48.000  
G04  25148862.323   132158133.129        2230.601          47.000    25148863.134   102980298.472        1738.041          48.000  
E10  29850362.447   156864675.602        1649.242          43.000    29850364.979   120195009.551        1263.828          47.000  
E04  30469772.323   160119724.217        2167.824          42.000    30469776.011   122689139.168        1661.096          41.000  
E26  30299868.217   159227040.868       -2851.594          45.000    30299873.746   122005256.043       -2185.094          48.000  
G17  26138742.240   137359795.630        1612.561          38.000    26138740.750   107033757.292        1256.261          38.000  
E14  30063424.256   157984321.479        -609.305          40.000    30063431.305   121052919.472        -466.946          46.000  
G32                                                                  28370754.479                3      -3379.408          23.000  
> 2024 04 17 12 12 30.0110000  0 24                     
G08  26459501.849   139045588.381       -4231.636          44.000    26459505.000   108347212.344       -3297.346          45.000  
G31  27020299.810   141992652.030         967.242          47.000    27020299.079   110643597.943         753.564          42.000  
E19  26884581.646   141279378.668         129.380          43.000    26884582.380   108253037.902          99.155          48.000  
G28  26997762.048   141874168.070        -438.477          42.000    26997761.256   110551276.672        -341.901          44.000  
R18  26196548.332   139838931.570        3335.643          37.000    26196547.351   108763552.341        2595.389          33.000  
R03  24891220.939   133244540.997        2088.502          47.000    24891216.482   103634843.080        1624.490          43.000  
R17  22912949.497   122612026.296         959.723          52.000    22912945.609    95364689.531         746.399          50.000  
R02  22751651.874   121407188.788       -1258.648          52.000    22751650.633    94427815.382        -978.979          50.000  
G03  24654844.717   129562045.965         110.931          48.000    24654842.771   100957429.116          86.439          46.000  
G21  23178476.255   121803700.964       -1519.761          48.000                                                                  
S31  42223797.178   221887616.565        -685.560          45.000  
S33  43177132.767   226897471.381        -684.935          43.000  
E33  27175098.164   142806194.488       -1283.354          47.000    27175099.782   109422902.839        -983.304          54.000  
R01  24970305.431   133480512.011       -4020.698          50.000    24970304.835   103818177.293       -3127.260          44.000  
R24  23640091.778   126414252.480       -3151.139          52.000    23640088.303    98322150.782       -2450.851          48.000  
G02  23417712.987   123060904.925        -618.422          49.000                                                                  
E12  28167640.150   148021882.094        1062.391          43.000    28167638.134   113419389.790         813.966          48.000  
G04  25136163.843   132091398.773        2218.025          47.000    25136163.513   102928297.661        1728.236          47.000  
E10  29840947.063   156815200.669        1648.551          42.000    29840950.323   120157100.136        1263.221          48.000  
E04  30457408.777   160054757.691        2163.038          41.000    30457414.115   122639359.567        1657.494          41.000  
E26  30316165.677   159312680.743       -2857.822          45.000    30316170.722   122070875.931       -2189.753          48.000  
G17  26129586.751   137311680.473        1594.535          39.000    26129584.755   106996264.891        1242.829          38.000  
E14  30066904.169   158002603.785        -609.491          40.000    30066910.512   121066927.636        -467.050          46.000  
G32                                                                  28395506.924                3      -3380.688          22.000  
> 2024 04 17 12 13 00.0110000  0 25                     
G08  26483671.521   139172598.931       -4236.573          43.000    26483674.579   108446181.361       -3301.187          45.000  
G31  27014808.390   141963793.161         956.213          47.000    27014808.220   110621110.484         744.983          42.000  
E19  26883879.907   141275689.233         116.179          44.000    26883880.212   108250210.897          88.916          48.000  
G28  27000315.114   141887583.721        -456.128          41.000    27000313.741   110561730.314        -355.511          42.000  
R18  26177809.303   139738909.737        3331.635          35.000    26177806.041   108685757.640        2591.225          33.000  
R03  24879555.811   133182099.686        2073.513          48.000    24879552.169   103586277.618        1612.676          44.000  
R17  22907626.552   122583541.720         938.642          52.000    22907622.436    95342534.822         730.009          50.000  
R02  22758780.333   121445230.655       -1278.062          52.000    22758779.732    94457403.458        -994.075          50.000  
G03  24654226.762   129558802.365         104.730          48.000    24654225.492   100954901.589          81.713          45.000  
G21  23187206.409   121849579.405       -1539.489          48.000                                                                  
S31  42227711.046   221908184.004        -686.013          45.000  
S33  43181044.854   226918028.419        -685.589          43.000  
E33  27182448.782   142844827.037       -1292.660          47.000    27182451.637   109452504.332        -990.486          54.000  
R01  24992881.484   133601196.326       -4025.429          49.000    24992881.920   103912042.700       -3131.054          45.000  
R24  23657825.458   126509081.963       -3171.376          52.000    23657822.176    98395906.960       -2466.541          48.000  
G02  23421292.315   123079718.234        -636.232          48.000                                                                  
E12  28161586.940   147990073.250        1057.827          43.000    28161585.191   113395016.741         810.585          48.000  
G04  25123536.004   132025040.480        2205.439          47.000    25123535.887   102876589.890        1718.510          47.000  
E10  29831535.169   156765745.235        1647.767          42.000    29831539.195   120119205.662        1262.537          48.000  
E04  30445071.603   159989930.450        2158.395          39.000    30445077.848   122589686.756        1653.586          41.000  
E26  30332497.122   159398500.785       -2864.262          45.000    30332502.621   122136633.870       -2194.516          49.000  
G17  26120531.896   137264089.675        1577.151          43.000    26120528.866   106959181.126        1228.732          39.000  
E14  30070382.405   158020884.942        -609.780          40.000    30070389.223   121080934.951        -467.244          45.000  
R23                                                                  29719294.183                3      -3765.679          12.000  
G32                                                                  28420272.206                3      -3382.120          20.000  
> 2024 04 17 12 13 30.0110000  0 24                     
G08  26507869.259   139299756.283       -4240.819          43.000    26507871.522   108545264.768       -3304.640          45.000  
G31  27009378.918   141935261.481         945.691          47.000    27009379.323   110598878.048         736.762          42.000  
E19  26883252.929   141272391.642         103.467          44.000    26883252.962   108247684.121          79.317          49.000  
G28  27002967.990   141901525.478        -473.535          41.000    27002966.739   110572593.971        -368.524          42.000  
R18  26159093.882   139639007.047        3328.028          35.000    26159090.451   108608055.493        2588.083          36.000  
R03  24867974.857   133120103.671        2059.263          48.000    24867970.829   103538058.451        1601.745          44.000  
R17  22902420.558   122555686.823         918.162          51.000    22902416.753    95320869.881         714.041          50.000  
R02  22766017.006   121483846.582       -1296.613          52.000    22766015.660    94487438.004       -1008.508          49.000  
G03  24653643.959   129555742.658          99.070          47.000    24653643.877   100952517.350          77.147          45.000  
G21  23196048.638   121896047.093       -1558.744          47.000                                                                  
S31  42231627.746   221928764.485        -686.020          45.000  
S33  43184958.982   226938597.526        -685.554          43.000  
E33  27189854.102   142883732.825       -1301.308          47.000    27189855.309   109482315.168        -997.096          54.000  
R01  25015483.964   133722021.481       -4029.669          48.000    25015484.223   104006017.659       -3134.265          45.000  
R24  23675670.680   126604513.228       -3190.960          51.000    23675669.060    98470131.140       -2481.823          49.000  
G02  23424973.015   123099061.153        -653.479          48.000                                                                  
E12  28155558.535   147958393.798        1053.926          42.000    28155556.948   113370742.834         807.584          48.000  
G04  25110980.458   131959061.326        2193.004          48.000    25110979.824   102825177.544        1708.842          47.000  
E10  29822127.403   156716311.388        1647.502          42.000    29822132.252   120081327.721        1262.465          48.000  
E04  30432761.746   159925244.853        2153.767          36.000    30432768.330   122540122.430        1650.538          40.000  
E26  30348861.362   159484501.766       -2869.609          43.000    30348867.619   122202530.475       -2198.789          48.000  
G17  26111576.966   137217026.878        1560.092          44.000    26111574.542   106922508.742        1215.651          40.000  
E14  30073860.732   158039166.006        -609.211          40.000    30073867.892   121094942.192        -466.858          44.000  
G32                                                                  28445057.207                3      -3383.416          17.000  
> 2024 04 17 12 14 00.0110000  0 24                     
G08  26532094.926   139427060.040       -4246.131          43.000    26532096.353   108644462.243       -3308.485          44.000  
G31  27004012.126   141907062.332         934.271          47.000    27004012.548   110576904.754         727.802          41.000  
E19  26882701.055   141269488.604          90.032          44.000    26882700.755   108245459.678          69.012          49.000  
G28  27005721.311   141915997.127        -491.406          41.000    27005718.661   110583870.532        -382.922          40.000  
R18  26140400.662   139539229.677        3323.491          34.000    26140400.910   108530450.811        2585.097          38.000  
R03  24856477.502   133058556.719        2043.788          48.000    24856473.988   103490188.567        1589.574          44.000  
R17  22897334.354   122528467.743         896.432          51.000    22897329.572    95299699.441         697.330          49.000  
R02  22773362.273   121523036.927       -1316.097          53.000    22773359.819    94517919.346       -1023.483          50.000  
G03  24653098.031   129552869.032          92.466          48.000    24653097.184   100950278.075          72.003          46.000  
G21  23205003.866   121943107.279       -1578.812          48.000                                                                  
S31  42235547.012   221949360.512        -687.132          45.000  
S33  43188876.406   226959183.172        -686.732          43.000  
E33  27197310.505   142922915.237       -1310.819          47.000    27197311.699   109512337.980       -1004.350          55.000  
R01  25038112.417   133842987.163       -4034.803          47.000    25038112.814   104100101.904       -3138.066          45.000  
R24  23693629.577   126700547.433       -3211.386          52.000    23693627.675    98544824.298       -2497.670          49.000  
G02  23428755.880   123118937.409        -671.610          48.000                                                                  
E12  28149554.710   147926847.857        1049.171          42.000    28149554.167   113346571.247         803.908          48.000  
G04  25098498.628   131893466.091        2180.013          48.000    25098497.691   102774064.342        1698.720          47.000  
E10  29812726.165   156666902.965        1646.417          42.000    29812730.201   120043469.259        1261.541          48.000  
E04  30420478.940   159860704.861        2148.451          34.000    30420486.280   122490669.702        1646.252          40.000  
E26  30365261.877   159570686.167       -2876.068          43.000    30365268.160   122268567.641       -2203.676          48.000  
G17  26102722.000   137170496.930        1541.820          44.000    26102720.611   106886251.562        1201.788          41.000  
E14  30077341.726   158057449.594        -609.650          41.000    30077348.018   121108951.365        -467.208          45.000  
G32                                                                  28469871.201                3      -3397.917          12.000  
> 2024 04 17 12 14 30.0120000  0 23                     
G08  26556347.272   139554507.809       -4250.409          44.000    26556348.761   108743771.948       -3312.173          44.000  
G31  26998708.954   141879193.636         923.308          47.000    26998707.810   110555188.873         719.500          39.000  
E19  26882223.020   141266976.543          77.122          44.000    26882222.975   108243534.812          59.120          49.000  
G28  27008576.277   141930996.695        -508.901          42.000    27008574.010   110595558.436        -396.701          39.000  
R18  26121730.357   139439574.377        3319.291          35.000    26121734.983   108452941.088        2581.896          38.000  
R03  24845062.628   132997454.323        2029.073          48.000    24845060.068   103442664.453        1578.020          46.000  
R17  22892366.115   122501883.153         875.382          50.000    22892361.994    95279022.497         680.833          49.000  
R02  22780813.824   121562797.173       -1334.848          53.000    22780811.665    94548843.927       -1038.255          50.000  
G03  24652586.279   129550177.290          86.645          48.000    24652584.596   100948180.575          67.395          46.000  
G21  23214071.560   121990758.359       -1598.255          47.000                                                                  
S31  42239469.045   221969970.352        -687.259          45.000  
S33  43192796.239   226979781.365        -686.685          42.000  
E33  27204819.108   142962372.795       -1319.852          47.000    27204820.360   109542571.612       -1011.273          55.000  
R01  25060768.375   133964090.974       -4038.971          48.000    25060767.860   104194293.574       -3141.621          45.000  
R24  23711700.893   126797182.295       -3231.089          52.000    23711698.663    98619984.649       -2513.100          48.000  
G02  23432639.882   123139345.459        -689.169          49.000                                                                  
E12  28143576.275   147895432.235        1044.851          42.000    28143576.036   113322499.484         800.619          49.000  
G04  25086088.985   131828251.062        2167.311          48.000    25086087.451   102723247.419        1688.806          47.000  
E10  29803328.370   156617515.850        1645.716          42.000    29803332.334   120005627.128        1261.065          48.000  
E04  30408225.256   159796306.158        2144.096          33.000    30408231.729   122441325.176        1642.706          39.000  
E26  30381696.629   159657053.055       -2881.885          42.000    30381703.545   122334744.641       -2208.156          48.000  
G17  26093968.586   137124497.003        1524.281          43.000    26093965.696   106850407.371        1187.926          40.000  
E14  30080821.800   158075732.709        -609.449          42.000    30080828.102   121122960.172        -466.961          46.000  
