     3.00           OBSERVATION DATA    M: Mixed            RINEX VERSION / TYPE
CONVBIN 2.4.3                           20240417 111442 UTC PGM / RUN BY / DATE 
format: u-blox UBX                                          COMMENT             
log: /home/regis/git/gnsspwv/obsdata/VERT00CHL/2024-04-17/VECOMMENT             
{self.marker}                                               MARKER NAME         
                                                            MARKER NUMBER       
GEODETIC                                                    MARKER TYPE         
{self.observer}     {self.institution}                      OBSERVER / AGENCY   
UNKNOWN             UBLOX-ZED-F9P                           REC # / TYPE / VERS 
UNKNOWN             TWIVSP6037L                             ANT # / TYPE        
  1713381.0000 -5047934.0000 -3490983.0000                  APPROX POSITION XYZ 
        0.0000        0.0000        0.0000                  ANTENNA: DELTA H/E/N
G    8 C1C L1C D1C S1C C2L L2L D2L S2L                      SYS / # / OBS TYPES 
R    8 C1C L1C D1C S1C C2C L2C D2C S2C                      SYS / # / OBS TYPES 
E    8 C1C L1C D1C S1C C7Q L7Q D7Q S7Q                      SYS / # / OBS TYPES 
S    4 C1C L1C D1C S1C                                      SYS / # / OBS TYPES 
  2024    04    17    11    00   00.0100000     GPS         TIME OF FIRST OBS   
  2024    04    17    11    14   30.0100000     GPS         TIME OF LAST OBS    
                                                            END OF HEADER       
> 2024 04 17 11 00 00.0100000  0 24                     
G08  23574949.222   123887232.1431      -2435.777          49.000    23574945.788    96535525.0081      -1897.967          46.000  
E19  27753297.432   145844533.0411       1839.324          42.000    27753296.296   111751019.3341       1409.373          46.000  
G27  25461620.383   133801688.8371      -4015.826          47.000    25461618.310   104261103.5761      -3129.317          44.000  
G28  27537904.475   144712665.1221       1445.056          40.000    27537903.629   112763097.3901       1125.851          43.000  
R08  26277543.135                3      -4770.735          25.000    26277544.911   109445076.3621      -3709.988          32.000  
R17  24610573.080   131696377.6711       2771.692          49.000    24610567.019   102430302.7731       2155.817          48.000  
R02  23018802.891   122832781.0641       1926.430          52.000    23018799.447    95536615.1601       1498.390          49.000  
G03  25195122.838   132401257.6841       1230.175          45.000    25195120.263   103169808.7581        958.516          44.000  
G21  23016263.906   120951306.2401        907.620          48.000                                                                  
S31  41706032.080   219166791.2331       -593.055          44.000  
S33  42659706.902   224178437.4301       -592.297          42.000  
G10  27533616.802   144690212.8311      -3696.291          34.000    27533609.960                3      -2880.285          22.000  
E33  26599050.169   139779074.8021       -245.242          48.000    26599048.706   107103431.2491       -187.875          53.000  
R01  22322955.637   119328969.2861      -2102.886          48.000    22322952.758    92811435.2161      -1635.657          46.000  
R23  24799261.236   132659357.1601      -3339.467          48.000                                                                  
R24  22343087.941   119478636.6421       -118.851          52.000    22343082.782    92927794.1311        -92.357          50.000  
G02  23832389.920   125240083.0011       1374.829          47.000                                                                  
G32  25279988.574   132847254.3421      -2892.659          50.000    25279985.786   103517369.4131      -2253.986          45.000  
E12  29214941.098   153525511.7061       1330.635          40.000    29214937.035   117636464.8741       1019.550          46.000  
E31  30230237.170   158860917.1811      -2823.652          41.000    30230238.331   121724685.0681      -2163.523          46.000  
G04  27526928.000   144654978.8191       3241.486          33.000    27526926.275   112718107.9821       2526.688          35.000  
E07  29679502.926   155966847.9131      -2818.043          42.000    29679504.501   119507075.5391      -2159.440          46.000  
E26  28340524.532   148930707.1311      -1962.185          45.000    28340522.906   114115881.3861      -1503.542          49.000  
E14  29583542.142   155462622.5871       -598.732          46.000    29583541.684   119120735.5911       -458.708          48.000  
> 2024 04 17 11 00 30.0100000  0 24                     
G08  23588905.955   123960574.486       -2453.443          49.000    23588902.762    96592674.836       -1911.879          47.000  
E19  27742820.717   145789474.295        1831.367          43.000    27742819.488   111708831.427        1403.258          47.000  
G27  25484570.020   133922292.112       -4024.165          46.000    25484567.265   104355080.049       -3135.645          43.000  
G28  27529672.251   144669403.684        1439.519          42.000    27529671.653   112729387.151        1121.454          44.000  
R08  26304253.504                3      -4772.216          25.000    26304260.560                3      -3711.545          24.000  
R17  24595043.530   131613274.261        2768.557          50.000    24595037.078   102365666.757        2153.315          47.000  
R02  23008029.680   122775289.223        1906.519          53.000    23008025.966    95491899.284        1482.874          49.000  
G03  25188122.566   132364471.788        1222.317          46.000    25188120.992   103141144.425         952.534          45.000  
G21  23011115.737   120924250.611         896.426          47.000                                                                  
S31  41709415.244   219184569.216        -592.242          44.000  
S33  42663087.153   224196201.427        -592.013          42.000  
G10  27554710.778   144801055.920       -3693.442          37.000                                                                  
E33  26600461.316   139786489.242        -249.039          48.000    26600459.679   107109112.398        -190.829          53.000  
R01  22334815.773   119392369.021       -2123.432          48.000    22334813.347    92860746.082       -1651.575          46.000  
R23  24818026.645   132759738.862       -3352.432          47.000                                                                  
R24  22343803.446   119482465.294        -136.145          51.000    22343798.996    92930771.925        -106.030          50.000  
G02  23824565.468   125198963.130        1366.809          47.000                                                                  
G32  25296546.424   132934268.680       -2908.116          48.000    25296543.102   103585172.751       -2266.077          44.000  
E12  29207342.475   153485583.367        1331.689          40.000    29207338.648   117605870.442        1020.149          45.000  
E31  30246364.714   158945666.093       -2825.993          42.000    30246365.447   121789622.550       -2165.555          45.000  
G04  27508421.788   144557732.677        3241.736          37.000    27508419.757   112642331.735        2526.040          38.000  
E07  29695613.544   156051512.208       -2825.966          42.000    29695615.604   119571948.016       -2165.330          46.000  
E26  28351740.335   148989643.581       -1966.788          45.000    28351738.195   114161040.380       -1506.873          49.000  
E14  29586957.323   155480564.446        -597.335          46.000    29586956.161   119134483.152        -457.677          48.000  
> 2024 04 17 11 01 00.0100000  0 24                     
G08  23602962.537   124034442.211       -2470.838          50.000    23602959.701    96650234.018       -1925.238          47.000  
E19  27732389.585   145734660.750        1822.993          43.000    27732388.539   111666831.380        1396.976          47.000  
G27  25507568.087   134043147.260       -4032.695          46.000    25507565.562   104449252.752       -3142.410          44.000  
G28  27521473.119   144626318.480        1433.298          42.000    27521472.919   112695814.244        1116.973          44.000  
R08  26331010.447                1      -4774.241          28.000    26331009.076   109667702.0511      -3712.979          30.000  
R17  24579532.356   131530271.321        2765.186          51.000    24579526.035   102301108.913        2150.656          46.000  
R02  22997367.956   122718398.716        1886.404          52.000    22997364.887    95447651.063        1467.192          49.000  
G03  25181167.606   132327922.152        1214.587          46.000    25181165.569   103112664.155         946.371          44.000  
G21  23006031.578   120897532.795         885.112          47.000                                                                  
S31  41712796.090   219202336.887        -592.049          44.000  
S33  42666466.099   224213957.305        -591.608          42.000  
G10  27575788.311   144911823.654       -3690.717          37.000    27575781.578                       -2875.608          28.000  
E33  26601894.888   139794021.653        -252.958          49.000    26601893.107   107114883.929        -193.844          53.000  
R01  22346790.800   119456383.547       -2143.872          49.000    22346788.375    92910535.118       -1667.472          45.000  
R23  24836865.932   132860513.110       -3365.574          49.000                                                                  
R24  22344615.981   119486814.187        -153.610          51.000    22344611.439    92934154.341        -119.463          49.000  
G02  23816787.523   125158088.033        1358.466          47.000                                                                  
G32  25313192.748   133021748.984       -2923.648          48.000    25313190.947   103653339.139       -2278.268          44.000  
E12  29199736.833   153445624.748        1332.624          39.000    29199734.447   117575252.770        1020.985          44.000  
E31  30262505.041   159030488.035       -2828.521          41.000    30262506.231   121854615.960       -2167.413          43.000  
G04  27489918.005   144460489.520        3241.393          40.000    27489914.843   112566557.789        2525.510          40.000  
E07  29711770.029   156136412.719       -2833.788          43.000    29711771.450   119637001.485       -2171.404          45.000  
E26  28362978.725   149048716.213       -1971.304          43.000    28362979.568   114206303.752       -1510.500          49.000  
E14  29590364.400   155498467.721        -595.975          46.000    29590363.385   119148201.142        -456.666          49.000  
> 2024 04 17 11 01 30.0100000  0 24                     
G08  23617118.397   124108831.902       -2488.631          49.000    23617115.228    96708199.959       -1939.247          46.000  
E19  27722006.057   145680092.360        1814.590          43.000    27722004.355   111625019.198        1390.450          46.000  
G27  25530613.119   134164249.920       -4041.194          46.000    25530610.121   104543618.328       -3148.842          43.000  
G28  27513309.189   144583410.912        1427.125          43.000    27513306.949   112662379.714        1112.107          42.000  
R08  26357763.649                3      -4776.118          25.000    26357770.389   109779119.569       -3714.874          32.000  
R17  24564039.986   131447369.981        2761.493          50.000    24564034.570   102236630.086        2147.766          48.000  
R02  22986819.479   122662109.917        1865.968          52.000    22986817.007    95403870.848        1451.352          49.000  
G03  25174257.472   132291606.930        1206.405          45.000    25174254.502   103084366.561         940.179          44.000  
G21  23001011.734   120871153.563         873.439          48.000                                                                  
S31  41716175.238   219220094.444        -591.911          44.000  
S33  42669842.349   224231701.055        -591.583          43.000  
G10  27596853.559   145022513.635       -3688.818          39.000    27596850.186                       -2874.028          29.000  
E33  26603350.372   139801671.419        -257.032          49.000    26603348.908   107120745.388        -196.995          53.000  
R01  22358880.120   119521008.035       -2164.505          49.000    22358877.069    92960798.590       -1683.399          45.000  
R23  24855778.651   132961677.533       -3378.845          50.000                                                                  
R24  22345526.654   119491683.919        -171.264          51.000    22345522.685    92937941.855        -133.267          50.000  
G02  23809055.999   125117457.952        1350.061          47.000                                                                  
G32  25329927.172   133109691.201       -2939.294          47.000    25329926.081   103721865.456       -2290.299          45.000  
E12  29192127.325   153405634.833        1333.251          39.000    29192124.281   117544611.107        1021.513          44.000  
E31  30278660.044   159115379.297       -2831.049          41.000    30278660.258   121919662.481       -2169.179          43.000  
G04  27471413.718   144363250.253        3240.723          41.000    27471410.394   112490786.866        2525.356          42.000  
E07  29727970.696   156221546.237       -2841.715          43.000    29727971.732   119702233.495       -2177.434          44.000  
E26  28374245.060   149107924.000       -1975.996          42.000    28374247.000   114251670.627       -1514.117          50.000  
E14  29593763.819   155516331.119        -594.962          46.000    29593763.069   119161888.569        -455.877          49.000  
> 2024 04 17 11 02 00.0100000  0 24                     
G08  23631375.510   124183754.022       -2506.153          49.000    23631372.508    96766580.777       -1952.889          46.000  
E19  27711670.006   145625782.797        1806.380          42.000    27711669.698   111583405.355        1383.898          46.000  
G27  25553707.005   134285609.737       -4049.379          46.000    25553704.459   104638184.279       -3155.418          44.000  
G28  27505181.368   144540696.250        1420.828          45.000    27505179.440   112629095.555        1107.032          44.000  
R08  26384557.733                1      -4778.248          27.000    26384533.081   109890586.456       -3716.666          32.000  
R17  24548569.520   131364585.965        2757.777          50.000    24548564.716   102172242.472        2144.855          48.000  
R02  22976385.495   122606437.195        1845.566          51.000    22976383.398    95360569.797        1435.429          48.000  
G03  25167393.584   132255538.226        1198.362          45.000    25167390.235   103056261.074         933.861          43.000  
G21  22996059.438   120845127.458         861.862          48.000                                                                  
S31  41719554.685   219237851.788        -591.634          44.000  
S33  42673218.985   224249444.453        -591.288          43.000  
G10  27617905.985   145133137.158       -3686.311          38.000    27617900.658                       -2872.408          30.000  
E33  26604831.329   139809451.826        -261.432          49.000    26604829.535   107126706.946        -200.333          54.000  
R01  22371086.127   119586252.108       -2184.968          50.000    22371082.658    93011543.951       -1699.206          45.000  
R23  24874764.969   133063243.688       -3392.093          49.000    24874515.132                3      -2652.040          10.000  
R24  22346538.425   119497089.337        -188.954          51.000    22346533.650    92942146.004        -146.980          49.000  
G02  23801373.754   125077087.359        1341.553          47.000                                                                  
G32  25346753.282   133198105.223       -2954.883          48.000    25346750.856   103790759.398       -2302.341          45.000  
E12  29184514.334   153365626.311        1333.935          39.000    29184510.735   117513955.199        1022.224          43.000  
E31  30294830.554   159200350.189       -2833.669          42.000    30294829.901   121984770.014       -2171.135          44.000  
G04  27452913.482   144266029.703        3240.388          40.000    27452910.003   112415030.538        2524.867          43.000  
E07  29744217.512   156306923.469       -2849.986          44.000    29744218.945   119767652.255       -2183.568          44.000  
E26  28385542.159   149167279.710       -1980.817          43.000    28385541.972   114297150.835       -1517.772          50.000  
E14  29597157.647   155534167.219        -593.906          46.000    29597157.370   119175555.092        -455.089          49.000  
> 2024 04 17 11 02 30.0100000  0 24                     
G08  23645732.022   124259200.692       -2523.413          49.000    23645729.620    96825370.361       -1966.229          46.000  
E19  27701383.651   145571727.762        1797.617          42.000    27701383.771   111541986.501        1377.406          47.000  
G27  25576848.459   134407217.927       -4057.684          46.000    25576846.276   104732943.748       -3161.901          45.000  
G28  27497089.139   144498171.423        1414.388          45.000    27497086.992   112595959.270        1102.003          44.000  
R08  26411327.245                       -4779.571          28.000    26411307.398   110002094.764       -3717.644          33.000  
R17  24533120.599   131281915.992        2753.695          49.000    24533116.046   102107943.554        2141.804          48.000  
R02  22966066.398   122551376.146        1825.165          51.000    22966065.213    95317744.517        1419.645          49.000  
G03  25160575.142   132219709.723        1190.258          45.000    25160572.313   103028342.739         927.419          43.000  
G21  22991173.218   120819450.628         850.050          48.000                                                                  
S31  41722933.154   219255605.217        -591.921          44.000  
S33  42676594.723   224267184.583        -591.183          42.000  
G10  27638943.073   145243687.446       -3683.988          34.000    27638938.709                       -2869.796          30.000  
E33  26606336.156   139817357.752        -265.646          49.000    26606334.096   107132764.683        -203.560          54.000  
R01  22383405.821   119652106.755       -2205.230          49.000    22383402.159    93062764.176       -1715.248          46.000  
R23  24893825.303   133165204.838       -3405.171          49.000                                                                  
R24  22347648.413   119503026.546        -206.735          51.000    22347644.452    92946763.779        -160.809          50.000  
G02  23793740.644   125036972.182        1332.935          48.000                                                                  
G32  25363666.556   133286982.485       -2970.215          48.000    25363663.702   103860014.320       -2314.574          45.000  
E12  29176897.283   153325593.701        1334.737          40.000    29176892.928   117483280.822        1022.856          43.000  
E31  30311013.522   159285392.548       -2835.855          43.000    30311013.242   122049932.340       -2172.983          44.000  
G04  27434415.827   144168824.315        3239.988          39.000    27434412.681   112339286.066        2524.539          40.000  
E07  29760508.598   156392536.703       -2857.779          43.000    29760510.650   119833251.802       -2189.412          43.000  
E26  28396864.969   149226777.784       -1985.480          44.000    28396864.250   114342740.146       -1521.444          50.000  
E14  29600544.796   155551970.337        -592.874          45.000    29600544.998   119189196.335        -454.302          49.000  
> 2024 04 17 11 03 00.0100000  0 24                     
G08  23660192.222   124335183.051       -2541.651          49.000    23660188.615    96884577.342       -1980.561          46.000  
E19  27691149.110   145517941.662        1788.292          42.000    27691148.647   111500773.734        1370.384          47.000  
G27  25600039.045   134529084.766       -4066.530          46.000    25600037.576   104827904.771       -3168.678          45.000  
G28  27489036.231   144455852.377        1407.264          45.000    27489034.774   112562983.346        1096.454          44.000  
R08  26438110.792                       -4781.908          25.000    26438091.187                3      -3720.269          23.000  
R17  24517696.594   131199376.543        2749.197          50.000    24517691.330   102043746.179        2138.314          47.000  
R02  22955865.515   122496942.025        1804.026          51.000    22955864.319    95275406.853        1403.103          49.000  
G03  25153805.674   132184134.160        1181.666          45.000    25153802.771   103000621.502         920.556          44.000  
G21  22986356.631   120794138.321         837.716          48.000                                                                  
S31  41726312.993   219273366.610        -592.264          44.000  
S33  42679972.211   224284932.755        -591.623          42.000  
G10  27659966.657   145354176.671       -3682.019          33.000    27659963.908   113262906.2831      -2869.512          29.000  
E33  26607866.525   139825403.139        -270.529          48.000    26607865.240   107138929.283        -207.305          54.000  
R01  22395841.460   119718581.678       -2226.036          50.000    22395837.863    93114466.856       -1731.437          46.000  
R23  24912961.106   133267572.729       -3419.072          48.000                                                                  
R24  22348860.907   119509511.008        -225.231          51.000    22348857.378    92951807.190        -175.209          50.000  
G02  23786158.592   124997127.242        1323.596          48.000                                                                  
G32  25380669.358   133376333.457       -2986.156          47.000    25380666.445   103929638.355       -2326.673          44.000  
E12  29169277.726   153285550.590        1334.748          40.000    29169273.176   117452598.380        1022.997          43.000  
E31  30327212.616   159370517.319       -2838.798          44.000    30327212.025   122115157.773       -2175.073          45.000  
G04  27415924.559   144071649.735        3238.644          42.000    27415921.081   112263565.485        2523.590          40.000  
E07  29776848.162   156478397.236       -2866.100          45.000    29776849.390   119899040.928       -2196.066          43.000  
E26  28408216.748   149286431.768       -1991.026          44.000    28408216.283   114388448.904       -1525.537          51.000  
E14  29603929.659   155569753.723        -592.424          46.000    29603929.028   119202822.468        -454.027          49.000  
> 2024 04 17 11 03 30.0100000  0 24                     
G08  23674753.756   124411705.815       -2560.012          49.000    23674751.355    96944205.390       -1994.832          46.000  
E19  27680966.753   145464432.894        1778.874          42.000    27680966.303   111459773.455        1362.958          47.000  
G27  25623279.770   134651214.170       -4075.597          46.000    25623278.002   104923070.399       -3175.603          44.000  
G28  27481024.202   144413748.775        1399.465          43.000    27481022.390   112530175.334        1090.614          44.000  
R08  26464895.037                3      -4784.015          26.000    26464898.061                3      -3721.127          26.000  
R17  24502298.755   131116977.258        2743.990          50.000    24502293.349   101979657.807        2134.177          47.000  
R02  22945783.845   122443143.434        1782.474          51.000    22945782.795    95233563.460        1386.361          50.000  
G03  25147085.642   132148817.945        1172.666          47.000    25147082.724   102973102.368         913.614          44.000  
G21  22981610.211   120769199.355         824.794          47.000                                                                  
S31  41729695.738   219291142.787        -592.994          44.000  
S33  42683352.204   224302695.213        -592.703          43.000  
G10  27680979.177                3      -3679.157          30.000    27680980.084                       -2867.708          28.000  
E33  26609424.910   139833595.596        -275.857          48.000    26609424.201   107145206.569        -211.373          53.000  
R01  22408393.819   119785681.046       -2247.216          50.000    22408390.303    93166655.200       -1747.799          46.000  
R23  24932175.325   133370353.475       -3433.210          48.000                                                                  
R24  22350177.837   119516551.412        -244.260          51.000    22350173.475    92957282.980        -189.942          50.000  
G02  23778628.908   124957561.338        1313.953          48.000                                                                  
G32  25397762.822   133466162.321       -3002.515          45.000    25397759.803   103999634.788       -2339.497          43.000  
E12  29161656.132   153245504.113        1334.669          40.000    29161652.631   117421913.401        1022.873          43.000  
E31  30343427.165   159455729.096       -2841.977          43.000    30343427.516   122180449.887       -2177.681          45.000  
G04  27397440.801   143974515.040        3237.109          41.000    27397437.081   112187876.049        2522.150          41.000  
E07  29793234.569   156564510.147       -2874.909          45.000    29793236.666   119965023.358       -2202.851          44.000  
E26  28419600.584   149346248.797       -1996.789          45.000    28419599.419   114434282.597       -1530.005          51.000  
E14  29607310.908   155587524.305        -592.405          46.000    29607310.888   119216438.796        -453.959          50.000  
> 2024 04 17 11 04 00.0100000  0 25                     
G08  23689418.665   124488772.786       -2577.728          48.000    23689416.631    97004257.492       -2008.655          47.000  
E19  27670838.205   145411208.655        1769.673          42.000    27670837.894   111418991.189        1355.999          46.000  
G27  25646571.548   134773609.096       -4083.966          47.000    25646568.815   105018442.955       -3182.332          44.000  
G28  27473055.269   144371869.215        1392.484          44.000    27473052.662   112497541.902        1085.073          43.000  
R08  26491706.764                2      -4786.437          27.000    26491699.230                       -3722.556          30.000  
R03  27162848.867                3       3252.000          12.000                                                                  
R17  24486928.392   131034727.221        2739.501          50.000    24486922.818   101915685.501        2130.701          47.000  
R02  22935823.802   122389987.506        1761.457          53.000    22935821.358    95192219.932        1369.963          50.000  
G03  25140415.780   132113766.564        1164.234          47.000    25140412.043   102945789.565         907.181          44.000  
G21  22976937.182   120744641.335         812.576          46.000                                                                  
S31  41733082.539   219308939.604        -593.256          45.000  
S33  42686736.279   224320478.323        -593.217          43.000  
E33  26611013.277   139841941.796        -280.486          48.000    26611012.332   107151601.650        -214.962          53.000  
R01  22421062.960   119853407.098       -2267.557          49.000    22421060.510    93219330.954       -1763.766          47.000  
R23  24951467.311   133473552.028       -3446.527          48.000                                                                  
R24  22351600.505   119524155.860        -262.643          52.000    22351595.232    92963197.489        -204.253          50.000  
G02  23771153.770   124918282.048        1304.706          48.000                                                                  
G32  25414948.164   133556472.341       -3018.226          44.000    25414945.193   104070006.101       -2351.709          44.000  
E12  29154035.666   153205460.583        1334.942          40.000    29154033.028   117391230.649        1022.954          43.000  
E31  30359659.464   159541031.513       -2844.643          42.000    30359659.987   122245811.456       -2179.526          45.000  
G04  27378965.838   143877428.604        3235.436          42.000    27378962.839   112112224.136        2521.100          38.000  
E07  29809670.421   156650879.471       -2882.944          45.000    29809672.050   120031202.291       -2209.188          43.000  
E26  28431014.195   149406235.063       -2002.112          44.000    28431014.534   114480246.004       -1534.062          51.000  
E14  29610691.071   155605288.130        -591.906          46.000    29610691.433   119230049.936        -453.390          50.000  
G10                                                                  27701987.913                       -2866.166          30.000  
> 2024 04 17 11 04 30.0100000  0 24                     
G08  23704187.046   124566383.048       -2596.051          48.000    23704185.463    97064732.955       -2022.815          47.000  
E19  27660764.698   145358271.317        1759.828          42.000    27660764.397   111378428.757        1348.536          47.000  
G27  25669912.690   134896267.816       -4092.956          47.000    25669910.717   105114021.055       -3189.319          45.000  
G28  27465128.670   144330217.669        1384.723          41.000    27465126.657   112465086.143        1078.618          42.000  
R08  26518539.530                1      -4789.088          26.000    26518522.979                       -3724.653          31.000  
R17  24471586.119   130952630.201        2733.931          50.000    24471580.371   101851832.221        2126.305          46.000  
R02  22925983.748   122337477.378        1739.469          53.000    22925980.883    95151378.667        1352.923          49.000  
G03  25133796.693   132078980.715        1155.271          47.000    25133792.660   102918683.690         900.135          44.000  
G21  22972337.218   120720468.212         799.436          46.000                                                                  
S31  41736472.905   219326757.547        -594.397          45.000  
S33  42690124.495   224338283.609        -593.769          43.000  
E33  26612630.934   139850443.704        -285.903          48.000    26612630.279   107158116.045        -219.100          53.000  
R01  22433849.137   119921758.005       -2288.575          49.000    22433846.817    93272492.724       -1779.980          46.000  
R23  24970838.349   133577168.144       -3460.703          50.000    24970375.704                3      -2713.151          10.000  
R24  22353128.767   119532327.370        -281.744          51.000    22353123.553    92969553.052        -219.144          50.000  
G02  23763734.387   124879292.569        1294.836          48.000                                                                  
G32  25432224.399   133647261.893       -3034.217          42.000    25432222.079   104140751.114       -2364.160          43.000  
E12  29146417.254   153165421.552        1334.621          41.000    29146413.653   117360551.377        1022.608          43.000  
E31  30375908.941   159626423.556       -2847.953          40.000    30375909.600   122311241.704       -2181.978          44.000  
G04  27360500.578   143780393.874        3233.667          43.000    27360497.840   112036612.597        2519.677          41.000  
E07  29826154.983   156737504.613       -2891.738          46.000    29826155.829   120097577.252       -2215.642          42.000  
E26  28442461.971   149466392.130       -2007.966          44.000    28442462.397   114526340.273       -1538.624          51.000  
E14  29614070.586   155623046.454        -591.745          46.000    29614070.881   119243656.878        -453.429          50.000  
G10                                                                  27722987.685                       -2864.892          27.000  
> 2024 04 17 11 05 00.0100000  0 24                     
G08  23719058.236   124644527.495       -2613.190          50.000    23719055.898    97125624.664       -2036.353          47.000  
E19  27650745.184   145305615.221        1750.876          43.000    27650744.367   111338081.824        1341.714          47.000  
G27  25693302.535   135019180.466       -4100.730          47.000    25693300.188   105209797.001       -3195.406          44.000  
G28  27457243.940   144288790.130        1377.148          39.000    27457243.091   112432804.835        1073.643          43.000  
R08  26545374.424                3      -4788.216          25.000    26545359.956                       -3725.187          28.000  
R17  24456271.944   130870682.129        2729.546          50.000    24456266.445   101788094.793        2122.949          46.000  
R02  22916263.040   122285607.406        1718.743          52.000    22916260.805    95111035.331        1336.854          49.000  
G03  25127225.175   132044452.999        1146.986          46.000    25127222.336   102891778.967         893.676          43.000  
G21  22967808.654   120696674.706         787.026          45.000                                                                  
S31  41739866.494   219344590.974        -594.273          45.000  
S33  42693515.709   224356103.169        -593.753          43.000  
E33  26614278.331   139859095.223        -290.454          49.000    26614276.510   107164745.064        -222.523          53.000  
R01  22446750.201   119990723.364       -2308.520          49.000    22446748.460    93326132.400       -1795.411          46.000  
R23  24990284.413   133681193.727       -3473.951          48.000                                                                  
R24  22354761.523   119541060.986        -299.996          52.000    22354757.012    92976345.807        -233.403          50.000  
G02  23756369.199   124840587.792        1285.852          48.000                                                                  
G32  25449589.510   133738521.363       -3049.136          42.000    25449588.948   104211862.301       -2376.011          43.000  
E12  29138797.381   153125380.425        1335.006          41.000    29138793.989   117329870.450        1023.233          43.000  
E31  30392174.430   159711896.022       -2849.854          39.000    30392174.670   122376733.576       -2183.664          44.000  
G04  27342044.784   143683406.337        3232.484          42.000    27342042.164   111961037.783        2518.540          41.000  
E07  29842686.477   156824376.748       -2899.292          47.000    29842687.206   120164141.463       -2221.573          41.000  
E26  28453940.015   149526713.335       -2012.864          43.000    28453941.145   114572560.292       -1542.376          50.000  
E14  29617447.953   155640792.497        -590.738          47.000    29617448.299   119257254.391        -452.683          50.000  
G10                                                                  27743975.451                       -2862.878          29.000  
> 2024 04 17 11 05 30.0100000  0 24                     
G08  23734025.311   124723180.730       -2630.609          50.000    23734023.067    97186912.823       -2049.683          47.000  
E19  27640774.124   145253218.483        1741.780          43.000    27640773.413   111297933.634        1334.658          46.000  
G27  25716735.812   135142320.862       -4108.860          47.000    25716732.482   105305750.421       -3201.627          44.000  
G28  27449400.339   144247566.049        1370.237          40.000    27449398.683   112400682.063        1067.819          43.000  
R08  26572212.486                3      -4785.536          20.000    26572200.714                       -3726.569          29.000  
R17  24440981.876   130788862.260        2724.812          50.000    24440976.137   101724457.066        2119.204          47.000  
R02  22906657.646   122234355.191        1697.735          51.000    22906655.662    95071172.458        1320.427          49.000  
G03  25120699.736   132010159.730        1138.896          46.000    25120697.239   102865056.897         887.544          44.000  
G21  22963348.695   120673239.533         774.902          46.000                                                                  
S31  41743258.511   219362415.346        -594.332          45.000  
S33  42696904.638   224373913.586        -593.799          43.000  
E33  26615948.839   139867873.816        -295.079          49.000    26615947.007   107171471.473        -226.122          53.000  
R01  22459761.621   120060275.985       -2328.578          49.000    22459759.501    93380228.848       -1810.972          46.000  
R23  25009802.786   133785603.757       -3487.250          48.000    25009638.635                3      -2740.000          12.000  
R24  22356495.501   119550334.971        -318.515          51.000    22356490.996    92983558.849        -247.693          50.000  
G02  23749054.148   124802146.085        1276.764          48.000                                                                  
G32  25467040.587   133830224.774       -3064.369          43.000    25467039.325   104283319.428       -2387.973          43.000  
E12  29131172.474   153085314.364        1335.685          41.000    29131169.988   117299170.485        1023.243          43.000  
E31  30408449.169   159797423.444       -2852.309          36.000    30408450.179   122442267.579       -2185.334          43.000  
G04  27323594.030   143586445.151        3231.277          42.000    27323591.451   111885483.497        2517.792          40.000  
E07  29859260.148   156911470.800       -2907.130          47.000    29859261.455   120230875.730       -2227.568          42.000  
E26  28465446.900   149587175.723       -2018.129          44.000    28465446.436   114618888.500       -1546.337          50.000  
E14  29620818.278   155658503.085        -590.071          46.000    29620818.532   119270824.735        -452.108          50.000  
G10                                                                  27764946.355                       -2862.038          28.000  
> 2024 04 17 11 06 00.0100000  0 25                     
G08  23749093.879   124802366.423       -2648.596          50.000    23749090.815    97248615.892       -2063.818          46.000  
E19  27630858.272   145201108.462        1731.926          43.000    27630856.950   111258005.137        1327.078          46.000  
G27  25740216.133   135265711.919       -4117.498          47.000    25740213.687   105401899.122       -3208.311          45.000  
G28  27441599.969   144206573.867        1362.191          42.000    27441597.034   112368740.086        1061.661          42.000  
R08  26599057.575                3      -4799.879          25.000    26599039.188                3      -3727.872          23.000  
R17  24425721.246   130707199.847        2719.172          50.000    24425715.901   101660941.815        2114.957          47.000  
R02  22897174.347   122183748.489        1675.894          52.000    22897171.241    95031811.677        1303.433          48.000  
G03  25114223.415   131976126.257        1129.877          46.000    25114220.543   102838537.262         880.456          43.000  
G21  22958962.621   120650190.723         761.522          46.000                                                                  
S31  41746653.673   219380255.993        -595.261          45.000  
S33  42700297.273   224391740.850        -594.659          43.000  
E33  26617648.961   139876806.128        -300.666          49.000    26617646.788   107178315.646        -230.324          53.000  
R01  22472887.649   120130439.041       -2349.190          49.000    22472885.123    93434800.052       -1826.981          46.000  
R23  25029397.681   133890423.437       -3501.068          48.000                                                                  
R24  22358335.102   119560177.364        -337.741          51.000    22358332.614    92991213.995        -262.815          50.000  
G02  23741794.506   124763994.830        1266.736          48.000                                                                  
G32  25484580.952   133922395.212       -3080.286          43.000    25484578.064   104355140.413       -2400.238          42.000  
E12  29123549.039   153045249.701        1335.056          41.000    29123545.628   117268471.549        1023.046          44.000  
E31  30424740.665   159883029.366       -2854.861          35.000    30424740.326   122507861.743       -2187.775          42.000  
G04  27305153.187   143489538.447        3228.870          43.000    27305149.917   111809971.671        2516.328          42.000  
E07  29875880.468   156998810.807       -2915.686          47.000    29875881.331   120297798.422       -2234.242          42.000  
E26  28476984.681   149647805.499       -2024.246          45.000    28476984.152   114665344.950       -1550.940          50.000  
E14  29624186.762   155676204.176        -590.290          46.000    29624186.691   119284387.785        -452.221          49.000  
G10                                                                  27785905.743                       -2860.566          26.000  
G31                                                                  28123505.566                3       1283.076          24.000  
> 2024 04 17 11 06 30.0100000  0 25                     
G08  23764264.833   124882090.850       -2666.235          49.000    23764262.554    97310738.749       -2077.417          46.000  
G31  28114108.794   147740653.3391       1646.879          31.000    28114105.721                        1282.319          29.000  
E19  27620998.181   145149294.787        1722.518          43.000    27620997.089   111218303.714        1319.750          46.000  
G27  25763745.250   135389359.192       -4125.584          46.000    25763742.672   105498247.473       -3214.629          44.000  
G28  27433844.598   144165824.956        1354.335          43.000    27433841.903   112336987.680        1055.497          42.000  
R17  24410492.298   130625706.758        2713.860          50.000    24410486.816   101597558.295        2110.767          48.000  
R02  22887813.980   122133797.684        1654.327          52.000    22887810.538    94992961.003        1286.695          48.000  
G03  25107798.242   131942360.603        1121.323          46.000    25107795.751   102812226.347         873.796          44.000  
G21  22954652.701   120627538.731         748.690          46.000                                                                  
S31  41750053.461   219398122.019        -595.813          45.000  
S33  42703694.480   224409593.517        -595.004          43.000  
E33  26619379.354   139885901.413        -305.661          49.000    26619377.553   107185284.718        -234.260          53.000  
R01  22486127.796   120201217.564       -2369.294          47.000    22486125.443    93489849.965       -1842.646          46.000  
R23  25049071.404   133995659.905       -3514.671          49.000    25049356.095                3      -2775.000          12.000  
R24  22360284.083   119570598.564        -356.908          50.000    22360280.841    92999319.311        -277.506          49.000  
G02  23734591.570   124726144.694        1256.854          47.000                                                                  
G32  25502210.986   134015038.456       -3095.769          43.000    25502208.445   104427329.830       -2412.265          44.000  
E12  29115926.500   153005195.144        1335.337          40.000    29115923.916   117237780.365        1022.977          44.000  
E31  30441048.559   159968720.149       -2857.363          33.000    30441046.747   122573520.862       -2189.623          41.000  
G04  27286725.350   143392697.180        3227.146          43.000    27286721.919   111734510.843        2514.635          42.000  
E07  29892549.010   157086403.378       -2923.855          47.000    29892550.322   120364914.644       -2240.276          43.000  
E26  28488555.466   149708611.357       -2029.578          45.000    28488555.127   114711936.357       -1555.105          50.000  
E14  29627556.044   155693904.346        -589.857          46.000    29627554.467   119297950.146        -451.915          49.000  
G10                                                                  27806852.531                3      -2861.330          20.000  
R08                                                                  26625905.467                3      -3728.384          24.000  
> 2024 04 17 11 07 00.0100000  0 24                     
G08  23779537.231   124962346.393       -2683.636          50.000    23779534.961    97373275.468       -2091.156          46.000  
G31  28104707.544   147691257.056        1647.340          35.000    28104708.708   115084070.3011       1283.261          33.000  
E19  27611193.954   145097773.480        1712.644          44.000    27611193.059   111178826.307        1312.218          46.000  
G27  25787321.916   135513254.330       -4133.702          46.000    25787319.543   105594788.981       -3221.072          44.000  
G28  27426137.357   144125316.713        1346.211          45.000    27426134.309   112305422.792        1049.104          44.000  
R17  24395293.891   130544380.085        2708.334          49.000    24395289.306   101534304.180        2106.436          48.000  
R02  22878575.525   122084498.448        1632.623          52.000    22878571.878    94954617.115        1269.742          49.000  
G03  25101422.454   131908856.923        1112.496          47.000    25101419.772   102786119.512         866.850          43.000  
G21  22950416.761   120605280.053         735.565          46.000                                                                  
S31  41753457.078   219416007.977        -596.295          45.000  
S33  42707095.687   224427466.143        -596.070          43.000  
E33  26621140.315   139895155.120        -310.951          49.000    26621138.578   107192375.155        -238.298          53.000  
R01  22499481.534   120272602.748       -2389.411          48.000    22499479.690    93545371.737       -1858.397          47.000  
R23  25068820.724   134101306.796       -3528.182          48.000                                                                  
R24  22362342.054   119581595.315        -375.990          52.000    22362336.829    93007872.291        -292.463          49.000  
G02  23727445.739   124688592.168        1246.991          47.000                                                                  
G32  25519928.659   134108146.351       -3111.137          41.000    25519925.693   104499881.325       -2424.344          44.000  
E12  29108305.323   152965145.805        1335.245          40.000    29108302.755   117207093.154        1023.037          44.000  
E31  30457369.268   160054488.117       -2859.894          32.000    30457367.867   122639239.141       -2191.504          39.000  
G04  27268308.999   143295918.346        3224.873          43.000    27268306.057   111659098.653        2513.023          44.000  
E07  29909263.435   157174241.327       -2931.831          46.000    29909264.944   120432218.848       -2246.499          43.000  
E26  28500158.734   149769588.327       -2035.168          44.000    28500159.072   114758658.822       -1559.483          50.000  
E14  29630922.206   155711598.301        -589.467          46.000    29630921.659   119311507.754        -451.641          48.000  
G10                                                                  27827784.968                3      -2861.012          23.000  
> 2024 04 17 11 07 30.0100000  0 25                     
G08  23794909.893   125043127.463       -2701.019          50.000    23794906.719    97436221.681       -2104.565          46.000  
G31  28095302.661   147641833.443        1647.959          38.000    28095302.340   115045558.358        1284.435          35.000  
E19  27601445.697   145046542.445        1703.185          44.000    27601444.055   111139571.294        1305.139          46.000  
G27  25810943.966   135637391.002       -4141.581          45.000    25810942.394   105691518.712       -3227.098          44.000  
G28  27418475.234   144085048.466        1338.718          46.000    27418471.412   112274044.925        1043.029          43.000  
R08  26679699.259                3      -4806.336          14.000                                                                  
R17  24380127.598   130463219.560        2702.997          49.000    24380122.704   101471179.289        2102.372          48.000  
R02  22869459.165   122035848.817        1611.254          52.000    22869455.671    94916778.482        1253.143          50.000  
G03  25095096.693   131875611.313        1104.427          47.000    25095092.460   102760213.819         860.682          41.000  
G21  22946256.696   120583414.065         722.736          47.000                                                                  
S31  41756863.467   219433910.069        -596.453          45.000  
S33  42710499.767   224445354.373        -596.266          43.000  
E33  26622931.189   139904564.626        -315.860          49.000    26622929.352   107199584.975        -241.984          53.000  
R01  22512948.672   120344587.802       -2409.053          49.000    22512946.380    93601360.039       -1873.720          46.000  
R23  25088646.410   134207359.028       -3541.337          49.000    25087794.583                3      -2799.265          12.000  
R24  22364505.875   119593165.760        -394.790          51.000    22364500.456    93016871.457        -307.088          49.000  
G02  23720356.344   124651335.710        1237.360          48.000                                                                  
G32  25537733.593   134201712.664       -3126.103          40.000    25537732.434   104572790.018       -2435.913          44.000  
E12  29100684.876   152925098.744        1335.252          40.000    29100682.115   117176407.689        1023.134          44.000  
E31  30473704.772   160140327.645       -2861.874          33.000    30473702.707   122705012.286       -2193.084          39.000  
G04  27249904.305   143199200.880        3223.406          44.000    27249901.412   111583734.313        2511.393          45.000  
E07  29926024.254   157262319.398       -2939.395          46.000    29926026.060   120499707.101       -2252.290          43.000  
E26  28511795.193   149830733.230       -2040.572          45.000    28511794.525   114805509.984       -1563.530          50.000  
E14  29634287.439   155729282.777        -588.937          45.000    29634286.772   119325058.087        -451.267          48.000  
G10                                                                  27848724.697                3      -2861.118          23.000  
> 2024 04 17 11 08 00.0100000  0 25                     
G08  23810378.103   125124413.422       -2717.950          49.000    23810375.408    97499561.327       -2117.889          46.000  
G31  28085889.761   147592366.389        1649.540          41.000    28085888.515   115007012.594        1285.181          39.000  
E19  27591748.980   144995584.633        1694.072          44.000    27591747.146   111100525.653        1297.898          46.000  
G27  25834607.988   135761747.988       -4149.099          44.000    25834607.331   105788420.048       -3232.976          44.000  
G28  27410854.614   144045004.588        1330.907          46.000    27410851.867   112242841.879        1037.131          44.000  
R08  26706560.575                3      -4792.359          13.000                                                                  
R17  24364989.029   130382209.274        2697.744          50.000    24364983.377   101408171.238        2098.235          49.000  
R02  22860460.127   121987831.567        1589.931          52.000    22860457.235    94879431.707        1236.496          49.000  
G03  25088816.274   131842604.940        1096.060          47.000    25088811.239   102734494.543         854.070          41.000  
G21  22942167.201   120561923.742         709.944          47.000                                                                  
S31  41760269.682   219451808.898        -596.791          45.000  
S33  42713903.188   224463239.334        -596.182          43.000  
G10  27869640.185                1      -3661.355          29.000    27869635.048                3      -2857.737          20.000  
E33  26624747.870   139914112.386        -320.573          49.000    26624746.335   107206900.740        -245.630          53.000  
R01  22526522.693   120417150.412       -2428.412          49.000    22526520.565    93657797.579       -1888.679          47.000  
R23  25108545.105   134313796.869       -3554.449          50.000                                                                  
R24  22366773.911   119605293.240        -413.613          52.000    22366768.226    93026303.876        -321.661          48.000  
G02  23713319.924   124614358.628        1227.783          48.000                                                                  
G32  25555621.712   134295716.362       -3140.591          42.000    25555620.968   104646039.537       -2447.274          45.000  
E12  29093061.531   152885035.992        1335.537          40.000    29093058.401   117145710.208        1023.509          44.000  
E31  30490048.601                       -2863.647          28.000    30490047.292   122770824.461       -2194.704          38.000  
G04  27231507.786   143102528.859        3221.584          44.000    27231505.972   111508405.359        2510.177          45.000  
E07  29942826.850   157350617.422       -2946.995          46.000    29942829.092   120567363.847       -2258.032          44.000  
E26  28523459.981   149892028.008       -2045.842          46.000    28523458.452   114852475.986       -1567.469          50.000  
E14  29637647.051   155746939.506        -588.052          45.000    29637647.003   119338587.156        -450.594          48.000  
> 2024 04 17 11 08 30.0100000  0 24                     
G08  23825943.718   125206214.371       -2735.236          49.000    23825941.746    97563302.242       -2131.311          46.000  
G31  28076471.499   147542870.965        1650.265          44.000    28076470.001   114968444.689        1286.032          42.000  
E19  27582106.452   144944913.628        1684.169          44.000    27582105.180   111061699.750        1290.429          47.000  
G27  25858317.154   135886334.573       -4156.752          45.000    25858315.740   105885500.337       -3238.948          44.000  
G28  27403279.773   144005200.274        1322.708          45.000    27403277.867   112211825.467        1030.608          44.000  
R17  24349881.703   130301364.971        2691.941          50.000    24349876.018   101345292.296        2093.641          49.000  
R02  22851582.920   121940460.553        1568.193          52.000    22851579.218    94842587.533        1219.712          48.000  
G03  25082583.040   131809849.623        1087.663          47.000    25082577.908   102708970.867         847.489          42.000  
G21  22938151.189   120540823.547         696.881          46.000                                                                  
S31  41763677.798   219469718.552        -597.345          45.000  
S33  42717308.535   224481135.559        -596.727          43.000  
G10  27890521.644                3      -3659.548          27.000    27890538.397                3      -2854.379          20.000  
E33  26626593.579   139923811.557        -325.844          49.000    26626592.168   107214332.507        -249.704          53.000  
R01  22540207.142   120490299.829       -2447.991          49.000    22540204.932    93714691.515       -1904.131          47.000  
R23  25128515.624   134420631.490       -3567.687          50.000    25128836.129                3      -2828.660          10.000  
R24  22369148.598   119617991.766        -432.795          52.000    22369143.495    93036180.446        -336.680          49.000  
G02  23706339.191   124577675.240        1217.914          48.000                                                                  
G32  25573594.378   134390166.958       -3155.768          42.000    25573593.499   104719637.289       -2459.138          45.000  
E12  29085437.415   152844970.276        1335.537          41.000    29085434.147   117115010.471        1023.451          44.000  
E31  30506408.485                1      -2866.038          28.000    30506403.148   122836683.420       -2195.935          37.000  
G04  27213123.060   143005917.024        3219.315          43.000    27213121.327   111433123.301        2508.642          45.000  
E07  29959673.552   157439145.871       -2954.880          46.000    29959675.193   120635197.163       -2264.177          44.000  
E26  28535153.592   149953485.328       -2051.354          45.000    28535153.494   114899566.525       -1571.785          50.000  
E14  29641004.078   155764580.902        -587.825          45.000    29641004.272   119352104.480        -450.478          48.000  
> 2024 04 17 11 09 00.0100000  0 23                     
G08  23841608.579   125288530.363       -2752.740          50.000    23841605.665    97627444.489       -2144.806          46.000  
G31  28067047.276   147493351.872        1650.773          42.000    28067046.048   114929858.399        1286.165          41.000  
E19  27572519.897   144894533.173        1674.481          44.000    27572518.588   111023096.493        1282.954          47.000  
G27  25882068.641   136011150.214       -4164.535          44.000    25882067.162   105982759.113       -3245.013          43.000  
G28  27395751.631   143965640.587        1314.404          45.000    27395750.279   112180999.684        1024.144          45.000  
R17  24334806.563   130220692.043        2686.025          50.000    24334800.771   101282546.615        2089.141          50.000  
R02  22842826.886   121893739.203        1546.392          52.000    22842823.660    94806248.661        1202.733          47.000  
G03  25076397.673   131777347.279        1079.021          47.000    25076393.754   102683644.337         840.666          43.000  
G21  22934211.576   120520117.670         683.397          46.000                                                                  
S31  41767087.748   219487639.398        -597.663          45.000  
S33  42720716.494   224499042.347        -597.264          43.000  
E33  26628468.631   139933665.305        -331.204          48.000    26628467.385   107221882.712        -253.751          53.000  
R01  22554001.240   120564034.969       -2467.792          49.000    22553998.406    93772041.016       -1919.275          47.000  
R23  25148561.789   134527863.871       -3581.140          49.000                                                                  
R24  22371630.939   119631265.702        -452.223          52.000    22371625.671    93046504.536        -351.668          49.000  
G02  23699414.793   124541289.965        1207.690          48.000                                                                  
G32  25591652.050   134485064.000       -3170.840          44.000    25591650.876   104793582.899       -2470.602          44.000  
E12  29077813.132   152804904.523        1335.334          41.000    29077810.134   117084310.689        1023.244          44.000  
G04  27194750.424   142909370.099        3217.038          43.000    27194748.987   111357891.834        2506.697          45.000  
E07  29976564.180   157527905.282       -2962.598          46.000    29976565.863   120703207.450       -2270.058          45.000  
E26  28546879.259   150015107.828       -2056.945          45.000    28546880.089   114946783.629       -1576.145          50.000  
E14  29644358.717   155782209.444        -587.675          46.000    29644358.936   119365611.953        -450.134          48.000  
E31                                                                  30522770.852   122902589.304       -2197.646          37.000  
> 2024 04 17 11 09 30.0100000  0 23                     
G08  23857369.579   125371355.679       -2769.189          50.000    23857367.071    97691983.639       -2157.812          46.000  
G31  28057619.746   147443808.145        1651.905          41.000    28057618.438   114891252.894        1287.443          41.000  
E19  27562986.871   144844441.082        1665.011          43.000    27562986.313   110984714.205        1275.638          47.000  
G27  25905862.782   136136188.610       -4171.822          44.000    25905860.994   106080191.476       -3250.539          43.000  
G28  27388270.135   143926324.931        1306.265          44.000    27388269.428   112150364.061        1017.870          46.000  
R17  24319762.717   130140189.935        2680.477          49.000    24319757.105   101219933.820        2084.757          50.000  
R02  22834192.032   121847665.525        1524.955          52.000    22834189.039    94770413.545        1186.077          48.000  
G03  25070260.111   131745093.998        1070.893          48.000    25070256.274   102658511.882         834.445          42.000  
G21  22930346.706   120499805.104         670.531          47.000                                                                  
S31  41770499.845   219505568.795        -597.596          45.000  
S33  42724125.753   224516958.485        -597.447          43.000  
E33  26630372.806   139943671.055        -336.011          48.000    26630371.345   107229549.392        -257.556          53.000  
R01  22567903.311   120638348.871       -2486.700          50.000    22567900.081    93829840.668       -1934.165          47.000  
R23  25168681.319   134635489.227       -3593.960          49.000                                                                  
R24  22374220.264   119645113.384        -471.235          52.000    22374215.557    93057274.890        -366.504          48.000  
G02  23692547.323   124505200.808        1197.986          48.000                                                                  
G32  25609795.052   134580401.354       -3185.135          46.000    25609793.335   104867871.619       -2482.154          44.000  
E12  29070188.470   152764835.651        1335.708          41.000    29070185.312   117053608.524        1023.365          44.000  
E31  30539154.053                       -2870.131          28.000    30539149.371   122968537.836       -2199.002          36.000  
G04  27176389.933   142812887.169        3214.668          43.000    27176388.819   111282710.207        2505.170          45.000  
E07  29993498.283   157616890.418       -2970.005          46.000    29993499.455   120771390.657       -2275.634          46.000  
E26  28558637.989   150076892.445       -2062.192          46.000    28558637.533   114994124.935       -1580.130          50.000  
E14  29647710.127   155799821.819        -586.836          45.000    29647710.926   119379107.048        -449.626          48.000  
> 2024 04 17 11 10 00.0100000  0 23                     
G08  23873224.998   125454676.108       -2785.278          50.000    23873221.851    97756908.554       -2170.312          45.000  
G31  28048185.581   147394230.549        1653.129          44.000    28048184.518   114852620.995        1288.241          42.000  
E19  27553507.711   144794626.696        1656.005          43.000    27553507.071   110946544.687        1268.887          47.000  
G27  25929696.641   136261434.883       -4178.155          44.000    25929694.680   106177785.811       -3255.613          43.000  
G28  27380833.088   143887244.110        1298.717          44.000    27380832.841   112119911.428        1012.213          46.000  
R17  24304749.328   130059849.889        2675.455          48.000    24304743.582   101157447.060        2080.873          49.000  
R02  22825676.647   121802228.784        1504.124          51.000    22825675.110    94735073.819        1169.833          49.000  
G03  25064167.297   131713077.365        1063.499          47.000    25064163.614   102633563.834         828.675          42.000  
G21  22926554.345   120479875.875         658.102          47.000                                                                  
S31  41773911.161   219523494.805        -597.319          45.000  
S33  42727534.310   224534870.673        -596.646          43.000  
E33  26632303.522   139953817.713        -340.451          48.000    26632302.243   107237324.029        -260.820          53.000  
R01  22581910.963   120713226.007       -2505.086          50.000    22581907.844    93888078.383       -1948.397          47.000  
R23  25188872.274   134743494.144       -3606.138          49.000                                                                  
R24  22376914.974   119659524.366        -489.499          51.000    22376911.288    93068483.364        -380.738          49.000  
G02  23685734.513   124469397.937        1188.910          48.000                                                                  
G32  25628019.981   134676164.324       -3199.120          47.000    25628017.191   104942491.968       -2492.816          45.000  
E12  29062560.455   152724752.274        1336.466          41.000    29062557.555   117022895.220        1024.119          43.000  
G04  27158040.482   142716458.684        3213.097          43.000    27158039.020   111207571.014        2504.160          45.000  
E07  30010472.211   157706087.557       -2976.713          46.000    30010473.187   120839736.340       -2280.714          47.000  
E26  28570424.310   150138827.550       -2066.829          46.000    28570423.845   115041581.563       -1583.700          50.000  
E14  29651056.686   155817406.306        -585.641          45.000    29651057.108   119392580.756        -448.701          48.000  
E31                                                                  30555535.297   123034518.111       -2199.906          34.000  
> 2024 04 17 11 10 30.0100000  0 23                     
G08  23889176.126   125538499.053       -2802.753          50.000    23889173.144    97822225.064       -2183.911          45.000  
G31  28038747.380   147344631.177        1653.436          45.000    28038745.920   114813972.126        1288.416          41.000  
E19  27544083.409   144745101.000        1645.862          44.000    27544082.488   110908596.377        1261.026          47.000  
G27  25953571.324   136386895.762       -4185.878          44.000    25953569.994   106275547.355       -3261.575          44.000  
G28  27373443.548   143848410.555        1290.056          43.000    27373442.953   112089651.476        1005.070          45.000  
R17  24289768.664   129979684.553        2668.953          50.000    24289762.561   101095096.221        2075.803          50.000  
R02  22817283.252   121757439.742        1481.914          51.000    22817282.093    94700237.866        1152.593          49.000  
G03  25058121.562   131681306.588        1054.606          47.000    25058118.192   102608807.339         821.775          43.000  
G21  22922836.918   120460341.808         644.192          46.000                                                                  
S31  41777323.580   219541426.878        -597.893          44.000  
S33  42730943.802   224552788.656        -597.688          43.000  
E33  26634263.015   139964115.824        -346.164          48.000    26634262.076   107245214.721        -265.221          53.000  
R01  22596024.480   120788672.852       -2524.629          50.000    22596021.696    93946759.200       -1963.658          47.000  
R23  25209134.917   134851887.073       -3619.928          48.000                                                                  
R24  22379717.499   119674510.478        -509.445          52.000    22379713.372    93080139.147        -396.158          49.000  
G02  23678978.614   124433893.032        1178.228          48.000                                                                  
G32  25646325.469   134772359.749       -3213.890          48.000    25646321.794   105017449.331       -2504.437          44.000  
E12  29054931.897   152684664.601        1336.073          41.000    29054929.227   116992178.642        1023.744          43.000  
G04  27139703.719   142620096.776        3210.882          43.000    27139701.875   111132483.741        2501.789          45.000  
E07  30027487.666   157795504.575       -2984.528          45.000    30027489.550   120908250.504       -2286.865          48.000  
E26  28582240.067   150200923.134       -2072.973          45.000    28582240.298   115089161.151       -1588.270          50.000  
E14  29654399.363   155834972.601        -585.589          45.000    29654399.741   119406040.535        -448.605          48.000  
E31                                                                  30571930.440   123100535.946       -2201.209          31.000  
> 2024 04 17 11 11 00.0100000  0 25                     
G08  23905225.009   125622837.503       -2819.708          49.000    23905222.450    97887943.272       -2197.150          45.000  
G31  28029307.893   147295027.801        1653.476          44.000    28029306.774   114775320.164        1288.621          41.000  
E19  27534717.274   144695880.840        1635.644          43.000    27534716.115   110870882.172        1253.297          47.000  
G27  25977488.777   136512583.707       -4193.224          44.000    25977487.787   106373485.822       -3267.539          44.000  
G28  27366104.019   143809842.417        1281.373          43.000    27366103.579   112059598.385         998.358          44.000  
R08  26867957.469                3      -4796.031          18.000                                                                  
R17  24274823.459   129899712.857        2662.564          50.000    24274817.582   101032895.968        2070.896          49.000  
R02  22809015.152   121713315.240        1459.888          52.000    22809013.521    94665918.773        1135.487          49.000  
G03  25052125.395   131649796.545        1046.081          47.000    25052122.715   102584254.020         815.245          43.000  
G21  22919198.833   120441220.077         630.551          47.000                                                                  
S31  41780739.991   219559379.898        -598.642          44.000  
S33  42734357.721   224570728.928        -598.340          42.000  
E33  26636255.091   139974581.523        -351.655          48.000    26636253.835   107253233.816        -269.387          54.000  
R01  22610246.794   120864701.247       -2543.906          49.000    22610244.005    94005892.339       -1978.614          47.000  
R23  25229473.610   134960682.683       -3633.127          49.000                                                                  
R24  22382631.268   119690088.735        -529.055          52.000    22382626.536    93092255.513        -411.436          49.000  
G02  23672282.446   124398703.272        1167.717          49.000                                                                  
G32  25664715.337   134869000.231       -3228.574          48.000    25664712.825   105092753.470       -2515.774          44.000  
E12  29047306.463   152644588.560        1335.783          42.000    29047303.046   116961470.968        1023.508          43.000  
G04  27121383.296   142523819.273        3207.990          43.000    27121380.141   111057462.198        2499.701          44.000  
E07  30044547.851   157885154.969       -2992.113          44.000    30044549.480   120976943.473       -2292.634          48.000  
E26  28594088.733   150263194.820       -2078.538          44.000    28594090.103   115136875.700       -1592.536          50.000  
E14  29657741.812   155852536.279        -585.290          45.000    29657741.998   119419498.299        -448.562          47.000  
E31                                                                  30588337.481                       -2202.573          29.000  
R03                                                                  26884374.182                3       2566.496          14.000  
> 2024 04 17 11 11 30.0100000  0 24                     
G08  23921370.158   125707682.670       -2836.401          49.000    23921368.273    97954056.316       -2209.906          46.000  
G31  28019867.073   147245416.756        1654.024          44.000    28019866.064   114736662.226        1288.976          41.000  
E19  27525407.371   144646960.762        1625.997          43.000    27525406.772   110833397.911        1245.824          46.000  
G27  26001448.089   136638489.318       -4200.052          44.000    26001446.210   106471593.899       -3272.734          43.000  
G28  27358814.967   143771536.032        1272.882          44.000    27358813.348   112029749.184         991.989          42.000  
R03  26861403.004                3       3154.922          10.000                                                                  
R17  24259913.920   129819931.308        2656.385          49.000    24259908.109   100970843.589        2066.212          50.000  
R02  22800870.959   121669850.129        1438.220          53.000    22800868.447    94632112.535        1118.609          50.000  
G03  25046177.633   131618540.237        1038.074          46.000    25046174.919   102559898.416         808.838          43.000  
G21  22915637.377   120422506.711         617.322          47.000                                                                  
S31  41784159.142   219577347.484        -598.817          44.000  
S33  42737774.455   224588682.990        -598.510          42.000  
E33  26638278.211   139985209.241        -356.618          49.000    26638276.232   107261377.066        -273.226          54.000  
R01  22624577.054   120941301.290       -2562.451          50.000    22624573.539    94065470.088       -1993.007          46.000  
R23  25249886.019   135069872.358       -3645.932          50.000                                                                  
R24  22385654.346   119706254.711        -548.329          53.000    22385650.020    93104828.982        -426.543          49.000  
G02  23665644.754   124363824.321        1158.053          49.000                                                                  
G32  25683188.288   134966076.465       -3242.749          48.000    25683185.410   105168397.180       -2526.799          44.000  
E12  29039681.738   152604518.060        1335.874          42.000    29039677.890   116930767.537        1023.549          43.000  
G04  27103077.787   142427622.068        3205.737          43.000    27103074.971   110982503.246        2497.916          44.000  
E07  30061650.025   157975030.484       -2999.342          42.000    30061652.712   121045808.941       -2298.045          49.000  
E26  28605971.893   150325636.502       -2083.861          45.000    28605972.894   115184720.486       -1596.650          50.000  
E14  29661083.138   155870090.930        -584.740          46.000    29661082.294   119432949.159        -447.897          47.000  
E31                                                                  30604756.365                       -2203.628          29.000  
> 2024 04 17 11 12 00.0100000  0 24                     
G08  23937610.046   125793022.740       -2852.765          49.000    23937608.105    98020555.002       -2222.919          46.000  
G31  28010424.501   147195791.069        1654.614          45.000    28010422.522   114697992.862        1289.197          40.000  
E19  27516153.431   144598332.729        1616.176          42.000    27516153.407   110796137.431        1238.303          47.000  
G27  26025446.396   136764600.224       -4207.052          44.000    26025444.594   106569861.960       -3278.224          43.000  
G28  27351574.331   143733484.681        1264.188          45.000    27351572.024   112000098.716         985.182          41.000  
R17  24245038.956   129740333.307        2650.285          49.000    24245033.527   100908934.006        2061.381          50.000  
R02  22792846.946   121627035.638        1416.436          53.000    22792844.908    94598812.321        1101.541          49.000  
G03  25040276.412   131587527.770        1029.788          45.000    25040272.533   102535732.770         802.485          42.000  
G21  22912152.718   120404194.056         603.860          47.000                                                                  
S31  41787579.105   219595320.016        -599.168          44.000  
S33  42741191.826   224606641.854        -598.681          42.000  
E33  26640329.555   139995990.393        -361.827          49.000    26640327.989   107269637.892        -277.240          54.000  
R01  22639011.412   121018459.829       -2581.156          50.000    22639007.608    94125482.220       -2007.591          46.000  
R23  25270368.072   135179445.260       -3658.865          47.000                                                                  
R24  22388785.939   119723000.091        -567.757          53.000    22388781.124    93117853.117        -441.589          49.000  
G02  23659065.028   124329248.327        1147.544          48.000                                                                  
G32  25701741.851   135063576.250       -3256.907          49.000    25701740.522   105244370.910       -2537.827          45.000  
E12  29032054.804   152564444.162        1335.873          41.000    29032052.165   116900061.523        1023.588          43.000  
G04  27084786.225   142331498.256        3202.898          43.000    27084782.694   110907601.465        2495.756          43.000  
E07  30078793.478   158065119.871       -3006.419          40.000    30078796.888   121114838.294       -2303.622          50.000  
E26  28617885.854   150388239.053       -2089.388          46.000    28617885.858   115232688.549       -1600.866          50.000  
E14  29664420.248   155887627.258        -584.034          46.000    29664419.746   119446385.984        -447.492          48.000  
E31                                                                  30621181.091                       -2204.752          26.000  
R03                                                                  26845610.043                3       2563.000          13.000  
> 2024 04 17 11 12 30.0100000  0 23                     
G08  23953940.093   125878833.852       -2868.451          49.000    23953938.035    98087420.714       -2235.083          46.000  
G31  28000974.487   147146131.639        1655.675          44.000    28000972.730   114659297.202        1290.128          41.000  
E19  27506951.776   144549976.451        1607.269          43.000    27506951.571   110759085.179        1231.387          47.000  
G27  26049479.074   136890892.025       -4212.948          44.000    26049476.559   106668270.972       -3282.591          42.000  
G28  27344377.929   143695669.664        1256.227          44.000    27344375.757   111970632.463         978.954          42.000  
R17  24230195.619   129660900.302        2644.809          49.000    24230189.992   100847152.756        2057.059          50.000  
R02  22784941.466   121584851.131        1395.481          53.000    22784939.276    94566002.082        1085.387          49.000  
G03  25034416.924   131556737.144        1022.470          45.000    25034412.965   102511740.026         797.037          42.000  
G21  22908740.898   120386262.633         591.236          47.000                                                                  
S31  41790996.630   219613276.911        -598.426          44.000  
S33  42744606.348   224624584.000        -598.121          42.000  
E33  26642406.190   140006904.378        -366.152          48.000    26642404.714   107278000.495        -280.539          54.000  
R01  22653544.713   121096151.835       -2598.663          49.000    22653541.871    94185909.283       -2021.331          46.000  
R23  25290918.132   135289378.152       -3670.558          46.000                                                                  
R24  22392022.522   119740304.994        -586.369          53.000    22392017.425    93131312.427        -455.994          49.000  
G02  23652539.672   124294955.775        1138.159          48.000                                                                  
G32  25720372.556   135161475.312       -3269.982          49.000    25720370.328   105320655.788       -2548.151          46.000  
E12  29024424.046   152524346.026        1336.845          41.000    29024421.644   116869336.909        1024.498          43.000  
G04  27066505.224   142235428.770        3201.413          43.000    27066501.565   110832742.056        2494.723          43.000  
E07  30095972.551   158155399.876       -3012.869          36.000    30095976.633   121184013.682       -2308.276          50.000  
E26  28629826.229   150450981.296       -2093.953          47.000    28629824.767   115280763.628       -1604.381          49.000  
E14  29667750.455   155905123.949        -582.673          46.000    29667749.356   119459792.411        -446.561          48.000  
E31                                                                  30637606.063                3      -2196.031          19.000  
> 2024 04 17 11 13 00.0100000  0 23                     
G08  23970360.549   125965125.012       -2884.417          49.000    23970358.971    98154660.502       -2247.809          47.000  
G31  27991519.646   147096452.506        1656.104          43.000    27991518.760   114620586.151        1290.426          41.000  
E19  27497804.188   144501904.575        1597.584          43.000    27497803.846   110722250.831        1224.163          47.000  
G27  26073547.525   137017373.175       -4219.196          44.000    26073545.961   106766827.558       -3287.689          42.000  
G28  27337229.511   143658105.078        1247.910          44.000    27337227.578   111941361.394         972.369          41.000  
R17  24215385.061   129581646.832        2638.735          50.000    24215380.311   100785511.139        2052.276          50.000  
R02  22777156.234   121543309.326        1373.884          52.000    22777153.878    94533691.764        1068.577          49.000  
G03  25028602.214   131526179.235        1014.779          47.000    25028598.903   102487928.622         790.828          43.000  
G21  22905404.247   120368725.851         577.897          47.000                                                                  
S31  41794412.227   219631227.239        -598.230          44.000  
S33  42748019.577   224642521.376        -597.707          42.000  
E33  26644510.224   140017963.412        -371.056          48.000    26644509.313   107286474.241        -284.354          54.000  
R01  22668179.280   121174384.850       -2616.810          48.000    22668176.922    94246757.108       -2035.288          46.000  
R23  25311539.854   135399681.130       -3682.896          49.000                                                                  
R24  22395365.746   119758182.505        -605.467          53.000    22395360.912    93145217.085        -471.026          49.000  
G02  23646070.740   124260959.677        1128.227          48.000                                                                  
G32  25739080.092   135259782.156       -3283.666          48.000    25739077.961   105397258.393       -2558.793          45.000  
E12  29016791.837   152484235.511        1337.314          41.000    29016788.949   116838602.834        1024.471          43.000  
G04  27048236.820   142139427.468        3198.884          43.000    27048233.390   110757935.760        2492.630          43.000  
E07  30113189.951   158245880.048       -3019.328          35.000    30113194.543   121253342.417       -2313.428          50.000  
E26  28641792.605   150513874.876       -2098.987          45.000    28641792.360   115328954.684       -1608.270          48.000  
E14  29671075.098   155922592.404        -581.734          46.000    29671073.848   119473177.219        -445.838          48.000  
E31                                                                  30654042.269                3      -2205.032          19.000  
> 2024 04 17 11 13 30.0100000  0 23                     
G08  23986875.130   126051907.975       -2901.178          49.000    23986873.051    98222283.491       -2260.688          46.000  
G31  27982065.208   147046770.372        1655.936          40.000    27982064.328   114581872.775        1290.286          40.000  
E19  27488713.300   144454132.551        1587.264          43.000    27488713.089   110685646.256        1216.111          47.000  
G27  26097653.805   137144054.909       -4226.171          44.000    26097652.827   106865540.436       -3293.120          42.000  
G28  27330131.967   143620807.832        1238.621          45.000    27330130.195   111912298.593         965.042          42.000  
R17  24200612.061   129502590.688        2631.704          50.000    24200607.442   100724022.953        2046.798          51.000  
R02  22769495.260   121502425.776        1351.582          52.000    22769492.989    94501893.414        1051.221          50.000  
G03  25022834.371   131495867.736        1005.984          47.000    25022831.419   102464309.233         783.683          44.000  
G21  22902145.293   120351599.905         563.653          47.000                                                                  
S31  41797830.034   219649187.375        -599.169          44.000  
S33  42751434.871   224660467.469        -598.392          43.000  
E33  26646644.706   140029182.516        -376.807          48.000    26646644.140   107295070.640        -288.849          54.000  
R01  22682917.934   121253169.887       -2635.482          49.000    22682915.745    94308034.311       -2049.976          46.000  
R23  25332232.666   135510367.522       -3696.160          49.000                                                                  
R24  22398818.826   119776648.772        -625.634          53.000    22398813.931    93159579.661        -486.556          49.000  
G02  23639661.107   124227276.671        1117.376          48.000                                                                  
G32  25757865.753   135358508.142       -3298.120          46.000    25757864.473   105474187.642       -2569.820          45.000  
E12  29009160.087   152444127.312        1336.776          41.000    29009156.711   116807870.505        1024.215          43.000  
G04  27029984.512   142043510.989        3195.575          43.000    27029981.253   110683195.544        2489.908          42.000  
E07  30130447.719   158336572.674       -3026.799          32.000    30130453.177   121322834.013       -2319.291          51.000  
E26  28653792.244   150576934.300       -2104.999          44.000    28653792.553   115377272.794       -1612.923          48.000  
E14  29674395.903   155940046.987        -581.795          45.000    29674395.618   119486551.380        -445.930          48.000  
E31                                                                  30670485.823                3      -2206.082          18.000  
> 2024 04 17 11 14 00.0100000  0 23                     
G08  24003485.376   126139195.478       -2918.042          49.000    24003482.963    98290299.644       -2273.921          46.000  
G31  27972613.942   146997102.903        1655.281          41.000    27972614.084   114543170.835        1290.074          41.000  
E19  27479683.786   144406676.974        1576.441          44.000    27479682.585   110649284.130        1208.062          47.000  
G27  26121800.996   137270949.501       -4233.397          44.000    26121800.751   106964419.156       -3298.673          42.000  
G28  27323089.435   143583795.933        1228.818          46.000    27323087.681   111883458.156         957.612          43.000  
R17  24185878.371   129423750.442        2624.629          51.000    24185874.333   100662702.721        2041.255          50.000  
R02  22761960.633   121462216.802        1329.144          52.000    22761957.882    94470619.736        1033.599          50.000  
G03  25017116.018   131465817.309         997.340          47.000    25017113.398   102440893.262         777.153          45.000  
G21  22898967.696   120334902.280         549.402          47.000                                                                  
S31  41801252.414   219667171.529        -599.705          44.000  
S33  42754854.543   224678438.416        -599.403          42.000  
E33  26648813.275   140040577.766        -382.737          48.000    26648812.662   107303801.996        -293.285          53.000  
R01  22697761.733   121332519.077       -2654.311          48.000    22697759.307    94369750.254       -2064.481          46.000  
R23  25352998.339   135621450.978       -3709.336          48.000                                                                  
R24  22402386.062   119795720.743        -645.809          53.000    22402380.692    93174413.358        -502.438          49.000  
G02  23633313.853   124193923.453        1106.229          48.000                                                                  
G32  25776734.542   135457665.635       -3312.338          47.000    25776732.976   105551453.111       -2581.097          44.000  
E12  29001531.539   152404037.211        1335.964          42.000    29001527.907   116777152.071        1023.674          43.000  
G04  27011751.638   141947696.933        3191.917          43.000    27011748.527   110608535.126        2487.383          42.000  
E07  30147750.694   158427491.224       -3034.012          28.000    30147754.552   121392498.654       -2325.083          51.000  
E26  28665827.271   150640175.035       -2111.104          45.000    28665827.390   115425729.843       -1617.527          49.000  
E14  29677716.695   155957502.977        -581.851          44.000    29677717.621   119499926.606        -445.857          49.000  
E31                                                                  30686937.040                3      -2207.933          22.000  
> 2024 04 17 11 14 30.0100000  0 23                     
G08  24020190.777   126226979.592       -2934.004          50.000    24020187.489    98358702.750       -2286.266          45.000  
G31  27963165.519   146947447.325        1654.942          42.000    27963164.716   114504478.192        1289.979          41.000  
E19  27470712.567   144359533.381        1566.481          44.000    27470711.405   110613161.078        1200.249          47.000  
G27  26145987.063   137398048.516       -4239.840          44.000    26145987.182   107063457.177       -3303.568          42.000  
G28  27316099.697   143547066.548        1219.897          45.000    27316098.129   111854837.835         950.383          44.000  
R17  24171185.541   129345123.660        2617.606          51.000    24171180.876   100601548.474        2035.922          50.000  
R02  22754550.598   121422677.591        1307.014          52.000    22754547.809    94439866.993        1016.580          49.000  
G03  25011445.990   131436021.938         989.300          46.000    25011443.237   102417676.072         770.803          44.000  
G21  22895870.600   120318628.892         535.550          47.000                                                                  
S31  41804678.002   219685173.102        -600.182          45.000  
S33  42758277.660   224696426.612        -599.548          43.000  
E33  26651014.754   140052144.542        -388.175          48.000    26651013.715   107312664.787        -297.462          53.000  
R01  22712709.521   121412423.090       -2672.393          49.000    22712706.623    94431897.776       -2078.394          45.000  
R23  25373836.679   135732924.830       -3722.049          49.000                                                                  
R24  22406064.687   119815394.381        -665.585          53.000    22406059.254    93189715.007        -517.773          49.000  
G02  23627028.528   124160896.757        1095.758          47.000                                                                  
G32  25795684.728   135557246.325       -3326.164          47.000    25795682.701   105629048.329       -2591.647          46.000  
E12  28993905.616   152363960.246        1335.983          43.000    28993901.696   116746443.693        1023.596          43.000  
G04  26993537.851   141851982.302        3188.887          43.000    26993535.068   110533952.173        2485.010          43.000  
E07  30165111.479                1      -3041.001          27.000    30165097.486   121462330.801       -2330.424          50.000  
E26  28677895.931   150703591.870       -2116.697          46.000    28677896.073   115474321.817       -1621.843          50.000  
E14  29681037.573   155974955.010        -581.437          44.000    29681038.508   119513298.801        -445.493          48.000  
E31                                                                  30703394.853                3      -2208.837          21.000  
