     3.00           OBSERVATION DATA    M: Mixed            RINEX VERSION / TYPE
CONVBIN 2.4.3                           20240417 035942 UTC PGM / RUN BY / DATE 
format: u-blox UBX                                          COMMENT             
log: /home/regis/git/gnsspwv/obsdata/VERT00CHL/2024-04-17/VECOMMENT             
{self.marker}                                               MARKER NAME         
                                                            MARKER NUMBER       
GEODETIC                                                    MARKER TYPE         
{self.observer}     {self.institution}                      OBSERVER / AGENCY   
UNKNOWN             UBLOX-ZED-F9P                           REC # / TYPE / VERS 
UNKNOWN             TWIVSP6037L                             ANT # / TYPE        
  1713381.0000 -5047934.0000 -3490983.0000                  APPROX POSITION XYZ 
        0.0000        0.0000        0.0000                  ANTENNA: DELTA H/E/N
G    8 C1C L1C D1C S1C C2L L2L D2L S2L                      SYS / # / OBS TYPES 
R    8 C1C L1C D1C S1C C2C L2C D2C S2C                      SYS / # / OBS TYPES 
E    8 C1C L1C D1C S1C C7Q L7Q D7Q S7Q                      SYS / # / OBS TYPES 
S    4 C1C L1C D1C S1C                                      SYS / # / OBS TYPES 
  2024    04    17    03    45   00.4990000     GPS         TIME OF FIRST OBS   
  2024    04    17    03    59   30.5000000     GPS         TIME OF LAST OBS    
                                                            END OF HEADER       
> 2024 04 17 03 45 00.4990000  0 25                     
G31  22574490.079   118629669.3831       1554.751          44.000    22574485.887    92438828.5481       1211.716          41.000  
G12  22825193.513   119947198.0611      -2772.902          47.000    22825188.257    93465334.1741      -2160.615          43.000  
G26  23944972.186   125831683.7881       2472.092          34.000    23944973.654    98050609.3721       1926.687          33.000  
G20  23806247.177   125102587.0131      -1405.814          34.000                                                                  
R10  19716474.561   105099942.5501      -2480.170          50.000                                                                  
R22  22078143.591   117854727.0371       2843.272          47.000    22078143.176    91664602.0771       2211.392          44.000  
R11  19621206.443   104849822.3791       1522.681          52.000    19621202.250    81549852.2071       1184.397          52.000  
R09  23014276.910   122894914.5321      -4438.337          47.000    23014278.204    95584915.0341      -3452.038          46.000  
R20  20848711.911   111487547.7681      -3932.076          42.000    20848708.958    86712593.5971      -3058.176          41.000  
G25  20549250.312   107987058.9021      -1467.365          49.000    20549247.760    84145781.3421      -1143.359          46.000  
G29  20716404.470   108865594.3041      -1497.058          47.000    20716399.916    84830417.2401      -1166.563          44.000  
S31  38606963.578   202881037.5481       -649.593          44.000  
S33  39561534.767   207897380.8641       -650.527          43.000  
R21  19177583.378   102623637.3771       -204.170          52.000    19177578.133    79818477.1601       -158.779          47.000  
G28  21116377.449   110967340.9781       -671.895          45.000    21116374.440    86468046.6041       -523.661          48.000  
E15  24264790.153   127512463.7621      -2077.005          47.000    24264791.274    97704433.9471      -1591.477          53.000  
E21  24562776.249   129078328.2811       1032.724          47.000    24562777.037    98904209.3701        791.444          52.000  
E13  23524036.061   123620042.3211        796.665          48.000    23524037.092    94721953.1631        610.456          51.000  
E27  23610170.703   124072320.5721      -1054.089          49.000    23610169.942    95068416.3771       -807.678          50.000  
E30  26929417.852   141515030.5471      -2663.823          45.000    26929418.682   108433600.8981      -2041.097          47.000  
G18  21336246.467   112123017.4481       2043.657          47.000    21336242.768    87368691.6321       1592.335          46.000  
G05  23587551.021   123953517.7811        507.391          43.000    23587546.472    96587169.1681        395.398          39.000  
E26  26933242.074   141535304.7101       2387.574          39.000    26933246.336   108449252.1091       1829.249          44.000  
E14  21531767.848   113150209.7801        703.579          45.000    21531769.954    86699523.7401        539.213          47.000  
R12                                                                  25600537.592                3       2683.669          16.000  
> 2024 04 17 03 45 30.4990000  0 25                     
G31  22565655.307   118583243.661        1540.030          45.000    22565650.629    92402652.680        1199.838          42.000  
G12  22841044.527   120030497.777       -2780.876          47.000    22841039.280    93530243.042       -2166.991          42.000  
G26  23930855.701   125757500.550        2473.508          34.000    23930855.867    97992804.315        1927.121          32.000  
G20  23814319.605                       -1422.550          30.000                                                                  
R10  19730488.888   105174646.725       -2500.365          50.000                                                                  
R22  22062195.988   117769599.484        2831.617          45.000    22062194.264    91598391.933        2202.434          43.000  
R11  19612701.869   104804374.794        1506.766          53.000    19612697.694    81514504.089        1171.844          51.000  
R09  23039234.051   123028177.453       -4446.232          48.000    23039234.955    95688563.783       -3458.045          46.000  
R20  20870795.356   111605642.353       -3941.379          41.000    20870793.191    86804444.915       -3065.472          40.000  
G25  20557659.236   108031250.792       -1479.016          48.000    20557657.173    84180216.597       -1152.545          46.000  
G29  20724969.753   108910605.875       -1504.092          47.000    20724964.527    84865491.195       -1171.897          43.000  
S31  38610671.845   202900524.418        -649.460          44.000  
S33  39565245.541   207916881.567        -649.938          43.000  
R21  19178787.539   102630083.704        -225.758          51.000    19178782.499    79823490.985        -175.548          47.000  
G28  21120268.652   110987788.180        -691.383          46.000    21120265.068    86483979.471        -538.900          47.000  
E15  24276677.818   127574939.002       -2088.162          46.000    24276679.916    97752304.596       -1600.095          53.000  
E21  24556885.799   129047372.019        1030.704          48.000    24556886.295    98880489.653         789.646          51.000  
E13  23519523.830   123596325.047         784.310          49.000    23519523.799    94703780.223         600.975          51.000  
E27  23616207.298   124104042.782       -1060.962          49.000    23616206.600    95092723.000        -812.932          50.000  
E30  26944637.160   141595009.850       -2668.325          43.000    26944638.259   108494883.717       -2044.615          47.000  
G18  21324619.569   112061915.010        2029.653          47.000    21324615.189    87321079.394        1581.471          47.000  
G05  23584691.549   123938490.636         493.982          43.000    23584687.744    96575459.737         385.120          40.000  
E26  26919618.036   141463717.712        2384.736          38.000    26919623.464   108394400.217        1827.150          44.000  
E14  21527819.013   113129461.257         679.389          45.000    21527821.108    86683625.756         520.460          47.000  
R12                                                                  25580190.864                3       2671.520          10.000  
> 2024 04 17 03 46 00.4990000  0 24                     
G31  22556905.314   118537262.118        1525.271          44.000    22556900.215    92366822.924        1188.265          41.000  
G12  22856941.600   120114036.735       -2788.631          46.000    22856936.380    93595338.313       -2172.845          42.000  
G26  23916733.350   125683293.230        2474.033          33.000    23916733.349    97934980.447        1927.971          32.000  
G20  23822489.528   125188024.2371      -1440.063          31.000                                                                  
R10  19744616.335   105249955.683       -2520.410          50.000                                                                  
R22  22046312.409   117684815.761        2820.412          45.000    22046311.645    91532449.255        2193.688          43.000  
R11  19604288.224   104759410.393        1490.661          53.000    19604283.009    81479531.796        1159.385          51.000  
R09  23064233.703   123161675.719       -4453.835          48.000    23064234.794    95792395.544       -3464.102          45.000  
R20  20892931.370   111724014.199       -3950.434          42.000    20892929.408    86896511.928       -3072.733          41.000  
G25  20566135.294   108075792.813       -1490.540          48.000    20566133.808    84214924.670       -1161.664          47.000  
G29  20733575.317   108955826.808       -1510.829          48.000    20733569.187    84900728.302       -1177.513          43.000  
S31  38614378.283   202920001.948        -649.227          44.000  
S33  39568954.457   207936373.046        -649.470          43.000  
R21  19180113.102   102637175.581        -247.251          51.000    19180109.050    79829006.922        -192.265          48.000  
G28  21124270.871   111008818.893        -710.858          46.000    21124266.826    86500367.041        -553.949          47.000  
E15  24288630.040   127637748.447       -2099.142          45.000    24288632.071    97800431.302       -1608.453          53.000  
E21  24551008.609   129016486.926        1028.379          48.000    24551008.971    98856824.463         787.881          51.000  
E13  23515081.192   123572976.892         772.128          49.000    23515080.725    94685890.119         591.625          52.000  
E27  23622282.731   124135969.728       -1067.632          49.000    23622281.909    95117186.504        -818.003          50.000  
E30  26959882.712   141675126.111       -2672.651          43.000    26959884.412   108556271.474       -2047.976          47.000  
G18  21313071.348   112001229.414        2015.761          47.000    21313067.851    87273791.977        1570.825          48.000  
G05  23581907.657   123923859.818         481.067          44.000    23581902.700    96564059.129         374.561          40.000  
E26  26906010.504   141392217.106        2381.739          37.000    26906017.039   108339614.524        1825.050          43.000  
E14  21524009.824   113109445.673         654.880          45.000    21524011.114    86668289.338         501.848          45.000  
> 2024 04 17 03 46 30.4990000  0 24                     
G31  22548240.124   118491724.100        1510.516          45.000    22548234.049    92331338.770        1176.956          40.000  
G12  22872883.657   120197811.349       -2796.442          47.000    22872878.503    93660617.212       -2179.083          42.000  
G26  23902605.825                1       2474.281          33.000    23902602.851                1       1928.893          31.000  
G20  23830757.971   125231483.778       -1457.121          32.000                                                                  
R10  19758857.421   105325866.702       -2540.467          50.000                                                                  
R22  22030493.899   117600375.233        2809.013          46.000    22030493.009    91466773.415        2184.875          44.000  
R11  19595964.860   104714930.309        1474.555          52.000    19595958.921    81444936.218        1146.812          51.000  
R09  23089277.942   123295404.512       -4461.376          50.000    23089278.745    95896406.677       -3469.909          45.000  
R20  20915118.630   111842654.570       -3959.132          42.000    20915115.302    86988787.761       -3079.406          39.000  
G25  20574677.009   108120683.036       -1502.216          48.000    20574675.937    84249904.058       -1170.557          47.000  
G29  20742220.401   109001253.143       -1517.719          48.000    20742213.782    84936125.400       -1182.598          43.000  
S31  38618082.025   202939466.993        -648.937          44.000  
S33  39572661.150   207955851.897        -649.097          43.000  
R21  19181558.820   102644909.172        -268.420          51.000    19181553.760    79835021.977        -208.716          47.000  
G28  21128383.712   111030430.159        -729.965          47.000    21128379.434    86517206.997        -568.881          47.000  
E15  24300644.923   127700887.823       -2110.219          45.000    24300647.045    97848810.826       -1616.921          53.000  
E21  24545143.896   128985671.305        1026.025          47.000    24545144.888    98833212.506         786.138          51.000  
E13  23510707.016   123549995.741         759.876          49.000    23510707.838    94668281.224         582.297          52.000  
E27  23628396.421   124168099.432       -1074.492          48.000    23628395.769    95141805.360        -823.218          50.000  
E30  26975153.349   141755376.449       -2677.352          42.000    26975155.654   108617761.959       -2051.353          48.000  
G18  21301603.098   111940960.083        2001.996          48.000    21301599.497    87226828.935        1560.053          48.000  
G05  23579199.389   123909624.878         467.920          45.000    23579194.389    96552967.009         364.380          41.000  
E26  26892421.091   141320801.698        2379.023          37.000    26892426.463   108284894.070        1822.988          43.000  
E14  21520338.736   113090159.412         630.636          44.000    21520340.895    86653511.761         483.299          45.000  
> 2024 04 17 03 47 00.4990000  0 24                     
G31  22539661.385   118446640.943        1494.660          45.000    22539655.511    92296209.029        1164.971          40.000  
G12  22888872.458   120281832.154       -2805.318          46.000    22888868.423    93726087.922       -2185.928          44.000  
G26  23888477.358                1       2474.381          33.000    23888476.195                        1928.405          29.000  
G20  23839131.400                       -1475.909          35.000                                                                  
R10  19773212.925   105402388.046       -2561.361          50.000                                                                  
R22  22014740.923   117516289.444        2796.473          44.000    22014740.557    91401373.542        2174.916          44.000  
R11  19587733.347   104670947.257        1457.238          52.000    19587727.567    81410727.183        1133.437          51.000  
R09  23114366.682   123429371.071       -4470.033          50.000    23114366.965    96000602.746       -3476.833          46.000  
R20  20937355.738   111961570.048       -3969.115          41.000    20937352.921    87081277.562       -3087.082          39.000  
G25  20583288.095   108165931.465       -1514.716          48.000    20583286.176    84285162.568       -1180.475          47.000  
G29  20750905.700   109046892.700       -1525.432          48.000    20750898.718    84971688.681       -1188.541          43.000  
S31  38621785.666   202958929.461        -649.123          44.000  
S33  39576367.293   207975327.093        -649.598          43.000  
R21  19183125.008   102653292.644        -290.811          51.000    19183118.828    79841542.487        -226.058          45.000  
G28  21132608.833   111052631.108        -750.312          47.000    21132604.507    86534506.440        -584.664          48.000  
E15  24312723.950   127764364.978       -2122.055          46.000    24312726.431    97897449.182       -1625.970          53.000  
E21  24539294.708   128954935.584        1022.706          46.000    24539296.019    98809661.777         783.632          51.000  
E13  23506405.569   123527391.561         746.723          48.000    23506406.657    94650961.181         572.188          52.000  
E27  23634551.174   124200441.992       -1082.090          48.000    23634550.051    95166587.328        -829.187          49.000  
E30  26990451.591   141835770.171       -2682.632          43.000    26990453.701   108679362.335       -2055.588          48.000  
G18  21290216.051   111881118.509        1986.990          49.000    21290211.315    87180199.205        1548.455          47.000  
G05  23576566.895   123895796.240         453.571          43.000    23576563.062    96542191.526         353.430          41.000  
E26  26878849.893   141249482.287        2375.411          38.000    26878853.440   108230247.169        1820.128          42.000  
E14  21516809.497   113071610.973         605.507          44.000    21516811.701    86639299.505         463.976          46.000  
> 2024 04 17 03 47 30.4990000  0 24                     
G31  22531173.724   118402037.713        1478.476          45.000    22531168.305    92261453.307        1152.340          40.000  
G12  22904912.329   120366120.715       -2814.217          47.000    22904907.851    93791767.301       -2193.041          44.000  
G26  23874353.906   125460558.1411       2475.368          34.000    23874352.062                        1927.826          31.000  
G20  23847604.812   125319992.862       -1493.684          37.000                                                                  
R10  19787686.551   105479541.708       -2582.523          49.000                                                                  
R22  21999059.224   117432583.234        2783.611          45.000    21999059.137    91336268.940        2165.304          44.000  
R11  19579599.916   104627487.633        1439.779          52.000    19579594.658    81376925.267        1119.878          51.000  
R09  23139502.511   123563595.747       -4478.609          49.000    23139501.904    96104999.496       -3483.166          45.000  
R20  20959647.306   112080780.084       -3978.765          40.000    20959645.771    87173996.458       -3094.501          39.000  
G25  20591970.767   108211561.342       -1527.240          48.000    20591969.182    84320718.306       -1190.247          47.000  
G29  20759634.673   109092767.303       -1533.478          48.000    20759628.575    85007435.149       -1194.656          43.000  
S31  38625492.902   202978411.280        -649.589          44.000  
S33  39580077.138   207994821.588        -650.476          43.000  
R21  19184816.597   102662348.044        -313.112          51.000    19184810.582    79848585.604        -243.573          46.000  
G28  21136950.527   111075444.032        -770.745          48.000    21136945.267    86552282.734        -600.724          47.000  
E15  24324871.757   127828200.943       -2133.945          46.000    24324873.938    97946362.453       -1635.134          53.000  
E21  24533465.356   128924303.319        1019.186          46.000    24533466.918    98786190.321         780.939          51.000  
E13  23502179.685   123505187.496         733.272          48.000    23502181.410    94633947.709         561.915          52.000  
E27  23640750.665   124233020.657       -1090.053          48.000    23640749.687    95191550.201        -835.247          49.000  
E30  27005781.746   141916329.759       -2688.338          43.000    27005784.078   108741089.763       -2059.903          48.000  
G18  21278914.039   111821729.302        1971.879          49.000    21278909.763    87133921.963        1536.676          47.000  
G05  23574016.926   123882400.509         439.117          42.000    23574013.595    96531753.306         342.145          41.000  
E26  26865301.556   141178282.926        2370.909          40.000    26865304.113   108175692.227        1817.008          41.000  
E14  21513424.786   113053821.858         580.228          45.000    21513426.434    86625669.080         444.576          47.000  
> 2024 04 17 03 48 00.4990000  0 25                     
G31  22522774.841   118357903.125        1463.394          46.000    22522769.163    92227062.737        1140.279          40.000  
G12  22921000.505   120450663.715       -2822.309          47.000    22920995.582    93857644.933       -2199.046          43.000  
G26  23860222.908   125386317.129        2473.483          33.000    23860223.650                        1928.487          31.000  
G20  23856178.983   125365051.090       -1510.962          39.000                                                                  
R10  19802276.293   105557314.236       -2602.719          50.000                                                                  
R22  21983446.594   117349245.320        2771.855          44.000    21983447.674    91271450.749        2155.749          45.000  
R11  19571562.779   104584541.301        1422.982          52.000    19571557.994    81343522.560        1106.835          52.000  
R09  23164684.520   123698062.860       -4486.288          49.000    23164682.731    96209584.839       -3489.185          46.000  
R20  20981992.230   112200267.383       -3987.358          41.000    20981990.113    87266931.025       -3101.568          39.000  
G25  20600724.357   108257560.190       -1539.539          48.000    20600722.658    84356561.549       -1199.597          47.000  
G29  20768406.347   109138862.099       -1540.275          49.000    20768400.313    85043353.175       -1200.124          44.000  
S31  38629201.135   202997899.117        -649.760          44.000  
S33  39583787.865   208014324.003        -650.016          43.000  
R21  19186631.628   102672060.302        -334.701          51.000    19186626.151    79856139.621        -260.205          47.000  
G28  21141405.595   111098855.383        -790.319          46.000    21141400.245    86570525.329        -615.822          47.000  
E15  24337085.184   127892380.997       -2145.111          46.000    24337086.942    97995539.362       -1643.517          53.000  
E21  24527654.001   128893762.382        1016.570          47.000    24527655.045    98762788.843         778.990          51.000  
E13  23498027.846   123483370.896         720.883          48.000    23498029.556    94617231.127         552.325          52.000  
E27  23646992.247   124265823.005       -1096.985          47.000    23646991.676    95216684.457        -840.552          49.000  
E30  27021141.260   141997041.859       -2692.960          45.000    27021142.952   108802934.064       -2063.357          48.000  
G18  21267696.310   111762781.368        1957.681          48.000    21267692.204    87087988.581        1525.470          47.000  
G05  23571548.101   123869426.012         425.525          44.000    23571544.202    96521643.329         331.567          41.000  
E26  26851773.586   141107191.877        2367.866          41.000    26851775.889   108121220.295        1814.423          42.000  
E14  21510181.296   113036777.861         555.781          46.000    21510183.103    86612609.569         425.853          47.000  
R12                                                                  25485675.127                3       2613.059          14.000  
> 2024 04 17 03 48 30.4990000  0 25                     
G31  22514462.639   118314224.686        1448.544          46.000    22514457.479    92193027.622        1128.482          41.000  
G12  22937133.835   120535447.112       -2830.014          46.000    22937128.729    93923709.933       -2205.247          42.000  
G26  23846090.611   125312058.1521       2475.165          33.000    23846092.470                        1929.077          31.000  
G20  23864851.344   125410625.545       -1527.750          39.000                                                                  
R10  19816979.375   105635689.232       -2622.497          50.000                                                                  
R22  21967901.784   117266262.993        2760.314          45.000    21967901.939    91206909.114        2146.778          46.000  
R11  19563619.593   104542096.994        1406.385          52.000    19563615.506    81310510.336        1093.909          52.000  
R09  23189908.236   123832755.450       -4493.505          50.000    23189907.120    96314345.552       -3494.921          47.000  
R20  21004386.292   112320012.878       -3995.991          41.000    21004383.762    87360066.387       -3107.766          39.000  
G25  20609544.820   108303914.001       -1551.593          48.000    20609543.484    84392681.382       -1208.618          47.000  
G29  20777217.148   109185161.232       -1546.313          49.000    20777210.462    85079430.411       -1205.276          43.000  
S31  38632908.416   203017379.257        -649.020          44.000  
S33  39587497.495   208033815.889        -649.648          43.000  
R21  19188566.455   102682413.453        -355.677          51.000    19188561.607    79864192.081        -276.829          47.000  
G28  21145970.938   111122850.214        -809.468          46.000    21145966.734    86589222.616        -630.773          48.000  
E15  24349361.065   127956888.953       -2155.825          47.000    24349362.465    98044967.528       -1651.751          52.000  
E21  24521857.226   128863299.222        1014.102          47.000    24521857.987    98739446.966         777.004          51.000  
E13  23493947.565   123461927.754         708.508          48.000    23493949.330    94600800.695         542.913          53.000  
E27  23653273.888   124298835.164       -1104.015          47.000    23653273.637    95241979.491        -845.901          49.000  
E30  27036526.293   142077891.834       -2697.368          45.000    27036527.901   108864884.022       -2066.738          47.000  
G18  21256560.730   111704262.160        1943.569          49.000    21256556.444    87042389.269        1514.418          46.000  
G05  23569156.855   123856859.681         412.073          42.000    23569153.453    96511851.408         320.978          41.000  
E26  26838263.114   141036195.972        2364.939          42.000    26838265.958   108066821.240        1812.180          42.000  
E14  21507076.854   113020463.360         531.537          46.000    21507078.463    86600109.049         407.272          47.000  
R12                                                                  22473843.002                3       2591.064          13.000  
> 2024 04 17 03 49 00.4990000  0 24                     
G31  22506237.020   118270994.959        1433.635          46.000    22506231.621    92159342.119        1116.806          41.000  
G12  22953310.032   120620461.044       -2837.610          45.000    22953306.886    93989954.546       -2211.215          43.000  
G26  23831956.833   125237776.965        2476.250          35.000    23831953.360                        1929.828          31.000  
G20  23873620.344   125456706.261       -1544.886          38.000                                                                  
R10  19831793.182   105714655.982       -2642.011          49.000                                                                  
R22  21952422.195   117183628.316        2748.456          45.000    21952422.758    91142637.886        2137.828          48.000  
R11  19555769.555   104500148.367        1389.926          52.000    19555765.652    81277883.642        1081.096          52.000  
R09  23215172.214   123967660.901       -4500.478          50.000    23215170.515    96419271.848       -3500.373          48.000  
R20  21026825.481   112440003.646       -4003.664          41.000    21026823.165    87453392.552       -3114.198          38.000  
G25  20618432.009   108350613.635       -1562.421          48.000    20618430.792    84429070.717       -1217.560          48.000  
G29  20786063.922   109231653.368       -1552.848          48.000    20786057.554    85115658.070       -1210.184          43.000  
S31  38636611.504   203036840.152        -648.387          44.000  
S33  39591203.267   208053290.224        -649.073          43.000  
R21  19190618.637   102693396.375        -376.609          51.000    19190614.797    79872734.388        -292.942          48.000  
G28  21150646.315   111147418.392        -828.428          47.000    21150642.305    86608366.655        -645.568          48.000  
E15  24361696.955   128021713.478       -2166.057          47.000    24361697.921    98094638.273       -1659.688          52.000  
E21  24516073.678   128832905.138        1011.980          47.000    24516073.950    98716158.007         775.406          51.000  
E13  23489935.373   123440848.794         696.628          47.000    23489937.948    94584649.334         533.691          53.000  
E27  23659594.044   124332048.025       -1110.428          47.000    23659594.339    95267428.304        -850.923          50.000  
E30  27051935.359   142158869.744       -2701.525          44.000    27051937.392   108926932.015       -2069.931          48.000  
G18  21245504.826   111646163.902        1929.663          49.000    21245500.051    86997117.941        1503.627          46.000  
G05  23566841.768   123844692.545         398.523          43.000    23566838.477    96502370.522         310.815          42.000  
E26  26824768.668   140965286.917        2362.032          42.000    26824771.886   108012488.744        1809.817          42.000  
E14  21504108.174   113004867.483         508.055          46.000    21504110.514    86588159.145         389.169          48.000  
> 2024 04 17 03 49 30.4990000  0 25                     
G31  22498098.176   118228228.949        1417.932          47.000    22498093.804    92126017.979        1104.556          42.000  
G12  22969533.883   120705718.009       -2846.257          45.000    22969530.664    94056388.504       -2217.789          43.000  
G26  23817821.309   125163486.267        2476.180          35.000    23817816.329                        1929.504          32.000  
G20  23882486.829                       -1562.328          35.000                                                                  
R10  19846720.342   105794227.122       -2662.712          50.000                                                                  
R22  21937009.037   117101356.818        2736.052          46.000    21937010.353    91078649.148        2128.131          47.000  
R11  19548016.098   104458712.115        1372.365          52.000    19548011.460    81245655.455        1067.415          52.000  
R09  23240477.326   124102790.266       -4508.334          48.000    23240476.047    96524372.232       -3506.429          48.000  
R20  21049311.250   112560249.156       -4012.629          41.000    21049309.959    87546916.831       -3120.808          39.000  
G25  20627386.653   108397673.062       -1574.860          48.000    20627385.755    84465740.394       -1227.142          48.000  
G29  20794949.743   109278350.699       -1560.356          48.000    20794943.930    85152045.599       -1215.772          43.000  
S31  38640314.050   203056297.648        -648.896          44.000  
S33  39594908.130   208072760.195        -649.183          43.000  
R21  19192791.463   102705020.951        -398.415          51.000    19192787.434    79881775.764        -309.897          47.000  
G28  21155432.802   111172572.820        -848.546          46.000    21155429.351    86627967.488        -661.050          48.000  
E15  24374095.587   128086866.315       -2177.470          48.000    24374096.176    98144560.563       -1668.359          52.000  
E21  24510305.647   128802594.472        1008.678          47.000    24510306.089    98692932.970         772.958          51.000  
E13  23485996.751   123420147.857         683.476          47.000    23485998.632    94568787.596         523.745          52.000  
E27  23665955.259   124365475.644       -1118.056          47.000    23665955.684    95293041.655        -856.664          50.000  
E30  27067371.442   142239988.796       -2706.612          44.000    27067374.109   108989088.146       -2073.853          48.000  
G18  21234531.846   111588502.010        1914.457          48.000    21234527.435    86952186.652        1491.753          46.000  
G05  23564606.835   123832942.370         384.814          44.000    23564602.238    96493214.630         299.506          41.000  
E26  26811294.048   140894479.456        2358.300          42.000    26811297.655   107958234.078        1806.992          43.000  
E14  21501279.565   112990002.444         483.018          45.000    21501281.842    86576769.201         370.053          48.000  
R12                                                                  25427709.049                3       2567.143          14.000  
> 2024 04 17 03 50 00.5000000  0 25                     
G31  22490048.113   118185923.932        1402.256          46.000    22490043.362    92093053.027        1092.579          42.000  
G12  22985803.688   120791217.398       -2853.978          45.000    22985800.853    94123011.405       -2223.812          43.000  
G26  23803681.388   125089181.396        2476.874          35.000    23803679.414    97472093.7991       1930.353          34.000  
G20  23891451.979                3      -1579.095          35.000                                                                  
R10  19861761.141   105874400.725       -2682.364          50.000                                                                  
R22  21921665.799   117019444.062        2724.224          48.000    21921665.212    91014939.393        2118.815          47.000  
R11  19540357.512   104417787.033        1355.415          52.000    19540352.509    81213824.847        1054.187          52.000  
R09  23265823.867   124238142.038       -4515.277          46.000    23265823.363    96629645.619       -3511.976          48.000  
R20  21071844.687   112680745.503       -4020.616          42.000    21071843.225    87640636.169       -3127.209          40.000  
G25  20636410.501   108445090.957       -1586.720          49.000    20636409.013    84502689.387       -1236.316          48.000  
G29  20803874.157   109325250.231       -1566.718          48.000    20803869.305    85188590.694       -1220.874          44.000  
S31  38644015.098   203075746.114        -647.842          44.000  
S33  39598611.411   208092223.050        -648.705          43.000  
R12  22413887.220                3       3864.761          12.000                                                                  
R21  19195083.087   102717282.738        -419.499          51.000    19195077.956    79891312.721        -326.221          47.000  
G28  21160330.768   111198310.341        -867.765          47.000    21160326.811    86648022.720        -676.195          47.000  
E15  24386556.242   128152344.500       -2188.113          49.000    24386556.171    98194732.175       -1676.608          51.000  
E21  24504552.930   128772363.703        1006.026          47.000    24504553.259    98669769.162         770.872          50.000  
E13  23482129.320   123399821.191         671.154          48.000    23482130.296    94553212.658         514.225          52.000  
E27  23672356.808   124399116.227       -1125.083          47.000    23672357.532    95318818.202        -862.048          51.000  
E30  27082835.103   142321247.969       -2710.853          44.000    27082837.306   109051351.646       -2077.315          48.000  
G18  21223640.989   111531272.941        1900.098          48.000    21223636.936    86907592.639        1480.604          45.000  
G05  23562450.772   123821605.971         370.887          45.000    23562444.552    96484381.076         289.082          41.000  
E26  26797838.011   140823769.118        2355.056          42.000    26797841.285   107904053.823        1804.318          43.000  
E14  21498589.327   112975862.972         459.037          45.000    21498590.537    86565935.210         351.711          48.000  
> 2024 04 17 03 50 30.5000000  0 25                     
G31  22482086.761   118144088.383        1386.420          46.000    22482081.985    92060453.901        1080.212          41.000  
G12  23002119.862   120876957.220       -2862.221          46.000    23002115.910    94189821.633       -2230.335          42.000  
G26  23789541.567   125014872.588        2476.587          36.000    23789540.235    97414190.879        1929.816          36.000  
G20  23900517.305                1      -1596.008          33.000                                                                  
R10  19876914.747   105955174.255       -2702.883          50.000                                                                  
R22  21906389.175   116937901.316        2711.587          47.000    21906388.426    90951517.424        2108.967          46.000  
R11  19532796.700   104377382.509        1337.797          53.000    19532790.990    81182399.112        1040.521          51.000  
R09  23291210.816   124373708.704       -4522.915          46.000    23291211.146    96735086.111       -3517.787          47.000  
R20  21094423.926   112801484.363       -4029.020          42.000    21094422.417    87734544.149       -3133.789          40.000  
G25  20645502.428   108492868.466       -1599.098          48.000    20645500.496    84539918.623       -1246.009          48.000  
G29  20812837.365   109372351.321       -1573.767          48.000    20812832.921    85225292.856       -1226.508          44.000  
S31  38647714.912   203095189.695        -648.535          44.000  
S33  39602313.946   208111678.768        -648.744          43.000  
R21  19197494.421   102730183.373        -441.097          51.000    19197488.716    79901346.591        -343.027          47.000  
G28  21165340.019   111224632.576        -887.581          48.000    21165335.533    86668533.551        -691.636          47.000  
E15  24399077.677   128218145.823       -2199.202          49.000    24399077.611    98245151.372       -1685.073          51.000  
E21  24498816.781   128742219.651        1003.025          47.000    24498817.024    98646671.798         768.555          50.000  
E13  23478333.437   123379874.405         658.171          48.000    23478334.396    94537928.799         504.317          52.000  
E27  23678799.635   124432972.028       -1132.567          47.000    23678800.278    95344759.653        -867.862          51.000  
E30  27098324.249   142402645.500       -2716.182          43.000    27098326.792   109113721.128       -2081.009          49.000  
G18  21212835.310   111474486.307        1885.073          48.000    21212830.613    86863343.367        1468.892          46.000  
G05  23560372.101   123810689.844         356.252          42.000    23560367.250    96475875.050         277.584          41.000  
E26  26784402.031   140753165.787        2351.362          42.000    26784406.023   107849955.539        1801.561          43.000  
E14  21496036.383   112962452.609         434.472          44.000    21496038.601    86555659.882         332.980          48.000  
R12                                                                  25388732.360                3       2545.948          18.000  
> 2024 04 17 03 51 00.5000000  0 24                     
G31  22474217.530   118102735.114        1370.023          47.000    22474211.819    92028230.584        1067.249          41.000  
G12  23018484.691   120962951.313       -2871.073          47.000    23018481.085    94256829.981       -2237.183          43.000  
G26  23775402.163   124940570.866        2476.367          38.000    23775401.086    97356293.518        1929.718          35.000  
G20  23909683.141   125646222.9031      -1614.294          36.000                                                                  
R10  19892181.769   106036561.823       -2723.429          50.000                                                                  
R22  21891185.476   116856740.202        2698.724          48.000    21891183.778    90888392.317        2099.015          45.000  
R11  19525335.559   104337513.189        1319.776          53.000    19525330.256    81151389.679        1026.395          52.000  
R09  23316641.060   124509504.747       -4530.649          47.000    23316640.629    96840705.043       -3523.807          46.000  
R20  21117050.413   112922479.332       -4037.643          42.000    21117049.577    87828651.356       -3140.478          40.000  
G25  20654665.251   108541019.965       -1611.444          48.000    20654663.350    84577439.269       -1255.751          48.000  
G29  20821840.984   109419666.128       -1580.975          48.000    20821835.734    85262161.544       -1231.897          44.000  
S31  38651416.188   203114640.579        -648.636          44.000  
S33  39606017.886   208131142.556        -649.134          43.000  
R21  19200026.401   102743734.051        -462.830          51.000    19200021.465    79911886.037        -359.848          48.000  
G28  21170463.152   111251552.114        -907.654          48.000    21170457.569    86689509.813        -707.088          47.000  
E15  24411662.639   128284283.113       -2210.453          48.000    24411663.036    98295828.007       -1693.675          51.000  
E21  24493099.678   128712174.641         999.500          47.000    24493099.779    98623650.314         765.905          51.000  
E13  23474612.386   123360319.529         645.169          48.000    23474612.890    94522945.220         494.273          52.000  
E27  23685285.571   124467057.045       -1140.347          47.000    23685286.448    95370876.741        -873.666          52.000  
E30  27113843.524   142484196.090       -2721.139          43.000    27113845.933   109176207.914       -2085.039          50.000  
G18  21202115.991   111418154.379        1869.866          48.000    21202111.837    86819448.406        1457.103          46.000  
G05  23558376.992   123800207.633         341.325          41.000    23558372.161    96467707.066         266.287          40.000  
E26  26770989.377   140682680.821        2347.236          41.000    26770992.578   107795947.911        1798.392          43.000  
E14  21493625.836   112949781.804         409.635          44.000    21493626.990    86545951.226         313.932          47.000  
> 2024 04 17 03 51 30.0000000  0 24                     
G31  22466569.287   118062541.429        1354.545          47.000    22466563.377    91996910.847        1055.561          42.000  
G12  23034623.787   121047759.989       -2879.011          46.000    23034619.130    94322914.639       -2243.388          42.000  
G26  23761500.122   124867513.933        2476.447          39.000    23761499.068    97299366.118        1929.981          35.000  
G20  23918792.925   125694097.485       -1631.354          36.000                                                                  
R10  19907307.737   106117188.630       -2743.097          49.000                                                                  
R22  21876304.233   116777303.791        2686.416          48.000    21876301.933    90826608.629        2089.570          45.000  
R11  19518096.646   104298831.825        1302.427          53.000    19518091.536    81121304.183        1013.024          51.000  
R09  23341688.657   124643256.436       -4537.639          49.000    23341688.262    96944733.922       -3529.070          46.000  
R20  21139345.272   113041702.246       -4045.334          43.000    21139343.389    87921380.277       -3146.478          38.000  
G25  20663744.420   108588732.235       -1623.334          48.000    20663742.553    84614617.682       -1264.936          48.000  
G29  20830733.892   109466397.814       -1587.439          48.000    20830727.764    85298575.888       -1236.993          43.000  
S31  38655056.761   203133772.498        -648.758          44.000  
S33  39609661.146   208150286.841        -648.898          42.000  
R21  19202634.092   102757689.420        -483.624          51.000    19202629.130    79922740.242        -376.173          48.000  
G28  21175610.718   111278602.895        -926.747          48.000    21175605.149    86710588.338        -722.057          47.000  
E15  24424098.893   128349642.139       -2220.866          48.000    24424100.486    98345908.325       -1701.720          50.000  
E21  24487495.897   128682725.936         996.641          47.000    24487495.797    98601085.735         763.808          51.000  
E13  23471025.153   123341471.167         632.692          48.000    23471026.084    94508502.984         484.797          52.000  
E27  23691705.153   124500796.140       -1147.440          47.000    23691706.861    95396728.778        -879.094          52.000  
E30  27129131.654   142564534.684       -2725.833          44.000    27129133.558   109237766.013       -2088.545          49.000  
G18  21191659.573   111363204.571        1855.216          47.000    21191655.433    86776630.434        1445.681          47.000  
G05  23556496.014   123790323.528         328.224          41.000    23556491.342    96460005.216         255.559          40.000  
E26  26757821.025   140613485.345        2343.585          41.000    26757824.701   107742928.313        1795.850          43.000  
E14  21491391.155   112938040.071         386.118          44.000    21491392.694    86536954.481         295.907          48.000  
> 2024 04 17 03 52 00.0000000  0 24                     
G31  22458878.420   118022131.123        1339.084          47.000    22458874.449    91965422.318        1043.526          42.000  
G12  23051080.429   121134241.052       -2886.914          46.000    23051075.350    94390302.495       -2249.579          42.000  
G26  23747360.058   124793210.829        2476.666          38.000    23747359.455    97241467.684        1929.926          35.000  
G20  23928152.604   125743290.236       -1647.968          37.000                                                                  
R10  19922799.364   106199770.739       -2762.720          49.000                                                                  
R22  21861237.949   116696885.129        2674.340          47.000    21861236.842    90764060.925        2079.979          45.000  
R11  19510832.923   104260014.128        1285.107          53.000    19510827.506    81091112.677         999.356          51.000  
R09  23367199.023   124779479.337       -4544.070          48.000    23367199.146    97050684.873       -3534.437          48.000  
R20  21162061.474   113163173.909       -4053.212          42.000    21162058.748    88015858.243       -3152.387          39.000  
G25  20673045.150   108637607.344       -1635.192          48.000    20673042.951    84652702.180       -1274.404          47.000  
G29  20839814.497   109514113.253       -1593.811          49.000    20839808.727    85335756.744       -1242.010          44.000  
S31  38658757.400   203153217.767        -648.000          44.000  
S33  39613363.395   208169745.742        -648.493          43.000  
R21  19205402.806   102772504.980        -504.450          51.000    19205397.694    79934263.464        -392.319          47.000  
G28  21180953.748   111306685.556        -945.753          47.000    21180948.623    86732470.923        -736.895          47.000  
E15  24436806.598   128416421.072       -2231.368          48.000    24436807.520    98397076.618       -1709.751          49.000  
E21  24481812.352   128652860.523         994.027          47.000    24481812.583    98578201.862         761.667          51.000  
E13  23467448.585   123322675.005         620.071          48.000    23467449.595    94494100.743         475.159          52.000  
E27  23698275.163   124535317.849       -1154.329          47.000    23698276.049    95423180.479        -884.592          52.000  
E30  27144703.201   142646368.597       -2730.177          43.000    27144705.700   109300469.894       -2091.942          48.000  
G18  21181108.506   111307760.233        1840.744          48.000    21181104.859    86733427.132        1434.214          47.000  
G05  23554662.575   123780688.690         314.228          41.000    23554657.208    96452497.616         244.609          39.000  
E26  26744449.120   140543219.367        2340.283          39.000    26744453.368   107689088.467        1793.054          44.000  
E14  21489253.658   112926812.312         362.080          43.000    21489256.260    86528351.580         277.509          48.000  
> 2024 04 17 03 52 30.0000000  0 25                     
G31  22451277.029   117982187.675        1323.636          47.000    22451273.428    91934297.578        1031.313          43.000  
G12  23067581.367   121220954.887       -2894.196          46.000    23067577.571    94457871.677       -2255.368          42.000  
G26  23733218.334   124718897.997        2477.332          38.000    23733217.421    97183561.623        1930.273          34.000  
G20  23937611.320   125792990.459       -1665.021          37.000                                                                  
R10  19938401.820   106282941.933       -2782.101          49.000                                                                  
R22  21846241.709   116616832.231        2662.341          47.000    21846240.410    90701797.753        2070.687          45.000  
R11  19503666.156   104221719.821        1267.754          52.000    19503661.306    81061328.223         986.001          52.000  
R09  23392747.118   124915902.809       -4550.709          49.000    23392746.911    97156791.833       -3539.466          45.000  
R20  21184819.457   113284869.123       -4060.016          42.000    21184816.879    88110510.090       -3158.001          39.000  
G25  20682412.695   108686836.898       -1646.728          48.000    20682411.121    84691062.886       -1283.333          47.000  
G29  20848930.246   109562017.397       -1599.878          49.000    20848924.891    85373084.628       -1246.759          45.000  
S31  38662454.984   203172649.102        -647.383          44.000  
S33  39617063.481   208189189.670        -647.933          43.000  
R21  19208286.988   102787944.585        -524.997          50.000    19208282.854    79946272.066        -408.370          48.000  
G28  21186406.471   111335342.631        -964.852          46.000    21186402.024    86754801.097        -751.738          47.000  
E15  24449573.790   128483509.898       -2241.351          48.000    24449573.911    98448482.357       -1717.463          49.000  
E21  24476144.202   128623076.046         991.453          46.000    24476145.027    98555380.006         759.738          51.000  
E13  23463943.392   123304250.806         608.042          48.000    23463943.800    94479983.525         465.937          52.000  
E27  23704884.589   124570049.546       -1161.247          48.000    23704885.341    95449793.088        -889.752          52.000  
E30  27160300.546   142728333.897       -2734.338          43.000    27160302.804   109363274.463       -2095.174          47.000  
G18  21170641.125   111252755.137        1826.210          49.000    21170637.730    86690566.094        1422.992          48.000  
G05  23552908.381   123771471.460         300.248          41.000    23552903.246    96445315.379         233.589          39.000  
E26  26731096.385   140473054.665        2337.285          39.000    26731101.302   107635326.235        1790.659          45.000  
E14  21487252.673   112916298.921         338.484          43.000    21487255.588    86520296.007         259.451          48.000  
R12                                                                  22617499.303                3       2490.514          13.000  
> 2024 04 17 03 53 00.5000000  0 25                     
G31  22443639.568   117942048.179        1308.192          47.000    22443634.884    91903020.039        1019.472          43.000  
G12  23084401.570   121309342.354       -2901.771          46.000    23084396.394    94526744.965       -2261.439          41.000  
G26  23718837.319   124643327.196        2478.162          38.000    23718836.684    97124675.320        1931.421          34.000  
G20  23947323.569   125844026.951       -1681.500          40.000                                                                  
R10  19954375.712   106368091.060       -2801.629          49.000                                                                  
R22  21831063.437   116535810.990        2650.330          48.000    21831062.205    90638781.397        2061.314          44.000  
R11  19496479.841   104183316.689        1250.245          52.000    19496474.662    81031459.122         972.507          52.000  
R09  23418755.787   125054792.009       -4556.947          49.000    23418756.338    97264816.511       -3544.196          47.000  
R20  21207995.837   113408805.825       -4067.034          43.000    21207993.259    88206905.263       -3162.808          39.000  
G25  20692005.051   108737240.005       -1658.545          48.000    20692002.695    84730338.003       -1292.267          47.000  
G29  20858232.186   109610901.234       -1605.634          48.000    20858227.125    85411175.925       -1251.208          44.000  
S31  38666209.492   203192379.103        -646.684          44.000  
S33  39620820.416   208208931.573        -646.758          42.000  
R12  22594562.072                3       3756.087          12.000                                                                  
R21  19211337.419   102804268.461        -545.631          51.000    19211332.692    79958968.427        -424.250          47.000  
G28  21192060.569   111365054.637        -983.803          47.000    21192056.329    86777953.286        -766.497          47.000  
E15  24462611.474   128552021.975       -2251.368          48.000    24462611.554    98500978.630       -1725.021          49.000  
E21  24470395.510   128592868.331         989.216          46.000    24470396.736    98532233.847         757.973          51.000  
E13  23460449.221   123285890.358         595.881          48.000    23460449.990    94465915.172         456.555          53.000  
E27  23711642.670   124605565.147       -1167.830          48.000    23711643.652    95477006.347        -894.807          52.000  
E30  27176182.013   142811788.877       -2738.334          43.000    27176184.190   109427220.483       -2098.184          47.000  
G18  21160083.830   111197274.584        1811.674          49.000    21160079.785    86647334.537        1411.834          47.000  
G05  23551205.693   123762520.015         286.363          42.000    23551201.455    96438340.241         223.402          40.000  
E26  26717540.672   140401814.972        2334.160          40.000    26717544.312   107580740.279        1788.572          45.000  
E14  21485356.452   112906330.278         314.900          44.000    21485358.500    86512657.844         241.318          49.000  
> 2024 04 17 03 53 30.5000000  0 24                     
G31  22436218.431   117903046.950        1291.405          48.000    22436212.890    91872629.481        1006.352          43.000  
G12  23100991.377   121396520.955       -2910.560          47.000    23100985.352    94594676.332       -2268.245          41.000  
G26  23704691.324   124568993.573        2477.399          37.000    23704691.585    97066753.127        1930.084          34.000  
G20  23956974.178   125894742.331       -1700.116          39.000                                                                  
R10  19970199.900   106452441.027       -2822.153          49.000                                                                  
R22  21816204.517   116456495.910        2636.776          48.000    21816203.241    90577092.069        2050.870          44.000  
R11  19489511.875   104146083.302        1231.527          52.000    19489507.004    81002499.859         957.726          52.000  
R09  23444377.027   125191606.420       -4564.399          48.000    23444377.529    97371227.475       -3550.085          46.000  
R20  21230834.571   113530933.751       -4075.252          43.000    21230831.572    88301893.673       -3169.547          39.000  
G25  20701508.079   108787180.478       -1671.356          49.000    20701506.043    84769252.690       -1302.362          48.000  
G29  20867418.249   109659176.791       -1613.007          48.000    20867413.672    85448793.258       -1256.830          44.000  
S31  38669900.714   203211776.089        -647.139          44.000  
S33  39624514.264   208228342.486        -647.342          42.000  
R21  19214457.281   102820956.114        -567.342          52.000    19214450.934    79971947.769        -441.318          47.000  
G28  21197733.377   111394862.721       -1003.902          47.000    21197729.036    86801180.358        -782.337          47.000  
E15  24475494.708   128619725.271       -2262.675          49.000    24475495.275    98552855.207       -1733.722          49.000  
E21  24464758.623   128563244.822         985.452          45.000    24464759.403    98509535.327         755.015          51.000  
E13  23457084.046   123268212.026         582.389          47.000    23457085.631    94452369.477         446.176          52.000  
E27  23718332.047   124640716.830       -1176.006          48.000    23718332.615    95503940.759        -901.128          52.000  
E30  27191828.185   142894013.059       -2743.768          42.000    27191831.340   109490223.411       -2102.353          47.000  
G18  21149784.401   111143155.487        1795.847          48.000    21149780.820    86605163.865        1399.357          47.000  
G05  23549612.762   123754146.954         271.256          41.000    23549608.378    96431815.842         211.209          40.000  
E26  26704227.266   140331853.367        2329.535          41.000    26704230.557   107527133.647        1785.043          46.000  
E14  21483627.943   112897247.667         290.056          45.000    21483629.816    86505698.603         222.328          49.000  
> 2024 04 17 03 54 00.5000000  0 24                     
G31  22428893.326   117864552.493        1274.595          48.000    22428887.869    91842633.818         993.201          43.000  
G12  23117631.301   121483966.580       -2919.304          46.000    23117626.641    94662815.747       -2274.782          41.000  
G26  23690551.247   124494688.591        2476.343          37.000    23690552.052    97008853.196        1929.523          35.000  
G20  23966728.606   125945997.044       -1717.358          39.000                                                                  
R10  19986139.580   106537411.004       -2842.722          48.000                                                                  
R22  21801421.950   116377586.628        2623.429          47.000    21801419.845    90515718.330        2040.605          43.000  
R11  19482650.008   104109418.084        1212.582          52.000    19482645.719    80973982.473         943.227          52.000  
R09  23470040.302   125328648.032       -4571.730          43.000    23470041.907    97477815.197       -3555.769          42.000  
R20  21253719.051   113653307.714       -4083.371          43.000    21253716.721    88397073.403       -3175.714          39.000  
G25  20711085.217   108837510.936       -1684.198          48.000    20711084.083    84808471.208       -1312.292          48.000  
G29  20876646.599   109707671.377       -1620.081          48.000    20876641.016    85486581.243       -1262.164          43.000  
S31  38673595.463   203231193.174        -647.833          44.000  
S33  39628211.539   208247771.530        -648.046          42.000  
R21  19217697.454   102838297.372        -588.939          52.000    19217692.199    79985435.438        -458.019          47.000  
G28  21203521.031   111425277.235       -1024.020          46.000    21203516.559    86824879.951        -797.800          47.000  
E15  24488442.883   128687767.393       -2273.625          49.000    24488443.501    98604991.392       -1742.102          50.000  
E21  24459144.155   128533739.384         981.721          45.000    24459144.796    98486927.280         752.135          52.000  
E13  23453797.424   123250940.791         568.832          47.000    23453798.811    94439135.699         435.943          52.000  
E27  23725068.556   124676114.396       -1183.927          48.000    23725068.330    95531063.563        -907.169          52.000  
E30  27207506.988   142976401.961       -2748.915          43.000    27207509.542   109553352.548       -2106.405          48.000  
G18  21139577.208   111089515.196        1780.083          48.000    21139572.641    86563366.289        1386.896          46.000  
G05  23548108.018   123746231.837         256.223          43.000    23548100.690    96425648.211         199.328          38.000  
E26  26690941.095   140262031.216        2325.073          42.000    26690943.892   107473633.843        1781.510          46.000  
E14  21482040.789   112888908.961         265.617          45.000    21482042.440    86499309.362         203.552          48.000  
> 2024 04 17 03 54 30.5000000  0 24                     
G31  22421660.424   117826543.497        1259.003          48.000    22421655.198    91813016.428         981.113          43.000  
G12  23134317.719   121571655.501       -2926.775          45.000    23134313.278    94731144.728       -2280.587          41.000  
G26  23676412.774   124420390.480        2476.543          37.000    23676413.821    96950958.612        1929.586          34.000  
G20  23976579.796   125997766.835       -1733.893          40.000                                                                  
R10  20002191.093   106622976.268       -2861.868          48.000                                                                  
R22  21786712.147   116299061.481        2611.259          48.000    21786710.067    90454643.382        2031.010          45.000  
R11  19475891.096   104073300.716        1194.877          52.000    19475886.781    80945891.179         929.351          52.000  
R09  23495742.779   125465890.691       -4578.042          41.000    23495743.754    97584559.250       -3560.567          38.000  
R20  21276644.489   113775901.319       -4090.094          43.000    21276643.361    88492423.951       -3180.924          40.000  
G25  20720732.839   108888208.622       -1695.929          48.000    20720731.171    84847975.897       -1321.417          48.000  
G29  20885912.609   109756360.685       -1626.111          49.000    20885906.157    85524520.982       -1267.181          43.000  
S31  38677289.634   203250606.631        -646.988          44.000  
S33  39631907.960   208267197.678        -647.177          42.000  
R21  19221056.376   102856267.225        -609.426          52.000    19221050.155    79999412.024        -473.966          47.000  
G28  21209419.803   111456274.249       -1042.844          47.000    21209414.783    86849033.459        -812.509          47.000  
E15  24501450.923   128756123.521       -2283.643          49.000    24501451.349    98657368.171       -1749.707          50.000  
E21  24453548.140   128504329.908         978.903          45.000    24453548.491    98464392.766         750.078          52.000  
E13  23450584.309   123234053.802         556.706          47.000    23450585.232    94426196.344         426.623          52.000  
E27  23731847.577   124711735.272       -1190.919          48.000    23731846.381    95558357.476        -912.510          51.000  
E30  27223212.665   143058932.172       -2753.074          43.000    27223214.850   109616589.931       -2109.545          48.000  
G18  21129457.133   111036332.322        1765.199          48.000    21129452.680    86521925.140        1375.376          47.000  
G05  23546683.920   123738753.465         241.568          38.000    23546677.463    96419820.887         189.021          37.000  
E26  26677676.118   140192326.701        2321.593          42.000    26677679.480   107420224.165        1778.930          46.000  
E14  21480590.736   112881289.391         242.127          44.000    21480592.070    86493471.155         185.490          48.000  
> 2024 04 17 03 55 00.0000000  0 24                     
G31  22414640.030   117789651.256        1242.088          48.000    22414634.378    91784269.238         967.921          44.000  
G12  23150772.703   121658127.596       -2935.677          45.000    23150768.350    94798525.537       -2287.303          41.000  
G26  23662513.233   124347346.757        2475.172          39.000    23662514.385    96894041.475        1929.133          34.000  
G20  23986363.996   126049183.699       -1752.271          41.000                                                                  
R10  20018085.768   106707702.511       -2882.380          47.000                                                                  
R22  21772318.351   116222229.464        2597.584          48.000    21772317.379    90394885.269        2020.396          45.000  
R11  19469347.052   104038330.672        1175.917          52.000    19469341.779    80918692.271         914.607          51.000  
R09  23521054.274   125601047.781       -4585.402          36.000    23521054.229    97689681.154       -3565.754          34.000  
R20  21299228.915   113896670.054       -4097.972          43.000    21299227.307    88586355.213       -3187.268          40.000  
G25  20730288.907   108938427.953       -1708.673          47.000    20730287.354    84887107.820       -1331.500          48.000  
G29  20895060.531   109804434.870       -1633.191          49.000    20895054.480    85561981.403       -1272.717          43.000  
S31  38680923.020   203269700.957        -647.892          44.000  
S33  39635543.979   208286304.557        -648.308          42.000  
R21  19224473.514   102874556.722        -630.718          51.000    19224467.892    80013637.216        -490.555          47.000  
G28  21215329.443   111487329.981       -1062.732          47.000    21215324.916    86873232.741        -828.093          47.000  
E15  24514301.288   128823652.951       -2294.679          49.000    24514301.702    98709111.492       -1758.201          50.000  
E21  24448064.867   128475513.205         974.749          46.000    24448064.822    98442312.455         746.940          52.000  
E13  23447496.967   123217831.276         543.216          47.000    23447498.163    94413766.142         416.176          52.000  
E27  23738555.742   124746988.843       -1199.113          48.000    23738555.175    95585369.953        -918.802          52.000  
E30  27238682.994   143140232.452       -2758.506          42.000    27238685.602   109678884.890       -2113.825          48.000  
G18  21119592.054   110984491.631        1749.286          48.000    21119587.716    86481529.831        1363.080          46.000  
G05  23545365.394   123731834.739         226.953          39.000    23545361.385    96414429.801         176.502          38.000  
E26  26664656.276   140123907.958        2316.708          41.000    26664659.328   107367799.697        1775.120          46.000  
E14  21479300.374   112874504.560         217.869          45.000    21479301.444    86488272.541         166.936          48.000  
> 2024 04 17 03 55 30.0000000  0 25                     
G31  22407598.762   117752647.766        1224.976          48.000    22407592.887    91755435.363         954.436          43.000  
G12  23167558.383   121746334.774       -2944.621          46.000    23167553.153    94867258.438       -2294.613          41.000  
G26  23648385.994   124273103.566        2474.033          39.000    23648385.382    96836189.723        1927.261          33.000  
G20  23996417.182   126102010.478       -1769.612          42.000                                                                  
R10  20034365.885   106794481.648       -2902.914          48.000                                                                  
R22  21757759.132   116144508.903        2583.734          48.000    21757758.160    90334436.089        2009.512          46.000  
R11  19462799.526   104003346.965        1156.358          51.000    19462794.741    80891482.771         899.306          51.000  
R09  23546835.854   125738719.925       -4592.003          33.000    23546835.457    97796759.320       -3571.618          33.000  
R20  21322240.833   114019724.934       -4105.753          43.000    21322239.351    88682064.590       -3193.633          41.000  
G25  20740082.501   108989892.411       -1722.095          48.000    20740081.212    84927210.009       -1341.937          48.000  
G29  20904405.135   109853543.034       -1640.594          48.000    20904400.504    85600247.513       -1278.418          45.000  
S31  38684622.806   203289143.966        -648.012          44.000  
S33  39639246.319   208305760.189        -648.847          42.000  
R21  19228070.053   102893805.351        -652.485          51.000    19228065.091    80028608.405        -507.438          48.000  
G28  21221454.140   111519517.098       -1083.094          46.000    21221449.954    86898313.625        -843.960          47.000  
E15  24527433.625   128892663.846       -2305.920          49.000    24527433.869    98761989.980       -1767.002          50.000  
E21  24442512.351   128446334.194         970.555          46.000    24442512.275    98419954.537         743.697          52.000  
E13  23444436.348   123201744.354         529.271          48.000    23444436.990    94401439.837         405.617          52.000  
E27  23745425.476   124783091.450       -1207.570          48.000    23745425.516    95613032.989        -925.328          52.000  
E30  27254447.507   143223079.239       -2764.230          42.000    27254450.671   109742364.836       -2118.146          47.000  
G18  21109651.813   110932258.298        1732.916          48.000    21109647.524    86440828.566        1350.452          46.000  
G05  23544116.066   123725263.951         211.216          39.000    23544111.945    96409309.680         164.536          38.000  
E26  26651444.216   140054477.747        2311.830          41.000    26651446.582   107314600.213        1771.365          46.000  
E14  21478127.413   112868343.583         192.954          45.000    21478129.263    86483551.917         147.849          49.000  
R12                                                                  22503326.241                3       2403.329          13.000  
> 2024 04 17 03 56 00.0000000  0 24                     
G31  22400653.741   117716154.535        1208.401          48.000    22400648.248    91726999.125         941.640          43.000  
G12  23184393.827   121834804.156       -2953.028          47.000    23184388.692    94936195.588       -2301.032          41.000  
G26  23634264.047   124198891.175        2473.504          39.000    23634262.900    96778361.960        1927.394          33.000  
G20  24006571.428   126155369.836       -1787.196          44.000                                                                  
R10  20050759.467   106881871.701       -2922.897          47.000                                                                  
R22  21743276.360   116067197.514        2570.449          48.000    21743275.005    90274305.126        1999.161          47.000  
R11  19456360.665   103968940.493        1137.595          52.000    19456356.034    80864722.168         884.711          51.000  
R09  23572656.932   125876605.696       -4599.182          32.000    23572657.597                       -3577.515          28.000  
R20  21345295.466   114143007.767       -4112.847          43.000    21345294.071    88777951.201       -3198.815          41.000  
G25  20749949.684   109041744.980       -1734.558          48.000    20749948.666    84967614.590       -1351.593          48.000  
G29  20913789.517   109902861.342       -1647.089          48.000    20913785.653    85638677.374       -1283.447          44.000  
S31  38688325.882   203308602.348        -648.413          44.000  
S33  39642951.314   208325230.927        -648.934          42.000  
R21  19231787.744   102913697.056        -673.470          51.000    19231782.622    80044079.737        -523.779          48.000  
G28  21227692.991   111552304.006       -1102.545          46.000    21227689.200    86923861.858        -859.270          47.000  
E15  24540628.246   128962003.207       -2316.432          49.000    24540628.721    98815120.138       -1775.016          50.000  
E21  24436981.972   128417273.820         966.956          46.000    24436982.134    98397687.526         740.954          52.000  
E13  23441451.764   123186062.156         516.377          47.000    23441452.835    94389423.649         395.569          52.000  
E27  23752341.690   124819438.731       -1215.300          48.000    23752342.067    95640883.507        -931.260          52.000  
E30  27270243.435   143306086.188       -2769.216          41.000    27270246.135   109805967.533       -2121.785          47.000  
G18  21099804.253   110880507.263        1717.298          48.000    21099799.764    86400503.146        1338.057          46.000  
G05  23542952.751   123719154.410         196.208          40.000    23542948.546    96404549.003         153.065          37.000  
E26  26638257.956   139985188.745        2307.897          41.000    26638260.746   107261508.924        1768.090          45.000  
E14  21477094.253   112862916.461         169.005          44.000    21477096.050    86479393.602         129.480          49.000  
> 2024 04 17 03 56 30.5000000  0 25                     
G31  22393692.331   117679576.724        1190.653          46.000    22393687.944    91698496.942         927.592          43.000  
G12  23201560.162   121925014.497       -2962.088          47.000    23201554.405    95006489.323       -2308.170          41.000  
G26  23619912.617   124123473.566        2472.252          40.000    23619911.172    96719595.060        1926.432          33.000  
G20  24016998.504   126210162.404       -1805.189          44.000                                                                  
R10  20067544.237   106971341.932       -2943.725          48.000                                                                  
R22  21728630.485   115989017.363        2556.298          47.000    21728628.420    90213498.487        1988.472          47.000  
R11  19449926.583   103934554.400        1117.618          52.000    19449921.531    80837977.425         869.295          51.000  
R09  23598946.227                3      -4599.545          21.000    23598953.402                3      -3582.361          23.000  
R20  21368778.014   114268574.609       -4120.841          45.000    21368775.127    88875614.288       -3205.251          41.000  
G25  20760057.245   109094858.596       -1747.937          48.000    20760055.563    85009001.823       -1361.932          48.000  
G29  20923371.934   109953214.494       -1654.413          48.000    20923367.302    85677913.593       -1289.124          45.000  
S31  38692093.237   203328400.153        -649.009          44.000  
S33  39646720.791   208345039.900        -649.762          42.000  
R21  19235688.652   102934576.156        -695.381          50.000    19235683.097    80060319.053        -540.929          47.000  
G28  21234152.765   111586249.900       -1123.046          47.000    21234148.331    86950313.205        -875.117          46.000  
E15  24554106.298   129032831.732       -2327.727          49.000    24554107.099    98869391.353       -1783.574          50.000  
E21  24431382.732   128387850.385         962.739          46.000    24431382.964    98375142.324         737.617          52.000  
E13  23438496.816   123170532.332         502.436          48.000    23438497.764    94377524.208         385.017          52.000  
E27  23759421.228   124856641.780       -1223.917          47.000    23759421.563    95669389.739        -937.777          52.000  
E30  27286333.331   143390638.992       -2774.762          40.000    27286336.206   109870754.729       -2126.120          47.000  
G18  21089886.643   110828388.468        1700.614          47.000    21089881.973    86359891.132        1325.256          46.000  
G05  23541861.142   123713416.002         180.512          39.000    23541856.671    96400077.592         141.082          35.000  
E26  26624880.522   139914889.685        2302.777          40.000    26624883.146   107207643.648        1764.246          45.000  
E14  21476187.424   112858148.007         144.062          44.000    21476188.698    86475739.953         110.372          49.000  
R12                                                                  22464233.831                3       2375.434          14.000  
> 2024 04 17 03 57 00.5000000  0 25                     
G31  22386945.933   117644121.913        1173.184          47.000    22386941.220    91670869.822         913.945          43.000  
G12  23218495.351   122014014.261       -2971.284          45.000    23218490.911    95075839.762       -2315.615          41.000  
G26  23605803.503   124049331.353        2470.681          39.000    23605801.742    96661821.928        1925.829          32.000  
G20  24027356.484   126264596.795       -1823.778          44.000                                                                  
R10  20084169.203   107059963.567       -2964.523          47.000                                                                  
R22  21714302.796   115912539.958        2542.170          46.000    21714301.868    90154016.198        1977.202          47.000  
R11  19443707.481   103901325.894        1097.503          51.000    19443703.154    80812133.047         853.561          51.000  
R09  23624846.241                3      -4614.182          25.000    23624860.225                3      -3588.467          25.000  
R20  21391916.634   114392309.777       -4128.479          44.000    21391914.304    88971852.756       -3211.106          40.000  
G25  20770074.205   109147498.669       -1761.511          48.000    20770072.314    85050020.062       -1372.644          48.000  
G29  20932837.791   110002956.196       -1661.847          49.000    20932833.152    85716673.357       -1294.952          45.000  
S31  38695802.375   203347893.265        -650.384          44.000  
S33  39650432.922   208364546.577        -650.740          43.000  
R21  19239648.814   102955762.867        -717.212          51.000    19239642.759    80076797.619        -557.869          48.000  
G28  21240622.478   111620247.342       -1143.452          47.000    21240617.474    86976804.700        -890.947          46.000  
E15  24567427.036   129102831.801       -2338.971          49.000    24567427.503    98923027.784       -1792.220          50.000  
E21  24425899.091   128359036.028         958.250          46.000    24425899.647    98353063.818         734.180          52.000  
E13  23435669.038   123155670.688         488.313          48.000    23435669.647    94366136.750         374.211          53.000  
E27  23766432.218   124893487.801       -1232.600          47.000    23766433.110    95697622.415        -944.486          52.000  
E30  27302191.252   143473971.568       -2780.829          40.000    27302193.513   109934606.905       -2130.740          46.000  
G18  21080225.102   110777618.792        1683.871          47.000    21080220.482    86320330.419        1312.039          47.000  
G05  23540877.106   123708245.066         164.147          40.000    23540872.139    96396048.350         127.886          35.000  
E26  26611751.240   139845893.112        2297.225          40.000    26611752.767   107154776.395        1760.136          45.000  
E14  21475436.317   112854199.111         119.236          44.000    21475436.929    86472714.310          91.315          48.000  
R12                                                                  22446621.291                3       2359.752          11.000  
> 2024 04 17 03 57 30.5000000  0 24                     
G31  22380301.529   117609205.655        1155.131          48.000    22380296.634    91643662.342         900.221          43.000  
G12  23235485.556   122103298.118       -2980.563          45.000    23235480.865    95145411.548       -2322.389          41.000  
G26  23591705.663   123975247.582        2468.878          39.000    23591703.905    96604094.408        1923.994          32.000  
G20  24037820.213   126319584.424       -1841.585          44.000                                                                  
R10  20100912.496   107149215.490       -2985.314          47.000                                                                  
R22  21700057.327   115836500.346        2527.553          45.000    21700056.639    90094874.396        1965.987          47.000  
R11  19437603.434   103868707.631        1077.377          51.000    19437599.241    80786763.306         838.027          51.000  
R09  23650794.115                       -4621.124          27.000    23650795.603                3      -3591.458          23.000  
R20  21415099.932   114516285.065       -4136.201          43.000    21415098.609    89068277.954       -3217.013          41.000  
G25  20780169.692   109200551.151       -1774.835          48.000    20780168.370    85091359.657       -1383.118          48.000  
G29  20942347.642   110052927.481       -1669.135          49.000    20942342.170    85755612.030       -1300.830          45.000  
S31  38699519.305   203367425.018        -651.364          44.000  
S33  39654151.834   208384089.676        -651.607          42.000  
R21  19243731.811   102977610.569        -738.914          52.000    19243726.136    80093790.292        -574.767          48.000  
G28  21247209.834   111654865.042       -1163.886          47.000    21247205.516    87003779.527        -907.019          47.000  
E15  24580814.129   129173178.244       -2350.323          50.000    24580813.972    98976929.612       -1800.874          50.000  
E21  24420443.259   128330366.631         953.439          45.000    24420444.090    98331096.370         730.676          52.000  
E13  23432923.116   123141237.673         474.199          48.000    23432923.292    94355077.704         363.428          53.000  
E27  23773494.708   124930603.348       -1241.352          47.000    23773495.896    95726061.600        -951.141          52.000  
E30  27318083.899   143557486.544       -2786.575          41.000    27318086.477   109998598.859       -2135.071          47.000  
G18  21070661.620   110727359.712        1667.060          48.000    21070656.133    86281167.543        1299.113          46.000  
G05  23539986.328   123703563.571         148.475          40.000    23539981.482    96392400.431         115.791          37.000  
E26  26598653.422   139777064.880        2291.883          40.000    26598655.285   107102038.118        1756.111          45.000  
E14  21474826.460   112851001.881          94.448          43.000    21474827.943    86470264.644          72.379          48.000  
> 2024 04 17 03 58 00.0000000  0 24                     
G31  22373861.895   117575361.807        1139.480          48.000    22373856.275    91617290.525         888.145          43.000  
G12  23252238.940   122191333.937       -2987.733          45.000    23252233.995    95214010.891       -2328.408          41.000  
G26  23577847.090   123902420.156        2468.692          38.000    23577845.728    96547345.824        1923.809          34.000  
G20  24048205.168   126374157.455       -1857.860          44.000                                                                  
R10  20117485.008   107237555.411       -3003.714          47.000                                                                  
R22  21686123.505   115762119.203        2515.415          45.000    21686122.217    90037022.539        1956.476          48.000  
R11  19431706.494   103837193.883        1059.351          51.000    19431702.108    80762252.622         823.956          52.000  
R09  23676345.843                3      -4627.396          24.000    23676344.440                3      -3600.193          22.000  
R20  21437933.748   114638386.730       -4141.628          43.000    21437931.889    89163245.948       -3221.514          41.000  
G25  20790166.814   109253085.209       -1786.572          48.000    20790165.272    85132295.253       -1392.133          48.000  
G29  20951733.770   110102252.038       -1674.573          49.000    20951728.057    85794046.730       -1304.724          45.000  
S31  38703174.291   203386631.629        -650.422          44.000  
S33  39657808.977   208403308.435        -651.167          42.000  
R21  19247859.330   102999699.421        -758.370          51.000    19247854.518    80110970.519        -589.803          49.000  
G28  21253795.882   111689472.974       -1182.145          48.000    21253791.434    87030746.708        -921.202          46.000  
E15  24594034.696   129242651.539       -2359.540          49.000    24594034.302    99030162.398       -1807.871          50.000  
E21  24415098.679   128302280.616         950.804          46.000    24415099.470    98309575.935         728.555          52.000  
E13  23430294.246   123127426.587         462.301          48.000    23430295.392    94344495.209         354.248          53.000  
E27  23780483.482   124967326.873       -1248.090          47.000    23780484.246    95754200.400        -956.341          52.000  
E30  27333738.012   143639750.403       -2790.499          42.000    27333740.701   110061632.159       -2138.075          47.000  
G18  21061345.054   110678400.988        1652.277          48.000    21061339.781    86243017.929        1287.468          47.000  
G05  23539194.468   123699402.087         133.882          39.000    23539192.207    96389157.754         104.508          40.000  
E26  26585799.321   139709512.428        2288.475          41.000    26585801.080   107050277.393        1753.299          46.000  
E14  21474360.155   112848552.402          71.860          43.000    21474361.697    86468387.926          55.124          48.000  
> 2024 04 17 03 58 30.0000000  0 24                     
G31  22367402.240   117541417.730        1123.761          49.000    22367397.072    91590840.623         875.682          44.000  
G12  23269316.883   122281078.694       -2995.215          45.000    23269312.455    95283941.836       -2333.772          41.000  
G26  23563752.573   123828355.026        2468.513          37.000    23563752.740    96489632.816        1923.965          35.000  
G20  24058858.090   126430138.057       -1874.208          44.000                                                                  
R10  20134443.434   107327949.318       -3022.390          48.000                                                                  
R22  21672023.238   115686849.501        2502.765          46.000    21672021.875    89978479.611        1946.602          47.000  
R11  19425811.235   103805692.382        1040.841          52.000    19425806.594    80737751.468         809.627          51.000  
R09  23702352.717                3      -4632.110          21.000    23702355.124                3      -3599.483          20.000  
R20  21461185.517   114762724.937       -4147.290          43.000    21461183.801    89259953.422       -3225.742          41.000  
G25  20800399.201   109306855.154       -1798.163          48.000    20800397.573    85174193.912       -1401.068          48.000  
G29  20961309.094   110152572.885       -1680.084          48.000    20961303.740    85833257.796       -1309.064          44.000  
S31  38706886.013   203406137.491        -649.814          44.000  
S33  39661523.093   208422826.412        -650.182          42.000  
R21  19252166.966   103022749.063        -778.142          52.000    19252161.366    80128898.051        -605.156          48.000  
G28  21260597.764   111725216.490       -1200.579          48.000    21260592.998    87058598.797        -935.625          46.000  
E15  24607531.606   129313578.146       -2368.782          49.000    24607531.162    99084508.779       -1815.057          49.000  
E21  24409678.646   128273800.140         947.960          46.000    24409679.754    98287753.262         726.474          52.000  
E13  23427689.833   123113742.641         450.165          47.000    23427691.416    94334010.159         344.913          53.000  
E27  23787629.000   125004877.026       -1255.010          47.000    23787629.689    95782972.597        -961.644          52.000  
E30  27349678.629   143723524.633       -2794.451          41.000    27349681.852   110125822.784       -2141.138          46.000  
G18  21051955.641   110629057.832        1637.310          48.000    21051950.403    86204568.747        1275.917          47.000  
G05  23538469.643   123695594.396         119.570          38.000    23538468.381    96386190.817          93.309          40.000  
E26  26572747.449   139640920.360        2284.746          42.000    26572748.472   106997720.082        1750.547          47.000  
E14  21474014.313   112846738.951          49.105          42.000    21474016.443    86466998.559          37.667          48.000  
> 2024 04 17 03 59 00.0000000  0 24                     
G31  22361036.673   117507968.212        1106.649          48.000    22361032.441    91564776.081         862.358          45.000  
G12  23286438.773   122371056.788       -3003.055          45.000    23286434.350    95354054.578       -2340.101          40.000  
G26  23549660.512   123754303.309        2468.145          36.000    23549661.320    96431930.242        1922.792          35.000  
G20  24069605.965   126486619.685       -1891.030          44.000                                                                  
R10  20151508.477   107418918.991       -3041.881          47.000                                                                  
R22  21657993.886   115611972.159        2489.414          43.000    21657994.907    89920241.809        1936.140          48.000  
R11  19420022.620   103774759.937        1021.509          51.000    19420017.967    80713692.917         794.533          51.000  
R09  23728383.611                3      -4637.172          25.000    23728387.502                3      -3613.768          11.000  
R20  21484471.601   114887241.801       -4153.579          43.000    21484468.775    89356799.845       -3230.693          41.000  
G25  20810700.434   109360989.129       -1810.516          48.000    20810698.469    85216376.231       -1410.858          47.000  
G29  20970918.054   110203070.478       -1686.224          48.000    20970912.901    85872606.580       -1313.971          45.000  
S31  38710595.530   203425631.899        -649.622          44.000  
S33  39665235.103   208442333.388        -650.091          42.000  
R21  19256587.026   103046403.629        -798.548          52.000    19256581.684    80147296.071        -621.105          48.000  
G28  21267507.442   111761527.973       -1219.790          48.000    21267502.471    87086893.458        -950.663          46.000  
E15  24621083.843   129384796.441       -2378.862          49.000    24621083.524    99139078.636       -1822.786          49.000  
E21  24404277.567   128245418.292         944.447          45.000    24404278.691    98266006.163         723.618          52.000  
E13  23425158.719   123100438.483         437.121          48.000    23425159.473    94323816.092         334.959          53.000  
E27  23794817.443   125042648.893       -1262.718          48.000    23794817.766    95811914.663        -967.659          53.000  
E30  27365645.998   143807430.908       -2799.089          43.000    27365648.707   110190114.560       -2144.707          46.000  
G18  21042654.052   110580180.700        1621.391          48.000    21042649.045    86166482.727        1263.443          47.000  
G05  23537830.325   123692231.435         104.165          38.000    23537825.645    96383570.279          81.253          37.000  
E26  26559718.277   139572451.065        2280.195          42.000    26559718.823   106945256.824        1747.181          47.000  
E14  21473802.450   112845622.186          25.853          43.000    21473803.644    86466142.989          19.672          47.000  
> 2024 04 17 03 59 30.5000000  0 23                     
G31  22354668.386   117474499.427        1088.633          49.000    22354663.636    91538696.504         848.247          45.000  
G12  23303898.212   122462802.595       -3012.169          46.000    23303892.872    95425544.801       -2347.223          41.000  
G26  23535342.717   123679062.101        2466.623          36.000    23535343.142    96373300.747        1921.554          34.000  
G20  24080636.107   126544584.756       -1909.303          43.000                                                                  
R10  20168974.015   107512022.577       -3062.585          47.000                                                                  
R22  21643815.876   115536280.664        2474.735          45.000    21643814.871    89861370.775        1924.666          47.000  
R11  19414253.003   103743928.788        1000.863          51.000    19414248.582    80689713.149         778.282          52.000  
R20  21508183.538   115014043.927       -4160.566          42.000    21508181.672    89455423.723       -3236.193          41.000  
G25  20821249.879   109416428.169       -1824.054          48.000    20821248.066    85259575.485       -1421.362          47.000  
G29  20980726.955   110254618.307       -1693.335          48.000    20980722.522    85912773.725       -1319.415          45.000  
S31  38714370.540   203445468.996        -650.475          44.000  
S33  39669012.028   208462182.584        -650.540          42.000  
R21  19261202.192   103071100.414        -820.205          52.000    19261197.116    80166504.693        -637.953          48.000  
G28  21274648.150   111799055.191       -1240.221          46.000    21274643.398    87116135.430        -966.511          45.000  
E15  24634923.451   129457528.188       -2389.806          49.000    24634923.760    99194808.166       -1831.213          49.000  
E21  24398811.701   128216694.942         939.708          45.000    24398812.853    98243997.379         719.996          52.000  
E13  23422664.113   123087331.400         422.969          47.000    23422664.931    94313773.034         324.137          52.000  
E27  23802173.809   125081307.471       -1271.629          48.000    23802174.386    95841536.153        -974.344          53.000  
E30  27381910.676   143892899.974       -2804.754          42.000    27381913.072   110255603.803       -2149.087          46.000  
G18  21033294.879   110530997.694        1604.376          48.000    21033289.950    86128158.316        1250.109          47.000  
G05  23537271.652   123689299.038          88.271          36.000    23537267.783    96381285.396          68.466          37.000  
E26  26546500.363   139502997.078        2274.975          41.000    26546501.842   106892039.110        1742.892          46.000  
E14  21473728.657   112845228.338           0.826          43.000    21473728.806    86465841.337           0.673          48.000  
