     3.00           OBSERVATION DATA    M: Mixed            RINEX VERSION / TYPE
CONVBIN 2.4.3                           20240417 105942 UTC PGM / RUN BY / DATE 
format: u-blox UBX                                          COMMENT             
log: /home/regis/git/gnsspwv/obsdata/VERT00CHL/2024-04-17/VECOMMENT             
{self.marker}                                               MARKER NAME         
                                                            MARKER NUMBER       
GEODETIC                                                    MARKER TYPE         
{self.observer}     {self.institution}                      OBSERVER / AGENCY   
UNKNOWN             UBLOX-ZED-F9P                           REC # / TYPE / VERS 
UNKNOWN             TWIVSP6037L                             ANT # / TYPE        
  1713381.0000 -5047934.0000 -3490983.0000                  APPROX POSITION XYZ 
        0.0000        0.0000        0.0000                  ANTENNA: DELTA H/E/N
G    8 C1C L1C D1C S1C C2L L2L D2L S2L                      SYS / # / OBS TYPES 
R    8 C1C L1C D1C S1C C2C L2C D2C S2C                      SYS / # / OBS TYPES 
E    8 C1C L1C D1C S1C C7Q L7Q D7Q S7Q                      SYS / # / OBS TYPES 
S    4 C1C L1C D1C S1C                                      SYS / # / OBS TYPES 
  2024    04    17    10    45   00.0090000     GPS         TIME OF FIRST OBS   
  2024    04    17    10    59   30.0100000     GPS         TIME OF LAST OBS    
                                                            END OF HEADER       
> 2024 04 17 10 45 00.0090000  0 23                     
G08  23204919.205   121942715.3551      -1877.714          50.000    23204916.174    95020318.4271      -1463.169          47.000  
E19  28088418.127   147605611.8841       2066.426          42.000    28088417.762   113100418.5311       1583.396          46.000  
G27  24798558.413   130317291.4021      -3713.879          45.000    24798555.123   101545991.5161      -2893.888          44.000  
G28  27798293.080   146081016.5401       1581.451          43.000    27798292.020   113829346.1201       1232.268          42.000  
R08  25484609.688   136468935.0181      -4647.068          48.000    25484602.795   106142539.7821      -3614.422          47.000  
R17  25083188.214   134225444.3431       2835.229          44.000    25083184.197   104397354.7281       2205.137          48.000  
R02  23393102.447   124830115.8741       2500.928          52.000    23393098.379    97090098.4521       1945.264          48.000  
G03  25426835.788   133618913.4751       1476.628          46.000    25426833.149   104118656.4461       1150.880          44.000  
G21  23199171.162   121912492.9681       1217.961          47.000                                                                  
S31  41604308.117   218632227.8121       -594.664          44.000  
S33  42558057.338   223644267.9961       -594.385          42.000  
G10  26895676.323   141337835.4151      -3748.378          39.000    26895675.101   110133305.7711      -2921.393          38.000  
E33  26566933.075   139610305.0011       -133.833          48.000    26566930.821   106974115.2251       -102.559          49.000  
R01  22023887.369   117730277.1371      -1436.009          49.000    22023883.615    91568008.7841      -1117.124          45.000  
R23  24271759.879   129837594.6491      -2927.659          47.000                                                                  
R24  22365310.434   119597480.3011        371.182          51.000    22365306.386    93020229.1781        288.738          50.000  
G02  24087619.264   126581320.6101       1596.907          48.000                                                                  
G32  24827321.377   130468484.6051      -2381.824          49.000    24827317.554   101663784.8591      -1855.896          43.000  
E12  29440406.544   154710351.1081       1300.938          37.000    29440404.247   118544328.7911        996.925          44.000  
E31  29755469.543   156366000.2621      -2709.822          40.000    29755471.792   119812996.0181      -2076.260          48.000  
E07  29219227.761   153548100.4531      -2548.285          44.000    29219229.280   117653753.4751      -1952.648          49.000  
E26  28016249.250   147226638.9241      -1826.723          44.000    28016246.819   112810169.6901      -1399.701          48.000  
E14  29478040.713   154908213.5141       -634.532          47.000    29478039.296   118695930.7331       -486.157          49.000  
> 2024 04 17 10 45 30.0090000  0 23                     
G08  23215692.244   121999327.477       -1896.509          50.000    23215688.336    95064431.737       -1477.771          46.000  
E19  28076641.098   147543722.400        2059.570          42.000    28076640.680   113052996.701        1578.350          46.000  
G27  24819791.834   130428870.240       -3724.827          46.000    24819787.736   101632936.004       -2902.522          44.000  
G28  27789274.584   146033620.386        1578.616          43.000    27789271.623   113792414.059        1230.026          41.000  
R08  25510661.288   136608434.541       -4652.670          49.000    25510654.773   106251039.237       -3618.737          49.000  
R17  25067296.767   134140397.312        2834.709          45.000    25067290.872   104331207.060        2204.805          47.000  
R02  23379092.914   124755354.791        2483.154          52.000    23379087.897    97031950.944        1931.316          48.000  
G03  25418428.343   133574731.692        1468.693          46.000    25418424.867   104084229.079        1144.438          44.000  
G21  23192243.996   121876091.058        1208.900          48.000                                                                  
S31  41607703.220   218650069.007        -594.765          44.000  
S33  42561450.110   223662097.058        -593.987          42.000  
G10  26917069.854   141450259.652       -3746.767          41.000    26917069.055   110220908.794       -2919.529          35.000  
E33  26567706.770   139614367.938        -136.961          48.000    26567704.026   106977228.365        -104.969          49.000  
R01  22032011.402   117773707.172       -1459.211          49.000    22032008.248    91601787.682       -1134.917          45.000  
R23  24288217.392   129925632.476       -2941.350          47.000                                                                  
R24  22363269.835   119586567.690         356.223          51.000    22363265.684    93011741.577         277.017          50.000  
G02  24078521.070   126533509.713        1590.718          48.000                                                                  
G32  24840969.737   130540210.829       -2399.689          49.000    24840967.196   101719675.387       -1870.002          45.000  
E12  29432977.184   154671302.581        1302.082          38.000    29432973.597   118514408.490         997.783          44.000  
E31  29770953.383   156447362.912       -2714.532          41.000    29770954.475   119875338.813       -2079.877          48.000  
E07  29233804.375   153624698.508       -2558.069          45.000    29233804.828   117712445.371       -1960.083          48.000  
E26  28026689.371   147281505.891       -1830.977          43.000    28026687.644   112852210.538       -1402.984          48.000  
E14  29481659.101   154927226.403        -632.910          46.000    29481657.400   118710498.998        -485.086          49.000  
> 2024 04 17 10 46 00.0090000  0 23                     
G08  23226573.989   122056508.638       -1916.018          51.000    23226570.126    95108988.448       -1492.903          47.000  
E19  28064902.124   147482027.927        2052.689          43.000    28064900.056   113005724.267        1572.876          46.000  
G27  24841087.557   130540779.188       -3736.100          47.000    24841083.307   101720137.716       -2911.219          43.000  
G28  27780271.598   145986310.625        1574.934          43.000    27780269.087   113755549.287        1227.269          42.000  
R08  25536742.867   136748100.227       -4658.710          49.000    25536736.383   106359667.990       -3623.480          47.000  
R17  25051407.548   134055368.243        2833.502          47.000    25051400.905   104265073.372        2203.777          47.000  
R02  23365181.746   124681125.863        2465.081          52.000    23365177.561    96974217.318        1917.185          48.000  
G03  25410065.614   133530789.490        1460.308          45.000    25410063.228   104049988.418        1137.725          44.000  
G21  23185369.118   121839960.967        1199.401          47.000                                                                  
S31  41611096.653   218667900.174        -594.438          44.000  
S33  42564840.882   223679914.640        -594.305          42.000  
G10  26938455.768   141562638.496       -3745.636          40.000    26938452.649                       -2919.623          30.000  
E33  26568497.519   139618521.706        -140.376          49.000    26568494.455   106980411.098        -107.595          50.000  
R01  22040265.423   117817830.956       -1482.833          49.000    22040262.814    91636106.151       -1153.294          45.000  
R23  24304753.168   130014080.804       -2955.652          49.000                                                                  
R24  22361312.388   119576101.734         340.933          51.000    22361308.058    93003601.387         265.178          49.000  
G02  24069459.265   126485886.521        1583.794          49.000                                                                  
G32  24854721.049   130612469.777       -2417.979          48.000    24854717.691   101775980.970       -1884.243          45.000  
E12  29425538.700   154632211.020        1303.296          38.000    29425534.808   118484455.234         998.617          45.000  
E31  29786461.572   156528860.155       -2719.076          41.000    29786463.143   119937784.738       -2083.600          48.000  
E07  29248434.257   153701579.899       -2567.818          44.000    29248434.832   117771354.391       -1967.605          48.000  
E26  28037153.268   147336492.187       -1835.267          44.000    28037151.424   112894342.823       -1406.186          48.000  
E14  29485268.097   154946190.558        -631.926          46.000    29485266.291   118725029.910        -484.134          49.000  
> 2024 04 17 10 46 30.0090000  0 23                     
G08  23237565.483   122114269.137       -1935.162          50.000    23237561.560    95153996.589       -1507.922          47.000  
E19  28053202.255   147420541.932        2045.666          43.000    28053199.944   112958611.580        1567.546          46.000  
G27  24862447.577   130653027.174       -3747.479          46.000    24862444.077   101807603.628       -2920.129          44.000  
G28  27771287.367   145939101.683        1571.416          41.000    27771286.036   113718763.107        1224.561          43.000  
R08  25562856.999   136887939.481       -4664.448          49.000    25562850.500   106468431.690       -3627.849          46.000  
R17  25035523.320   133970371.423        2832.362          46.000    25035517.316   104198964.770        2203.180          47.000  
R02  23351373.375   124607443.269        2446.716          52.000    23351370.227    96916908.632        1902.966          49.000  
G03  25401751.800   133487098.356        1451.858          46.000    25401748.529   104015943.361        1131.503          44.000  
G21  23178548.332   121804116.559        1189.795          47.000                                                                  
S31  41614489.647   218685732.043        -594.721          44.000  
S33  42568231.800   223697734.715        -594.165          42.000  
G10  26959834.103   141674982.254       -3744.269          40.000    26959830.727   110396016.987       -2917.653          34.000  
E33  26569307.779   139622778.661        -143.893          49.000    26569304.674   106983672.889        -110.208          50.000  
R01  22048651.032   117862658.007       -1506.116          49.000    22048648.201    91670971.615       -1171.438          45.000  
R23  24321366.732   130102950.931       -2969.612          49.000                                                                  
R24  22359442.286   119566096.749         325.577          51.000    22359436.540    92995819.705         253.242          49.000  
G02  24060434.747   126438464.504        1577.131          48.000                                                                  
G32  24868574.620   130685270.814       -2435.898          48.000    24868570.685   101832709.009       -1898.105          44.000  
E12  29418092.934   154593088.316        1304.132          37.000    29418089.898   118454478.112         999.449          45.000  
E31  29801997.759   156610501.428       -2724.036          41.000    29801998.780   120000341.043       -2087.223          48.000  
E07  29263119.404   153778754.542       -2577.491          44.000    29263121.117   117830488.128       -1975.084          49.000  
E26  28047640.715   147391609.861       -1839.916          43.000    28047639.913   112936575.770       -1409.627          48.000  
E14  29488868.813   154965117.726        -630.395          45.000    29488868.095   118739532.512        -483.116          49.000  
> 2024 04 17 10 47 00.0090000  0 23                     
G08  23248666.089   122172605.556       -1953.865          50.000    23248662.312    95199453.494       -1522.438          47.000  
E19  28041541.405   147359263.571        2039.333          43.000    28041539.182   112911657.991        1562.756          46.000  
G27  24883870.791   130765609.426       -3758.045          46.000    24883867.305   101895329.994       -2928.287          43.000  
G28  27762322.917   145891994.301        1568.714          42.000    27762321.591   113682056.070        1222.520          42.000  
R08  25589001.505   137027946.767       -4669.554          48.000    25588996.493   106577326.133       -3631.624          47.000  
R17  25019646.113   133885406.754        2831.920          47.000    25019639.360   104132881.144        2202.845          47.000  
R02  23337668.356   124534307.576        2429.101          52.000    23337664.784    96860025.299        1889.219          49.000  
G03  25393485.620   133443655.913        1444.202          47.000    25393481.648   103982092.121        1125.388          44.000  
G21  23171782.212   121768557.212        1180.822          48.000                                                                  
S31  41617882.801   218703562.459        -594.001          44.000  
S33  42571622.304   223715551.320        -593.861          42.000  
G10  26981204.309   141787287.379       -3742.751          42.000    26981199.189   110483527.201       -2916.394          32.000  
E33  26570137.296   139627137.345        -146.704          49.000    26570134.178   106987012.627        -112.345          50.000  
R01  22057167.853   117908183.803       -1528.810          49.000    22057164.521    91706380.544       -1189.172          45.000  
R23  24338058.126   130192240.363       -2983.155          49.000                                                                  
R24  22357656.922   119556553.136         310.746          51.000    22357652.383    92988396.870         241.755          49.000  
G02  24051448.725   126391243.523        1570.953          48.000                                                                  
G32  24882530.813   130758609.711       -2453.215          48.000    24882527.023   101889856.147       -1911.384          44.000  
E12  29410640.845   154553932.468        1306.061          36.000    29410638.804   118424475.603        1000.698          45.000  
E31  29817558.948   156692282.432       -2727.891          40.000    29817561.259   120063004.382       -2090.321          48.000  
E07  29277860.370   153856218.687       -2586.758          44.000    29277861.936   117889843.646       -1981.989          49.000  
E26  28058155.633   147446857.193       -1843.469          44.000    28058153.791   112978908.062       -1412.586          48.000  
E14  29492463.052   154984006.083        -628.785          45.000    29492462.401   118754005.341        -481.772          49.000  
> 2024 04 17 10 47 30.0090000  0 23                     
G08  23259874.941   122231508.522       -1973.133          50.000    23259871.525    95245351.879       -1537.544          47.000  
E19  28029918.457   147298186.362        2032.164          43.000    28029917.049   112864858.540        1557.178          47.000  
G27  24905356.252   130878515.199       -3769.241          46.000    24905352.831   101983308.432       -2937.091          44.000  
G28  27753377.236   145844983.230        1565.174          43.000    27753375.744   113645424.055        1219.413          41.000  
R08  25615176.045   137168109.476       -4674.947          48.000    25615171.549   106686341.426       -3636.131          47.000  
R17  25003773.460   133800468.817        2830.456          47.000    25003766.496   104066818.332        2201.449          46.000  
R02  23324063.956   124461712.690        2410.491          53.000    23324059.593    96803562.596        1874.940          48.000  
G03  25385265.451   133400453.972        1435.905          47.000    25385260.891   103948428.270        1118.835          45.000  
G21  23165068.497   121733277.008        1171.032          47.000                                                                  
S31  41621274.026   218721383.504        -594.286          44.000  
S33  42575011.365   223733360.461        -593.905          42.000  
G10  27002566.368   141899544.601       -3741.289          43.000    27002562.175   110571000.051       -2915.479          36.000  
E33  26570984.669   139631590.329        -150.359          49.000    26570981.740   106990424.620        -115.154          50.000  
R01  22065813.102   117954397.425       -1552.285          49.000    22065809.970    91742324.446       -1207.241          45.000  
R23  24354825.974   130281940.326       -2997.102          48.000                                                                  
R24  22355957.768   119547465.136         294.979          51.000    22355952.985    92981328.398         229.485          50.000  
G02  24042500.245   126344216.962        1564.009          49.000                                                                  
G32  24896587.341   130832476.212       -2471.209          48.000    24896583.738   101947414.401       -1925.672          44.000  
E12  29403182.329   154514735.593        1307.248          36.000    29403179.490   118394441.659        1001.439          44.000  
E31  29833146.231   156774192.862       -2732.908          41.000    29833148.213   120125766.904       -2094.020          47.000  
E07  29292653.812   153933962.544       -2596.304          44.000    29292655.672   117949413.517       -1989.476          48.000  
E26  28068691.444   147502226.531       -1848.014          44.000    28068690.112   113021333.852       -1416.187          48.000  
E14  29496048.610   155002847.678        -627.441          45.000    29496047.939   118768442.353        -480.847          49.000  
> 2024 04 17 10 48 00.0090000  0 23                     
G08  23271194.311   122290992.327       -1992.622          50.000    23271190.463    95291702.896       -1552.964          46.000  
E19  28018336.811   147237327.747        2024.698          42.000    28018335.839   112818226.599        1551.384          46.000  
G27  24926905.942   130991757.422       -3780.450          46.000    24926902.863   102071549.058       -2945.838          45.000  
G28  27744452.802   145798086.952        1561.074          42.000    27744452.046   113608881.440        1216.269          41.000  
R08  25641381.879   137308440.414       -4680.576          48.000    25641377.191   106795487.562       -3640.532          47.000  
R17  24987908.685   133715575.704        2828.630          48.000    24987901.571   104000790.367        2199.990          46.000  
R02  23310563.421   124389677.300        2391.525          52.000    23310560.481    96747535.051        1860.074          48.000  
G03  25377093.303   133357507.979        1427.137          46.000    25377089.183   103914963.878        1112.122          45.000  
G21  23158411.207   121698293.129        1160.899          48.000                                                                  
S31  41624666.375   218739210.497        -594.639          44.000  
S33  42578400.745   223751172.823        -594.122          42.000  
G10  27023921.475   142011768.273       -3740.383          41.000    27023919.496   110658446.833       -2914.800          36.000  
E33  26571852.970   139636154.047        -154.177          49.000    26571850.351   106993921.471        -118.250          51.000  
R01  22074590.096   118001312.423       -1575.704          50.000    22074586.424    91778813.887       -1225.570          45.000  
R23  24371675.136   130372065.996       -3011.494          50.000    24371388.343                3      -2281.083          10.000  
R24  22354347.338   119538850.828         278.969          52.000    22354342.266    92974628.357         216.978          50.000  
G02  24033592.005   126297402.195        1556.642          48.000                                                                  
G32  24910746.601   130906883.779       -2489.352          48.000    24910742.320   102005394.292       -1940.001          44.000  
E12  29395718.939   154475513.478        1307.885          37.000    29395715.519   118364388.374        1001.767          44.000  
E31  29848762.250   156856246.120       -2737.760          42.000    29848762.563   120188638.881       -2097.680          48.000  
E07  29307504.638   154012000.137       -2606.431          45.000    29307506.058   118009208.462       -1997.112          49.000  
E26  28079255.381   147557734.031       -1852.666          44.000    28079253.117   113063865.511       -1419.681          49.000  
E14  29499628.370   155021658.433        -626.802          46.000    29499627.554   118782855.721        -480.191          49.000  
> 2024 04 17 10 48 30.0090000  0 23                     
G08  23282622.615   122351049.898       -2011.194          49.000    23282619.645    95338500.947       -1567.170          47.000  
E19  28006796.303   147176683.503        2018.272          42.000    28006795.260   112771758.906        1546.327          46.000  
G27  24948517.932   131105327.757       -3790.721          47.000    24948514.530   102160045.323       -2953.945          44.000  
G28  27735549.980   145751302.573        1557.623          42.000    27735548.725   113572426.028        1214.074          41.000  
R08  25667617.020   137448928.902       -4685.225          46.000    25667612.580   106904756.242       -3644.132          46.000  
R17  24972051.783   133630723.980        2827.930          48.000    24972044.756   103934794.593        2199.460          45.000  
R02  23297167.769   124318197.910        2373.601          51.000    23297165.045    96691939.934        1846.240          48.000  
G03  25368967.229   133314812.008        1419.402          47.000    25368964.614   103881694.313        1106.008          45.000  
G21  23151809.586   121663602.220        1151.819          47.000                                                                  
S31  41628058.662   218757037.042        -593.908          44.000  
S33  42581790.741   223768987.257        -593.510          42.000  
G10  27045269.526   142123951.463       -3738.528          43.000    27045269.347   110745862.057       -2913.051          36.000  
E33  26572741.624   139640823.475        -157.163          49.000    26572738.932   106997499.297        -120.425          51.000  
R01  22083496.078   118048920.560       -1598.078          49.000    22083492.248    91815842.420       -1243.034          45.000  
R23  24388601.838   130462611.109       -3024.908          49.000                                                                  
R24  22352823.917   119530707.158         263.934          51.000    22352819.426    92968294.357         205.278          50.000  
G02  24024723.186   126250795.103        1550.411          49.000                                                                  
G32  24925006.870   130981824.441       -2506.432          47.000    24925003.713   102063789.539       -1953.305          45.000  
E12  29388249.593   154436260.755        1309.154          37.000    29388246.086   118334311.609        1003.137          44.000  
E31  29864401.021   156938434.300       -2741.813          43.000    29864402.405   120251614.231       -2100.701          48.000  
E07  29322408.956   154090324.010       -2615.379          44.000    29322410.587   118069222.746       -2003.947          48.000  
E26  28089842.993   147613374.369       -1856.777          44.000    28089841.449   113106498.933       -1422.617          49.000  
E14  29503201.393   155040432.744        -625.013          46.000    29503200.137   118797241.184        -478.862          49.000  
> 2024 04 17 10 49 00.0090000  0 23                     
G08  23294156.584   122411663.421       -2029.994          49.000    23294153.558    95385732.204       -1581.831          46.000  
E19  27995294.388   147116238.658        2011.433          42.000    27995293.029   112725444.009        1541.029          46.000  
G27  24970189.137   131219207.024       -3801.453          47.000    24970185.282   102248782.321       -2962.076          45.000  
G28  27726665.518   145704616.463        1554.275          41.000    27726663.402   113536047.214        1210.971          40.000  
R08  25693877.556   137589554.894       -4690.046          45.000    25693873.353   107014131.860       -3647.733          46.000  
R17  24956199.956   133545899.699        2826.638          47.000    24956193.636   103868820.153        2198.361          45.000  
R02  23283874.233   124247260.051        2355.229          51.000    23283870.929    96636766.008        1831.859          48.000  
G03  25360886.708   133272349.471        1411.272          46.000    25360883.854   103848606.631        1099.798          44.000  
G21  23145261.407   121629190.404        1142.101          48.000                                                                  
S31  41631448.041   218774847.960        -593.607          44.000  
S33  42585177.297   223786784.314        -593.524          43.000  
G10  27066606.492   142236076.350       -3736.594          43.000    27066606.241   110833231.907       -2912.036          33.000  
E33  26573647.334   139645582.888        -160.444          50.000    26573644.721   107001146.090        -122.959          51.000  
R01  22092527.563   118097202.287       -1620.977          49.000    22092524.445    91853394.832       -1260.536          45.000  
R23  24405602.775   130553558.676       -3038.530          48.000    25304967.106                3      -2303.118          10.000  
R24  22351386.372   119523019.521         248.342          51.000    22351382.233    92962315.033         193.160          50.000  
G02  24015890.812   126204381.146        1543.567          49.000                                                                  
G32  24939365.218   131057279.547       -2524.053          47.000    24939362.905   102122585.647       -1966.650          46.000  
E12  29380769.160   154396961.036        1310.481          36.000    29380767.594   118304198.849        1004.071          44.000  
E31  29880063.464   157020738.782       -2745.590          43.000    29880064.712   120314678.702       -2103.782          48.000  
E07  29337364.882   154168916.085       -2624.368          43.000    29337366.466   118129442.534       -2011.018          48.000  
E26  28100452.212   147669131.521       -1860.756          43.000    28100451.554   113149221.863       -1425.703          49.000  
E14  29506764.343   155059154.451        -623.513          47.000    29506762.771   118811586.319        -477.746          49.000  
> 2024 04 17 10 49 30.0090000  0 23                     
G08  23305799.814   122472846.463       -2049.222          50.000    23305795.707    95433407.273       -1596.848          46.000  
E19  27983833.377   147056009.917        2003.766          43.000    27983831.879   112679294.670        1535.428          46.000  
G27  24991920.102   131333407.522       -3812.423          45.000    24991916.043   102337769.656       -2970.516          43.000  
G28  27717803.582   145658046.455        1550.114          42.000    27717802.788   113499758.882        1207.675          42.000  
R08  25720166.346   137730329.633       -4695.294          45.000    25720161.010   107123623.189       -3652.051          43.000  
R17  24940355.952   133461120.285        2824.901          48.000    24940350.728   103802880.608        2197.188          45.000  
R02  23270684.806   124176881.378        2336.393          51.000    23270682.652    96582027.010        1817.222          48.000  
G03  25352853.581   133230135.151        1402.694          44.000    25352849.621   103815712.341        1092.906          43.000  
G21  23138769.234   121595074.077        1131.955          48.000                                                                  
S31  41634836.895   218792656.944        -593.811          44.000  
S33  42588563.884   223804581.017        -593.388          43.000  
G10  27087934.891   142348156.777       -3735.692          44.000    27087934.402   110920567.146       -2910.703          34.000  
E33  26574573.083   139650447.946        -164.151          50.000    26574570.567   107004873.832        -125.812          51.000  
R01  22101688.690   118146170.496       -1643.979          50.000    22101684.735    91891481.212       -1278.617          46.000  
R23  24422681.686   130644923.050       -3052.692          48.000                                                                  
R24  22350038.231   119515805.650         232.195          52.000    22350033.364    92956704.195         180.654          50.000  
G02  24007098.202   126158176.783        1536.392          49.000                                                                  
G32  24953824.975   131133261.867       -2541.740          48.000    24953821.801   102181792.585       -1980.665          46.000  
E12  29373284.163   154357629.647        1311.296          36.000    29373282.760   118274061.823        1004.673          43.000  
E31  29895750.344   157103172.362       -2750.056          43.000    29895751.434   120377842.099       -2107.229          48.000  
E07  29352373.927   154247789.609       -2633.898          43.000    29352375.805   118189877.979       -2018.217          49.000  
E26  28111087.088   147725020.913       -1865.421          42.000    28111087.157   113192046.093       -1429.255          49.000  
E14  29510320.021   155077838.691        -622.401          47.000    29510318.216   118825902.762        -476.914          49.000  
> 2024 04 17 10 50 00.0090000  0 23                     
G08  23317552.197   122534606.295       -2068.040          50.000    23317548.214    95481531.787       -1611.245          46.000  
E19  27972415.095   146996007.268        1996.439          42.000    27972414.140   112633318.592        1529.694          46.000  
G27  25013713.403   131447935.243       -3822.875          45.000    25013710.864   102427011.962       -2979.059          45.000  
G28  27708966.836   145611604.131        1546.084          43.000    27708965.101   113463570.003        1204.942          41.000  
R08  25746485.142   137871258.481       -4700.082          45.000    25746478.641   107233234.360       -3655.572          44.000  
R17  24924523.687   133376397.007        2823.383          48.000    24924518.031   103736984.723        2196.021          45.000  
R02  23257604.157   124107073.124        2317.568          51.000    23257600.789    96527731.714        1802.496          48.000  
G03  25344868.837   133188177.515        1394.378          45.000    25344865.804   103783018.084        1086.558          43.000  
G21  23132335.491   121561264.237        1122.010          49.000                                                                  
S31  41638226.800   218810472.437        -593.803          44.000  
S33  42591951.618   223822382.969        -593.478          43.000  
G10  27109256.290   142460200.182       -3733.990          44.000    27109255.191   111007873.495       -2909.773          36.000  
E33  26575520.820   139655428.148        -167.906          49.000    26575518.355   107008689.790        -128.612          51.000  
R01  22110978.550   118195831.541       -1666.718          49.000    22110975.017    91930106.458       -1296.526          46.000  
R23  24439842.163   130736712.555       -3066.572          49.000                                                                  
R24  22348779.992   119509076.898         216.402          51.000    22348775.667    92951470.691         168.261          51.000  
G02  23998347.269   126112192.257        1529.315          48.000                                                                  
G32  24968385.642   131209777.822       -2559.428          47.000    24968382.818   102241415.339       -1994.394          46.000  
E12  29365797.216   154318275.445        1312.287          37.000    29365793.819   118243907.291        1005.694          43.000  
E31  29911462.359   157185741.561       -2754.492          42.000    29911463.596   120441109.402       -2110.583          48.000  
E07  29367437.705   154326951.646       -2643.475          42.000    29367439.562   118250534.483       -2025.394          48.000  
E26  28121748.922   147781051.626       -1870.020          42.000    28121749.188   113234978.633       -1432.750          49.000  
E14  29513870.292   155096494.409        -621.211          47.000    29513868.500   118840197.331        -475.969          49.000  
> 2024 04 17 10 50 30.0100000  0 23                     
G08  23329415.463   122596947.041       -2087.922          49.000    23329411.750    95530108.966       -1626.927          46.000  
E19  27961040.751   146936233.970        1988.413          43.000    27961039.960   112587518.267        1523.486          47.000  
G27  25035570.272   131562794.739       -3834.288          45.000    25035568.370   102516512.771       -2987.779          45.000  
G28  27700155.003   145565294.171        1541.167          43.000    27700152.620   113427484.304        1201.005          41.000  
R08  25772833.608   138012345.421       -4705.578          45.000    25772825.999   107342968.427       -3659.743          45.000  
R17  24908702.626   133291733.194        2820.624          49.000    24908696.198   103671135.081        2193.842          45.000  
R02  23244629.768   124037838.972        2297.895          52.000    23244625.782    96473882.944        1787.177          47.000  
G03  25336934.529   133146478.430        1385.187          46.000    25336930.208   103750525.296        1079.266          42.000  
G21  23125961.013   121527765.080        1111.034          49.000                                                                  
S31  41641619.239   218828299.625        -594.768          44.000  
S33  42595341.779   223840197.594        -593.971          43.000  
G10  27130571.536   142572212.539       -3733.370          44.000    27130571.382   111095155.653       -2909.054          39.000  
E33  26576491.187   139660527.820        -172.221          49.000    26576488.933   107012597.306        -131.967          51.000  
R01  22120398.408   118246187.683       -1690.187          49.000    22120395.491    91969272.327       -1314.722          46.000  
R23  24457082.416   130828932.907       -3081.383          49.000                                                                  
R24  22347612.735   119502838.699         199.428          51.000    22347608.721    92946618.736         155.095          50.000  
G02  23989639.184   126066431.338        1521.083          48.000                                                                  
G32  24983048.770   131286831.172       -2577.506          47.000    24983045.678   102301456.844       -2008.527          47.000  
E12  29358305.836   154278900.773        1312.208          38.000    29358300.858   118213737.103        1005.624          44.000  
E31  29927200.615   157268450.309       -2759.300          41.000    29927202.445   120504483.628       -2114.221          48.000  
E07  29382557.224   154406406.565       -2653.412          41.000    29382559.847   118311415.413       -2033.233          49.000  
E26  28132437.481   147837229.441       -1874.940          41.000    28132439.304   113278023.892       -1436.893          48.000  
E14  29517415.894   155115125.814        -620.884          47.000    29517414.094   118854473.285        -475.736          49.000  
> 2024 04 17 10 51 00.0100000  0 23                     
G08  23341388.868   122659869.776       -2107.056          49.000    23341385.911    95579139.633       -1641.845          46.000  
E19  27949711.778   146876702.098        1980.541          42.000    27949711.435   112541902.891        1517.579          46.000  
G27  25057489.938   131677982.381       -3844.971          46.000    25057487.592   102606269.293       -2996.202          44.000  
G28  27691369.921   145519129.363        1536.495          43.000    27691367.143   113391511.652        1197.296          41.000  
R08  25799209.364   138153584.241       -4710.361          46.000    25799201.562   107452820.624       -3663.698          47.000  
R17  24892894.985   133207143.822        2818.585          49.000    24892889.263   103605343.386        2192.226          45.000  
R02  23231766.256   123969192.386        2278.632          52.000    23231761.008    96420491.098        1772.223          48.000  
G03  25329050.261   133105047.128        1376.887          46.000    25329046.441   103718241.215        1072.708          43.000  
G21  23119647.711   121494587.836        1100.666          49.000                                                                  
S31  41645014.656   218846142.537        -594.888          45.000  
S33  42598734.710   223858026.743        -594.117          43.000  
G10  27151880.235   142684191.881       -3731.960          44.000    27151879.896   111182412.016       -2907.981          38.000  
E33  26577485.910   139665754.110        -176.001          49.000    26577483.643   107016601.840        -134.943          51.000  
R01  22129949.148   118297240.171       -1713.247          49.000    22129945.780    92008979.779       -1332.460          46.000  
R23  24474402.803   130921584.418       -3095.418          48.000                                                                  
R24  22346539.635   119497101.112         183.024          51.000    22346535.538    92942156.121         142.264          50.000  
G02  23980975.953   126020905.883        1513.702          48.000                                                                  
G32  24997812.968   131364421.202       -2595.124          45.000    24997810.697   102361916.546       -2022.265          47.000  
E12  29350810.364   154239515.182        1313.530          37.000    29350806.351   118183558.579        1006.177          44.000  
E31  29942966.894   157351297.685       -2763.685          43.000    29942967.777   120567964.083       -2117.682          48.000  
E07  29397731.519   154486154.141       -2663.098          39.000    29397735.271   118372520.558       -2040.516          49.000  
E26  28143158.721   147893557.845       -1880.036          42.000    28143157.832   113321184.503       -1440.490          48.000  
E14  29520957.113   155133738.666        -619.892          47.000    29520956.246   118868735.006        -474.988          50.000  
> 2024 04 17 10 51 30.0100000  0 23                     
G08  23353468.983   122723352.438       -2125.353          49.000    23353466.383    95628606.607       -1656.096          46.000  
E19  27938425.190   146817388.812        1973.305          42.000    27938424.310   112496455.004        1512.243          46.000  
G27  25079467.842   131793476.687       -3854.766          46.000    25079465.314   102696264.786       -3003.844          45.000  
G28  27682608.434   145473088.311        1532.636          44.000    27682606.334   113355635.476        1194.188          42.000  
R08  25825608.568   138294953.059       -4714.195          45.000    25825601.512   107562773.998       -3666.570          46.000  
R17  24877097.017   133122605.466        2817.149          49.000    24877091.231   103539591.342        2191.085          46.000  
R02  23219007.559   123901110.605        2260.093          51.000    23219003.401    96367538.610        1757.827          48.000  
G03  25321212.197   133063859.493        1368.991          47.000    25321209.288   103686146.959        1066.599          43.000  
G21  23113391.665   121461710.976        1090.963          50.000                                                                  
S31  41648408.959   218863980.033        -594.691          44.000  
S33  42602126.386   223875850.474        -593.986          43.000  
G10  27173180.045   142796118.207       -3729.693          43.000    27173179.111   111269627.095       -2906.395          38.000  
E33  26578500.338   139671085.329        -179.479          49.000    26578498.254   107020686.762        -137.504          52.000  
R01  22139625.480   118348964.621       -1735.293          50.000    22139622.406    92049209.863       -1349.614          47.000  
R23  24491799.014   131014646.586       -3108.788          47.000                                                                  
R24  22345556.327   119491842.888         167.365          51.000    22345551.837    92938066.353         130.054          50.000  
G02  23972353.516   125975593.100        1506.958          47.000                                                                  
G32  25012674.969   131442525.619       -2611.891          44.000    25012672.835   102422777.039       -2035.198          47.000  
E12  29343308.089   154200095.182        1314.706          37.000    29343305.345   118153353.609        1007.343          44.000  
E31  29958754.923   157434261.641       -2767.327          44.000    29958755.173   120631533.866       -2120.580          48.000  
E07  29412958.927   154566172.699       -2671.780          38.000    29412962.178   118433833.351       -2047.210          48.000  
E26  28153904.084   147950016.452       -1884.153          43.000    28153901.942   113364444.893       -1443.643          48.000  
E14  29524491.571   155152311.166        -618.417          47.000    29524490.628   118882965.813        -473.871          50.000  
> 2024 04 17 10 52 00.0100000  0 23                     
G08  23365654.086   122787382.760       -2143.515          50.000    23365651.239    95678500.328       -1670.378          47.000  
E19  27927177.369   146758284.779        1966.359          42.000    27927177.124   112451167.446        1506.812          46.000  
G27  25101501.963   131909264.167       -3864.497          46.000    25101499.905   102786488.697       -3011.525          45.000  
G28  27673869.173   145427163.134        1528.706          43.000    27673866.969   113319849.599        1191.344          42.000  
R08  25852029.126   138436437.184       -4718.018          44.000    25852023.441   107672817.022       -3669.714          47.000  
R17  24861306.899   133038109.869        2815.680          48.000    24861301.320   103473872.517        2189.903          46.000  
R02  23206353.441   123833584.558        2241.346          52.000    23206348.798    96315018.300        1743.275          48.000  
G03  25313419.227   133022904.534        1361.080          47.000    25313414.931   103654233.958        1060.647          42.000  
G21  23107190.696   121429125.689        1081.131          50.000                                                                  
S31  41651800.089   218881800.533        -593.841          44.000  
S33  42605515.271   223893659.118        -593.624          42.000  
G10  27194467.048   142907979.510       -3727.832          44.000    27194465.007   111356791.511       -2904.614          36.000  
E33  26579532.690   139676511.433        -182.641          48.000    26579530.913   107024844.393        -139.978          52.000  
R01  22149423.955   118401347.423       -1757.265          49.000    22149421.966    92089952.025       -1366.823          47.000  
R23  24509271.283   131108107.397       -3122.090          49.000                                                                  
R24  22344660.260   119487055.852         151.508          50.000    22344656.801    92934343.051         117.931          50.000  
G02  23963770.421   125930484.062        1500.043          47.000                                                                  
G32  25027632.895   131521131.295       -2628.647          44.000    25027631.026   102484028.143       -2048.318          46.000  
E12  29335797.742   154160630.168        1316.152          37.000    29335795.502   118123114.167        1008.561          45.000  
E31  29974561.977   157517329.188       -2770.605          44.000    29974562.361   120695183.019       -2123.057          47.000  
E07  29428235.628   154646449.787       -2680.439          38.000    29428238.754   118495344.227       -2053.774          48.000  
E26  28164669.149   148006594.897       -1888.083          43.000    28164668.363   113407797.130       -1446.759          48.000  
E14  29528015.942   155170832.740        -616.692          46.000    29528015.118   118897157.606        -472.566          49.000  
> 2024 04 17 10 52 30.0100000  0 23                     
G08  23377945.336   122851971.270       -2162.312          50.000    23377942.578    95728829.001       -1685.073          47.000  
E19  27915973.895   146699403.660        1958.795          43.000    27915972.810   112406050.693        1500.980          47.000  
G27  25123593.428   132025354.122       -3874.900          46.000    25123591.047   102876948.308       -3019.485          45.000  
G28  27665154.449   145381368.782        1524.164          43.000    27665152.995   113284165.656        1187.802          43.000  
R08  25878473.399   138578044.567       -4722.513          44.000    25878468.199   107782955.879       -3673.051          48.000  
R17  24845527.496   132953671.646        2813.516          49.000    24845522.115   103408198.321        2188.271          45.000  
R02  23193806.349   123766629.268        2222.147          52.000    23193802.638    96262941.947        1728.423          49.000  
G03  25305672.371   132982193.979        1352.766          47.000    25305669.104   103622511.422        1054.030          43.000  
G21  23101047.919   121396846.037        1070.688          49.000                                                                  
S31  41655190.504   218899616.541        -593.902          44.000  
S33  42608903.013   223911462.161        -593.578          42.000  
G10  27215743.655   143019786.700       -3726.139          44.000    27215741.550   111443913.820       -2903.607          34.000  
E33  26580585.709   139682045.260        -186.355          48.000    26580584.105   107029084.546        -142.753          52.000  
R01  22159348.373   118454398.375       -1779.551          49.000    22159346.266    92131213.865       -1384.122          47.000  
R23  24526819.681   131201978.664       -3136.082          49.000                                                                  
R24  22343855.124   119482754.176         135.211          50.000    22343852.227    92930997.285         105.183          50.000  
G02  23955227.721   125885592.553        1492.719          47.000                                                                  
G32  25042689.343   131600247.972       -2645.987          44.000    25042686.549   102545677.377       -2061.673          47.000  
E12  29328282.714   154121132.404        1317.121          38.000    29328279.480   118092849.649        1009.146          45.000  
E31  29990391.011   157600510.196       -2774.810          44.000    29990390.914   120758919.099       -2126.044          47.000  
E07  29443564.167   154726995.724       -2689.432          38.000    29443566.140   118557061.086       -2060.629          49.000  
E26  28175461.143   148063305.701       -1892.795          43.000    28175459.965   113451250.753       -1450.328          48.000  
E14  29531533.452   155189315.615        -615.484          47.000    29531532.270   118911319.740        -471.595          49.000  
> 2024 04 17 10 53 00.0100000  0 23                     
G08  23390342.600   122917122.330       -2181.294          49.000    23390340.537    95779596.026       -1699.684          47.000  
E19  27904812.788   146640752.879        1951.150          42.000    27904811.962   112361110.462        1495.016          47.000  
G27  25145743.245   132141749.765       -3885.185          46.000    25145740.373   102967646.105       -3027.370          45.000  
G28  27656467.682   145335714.090        1519.283          44.000    27656465.651   113248590.514        1183.711          43.000  
R08  25904942.006   138719777.965       -4726.809          44.000    25904936.605   107893192.751       -3676.377          48.000  
R17  24829760.651   132869299.727        2811.142          48.000    24829754.368   103342575.712        2186.609          45.000  
R02  23181366.422   123700252.701        2202.691          52.000    23181363.480    96211315.712        1713.239          48.000  
G03  25297972.252   132941733.559        1344.356          45.000    25297970.367   103590983.850        1047.471          44.000  
G21  23094965.429   121364879.940        1060.157          49.000                                                                  
S31  41658580.978   218917433.731        -594.250          44.000  
S33  42612290.692   223929265.979        -593.706          42.000  
G10  27237010.257   143131544.555       -3724.603          43.000    27237008.144   111530997.636       -2902.387          33.000  
E33  26581660.755   139687693.521        -190.452          48.000    26581659.027   107033412.399        -145.844          52.000  
R01  22169399.070   118508120.465       -1802.064          50.000    22169395.733    92172997.674       -1401.574          46.000  
R23  24544444.938   131296265.964       -3150.134          48.000                                                                  
R24  22343144.096   119478946.588         118.556          51.000    22343140.848    92928035.805          92.201          51.000  
G02  23946727.514   125840926.022        1484.863          46.000                                                                  
G32  25057843.033   131679879.199       -2663.121          46.000    25057840.487   102607727.631       -2075.165          46.000  
E12  29320762.674   154081608.174        1317.616          39.000    29320758.394   118062564.832        1009.828          45.000  
E31  30006241.497   157683808.431       -2778.717          44.000    30006241.621   120822744.994       -2129.075          46.000  
E07  29458944.183   154807814.704       -2698.451          39.000    29458945.443   118618987.227       -2067.821          48.000  
E26  28186279.438   148120155.212       -1897.374          44.000    28186278.585   113494810.684       -1453.792          49.000  
E14  29535045.065   155207765.997        -614.678          47.000    29535043.300   118925456.980        -470.940          49.000  
> 2024 04 17 10 53 30.0100000  0 23                     
G08  23402848.143   122982841.309       -2200.356          48.000    23402846.555    95830805.566       -1714.461          47.000  
E19  27893698.421   146582340.939        1942.914          43.000    27893696.308   112316353.207        1488.913          46.000  
G27  25167951.346   132258455.197       -3895.226          46.000    25167948.600   103058585.327       -3035.420          45.000  
G28  27647808.010   145290208.744        1514.205          43.000    27647806.599   113213131.805        1179.916          43.000  
R08  25931434.637   138861640.786       -4730.951          44.000    25931428.941   108003530.284       -3679.561          47.000  
R17  24814008.139   132785003.619        2808.520          48.000    24814000.795   103277012.051        2184.273          45.000  
R02  23169038.046   123634464.201        2183.068          52.000    23169035.037    96160146.854        1697.993          49.000  
G03  25290321.615   132901529.994        1335.660          45.000    25290319.890   103559656.392        1040.783          44.000  
G21  23088943.908   121333236.774        1049.341          50.000                                                                  
S31  41661972.883   218935259.288        -594.252          44.000  
S33  42615680.260   223947077.877        -594.244          43.000  
G10  27258268.160   143243258.943       -3723.163          43.000    27258265.741   111618047.538       -2900.672          33.000  
E33  26582758.343   139693463.865        -194.513          48.000    26582757.062   107037833.806        -149.041          52.000  
R01  22179575.070   118562518.027       -1824.546          50.000    22179571.697    92215306.867       -1418.972          45.000  
R23  24562150.071   131390975.205       -3164.135          49.000                                                                  
R24  22342527.182   119475642.140         101.590          52.000    22342522.236    92925465.643          79.053          50.000  
G02  23938271.937   125796493.224        1476.953          46.000                                                                  
G32  25073095.605   131760029.581       -2680.266          47.000    25073091.804   102670182.413       -2088.672          45.000  
E12  29313237.707   154042064.631        1318.390          39.000    29313233.553   118032265.254        1010.096          46.000  
E31  30022115.993   157767228.578       -2782.823          44.000    30022116.268   120886664.310       -2132.258          47.000  
E07  29474376.554   154888912.074       -2707.948          38.000    29474378.171   118681126.604       -2074.887          48.000  
E26  28197126.335   148177150.865       -1902.273          45.000    28197124.786   113538482.576       -1457.654          49.000  
E14  29538550.627   155226190.971        -613.803          46.000    29538549.538   118939574.746        -470.294          49.000  
> 2024 04 17 10 54 00.0100000  0 23                     
G08  23415459.683   123049114.197       -2218.330          49.000    23415457.511    95882446.726       -1728.646          47.000  
E19  27882626.302   146524156.936        1935.595          43.000    27882624.470   112271770.620        1483.212          47.000  
G27  25190215.575   132375455.388       -3904.916          46.000    25190213.478   103149754.215       -3042.694          45.000  
G28  27639174.631   145244843.356        1509.722          43.000    27639173.697   113177782.086        1176.399          42.000  
R08  25957947.354   139003615.943       -4734.479          44.000    25957941.578   108113955.182       -3682.327          47.000  
R17  24798267.484   132700773.175        2806.471          48.000    24798259.768   103211499.472        2182.863          44.000  
R02  23156816.434   123569252.989        2163.924          51.000    23156814.096    96109426.981        1683.041          49.000  
G03  25282717.463   132861570.655        1327.671          44.000    25282715.649   103528519.265        1034.611          44.000  
G21  23082981.408   121301905.647        1039.082          49.000                                                                  
S31  41665364.178   218953079.678        -594.125          44.000  
S33  42619069.071   223964885.608        -593.668          43.000  
G10  27279515.975   143354916.322       -3721.342          42.000    27279514.963   111705053.077       -2899.844          35.000  
E33  26583877.269   139699344.768        -197.925          48.000    26583876.290   107042339.920        -151.612          53.000  
R01  22189874.171   118617575.932       -1846.278          49.000    22189871.373    92258129.662       -1436.188          46.000  
R23  24579931.318   131486093.302       -3177.421          48.000                                                                  
R24  22342002.431   119472830.981          85.346          52.000    22341996.220    92923279.136          66.538          50.000  
G02  23929859.157   125752283.634        1469.867          46.000                                                                  
G32  25088443.439   131840684.359       -2696.823          46.000    25088440.199   102733030.222       -2101.690          46.000  
E12  29305706.581   154002489.739        1319.831          39.000    29305702.734   118001941.637        1011.261          46.000  
E31  30038010.340   157850756.103       -2786.133          43.000    30038011.570   120950665.904       -2134.835          47.000  
E07  29489859.122   154970273.635       -2716.487          39.000    29489861.003   118743468.453       -2081.365          48.000  
E26  28207997.397   148234280.719       -1906.751          44.000    28207996.473   113582257.267       -1460.864          49.000  
E14  29542049.664   155244578.419        -612.277          47.000    29542048.619   118953663.753        -469.144          49.000  
> 2024 04 17 10 54 30.0100000  0 23                     
G08  23428179.045   123115950.164       -2237.679          50.000    23428176.384    95934526.654       -1743.698          47.000  
E19  27871599.038   146466213.094        1926.930          42.000    27871598.390   112227372.054        1476.600          47.000  
G27  25212536.819   132492758.342       -3915.501          45.000    25212535.427   103241158.988       -3051.078          44.000  
G28  27630571.492   145199631.465        1504.096          43.000    27630569.722   113142551.977        1172.029          42.000  
R08  25984483.307   139145711.763       -4738.921          44.000    25984476.583   108224473.923       -3685.788          47.000  
R17  24782541.940   132616622.378        2803.267          48.000    24782534.482   103146048.885        2180.243          45.000  
R02  23144705.872   123504632.634        2143.697          50.000    23144703.650    96059166.691        1667.200          47.000  
G03  25275162.097   132821865.987        1318.741          44.000    25275159.752   103497580.584        1027.835          44.000  
G21  23077080.868   121270899.611        1027.607          49.000                                                                  
S31  41668756.148   218970906.146        -594.786          44.000  
S33  42622458.749   223982698.867        -594.183          43.000  
G10  27300754.253   143466526.263       -3719.683          41.000    27300753.269   111792021.577       -2898.792          35.000  
E33  26585019.815   139705347.724        -202.597          48.000    26585018.554   107046939.555        -155.294          53.000  
R01  22200298.425   118673302.258       -1869.168          48.000    22200296.103    92301472.352       -1453.642          45.000  
R23  24597789.908   131581630.446       -3192.064          48.000                                                                  
R24  22341570.878   119470526.021          67.899          51.000    22341564.532    92921486.354          52.747          49.000  
G02  23921491.455   125708309.953        1461.487          46.000                                                                  
G32  25103888.660   131921851.945       -2714.393          46.000    25103886.725   102796277.605       -2115.260          47.000  
E12  29298171.305   153962894.571        1319.712          38.000    29298167.908   117971602.485        1011.218          46.000  
E31  30053927.220   157934399.583       -2790.445          43.000    30053928.351   121014756.346       -2138.222          47.000  
E07  29505394.181   155051908.458       -2726.158          39.000    29505395.805   118806019.691       -2088.875          48.000  
E26  28218895.636   148291555.895       -1912.147          44.000    28218895.895   113626143.322       -1465.077          50.000  
E14  29545544.576   155262939.288        -612.131          47.000    29545542.956   118967732.393        -468.998          49.000  
> 2024 04 17 10 55 00.0100000  0 23                     
G08  23441004.092   123183346.020       -2255.731          50.000    23441001.601    95987042.862       -1757.715          47.000  
E19  27860617.887   146408509.653        1919.574          41.000    27860617.579   112183157.685        1470.902          47.000  
G27  25234916.212   132610359.769       -3924.967          46.000    25234913.152   103332796.381       -3058.486          43.000  
G28  27621997.781   145154574.450        1499.647          44.000    27621995.192   113107442.569        1168.431          43.000  
R08  26011039.720   139287922.561       -4742.064          43.000    26011033.180   108335082.083       -3688.281          48.000  
R17  24766831.723   132532552.074        2801.026          49.000    24766824.404   103080660.853        2178.720          45.000  
R02  23132705.581   123440603.384        2124.648          49.000    23132702.937    96009366.137        1652.547          46.000  
G03  25267654.391   132782414.272        1311.205          45.000    25267651.605   103466838.999        1021.564          43.000  
G21  23071242.883   121240219.453        1017.567          49.000                                                                  
S31  41672149.479   218988737.784        -594.202          44.000  
S33  42625849.268   224000516.904        -594.021          43.000  
G10  27321983.797   143578086.262       -3717.650          42.000    27321982.822   111878951.172       -2896.785          36.000  
E33  26586185.546   139711472.023        -206.170          48.000    26586183.881   107051632.156        -157.838          53.000  
R01  22210847.561   118729692.218       -1890.377          49.000    22210844.735    92345331.191       -1470.297          45.000  
R23  24615727.367   131677584.298       -3205.202          48.000                                                                  
R24  22341234.110   119468728.144          51.616          51.000    22341229.185    92920087.962          40.138          50.000  
G02  23913168.453   125664572.256        1454.132          47.000                                                                  
G32  25119431.422   132003528.430       -2730.648          46.000    25119428.743   102859921.509       -2127.839          46.000  
E12  29290631.527   153923277.848        1320.848          38.000    29290628.981   117941246.804        1012.070          46.000  
E31  30069866.014   158018155.361       -2793.590          43.000    30069866.433   121078932.814       -2140.560          47.000  
E07  29520981.360   155133813.389       -2734.478          40.000    29520981.871   118868777.858       -2095.365          48.000  
E26  28229822.997   148348975.304       -1916.316          44.000    28229822.818   113670139.902       -1468.342          50.000  
E14  29549032.417   155281272.233        -610.560          47.000    29549031.446   118981779.651        -467.882          49.000  
> 2024 04 17 10 55 30.0100000  0 23                     
G08  23453932.687   123251285.959       -2273.699          50.000    23453929.811    96039983.031       -1771.803          47.000  
E19  27849681.381   146351033.879        1912.081          42.000    27849680.249   112139117.792        1465.053          47.000  
G27  25257349.647   132728242.567       -3934.172          47.000    25257346.381   103424653.007       -3065.582          45.000  
G28  27613451.413   145109661.058        1494.644          43.000    27613448.799   113072445.068        1164.711          43.000  
R08  26037613.980   139430230.274       -4745.352          43.000    26037608.490   108445765.635       -3690.779          47.000  
R17  24751134.383   132448550.713        2798.784          50.000    24751127.133   103015326.466        2176.786          47.000  
R02  23120815.351   123377153.128        2105.416          50.000    23120813.180    95960015.915        1637.363          47.000  
G03  25260192.654   132743201.073        1303.303          45.000    25260189.724   103436283.253        1015.460          43.000  
G21  23065464.243   121209852.930        1007.004          49.000                                                                  
S31  41675541.116   219006559.353        -593.804          44.000  
S33  42629238.506   224018325.956        -593.423          42.000  
G10  27343201.081   143689580.997       -3715.428          43.000    27343198.906   111965829.892       -2895.044          36.000  
E33  26587371.923   139717704.294        -209.518          49.000    26587370.012   107056407.498        -160.583          53.000  
R01  22221517.999   118786728.942       -1911.891          49.000    22221515.087    92389693.052       -1487.001          46.000  
R23  24633740.815   131773939.687       -3218.443          49.000                                                                  
R24  22340991.027   119467425.310          35.160          52.000    22340986.012    92919074.604          27.250          50.000  
G02  23904887.903   125621058.229        1446.820          47.000                                                                  
G32  25135067.506   132085697.212       -2747.044          46.000    25135064.471   102923949.026       -2140.526          46.000  
E12  29283085.407   153883625.719        1322.065          37.000    29283083.198   117910863.988        1013.294          46.000  
E31  30085822.074   158102006.998       -2796.493          43.000    30085822.759   121143182.765       -2142.777          47.000  
E07  29536615.889   155215972.502       -2742.538          39.000    29536616.085   118931730.799       -2101.718          48.000  
E26  28240773.836   148406525.243       -1920.512          44.000    28240774.355   113714236.526       -1471.518          50.000  
E14  29552513.313   155299563.333        -609.063          47.000    29552512.418   118995794.821        -466.651          49.000  
> 2024 04 17 10 56 00.0100000  0 23                     
G08  23466964.766   123319773.865       -2291.974          49.000    23466961.786    96093350.191       -1785.986          46.000  
E19  27838788.875   146293792.817        1904.144          43.000    27838787.406   112095257.715        1459.081          46.000  
G27  25279836.193   132846409.862       -3943.573          47.000    25279833.174   103516731.295       -3073.001          45.000  
G28  27604933.981   145064899.660        1489.466          44.000    27604930.859   113037566.070        1160.636          43.000  
R08  26064207.439   139572637.004       -4748.677          42.000    26064201.640   108556526.185       -3693.204          46.000  
R17  24735451.294   132364626.291        2796.182          49.000    24735444.629   102950051.888        2174.844          48.000  
R02  23109036.664   123314289.474        2085.613          52.000    23109033.470    95911121.943        1622.292          48.000  
G03  25252777.278   132704231.706        1294.974          45.000    25252774.705   103405917.499        1008.996          44.000  
G21  23059746.712   121179807.617         996.138          48.000                                                                  
S31  41678931.556   219024376.567        -593.862          44.000  
S33  42632626.386   224036129.876        -593.290          42.000  
G10  27364406.214   143801014.945       -3713.405          43.000    27364404.498   112052661.328       -2893.898          34.000  
E33  26588580.178   139724050.882        -213.527          49.000    26588577.724   107061270.427        -163.594          53.000  
R01  22232310.602   118844415.223       -1933.695          50.000    22232306.758    92434560.106       -1503.801          46.000  
R23  24651831.198   131870701.120       -3232.030          50.000                                                                  
R24  22340841.632   119466625.300          18.312          52.000    22340836.282    92918452.342          14.227          50.000  
G02  23896651.233   125577775.087        1438.904          46.000                                                                  
G32  25150797.820   132168361.462       -2763.725          45.000    25150794.591   102988362.625       -2153.519          46.000  
E12  29275535.920   153843944.215        1323.041          38.000    29275531.959   117880458.666        1013.957          45.000  
E31  30101796.950   158185957.981       -2800.073          42.000    30101797.481   121207508.807       -2145.478          46.000  
E07  29552300.045   155298389.677       -2751.522          40.000    29552299.564   118994881.465       -2108.442          47.000  
E26  28251752.266   148464211.720       -1925.271          45.000    28251751.615   113758437.765       -1475.158          50.000  
E14  29555986.974   155317818.351        -607.873          47.000    29555986.302   119009782.346        -465.826          49.000  
> 2024 04 17 10 56 30.0100000  0 23                     
G08  23480101.060   123388808.014       -2310.573          48.000    23480098.768    96147142.986       -1800.255          46.000  
E19  27827941.841   146236787.865        1895.875          44.000    27827939.599   112051578.548        1452.703          46.000  
G27  25302376.584   132964858.705       -3953.242          48.000    25302373.847   103609028.978       -3080.355          46.000  
G28  27596445.176   145020293.193        1484.080          44.000    27596442.684   113002807.787        1156.434          43.000  
R08  26090818.617   139715139.062       -4751.937          42.000    26090812.301   108667360.870       -3695.887          45.000  
R17  24719783.572   132280781.908        2793.173          50.000    24719776.607   102884839.566        2172.630          47.000  
R02  23097366.134   123252014.722        2065.722          52.000    23097363.319    95862685.979        1606.640          48.000  
G03  25245407.842   132665505.913        1286.299          44.000    25245405.070   103375741.513        1002.472          43.000  
G21  23054091.245   121150085.986         985.089          48.000                                                                  
S31  41682321.253   219042190.112        -593.778          44.000  
S33  42636013.394   224053928.557        -593.324          43.000  
G10  27385599.704   143912387.102       -3711.428          43.000    27385599.834   112139444.574       -2892.172          37.000  
E33  26589809.388   139730512.601        -217.567          49.000    26589807.601   107066221.573        -166.661          53.000  
R01  22243222.672   118902747.877       -1955.447          49.000    22243219.161    92479929.931       -1520.777          46.000  
R23  24669995.603   131967868.074       -3245.854          51.000                                                                  
R24  22340785.824   119466330.305           1.033          51.000    22340781.095    92918222.860           0.930          50.000  
G02  23888458.540   125534724.933        1430.871          47.000                                                                  
G32  25166621.869   132251518.675       -2780.387          46.000    25166619.407   103053160.361       -2166.444          46.000  
E12  29267979.128   153804233.580        1324.167          38.000    29267975.291   117850031.044        1014.536          45.000  
E31  30117790.215   158270006.056       -2803.437          41.000    30117790.770   121271909.254       -2148.043          45.000  
E07  29568032.656   155381063.140       -2760.346          41.000    29568031.783   119058228.518       -2115.079          47.000  
E26  28262756.893   148522035.128       -1930.091          46.000    28262754.765   113802743.909       -1478.893          50.000  
E14  29559453.769   155336037.521        -607.110          47.000    29559452.842   119023742.402        -465.131          48.000  
> 2024 04 17 10 57 00.0100000  0 23                     
G08  23493343.345   123458392.000       -2328.376          49.000    23493339.986    96201364.203       -1814.258          46.000  
E19  27817139.557   146180025.931        1888.243          43.000    27817138.050   112008085.600        1446.953          46.000  
G27  25324970.237   133083591.652       -3962.053          47.000    25324967.947   103701548.038       -3087.447          45.000  
G28  27587987.907   144975849.835        1479.104          44.000    27587985.277   112968176.558        1152.486          43.000  
R08  26117448.812   139857738.136       -4754.508          43.000    26117441.586   108778271.033       -3697.855          44.000  
R17  24704132.310   132197025.450        2790.794          51.000    24704124.475   102819695.652        2170.534          47.000  
R02  23085806.729   123190335.976        2046.283          50.000    23085805.309    95814713.612        1591.510          49.000  
G03  25238085.317   132627028.573        1278.980          44.000    25238083.143   103345759.199         996.579          44.000  
G21  23048498.656   121120695.233         974.479          49.000                                                                  
S31  41685711.159   219060003.786        -593.480          44.000  
S33  42639400.776   224071730.543        -593.179          43.000  
G10  27406783.178   144023701.734       -3709.083          42.000    27406783.113   112226182.940       -2890.470          37.000  
E33  26591061.738   139737095.574        -221.151          49.000    26591060.401   107071265.625        -169.468          53.000  
R01  22254256.096   118961729.529       -1976.474          49.000    22254252.921    92525804.536       -1537.169          46.000  
R23  24688236.480   132065444.997       -3259.096          50.000    24688504.811                3      -2506.388          12.000  
R24  22340826.392   119466548.188         -15.460          51.000    22340821.829    92918392.290         -12.143          50.000  
G02  23880312.282   125491914.586        1423.334          47.000                                                                  
G32  25182540.541   132335171.747       -2796.339          47.000    25182538.742   103118344.500       -2179.086          46.000  
E12  29260418.277   153764499.517        1325.328          38.000    29260414.479   117819585.444        1015.281          45.000  
E31  30133803.484   158354154.382       -2806.374          42.000    30133803.835   121336386.537       -2150.383          45.000  
E07  29583813.250   155463996.467       -2768.407          40.000    29583813.477   119121774.725       -2121.341          47.000  
E26  28273787.552   148580001.215       -1934.285          45.000    28273785.086   113847159.361       -1482.146          49.000  
E14  29562915.002   155354226.284        -605.488          47.000    29562914.066   119037679.189        -463.969          48.000  
> 2024 04 17 10 57 30.0100000  0 24                     
G08  23506689.146   123528523.452       -2347.004          49.000    23506685.808    96256012.016       -1828.829          46.000  
E19  27806385.200   146123508.063        1879.653          44.000    27806383.121   111964779.657        1440.265          46.000  
G27  25347618.567   133202605.355       -3972.006          47.000    25347615.718   103794285.862       -3095.018          45.000  
G28  27579562.017   144931571.868        1472.969          42.000    27579559.839   112933674.223        1147.866          42.000  
R08  26144097.140   140000430.394       -4758.012          40.000    26144089.223   108889253.669       -3700.603          42.000  
R17  24688497.072   132113359.243        2787.191          51.000    24688489.448   102754621.915        2167.838          48.000  
R02  23074361.671   123129254.898        2025.848          52.000    23074359.456    95767206.064        1575.698          49.000  
G03  25230810.527   132588798.975        1270.075          46.000    25230810.117   103315944.8841        989.578          44.000  
G21  23042969.097   121091636.515         962.936          49.000                                                                  
S31  41689100.980   219077818.123        -594.082          44.000  
S33  42642788.397   224089531.412        -593.461          42.000  
G10  27427954.639   144134957.192       -3707.930          40.000    27427954.632   112312875.222       -2889.507          34.000  
E33  26592337.217   139743799.991        -225.588          48.000    26592336.234   107076402.737        -172.969          53.000  
R01  22265410.424   119021356.649       -1998.500          48.000    22265407.076    92572181.163       -1554.363          45.000  
R23  24706553.595   132163430.594       -3273.176          50.000                                                                  
R24  22340964.366   119467280.470         -33.248          52.000    22340958.730    92918961.785         -25.803          50.000  
G02  23872212.487   125449345.233        1414.722          47.000                                                                  
G32  25198553.650   132419317.655       -2813.311          48.000    25198551.591   103183912.663       -2192.146          46.000  
E12  29252852.046   153724741.702        1325.165          37.000    29252848.850   117789121.634        1015.612          46.000  
E31  30149834.839   158438400.162       -2809.936          41.000    30149835.299   121400938.469       -2153.032          45.000  
E07  29599645.144   155547187.462       -2777.746          41.000    29599644.715   119185518.277       -2128.124          47.000  
E26  28284844.778   148638109.788       -1939.379          45.000    28284842.786   113891683.992       -1486.142          49.000  
E14  29566369.960   155372384.332        -604.935          46.000    29566369.632   119051592.409        -463.438          48.000  
G04                                                                  27619454.665                3       2525.295          25.000  
> 2024 04 17 10 58 00.0100000  0 24                     
G08  23520138.709   123599200.822       -2364.446          49.000    23520135.382    96311085.232       -1842.573          46.000  
E19  27795676.498   146067236.156        1871.979          43.000    27795674.836   111921662.190        1434.436          45.000  
G27  25370319.094   133321897.185       -3980.577          47.000    25370316.293   103887240.423       -3101.879          45.000  
G28  27571168.137   144887462.347        1467.692          42.000    27571165.869   112899303.154        1144.086          42.000  
R08  26170760.440   140143212.238       -4760.481          38.000    26170753.561   109000305.943       -3702.557          42.000  
R17  24672878.829   132029786.150        2784.607          50.000    24672871.895   102689620.612        2165.771          48.000  
R02  23063027.064   123068773.454        2006.432          52.000    23063024.911    95720164.903        1560.587          49.000  
G03  25223583.592   132550816.991        1262.224          46.000    25223580.426   103286348.510         983.640          43.000  
G21  23037503.206   121062912.750         952.231          49.000                                                                  
S31  41692490.864   219095632.560        -593.375          44.000  
S33  42646175.993   224107332.079        -593.051          42.000  
G10  27449115.795   144246152.651       -3705.113          38.000    27449114.590   112399520.832       -2887.489          34.000  
E33  26593636.143   139750626.919        -229.269          48.000    26593635.229   107081633.715        -175.628          53.000  
R01  22276685.147   119081626.513       -2019.346          48.000    22276681.323    92619057.661       -1570.473          45.000  
R23  24724946.791   132261824.258       -3286.143          50.000                                                                  
R24  22341197.792   119468529.718         -49.928          51.000    22341192.258    92919933.366         -38.838          50.000  
G02  23864157.710   125407019.419        1407.220          48.000                                                                  
G32  25214659.709   132503954.127       -2829.034          49.000    25214656.958   103249863.093       -2204.520          45.000  
E12  29245280.914   153684960.685        1326.955          37.000    29245279.046   117758640.113        1016.602          46.000  
E31  30165885.299   158522741.526       -2812.716          42.000    30165884.511   121465563.624       -2155.103          44.000  
E07  29615523.392   155630634.525       -2785.419          40.000    29615523.894   119249458.099       -2134.320          46.000  
E26  28295929.217   148696361.549       -1943.761          44.000    28295928.026   113936318.351       -1489.358          49.000  
E14  29569819.828   155390512.065        -603.503          46.000    29569818.979   119065482.413        -462.548          48.000  
G04                                                                  27600951.696                3       2530.738          23.000  
> 2024 04 17 10 58 30.0100000  0 24                     
G08  23533687.920   123670404.292       -2381.939          49.000    23533684.542    96366568.404       -1855.999          46.000  
E19  27785011.693   146011193.299        1864.345          43.000    27785010.131   111878720.214        1428.635          45.000  
G27  25393068.110   133441446.290       -3989.019          47.000    25393065.693   103980395.467       -3108.312          45.000  
G28  27562803.898   144843506.092        1462.665          42.000    27562801.053   112865051.525        1139.868          40.000  
R08  26197437.740   140286061.743       -4762.927          37.000    26197429.974   109111410.827       -3704.430          41.000  
R17  24657275.198   131946290.626        2781.964          49.000    24657269.129   102624679.610        2164.046          48.000  
R02  23051802.265   123008875.506        1987.134          52.000    23051800.157    95673577.565        1545.519          49.000  
G03  25216399.653   132513064.216        1254.932          46.000    25216396.132   103256930.729         977.915          44.000  
G21  23032097.778   121034507.978         941.730          49.000                                                                  
S31  41695877.615   219113429.149        -592.993          44.000  
S33  42649559.916   224125116.024        -592.380          42.000  
G10  27470260.984   144357269.005       -3702.393          38.000    27470261.085   112486104.743       -2884.871          34.000  
E33  26594955.685   139757559.131        -232.625          48.000    26594954.339   107086945.356        -178.264          53.000  
R01  22288076.165   119142517.532       -2039.766          49.000    22288073.032    92666417.302       -1586.631          46.000  
R23  24743413.412   132360606.520       -3298.988          49.000                                                                  
R24  22341525.508   119470279.689         -66.572          52.000    22341519.976    92921294.429         -51.640          50.000  
G02  23856145.917   125364920.529        1399.646          47.000                                                                  
G32  25230855.232   132589060.607       -2844.542          49.000    25230852.738   103316179.729       -2216.363          46.000  
E12  29237702.851   153645138.908        1328.111          38.000    29237701.253   117728127.300        1017.881          46.000  
E31  30181949.187   158607158.092       -2814.758          42.000    30181949.231   121530246.449       -2156.894          45.000  
G04  27582451.969                3       3243.119          28.000    27582443.412                3       2523.980          21.000  
E07  29631446.888   155714317.879       -2793.035          39.000    29631449.011   119313578.975       -2140.281          47.000  
E26  28307036.817   148754738.772       -1947.703          43.000    28307037.205   113981048.860       -1492.523          50.000  
E14  29573261.247   155408591.615        -601.677          47.000    29573259.367   119079335.480        -460.912          48.000  
> 2024 04 17 10 59 00.0100000  0 24                     
G08  23547338.840   123742139.604       -2400.184          49.000    23547335.992    96422465.997       -1870.412          46.000  
E19  27774393.413   145955388.373        1855.936          43.000    27774390.702   111835960.545        1421.952          45.000  
G27  25415867.123   133561257.516       -3998.308          46.000    25415865.359   104073754.771       -3115.738          45.000  
G28  27554470.270   144799713.627        1456.813          42.000    27554467.467   112830927.469        1135.406          40.000  
R08  26224128.353   140428982.895       -4765.081          34.000    26224119.808   109222571.519       -3706.561          38.000  
R17  24641688.694   131862883.020        2778.407          49.000    24641682.528   102559806.993        2160.839          48.000  
R02  23040687.572   122949570.505        1966.605          52.000    23040685.812    95627451.431        1529.628          49.000  
G03  25209260.132   132475548.013        1246.395          46.000    25209257.062   103227697.323         971.273          43.000  
G21  23026754.778   121006431.557         930.126          49.000                                                                  
S31  41699262.478   219131216.237        -593.081          44.000  
S33  42652941.749   224142888.119        -592.478          42.000  
G10  27491389.389   144468312.880       -3701.205          31.000    27491392.158   112572632.145       -2883.514          32.000  
E33  26596295.929   139764604.994        -237.035          48.000    26596295.035   107092344.091        -181.641          53.000  
R01  22299583.542   119204034.682       -2061.276          48.000    22299581.228    92714263.936       -1603.079          46.000  
R23  24761953.645   132459784.472       -3312.766          48.000                                                                  
R24  22341947.404   119472540.267         -84.187          51.000    22341941.937    92923052.595         -65.488          50.000  
G02  23848179.333   125323057.867        1391.223          46.000                                                                  
G32  25247141.368   132674642.197       -2860.867          50.000    25247138.223   103382866.619       -2229.293          45.000  
E12  29230119.361   153605284.296        1328.719          38.000    29230117.224   117697589.356        1018.168          46.000  
E31  30198028.410   158691655.417       -2818.297          40.000    30198028.807   121594991.102       -2159.395          46.000  
G04  27563939.890                        3240.132          29.000    27563924.687                        2526.418          27.000  
E07  29647418.374   155798243.473       -2801.898          40.000    29647419.774   119377885.418       -2146.735          47.000  
E26  28318172.817   148813249.589       -1952.824          44.000    28318171.707   114025881.684       -1496.301          50.000  
E14  29576694.321   155426630.809        -601.017          47.000    29576691.885   119093157.646        -460.395          47.000  
> 2024 04 17 10 59 30.0100000  0 25                     
G08  23561092.659   123814415.765       -2417.809          49.000    23561088.967    96478785.032       -1884.099          45.000  
E19  27763821.168   145899834.100        1847.916          42.000    27763819.358   111793392.919        1415.927          45.000  
G27  25438717.782   133681338.905       -4006.906          45.000    25438716.796   104167324.534       -3122.244          46.000  
G28  27546170.417   144756098.602        1451.097          40.000    27546168.232   112796941.718        1130.542          41.000  
R08  26250831.894                       -4767.503          28.000    26250824.452   109333794.026       -3708.070          36.000  
R17  24626121.416   131779577.414        2775.399          50.000    24626115.392   102495013.719        2158.556          48.000  
R02  23029687.919   122890871.274        1946.779          52.000    23029685.674    95581796.455        1514.074          49.000  
G03  25202168.101   132438278.871        1238.452          45.000    25202165.135   103198656.429         965.096          44.000  
G21  23021476.399   120978696.557         919.018          48.000                                                                  
S31  41702646.951   219149002.310        -592.712          44.000  
S33  42656324.049   224160662.027        -592.508          42.000  
G10  27512507.899   144579293.971       -3697.963          30.000    27512510.879                       -2881.308          28.000  
E33  26597661.171   139771776.216        -240.807          48.000    26597659.791   107097838.870        -184.589          53.000  
R01  22311210.214   119266185.823       -2081.853          48.000    22311207.827    92762603.678       -1619.242          46.000  
R23  24780569.264   132559367.864       -3326.061          48.000                                                                  
R24  22342468.022   119475324.866        -101.250          51.000    22342463.187    92925218.346         -78.714          50.000  
G02  23840260.828   125281444.349        1383.185          47.000                                                                  
G32  25263519.135   132760707.208       -2876.584          51.000    25263516.426   103449930.172       -2241.538          45.000  
E12  29222532.650   153565408.062        1329.735          40.000    29222528.932   117667034.813        1018.993          46.000  
E31  30214124.452   158776242.081       -2820.637          40.000    30214125.551   121659804.210       -2161.411          47.000  
G04  27545433.042                1       3241.676          30.000    27545427.249                        2526.654          31.000  
E07  29663437.069   155882420.309       -2809.918          42.000    29663438.340   119442384.398       -2153.053          46.000  
E26  28329335.543   148871905.139       -1957.182          45.000    28329333.323   114070825.437       -1499.786          49.000  
E14  29580120.875   155444640.638        -599.562          46.000    29580119.360   119106957.315        -459.427          48.000  
R03                                                                  27343402.226                3       2659.938          12.000  
