     3.00           OBSERVATION DATA    M: Mixed            RINEX VERSION / TYPE
CONVBIN 2.4.3                           20240417 052942 UTC PGM / RUN BY / DATE 
format: u-blox UBX                                          COMMENT             
log: /home/regis/git/gnsspwv/obsdata/VERT00CHL/2024-04-17/VECOMMENT             
{self.marker}                                               MARKER NAME         
                                                            MARKER NUMBER       
GEODETIC                                                    MARKER TYPE         
{self.observer}     {self.institution}                      OBSERVER / AGENCY   
UNKNOWN             UBLOX-ZED-F9P                           REC # / TYPE / VERS 
UNKNOWN             TWIVSP6037L                             ANT # / TYPE        
  1713381.0000 -5047934.0000 -3490983.0000                  APPROX POSITION XYZ 
        0.0000        0.0000        0.0000                  ANTENNA: DELTA H/E/N
G    8 C1C L1C D1C S1C C2L L2L D2L S2L                      SYS / # / OBS TYPES 
R    8 C1C L1C D1C S1C C2C L2C D2C S2C                      SYS / # / OBS TYPES 
E    8 C1C L1C D1C S1C C7Q L7Q D7Q S7Q                      SYS / # / OBS TYPES 
S    4 C1C L1C D1C S1C                                      SYS / # / OBS TYPES 
  2024    04    17    05    15   00.0020000     GPS         TIME OF FIRST OBS   
  2024    04    17    05    29   30.0020000     GPS         TIME OF LAST OBS    
                                                            END OF HEADER       
> 2024 04 17 05 15 00.0020000  0 22                     
G31  22620252.766   118870150.5511      -1713.463          46.000    22620248.006    92626215.8801      -1335.096          43.000  
G26  21684322.017   113951905.3351       1536.906          47.000    21684319.589    88793703.5461       1197.364          44.000  
G23  23200300.679   121918525.5771       2575.347          47.000    23200295.985    95001410.9031       2006.722          44.000  
R10  23767183.302   126692459.6921      -5043.507          39.000                                                                  
R22  20515295.485   109512192.1351        150.764          51.000    20515292.531    85175976.3411        117.228          49.000  
R11  20049628.568   107139176.8011      -2621.700          52.000    20049624.035    83330461.1171      -2039.071          51.000  
G25  23199155.795   121912392.2661      -3627.314          45.000    23199154.046    94996687.4311      -2826.317          44.000  
G29  22742770.732   119514216.9921      -2324.961          48.000    22742765.412    93128045.0971      -1811.829          40.000  
S31  39271094.333   206371079.5111       -647.922          44.000  
S33  40225962.982   211388988.9821       -647.878          43.000  
R12  21032558.127   112352279.1421       2011.875          51.000    21032554.735    87385064.9911       1564.707          51.000  
R06  24443056.917   130432829.0661       2210.815          38.000                                                                  
R21  20987527.210   112309013.8841      -2907.765          53.000    20987521.245    87351548.7651      -2261.745          49.000  
G28  23401941.933   122978031.1761      -3398.496          45.000    23401937.824    95827021.2031      -2647.711          42.000  
E15  27153854.406   142694595.3721      -3246.886          42.000    27153855.203   109337495.5901      -2487.908          46.000  
E21  23968968.408   125957858.0161       -114.232          46.000    23968969.070    96513201.4581        -87.622          51.000  
E13  23882727.616   125504984.9091      -1417.192          49.000    23882727.117    96166262.8251      -1085.763          51.000  
E27  25450881.841   133745323.9081      -2582.451          47.000    25450882.536   102480196.9031      -1978.854          51.000  
G18  20791728.866   109261575.9321      -1064.186          48.000    20791725.411    85139001.6451       -829.324          52.000  
G05  24546435.065   128992381.5241      -2437.384          38.000    24546428.850   100513641.6951      -1899.438          35.000  
E26  25011441.975   131436266.1001       1159.015          46.000    25011441.454   100711050.3401        888.221          51.000  
E14  22701258.164   119295987.9621      -2452.820          44.000    22701259.609    91408639.8361      -1879.506          51.000  
> 2024 04 17 05 15 30.0020000  0 22                     
G31  22630077.503   118921782.228       -1728.728          46.000    22630072.475    92666448.332       -1346.854          43.000  
G26  21675578.581   113905955.901        1526.332          47.000    21675575.977    88757898.795        1189.360          44.000  
G23  23185612.096   121841339.098        2570.380          46.000    23185607.516    94941265.683        2002.773          43.000  
R10  23795576.910   126843815.346       -5047.083          39.000                                                                  
R22  20514484.842   109507861.740         137.859          52.000    20514481.614    85172608.278         107.156          50.000  
R11  20064407.456   107218155.464       -2643.803          52.000    20064403.731    83391888.963       -2056.198          51.000  
G25  23219885.427   122021327.921       -3635.411          45.000    23219883.777    95081572.303       -2832.926          43.000  
G29  22756047.900   119583985.970       -2326.386          48.000    22756041.566    93182410.515       -1812.741          39.000  
S31  39274787.519   206390486.576        -645.923          44.000  
S33  40229656.549   211408399.663        -646.115          42.000  
R12  21021307.893   112292183.316        1994.323          51.000    21021304.789    87338323.807        1551.128          50.000  
R06  24430641.335   130366580.434        2205.658          36.000    24432489.433                3       1610.929          12.000  
R21  21003842.513   112396318.763       -2912.703          53.000    21003836.650    87419452.540       -2265.406          49.000  
G28  23421357.775   123080062.512       -3403.976          43.000    23421353.734    95906526.087       -2652.548          42.000  
E15  27172389.264   142791995.593       -3246.542          40.000    27172389.709   109412126.899       -2487.666          45.000  
E21  23969645.113   125961411.339        -122.626          47.000    23969645.129    96515924.129         -93.969          51.000  
E13  23890840.305   125547620.085       -1425.402          49.000    23890840.370    96198931.355       -1092.136          51.000  
E27  25465644.673   133822900.990       -2589.313          48.000    25465644.769   102539639.086       -1984.153          50.000  
G18  20797846.451   109293726.497       -1079.134          48.000    20797843.432    85164054.044        -840.858          52.000  
G05  24560388.159   129065713.016       -2450.983          38.000    24560382.850   100570783.072       -1909.564          34.000  
E26  25004846.765   131401603.727        1151.590          46.000    25004845.480   100684490.899         882.418          51.000  
E14  22715280.011   119369667.354       -2458.999          45.000    22715280.392    91465095.489       -1884.185          52.000  
> 2024 04 17 05 16 00.0020000  0 23                     
G31  22639989.573   118973870.520       -1744.117          46.000    22639984.430    92707036.607       -1358.963          43.000  
G26  21666894.284   113860320.206        1515.564          48.000    21666891.846    88722338.530        1180.955          44.000  
G23  23170951.876   121764301.743        2565.084          46.000    23170947.922    94881236.616        1998.772          44.000  
R10  23823989.796   126995268.764       -5050.269          40.000                                                                  
R22  20513745.776   109503918.922         124.729          51.000    20513742.566    85169541.641          97.025          50.000  
R11  20079310.979   107297795.540       -2665.954          51.000    20079306.855    83453831.237       -2073.331          51.000  
G25  23240660.126   122130500.307       -3643.328          45.000    23240657.780    95166641.670       -2838.726          42.000  
G29  22769332.096   119653796.590       -2327.970          48.000    22769326.230    93236808.407       -1814.316          40.000  
S31  39278470.705   206409841.951        -644.727          44.000  
S33  40233340.722   211427759.585        -644.701          43.000  
R12  21010156.641   112232615.987        1976.531          51.000    21010153.709    87291993.682        1537.329          51.000  
R06  24418254.937   130300486.288        2200.812          37.000                                                                  
R23  23984921.553                3       2188.439          27.000                                                                  
R21  21020184.424   112483768.720       -2917.578          53.000    21020178.693    87487469.159       -2269.184          50.000  
G28  23440806.067   123182263.551       -3409.616          42.000    23440801.835    95986163.215       -2657.164          43.000  
E15  27190922.901   142889389.919       -3246.611          42.000    27190922.702   109486753.725       -2487.711          44.000  
E21  23970370.984   125965219.304        -131.396          47.000    23970369.741    96518841.916        -100.729          51.000  
E13  23899000.624   125590501.531       -1433.725          49.000    23899000.129    96231788.571       -1098.487          51.000  
E27  25480446.673   133900684.658       -2596.463          47.000    25480446.481   102599239.555       -1989.487          50.000  
G18  20804049.566   109326321.893       -1094.198          49.000    20804045.540    85189453.043        -852.527          51.000  
G05  24574420.643   129139453.081       -2464.758          40.000    24574414.244   100628242.909       -1920.557          33.000  
E26  24998293.099   131367169.287        1143.722          46.000    24998293.171   100658106.109         876.341          51.000  
E14  22729336.968   119443533.226       -2465.576          45.000    22729337.067    91521694.047       -1889.196          52.000  
> 2024 04 17 05 16 30.0020000  0 23                     
G31  22649992.849   119026434.754       -1760.692          47.000    22649987.569    92747995.724       -1371.888          43.000  
G26  21658274.393   113815022.101        1503.624          48.000    21658272.217    88687041.316        1171.628          45.000  
G23  23156325.439   121687438.209        2558.554          46.000    23156321.129    94821343.005        1993.737          44.000  
R10  23852423.816   127146838.592       -5054.907          40.000                                                                  
R22  20513083.403   109500384.317         110.368          51.000    20513080.636    85166792.512          85.941          50.000  
R11  20094342.376   107378116.542       -2689.311          52.000    20094337.519    83516303.099       -2091.575          51.000  
G25  23261483.725   122239929.357       -3652.474          45.000    23261482.072    95251911.012       -2845.835          42.000  
G29  22782627.948   119723670.105       -2330.922          47.000    22782622.748    93291255.286       -1815.911          40.000  
S31  39282148.211   206429166.436        -643.981          44.000  
S33  40237018.495   211447087.031        -644.463          43.000  
R12  20999109.626   112173603.008        1957.200          51.000    20999105.948    87246094.715        1522.214          50.000  
R06  24405903.656   130234572.440        2193.073          38.000                                                                  
R23  23972666.554                        2179.358          31.000                                                                  
R21  21036556.899   112571382.839       -2923.763          53.000    21036552.229    87555613.482       -2274.006          49.000  
G28  23460289.167   123284652.512       -3416.491          39.000    23460286.058    96065946.796       -2662.314          43.000  
E15  27209458.351   142986798.345       -3247.924          40.000    27209459.547   109561391.320       -2488.450          45.000  
E21  23971147.988   125969304.392        -141.392          47.000    23971147.260    96521972.048        -108.278          51.000  
E13  23907211.228   125633649.341       -1443.256          48.000    23907210.614    96264849.900       -1105.845          50.000  
E27  25495291.596   133978695.869       -2604.683          47.000    25495291.571   102659014.381       -1995.814          50.000  
G18  20810341.531   109359382.052       -1110.294          49.000    20810335.944    85215214.207        -865.177          51.000  
G05  24588534.101   129213620.652       -2480.143          41.000    24588527.927   100686035.883       -1932.559          34.000  
E26  24991788.325   131332984.523        1134.757          46.000    24991787.875   100631912.623         869.577          51.000  
E14  22743432.341   119517603.800       -2472.879          46.000    22743432.372    91578449.469       -1894.864          52.000  
> 2024 04 17 05 17 00.0020000  0 23                     
G31  22660090.966   119079504.885       -1777.609          45.000    22660086.001    92789349.072       -1385.173          43.000  
G26  21649725.700   113770095.829        1491.102          48.000    21649722.973    88652033.849        1161.814          45.000  
G23  23141737.766   121610783.533        2551.382          44.000    23141733.829    94761612.164        1988.016          43.000  
R10  23880884.948   127298553.711       -5059.886          40.000                                                                  
R22  20512504.399   109497288.888          95.519          52.000    20512500.271    85164384.988          74.333          50.000  
R11  20109506.702   107459149.024       -2713.293          52.000    20109501.043    83579328.354       -2110.318          50.000  
G25  23282361.824   122349645.256       -3662.166          46.000    23282360.081    95337403.908       -2853.529          42.000  
G29  22795942.396   119793638.408       -2334.158          47.000    22795937.308    93345776.051       -1819.019          40.000  
S31  39285825.625   206448491.923        -644.665          44.000  
S33  40240696.788   211466416.986        -644.786          43.000  
R12  20988172.415   112115180.082        1937.243          52.000    20988168.197    87200654.688        1506.682          49.000  
R06  24393592.444   130168875.779        2185.852          40.000                                                                  
R23  23960466.499                        2170.352          31.000                                                                  
R21  21052965.685   112659191.007       -2930.475          52.000    21052960.941    87623908.707       -2279.242          49.000  
G28  23479813.011   123387258.159       -3423.788          37.000    23479811.464    96145899.176       -2667.991          42.000  
E15  27228003.117   143084251.185       -3249.406          42.000    27228003.830   109636062.993       -2489.948          44.000  
E21  23971984.419   125973699.531        -152.087          47.000    23971983.720    96525339.746        -116.506          52.000  
E13  23915478.007   125677094.004       -1453.422          48.000    23915477.540    96298138.672       -1113.644          50.000  
E27  25510186.667   134056965.970       -2613.533          48.000    25510186.291   102718987.564       -2002.640          51.000  
G18  20816726.802   109392937.253       -1127.076          49.000    20816720.958    85241361.129        -878.217          51.000  
G05  24602734.822   129288246.498       -2495.809          40.000    24602729.037   100744185.875       -1944.290          36.000  
E26  24985337.434   131299081.565        1124.875          47.000    24985336.498   100605935.065         862.100          51.000  
E14  22757571.733   119591907.862       -2481.076          47.000    22757571.734    91635383.783       -1901.027          52.000  
> 2024 04 17 05 17 30.0020000  0 23                     
G31  22670289.440   119133095.410       -1794.783          46.000    22670284.037    92831107.882       -1398.730          43.000  
G26  21641251.548   113725560.160        1477.956          49.000    21641248.245    88617330.723        1151.656          45.000  
G23  23127194.443   121534357.365        2543.672          44.000    23127189.766    94702059.387        1982.090          43.000  
R10  23909375.864   127450426.449       -5065.015          40.000                                                                  
R22  20512009.070   109494648.071          80.612          51.000    20512004.951    85162331.069          62.485          49.000  
R11  20124807.754   107540907.706       -2737.373          53.000    20124801.671    83642918.420       -2129.029          51.000  
G25  23303297.706   122459662.877       -3672.232          46.000    23303296.166    95423131.874       -2861.566          43.000  
G29  22809278.453   119863717.613       -2337.772          47.000    22809272.344    93400383.188       -1821.589          40.000  
S31  39289506.513   206467835.240        -645.027          44.000  
S33  40244378.287   211485763.994        -645.027          43.000  
R12  20977350.236   112057367.718        1916.958          52.000    20977345.725    87155689.540        1490.807          49.000  
R06  24381325.694   130103417.355        2177.795          39.000                                                                  
R23  23948318.253   128107337.9111       2161.249          32.000                                                                  
R21  21069414.512   112747207.110       -2937.233          53.000    21069408.651    87692365.718       -2284.690          49.000  
G28  23499383.758   123490093.748       -3431.500          38.000    23499379.998    96226030.684       -2674.087          42.000  
E15  27246558.443   143181763.385       -3251.254          42.000    27246559.858   109710780.168       -2491.108          44.000  
E21  23972883.433   125978422.112        -162.689          47.000    23972882.627    96528958.351        -124.737          52.000  
E13  23923804.305   125720850.542       -1463.597          47.000    23923804.100    96331666.416       -1121.503          50.000  
E27  25525133.560   134135510.844       -2622.542          48.000    25525132.820   102779171.301       -2009.554          51.000  
G18  20823209.031   109427002.402       -1144.014          49.000    20823203.379    85267905.422        -891.423          50.000  
G05  24617025.643   129363345.548       -2511.077          39.000    24617020.991   100802704.665       -1957.056          37.000  
E26  24978942.041   131265477.039        1115.376          46.000    24978941.522   100580186.177         854.559          51.000  
E14  22771757.040   119666458.583       -2489.072          46.000    22771758.167    91692507.104       -1907.245          52.000  
> 2024 04 17 05 18 00.0020000  0 23                     
G31  22680581.640   119187182.134       -1811.184          47.000    22680576.813    92873253.340       -1411.110          43.000  
G26  21632847.523   113681395.518        1465.883          50.000    21632843.205    88582916.737        1142.314          44.000  
G23  23112691.913   121458140.956        2537.026          46.000    23112687.573    94642670.045        1976.937          45.000  
R10  23937891.644   127602431.395       -5068.928          40.000                                                                  
R22  20511595.616   109492438.299          66.544          52.000    20511591.073    85160612.377          51.780          49.000  
R11  20140238.530   107623367.498       -2760.266          52.000    20140232.715    83707053.798       -2146.968          50.000  
G25  23324286.105   122569958.551       -3680.817          45.000    23324284.973    95509076.522       -2868.308          42.000  
G29  22822631.016   119933885.482       -2340.347          47.000    22822624.307    93455059.466       -1823.683          38.000  
S31  39293186.270   206487173.243        -644.674          44.000  
S33  40248059.058   211505106.569        -644.587          42.000  
R12  20966639.492   112000147.268        1897.501          53.000    20966634.672    87111184.760        1475.896          50.000  
R06  24369100.595   130038178.732        2170.972          38.000                                                                  
R23  23936218.595                        2152.180          32.000                                                                  
R21  21085896.740   112835406.224       -2942.939          52.000    21085890.820    87760965.017       -2288.972          49.000  
G28  23518992.469   123593133.972       -3438.168          39.000    23518987.411    96306321.733       -2678.817          41.000  
E15  27265120.501   143279311.609       -3252.217          41.000    27265122.372   109785524.885       -2491.939          44.000  
E21  23973839.558   125983451.222        -172.746          47.000    23973839.699    96532811.824        -132.360          52.000  
E13  23932185.199   125764895.647       -1472.863          47.000    23932185.704    96365415.272       -1128.547          50.000  
E27  25540127.385   134214307.995       -2630.651          48.000    25540127.803   102839548.318       -2015.760          51.000  
G18  20829783.830   109461553.986       -1159.818          48.000    20829778.561    85294828.748        -903.713          51.000  
G05  24631401.305   129438893.876       -2526.009          38.000    24631397.124   100861573.447       -1968.162          36.000  
E26  24972599.085   131232149.256        1106.385          45.000    24972599.279   100554649.336         847.707          50.000  
E14  22785985.890   119741230.930       -2495.987          46.000    22785986.814    91749800.236       -1912.504          52.000  
> 2024 04 17 05 18 30.0020000  0 24                     
G31  22690970.528   119241772.368       -1828.509          48.000    22690965.363    92915791.187       -1424.722          43.000  
G26  21624515.836   113637613.325        1452.388          49.000    21624511.858    88548800.756        1131.792          45.000  
G23  23098230.691   121382146.610        2528.639          46.000    23098226.462    94583453.741        1970.439          45.000  
R10  23966433.885   127754574.710       -5074.250          41.000                                                                  
R22  20511263.020   109490667.454          51.192          51.000    20511259.075    85159235.095          39.765          49.000  
R11  20155802.159   107706535.720       -2784.572          52.000    20155796.854    83771740.179       -2165.865          51.000  
G25  23345329.562   122680539.747       -3691.420          46.000    23345327.155    95595243.660       -2876.220          41.000  
G29  22836002.067   120004151.614       -2344.466          48.000    22835996.136    93509812.302       -1826.817          40.000  
S31  39296867.112   206506515.708        -645.441          44.000  
S33  40251740.947   211524453.360        -645.756          42.000  
R12  20956040.130   111943531.790        1876.436          52.000    20956036.325    87067150.508        1459.512          50.000  
R06  24356918.299   129973173.798        2162.500          38.000                                                                  
R13  24823241.439                3       3386.511          11.000                                                                  
R23  23924170.328   127978167.193        2143.026          35.000                                                                  
R21  21102414.724   112923794.977       -2949.953          53.000    21102408.680    87829711.818       -2294.453          49.000  
G28  23538640.935   123696384.842       -3445.684          40.000    23538636.140    96386776.873       -2684.969          42.000  
E15  27283692.550   143376903.368       -3254.271          42.000    27283693.155   109860302.967       -2493.582          43.000  
E21  23974857.134   125988796.958        -184.029          47.000    23974856.945    96536907.904        -141.001          52.000  
E13  23940623.416   125809237.019       -1483.530          47.000    23940623.580    96399391.127       -1136.709          50.000  
E27  25555171.912   134293365.947       -2640.110          48.000    25555172.030   102900125.167       -2022.925          51.000  
G18  20836452.980   109496599.470       -1176.969          49.000    20836447.430    85322136.920        -917.086          50.000  
G05  24645864.868   129514898.922       -2541.962          40.000    24645860.168   100920798.176       -1980.477          37.000  
E26  24966312.216   131199107.503        1096.025          46.000    24966311.262   100529331.658         839.830          50.000  
E14  22800259.070   119816230.780       -2504.355          47.000    22800258.629    91807267.679       -1918.838          51.000  
> 2024 04 17 05 19 00.0020000  0 24                     
G31  22701455.527   119296875.559       -1845.480          47.000    22701450.448    92958728.707       -1438.214          43.000  
G16  24612649.975                1       2630.332          30.000                                                                  
G26  21616259.321   113594227.550        1439.292          48.000    21616256.491    88514993.686        1121.546          45.000  
G23  23083814.764   121306389.183        2521.043          47.000    23083810.521    94524422.029        1964.404          45.000  
R10  23995002.486   127906864.119       -5078.795          40.000                                                                  
R22  20511014.905   109489345.938          36.373          51.000    20511012.295    85158207.274          28.187          49.000  
R11  20171500.002   107790421.777       -2808.429          52.000    20171495.096    83836984.854       -2184.370          51.000  
G25  23366427.779   122791416.426       -3701.013          45.000    23366426.732    95681641.068       -2883.838          42.000  
G29  22849394.209   120074527.136       -2347.834          48.000    22849389.121    93564650.341       -1829.170          40.000  
S31  39300550.978   206525874.769        -645.856          44.000  
S33  40255425.327   211543815.049        -645.990          42.000  
R12  20945556.368   111887536.519        1855.838          51.000    20945554.054    87023598.634        1443.492          50.000  
R06  24344782.602   129908418.474        2154.218          39.000                                                                  
R23  23912175.267   127914002.240        2133.566          38.000                                                                  
R21  21118969.052   113012382.627       -2956.434          52.000    21118963.951    87898613.335       -2299.544          49.000  
G28  23558330.875   123799854.712       -3453.064          42.000    23558326.038    96467402.721       -2690.662          42.000  
E15  27302274.294   143474548.795       -3255.894          43.000    27302274.692   109935122.239       -2494.919          44.000  
E21  23975936.710   125994471.895        -194.937          47.000    23975936.780    96541256.240        -149.336          52.000  
E13  23949120.123   125853884.838       -1493.655          47.000    23949119.919    96433601.799       -1144.417          51.000  
E27  25570267.764   134372695.785       -2649.178          48.000    25570267.919   102960910.362       -2029.816          51.000  
G18  20843217.371   109532148.915       -1193.600          48.000    20843212.789    85349837.774        -930.088          51.000  
G05  24660416.965   129591370.416       -2557.049          39.000    24660412.507   100980386.385       -1992.439          37.000  
E26  24960081.293   131166363.613        1086.234          46.000    24960080.320   100504242.211         832.252          50.000  
E14  22814575.648   119891466.642       -2512.053          47.000    22814575.274    91864915.973       -1924.852          51.000  
> 2024 04 17 05 19 30.0020000  0 25                     
G31  22712039.615   119352493.280       -1862.566          46.000    22712033.786    93002067.134       -1451.383          43.000  
G16  24597641.910                1       2628.466          29.000                                                                  
G26  21608079.659   113551244.054        1425.972          48.000    21608077.130    88481500.060        1111.071          45.000  
G23  23069443.832   121230875.318        2513.029          46.000    23069441.304    94465580.148        1958.099          45.000  
R10  24023599.143   128059299.859       -5083.863          41.000                                                                  
R22  20510852.343   109488475.943          21.349          50.000    20510849.754    85157530.645          16.657          50.000  
R11  20187332.338   107875027.124       -2832.202          52.000    20187328.057    83902789.009       -2202.800          51.000  
G25  23387583.558   122902590.442       -3710.676          44.000    23387582.764    95768270.091       -2891.560          43.000  
G29  22862807.145   120145015.537       -2351.585          47.000    22862802.446    93619576.383       -1832.200          39.000  
S31  39304238.380   206545252.820        -646.191          44.000  
S33  40259113.277   211563196.263        -646.472          42.000  
R12  20935192.269   111832168.589        1834.942          52.000    20935188.948    86980534.694        1427.184          50.000  
R06  24332694.343   129843920.648        2145.483          37.000                                                                  
R23  23900233.239   127850125.559        2124.605          38.000                                                                  
R21  21135560.652   113101170.006       -2963.050          52.000    21135555.252    87967670.158       -2304.523          49.000  
G28  23578061.452   123903543.958       -3460.195          42.000    23578057.373    96548199.461       -2695.996          42.000  
E15  27320866.119   143572250.020       -3257.578          44.000    27320867.162   110009984.166       -2496.114          44.000  
E21  23977079.505   126000480.567        -205.943          46.000    23977080.180    96545860.282        -157.739          52.000  
E13  23957675.159   125898841.216       -1503.819          48.000    23957675.147    96468048.904       -1152.316          51.000  
E27  25585415.972   134452300.431       -2658.222          48.000    25585416.329   103021906.116       -2036.799          51.000  
G18  20850078.162   109568204.209       -1210.395          48.000    20850073.753    85377932.805        -943.115          50.000  
G05  24675057.762   129668310.091       -2572.678          41.000    24675054.113   101040339.418       -2004.629          37.000  
E26  24953906.579   131133921.272        1076.376          46.000    24953906.387   100479383.832         824.717          50.000  
E14  22828937.406   119966938.898       -2519.758          48.000    22828936.945    91922745.378       -1930.673          51.000  
R05                                                                  24626590.662                3       -700.244          10.000  
> 2024 04 17 05 20 00.0020000  0 24                     
G31  22722720.814   119408627.509       -1879.728          46.000    22722715.824    93045808.049       -1464.708          43.000  
G16  24582644.072                1       2626.898          31.000                                                                  
G26  21599978.180   113508669.213        1412.381          49.000    21599975.658    88448324.875        1100.531          46.000  
G23  23055122.203   121155612.378        2504.484          46.000    23055118.200    94406933.723        1951.552          44.000  
R10  24052223.086   128211882.352       -5088.555          41.000                                                                  
R22  20510775.392   109488060.281           6.219          51.000    20510771.977    85157207.373           4.852          50.000  
R11  20203300.276   107960353.178       -2856.321          52.000    20203295.312    83969153.705       -2221.536          51.000  
G25  23408796.864   123014064.113       -3720.958          45.000    23408795.500    95855132.636       -2899.463          43.000  
G29  22876243.691   120215620.604       -2355.603          48.000    22876238.437    93674593.305       -1835.357          40.000  
S31  39307930.378   206564654.390        -647.137          44.000  
S33  40262805.959   211582601.330        -647.120          42.000  
R12  20924946.403   111777435.844        1813.702          52.000    20924943.301    86937964.808        1410.719          50.000  
R06  24320657.294   129779688.712        2136.713          36.000                                                                  
R23  23888346.671   127786541.786        2114.360          37.000                                                                  
R21  21152189.996   113190158.697       -2969.690          52.000    21152184.304    88036883.588       -2309.710          49.000  
G28  23597834.104   124007453.401       -3467.546          41.000    23597830.535    96629167.810       -2702.165          42.000  
E15  27339468.470   143670009.550       -3259.653          43.000    27339469.414   110084890.844       -2497.686          43.000  
E21  23978287.319   126006828.019        -217.317          46.000    23978287.970    96550723.915        -166.480          52.000  
E13  23966289.313   125944108.810       -1514.190          48.000    23966289.381    96502734.461       -1160.132          52.000  
E27  25600617.242   134532183.346       -2667.512          48.000    25600617.425   103083115.093       -2043.902          51.000  
G18  20857035.966   109604767.748       -1227.314          48.000    20857031.624    85406423.887        -956.422          50.000  
G05  24689789.710   129745720.549       -2588.144          42.000    24689785.085   101100659.255       -2016.588          37.000  
E26  24947790.677   131101784.755        1066.109          45.000    24947790.547   100454759.780         816.801          50.000  
E14  22843344.878   120042648.472       -2527.650          48.000    22843344.010    91980756.622       -1936.803          51.000  
> 2024 04 17 05 20 30.0020000  0 25                     
G31  22733502.017   119465281.919       -1897.070          46.000    22733497.602    93089954.329       -1478.442          44.000  
G16  24567661.930   129103909.4471       2623.834          32.000                                                                  
G26  21591955.783   113466511.493        1398.213          48.000    21591952.995    88415474.720        1089.580          45.000  
G23  23040850.369   121080609.596        2495.715          46.000    23040844.842    94348490.028        1944.554          44.000  
R10  24080875.058   128364614.660       -5093.568          40.000                                                                  
R22  20510783.540   109488103.779          -8.979          51.000    20510780.582    85157241.242          -7.172          51.000  
R11  20219402.888   108046403.927       -2880.429          52.000    20219399.146    84036082.048       -2240.333          51.000  
G25  23430067.770   123125841.856       -3730.984          46.000    23430066.330    95942232.142       -2907.261          43.000  
G29  22889701.771   120286348.311       -2359.527          47.000    22889696.631    93729705.836       -1838.817          40.000  
S31  39311628.090   206584085.485        -648.183          44.000  
S33  40266503.912   211602035.337        -648.264          42.000  
R12  20914819.801   111723348.118        1792.142          51.000    20914817.682    86895896.601        1393.789          50.000  
R06  24308672.294   129715733.191        2127.130          37.000                                                                  
R23  23876517.580   127723257.153        2104.509          40.000                                                                  
R21  21168858.425   113279352.344       -2976.509          53.000    21168852.978    88106256.429       -2314.954          50.000  
G28  23617649.880   124111585.910       -3474.972          43.000    23617645.994    96710309.993       -2707.884          41.000  
E15  27358084.609   143767832.097       -3261.765          44.000    27358084.182   110159845.777       -2499.323          42.000  
E21  23979561.080   126013521.324        -228.814          46.000    23979561.676    96555852.552        -175.396          52.000  
E13  23974962.971   125989692.261       -1524.649          47.000    23974963.706    96537662.053       -1168.284          52.000  
E27  25615872.300   134612350.069       -2676.948          48.000    25615872.638   103144541.533       -2051.159          51.000  
G18  20864091.757   109641843.998       -1244.381          48.000    20864087.066    85435314.473        -969.730          50.000  
G05  24704609.862   129823605.672       -2604.027          44.000    24704605.170   101161349.006       -2029.351          36.000  
E26  24941734.375   131069960.339        1055.738          45.000    24941734.805   100430374.863         808.859          50.000  
E14  22857797.579   120118598.368       -2535.505          48.000    22857796.601    92038952.010       -1942.756          51.000  
R13                                                                  23840456.692                3       2896.035          14.000  
> 2024 04 17 05 21 00.0020000  0 25                     
G31  22744379.854   119522443.905       -1913.632          46.000    22744375.938    93134496.058       -1491.218          45.000  
G16  24552691.011   129025217.273        2621.918          33.000                                                                  
G26  21584010.613   113424762.719        1385.065          48.000    21584008.208    88382943.226        1079.333          45.000  
G23  23026625.456   121005859.660        2487.690          46.000    23026620.986    94290243.384        1938.425          44.000  
R10  24109553.002   128517481.882       -5097.767          42.000                                                                  
R22  20510874.625   109488594.380         -23.541          51.000    20510871.851    85157622.834         -18.334          50.000  
R11  20235639.447   108133166.249       -2903.692          52.000    20235635.312    84103563.822       -2258.369          51.000  
G25  23451393.919   123237911.552       -3740.406          44.000    23451391.985    96029559.139       -2914.472          42.000  
G29  22903182.088   120357188.154       -2363.040          47.000    22903177.635    93784905.687       -1840.731          40.000  
S31  39315329.012   206603534.914        -648.356          44.000  
S33  40270205.951   211621488.574        -648.522          42.000  
R12  20904813.829   111669898.147        1771.124          51.000    20904811.478    86854324.415        1377.551          50.000  
R06  24296738.828   129652047.714        2118.634          36.000                                                                  
R23  23864741.137   127660261.692        2095.373          40.000                                                                  
R21  21185561.635   113368737.746       -2982.495          52.000    21185556.739    88175778.408       -2319.770          48.000  
G28  23637504.384   124215927.818       -3481.378          43.000    23637501.536    96791615.355       -2712.532          42.000  
E15  27376709.213   143865705.697       -3263.049          44.000    27376708.978   110234839.842       -2500.347          42.000  
E21  23980898.740   126020550.940        -239.782          46.000    23980899.354    96561238.878        -183.661          52.000  
E13  23983695.292   126035579.756       -1534.352          47.000    23983695.714    96572822.605       -1175.715          52.000  
E27  25631178.720   134692789.519       -2685.519          47.000    25631179.543   103206176.951       -2057.896          50.000  
G18  20871242.691   109679420.800       -1260.699          49.000    20871237.710    85464595.096        -982.317          50.000  
G05  24719519.888   129901953.732       -2618.863          45.000    24719512.468   101222399.403       -2040.382          35.000  
E26  24935736.096   131038437.726        1045.878          45.000    24935736.397   100406221.194         801.418          51.000  
E14  22872293.748   120194774.998       -2542.771          49.000    22872292.477    92097321.139       -1948.369          50.000  
R05                                                                  24630744.320                3       -337.000          15.000  
> 2024 04 17 05 21 30.0020000  0 24                     
G31  22755350.107   119580094.201       -1929.543          46.000    22755346.476    93179418.345       -1503.495          45.000  
G16  24537724.090   128946569.415        2620.807          33.000                                                                  
G26  21576140.763   113383408.165        1372.205          48.000    21576138.844    88350718.905        1069.263          45.000  
G23  23012447.004   120931348.753        2479.993          46.000    23012441.744    94232183.010        1932.438          44.000  
R10  24138252.939   128670463.558       -5101.158          41.000                                                                  
R22  20511046.494   109489513.347         -37.495          51.000    20511043.828    85158337.603         -29.042          50.000  
R11  20252004.925   108220620.339       -2926.353          51.000    20252001.562    84171583.663       -2276.146          51.000  
G25  23472771.947   123350254.358       -3749.001          44.000    23472770.640    96117098.944       -2921.477          43.000  
G29  22916680.538   120428123.094       -2365.818          47.000    22916676.478    93840179.646       -1843.581          40.000  
S31  39319030.695   206622986.409        -648.080          44.000  
S33  40273907.967   211640943.121        -648.247          42.000  
R12  20894925.422   111617072.405        1750.578          51.000    20894922.346    86813237.747        1361.685          50.000  
R06  24284852.067   129588619.049        2110.345          37.000                                                                  
R23  23853015.398   127597538.006        2086.713          43.000                                                                  
R21  21202297.887   113458294.696       -2987.740          52.000    21202291.907    88245433.811       -2323.885          48.000  
G28  23657395.904   124320458.970       -3487.143          43.000    23657393.112    96873068.117       -2717.283          42.000  
E15  27395340.141   143963611.815       -3263.717          44.000    27395340.608   110309858.836       -2500.778          43.000  
E21  23982297.532   126027900.758        -249.948          46.000    23982298.113    96566870.556        -191.598          52.000  
E13  23992481.528   126081752.750       -1543.536          47.000    23992482.208    96608201.923       -1182.795          52.000  
E27  25646534.563   134773484.049       -2693.734          47.000    25646534.980   103268007.801       -2064.037          50.000  
G18  20878484.573   109717479.416       -1276.334          49.000    20878479.859    85494251.177        -994.521          50.000  
G05  24734513.598   129980745.450       -2633.480          45.000    24734506.561   101283795.563       -2052.120          35.000  
E26  24929792.916   131007199.998        1036.682          46.000    24929792.698   100382285.818         794.387          52.000  
E14  22886828.991   120271158.226       -2549.140          48.000    22886827.791    92155848.571       -1953.280          51.000  
> 2024 04 17 05 22 00.0020000  0 24                     
G31  22766405.964   119638191.874       -1944.099          46.000    22766402.728    93224689.245       -1514.964          45.000  
G16  24522755.416                3       2620.984          31.000                                                                  
G26  21568339.235   113342410.717        1360.394          47.000    21568337.184    88318772.859        1059.937          45.000  
G23  22998306.112   120857040.680        2473.202          46.000    22998301.443    94174280.703        1927.330          44.000  
R10  24166965.840   128823516.325       -5102.983          37.000                                                                  
R22  20511291.688   109490819.141         -50.157          52.000    20511288.065    85159353.268         -39.117          50.000  
R11  20268492.705   108308723.839       -2947.805          51.000    20268488.515    84240108.598       -2292.792          51.000  
G25  23494194.234   123462829.199       -3756.615          44.000    23494193.009    96204819.542       -2927.295          43.000  
G29  22930190.781   120499113.587       -2367.576          48.000    22930184.898    93895496.914       -1844.941          40.000  
S31  39322724.893   206642399.987        -647.017          44.000  
S33  40277602.980   211660361.094        -646.896          42.000  
R12  20885146.169   111564833.962        1731.223          51.000    20885143.389    86772607.868        1346.481          50.000  
R06  24273006.226   129525411.714        2102.979          39.000                                                                  
R23  23841334.116   127535046.639        2078.830          45.000                                                                  
R21  21219057.850   113547980.890       -2991.957          53.000    21219051.197    88315189.715       -2327.046          47.000  
G28  23677316.109   124425136.622       -3491.985          43.000    23677313.075    96954635.046       -2721.014          43.000  
E15  27413969.613   144061509.650       -3263.294          44.000    27413969.904   110384871.446       -2500.529          43.000  
E21  23983750.207   126035532.333        -259.209          47.000    23983750.488    96572718.134        -198.691          52.000  
E13  24001314.436   126128170.403       -1551.649          47.000    24001315.438    96643768.690       -1188.865          52.000  
E27  25661931.611   134854393.615       -2700.823          46.000    25661931.590   103330003.423       -2069.505          50.000  
G18  20885810.424   109755978.765       -1290.828          48.000    20885805.473    85524250.670       -1005.924          50.000  
G05  24749583.266   130059939.844       -2646.669          45.000    24749577.127   101345505.505       -2062.705          35.000  
E26  24923895.999   130976207.872        1028.686          46.000    24923895.226   100358538.640         788.241          52.000  
E14  22901396.071   120347705.575       -2554.531          49.000    22901394.575    92214501.761       -1957.419          51.000  
> 2024 04 17 05 22 30.0020000  0 24                     
G31  22777549.050   119696745.723       -1959.544          48.000    22777545.199    93270315.614       -1527.026          45.000  
G16  24507791.521   128789324.6821       2619.360          33.000                                                                  
G26  21560608.780   113301784.218        1347.809          47.000    21560605.872    88287115.846        1050.348          45.000  
G23  22984206.059   120782950.123        2465.845          45.000    22984202.326    94116547.891        1921.392          44.000  
R10  24195694.126   128976648.131       -5105.334          33.000                                                                  
R22  20511610.242   109492522.130         -63.499          51.000    20511606.739    85160677.777         -49.299          49.000  
R11  20285102.797   108397485.688       -2969.862          51.000    20285098.882    84309145.549       -2309.879          51.000  
G25  23515662.772   123575645.812       -3764.730          45.000    23515661.354    96292728.531       -2933.540          43.000  
G29  22943712.447   120570171.088       -2369.832          48.000    22943707.195    93950866.406       -1846.451          41.000  
S31  39326414.316   206661787.625        -645.802          44.000  
S33  40281293.048   211679751.457        -646.280          42.000  
R12  20875479.949   111513198.262        1711.028          52.000    20875477.336    86732446.771        1330.741          50.000  
R06  24261205.450   129462441.582        2094.772          38.000                                                                  
R23  23829697.247   127472799.341        2070.734          45.000                                                                  
R21  21235843.461   113637805.307       -2996.559          52.000    21235837.311    88385053.145       -2330.554          48.000  
G28  23697265.303   124529969.164       -3497.107          44.000    23697262.190    97036322.655       -2725.057          42.000  
E15  27432598.666   144159409.268       -3263.614          44.000    27432598.798   110459885.422       -2500.677          42.000  
E21  23985258.121   126043458.148        -269.281          46.000    23985258.821    96578791.173        -206.378          52.000  
E13  24010196.069   126174842.819       -1560.227          47.000    24010196.793    96679530.664       -1195.558          52.000  
E27  25677370.731   134935529.121       -2708.416          46.000    25677371.224   103392172.170       -2075.387          50.000  
G18  20893222.499   109794928.686       -1305.916          48.000    20893217.511    85554601.249       -1017.659          50.000  
G05  24764731.551   130139546.590       -2660.349          45.000    24764725.509   101407536.809       -2073.198          35.000  
E26  24918047.494   130945473.039        1019.996          47.000    24918046.879   100334988.605         781.566          52.000  
E14  22915995.250   120424425.467       -2560.297          49.000    22915993.724    92273287.159       -1961.883          51.000  
> 2024 04 17 05 23 00.0020000  0 24                     
G31  22788777.753   119755750.991       -1974.410          47.000    22788773.600    93316293.725       -1538.501          45.000  
G16  24492834.274   128710723.683        2619.897          32.000                                                                  
G26  21552948.260   113261528.424        1335.522          47.000    21552945.271    88255747.697        1040.802          45.000  
G23  22970148.461   120709077.796        2458.628          45.000    22970144.662    94058985.080        1915.882          44.000  
R10  24224435.602                       -5107.959          30.000                                                                  
R22  20512002.566   109494618.350         -76.519          51.000    20511999.266    85162308.186         -59.552          49.000  
R11  20301836.626   108486900.720       -2991.452          52.000    20301831.651    84378690.560       -2326.724          50.000  
G25  23537176.582   123688699.945       -3772.440          45.000    23537174.592    96380822.619       -2939.771          43.000  
G29  22957246.646   120641292.934       -2371.737          47.000    22957240.728    94006286.015       -1848.342          41.000  
S31  39330097.967   206681145.634        -644.944          44.000  
S33  40284977.345   211699112.816        -644.919          42.000  
R12  20865926.819   111462166.137        1690.895          52.000    20865923.714    86692755.115        1315.183          50.000  
R06  24249449.812   129399710.286        2086.999          39.000                                                                  
R23  23818106.554   127410794.231        2062.654          45.000                                                                  
R21  21252653.845   113727762.676       -3000.857          52.000    21252648.823    88455019.973       -2333.924          48.000  
G28  23717243.058   124634950.855       -3501.901          43.000    23717239.524    97118126.456       -2728.889          42.000  
E15  27451228.463   144257306.743       -3263.300          44.000    27451228.824   110534897.804       -2500.512          43.000  
E21  23986822.672   126051676.596        -278.755          47.000    23986822.369    96585088.432        -213.634          52.000  
E13  24019125.821   126221766.065       -1568.490          47.000    24019125.818    96715484.823       -1201.705          52.000  
E27  25692852.858   135016887.397       -2715.629          47.000    25692852.880   103454511.613       -2080.906          50.000  
G18  20900719.908   109834324.911       -1320.577          48.000    20900714.313    85585299.596       -1029.049          50.000  
G05  24779958.274   130219561.304       -2674.014          45.000    24779951.542   101469885.966       -2083.585          36.000  
E26  24912246.482   130914993.081        1011.834          47.000    24912246.814   100311633.873         775.202          52.000  
E14  22930625.438   120501312.376       -2565.733          48.000    22930624.841    92332200.523       -1965.878          51.000  
> 2024 04 17 05 23 30.0020000  0 24                     
G31  22800091.931   119815209.017       -1989.488          48.000    22800087.606    93362624.621       -1550.148          44.000  
G16  24477882.279                        2618.842          32.000                                                                  
G26  21545359.473   113221649.044        1322.937          48.000    21545356.635    88224672.882        1030.841          45.000  
G23  22956133.839   120635430.299        2451.031          45.000    22956130.524    94001597.466        1910.006          45.000  
R10  24253191.409                       -5110.272          26.000                                                                  
R22  20512469.270   109497109.690         -89.703          51.000    20512466.136    85164245.926         -69.663          49.000  
R11  20318692.203   108576970.026       -3013.193          52.000    20318687.127    84448744.440       -2343.578          50.000  
G25  23558735.444   123801993.313       -3780.386          44.000    23558733.400    96469103.093       -2945.894          43.000  
G29  22970792.921   120712482.419       -2374.238          47.000    22970787.973    94061758.311       -1849.786          41.000  
S31  39333776.795   206700478.631        -644.117          44.000  
S33  40288656.416   211718448.011        -644.187          42.000  
R12  20856487.521   111411744.501        1670.540          51.000    20856484.385    86653538.287        1299.224          49.000  
R06  24237740.812   129337225.458        2078.490          40.000                                                                  
R23  23806560.197   127349034.417        2054.710          46.000                                                                  
R21  21269490.464   113817854.447       -3005.254          53.000    21269484.816    88525091.371       -2337.513          48.000  
G28  23737248.286   124740081.871       -3506.979          44.000    23737245.193    97200046.646       -2732.741          42.000  
E15  27469857.658   144355203.997       -3263.263          45.000    27469858.017   110609909.990       -2500.468          43.000  
E21  23988442.618   126060192.053        -288.875          46.000    23988442.608    96591613.258        -221.326          52.000  
E13  24028103.523   126268942.022       -1576.770          48.000    24028103.082    96751632.640       -1208.239          52.000  
E27  25708377.640   135098471.249       -2723.362          47.000    25708377.869   103517023.897       -2086.660          50.000  
G18  20908302.273   109874169.135       -1335.515          48.000    20908296.654    85616347.041       -1040.648          50.000  
G05  24795262.115   130299985.206       -2687.759          45.000    24795257.230   101532554.002       -2094.427          37.000  
E26  24906496.305   130884771.584        1003.011          47.000    24906495.619   100288477.171         768.475          52.000  
E14  22945288.257   120578366.666       -2571.319          47.000    22945287.666    92391242.133       -1970.215          51.000  
> 2024 04 17 05 24 00.0020000  0 24                     
G31  22811492.512   119875120.009       -2005.057          47.000    22811487.685    93409308.499       -1562.528          43.000  
G16  24462933.410   128553602.025        2616.583          33.000                                                                  
G26  21537843.014   113182151.032        1309.601          47.000    21537840.314    88193895.228        1020.618          45.000  
G23  22942163.286   120562013.413        2442.763          46.000    22942160.092    93944389.565        1903.330          45.000  
R10  24281960.150                3      -5112.295          21.000                                                                  
R22  20513011.223   109499997.412        -103.392          52.000    20513007.064    85166491.981         -80.417          50.000  
R11  20335670.013   108667693.504       -3035.491          52.000    20335664.709    84519307.108       -2361.000          50.000  
G25  23580340.495   123915526.710       -3789.131          45.000    23580338.357    96557570.600       -2952.483          43.000  
G29  22984353.120   120783742.200       -2377.045          47.000    22984347.638    94117285.428       -1852.063          41.000  
S31  39337451.222   206719788.675        -643.838          44.000  
S33  40292331.821   211737761.887        -643.844          42.000  
R12  20847163.489   111361939.471        1649.400          51.000    20847160.427    86614801.071        1282.816          49.000  
R06  24226078.343   129274994.083        2069.602          40.000                                                                  
R23  23795060.535   127287523.304        2045.663          46.000                                                                  
R21  21286351.180   113908080.066       -3010.272          53.000    21286345.426    88595266.832       -2341.254          48.000  
G28  23757283.032   124845361.667       -3512.326          45.000    23757279.310    97282082.770       -2736.887          41.000  
E15  27488486.469   144453102.307       -3263.770          44.000    27488487.387   110684922.971       -2500.989          44.000  
E21  23990120.157   126069008.053        -299.551          46.000    23990120.241    96598368.381        -229.516          52.000  
E13  24037128.122   126316371.952       -1585.793          47.000    24037128.936    96787975.063       -1215.088          52.000  
E27  25723946.331   135180282.639       -2731.433          47.000    25723946.457   103579710.537       -2092.944          50.000  
G18  20915969.464   109914462.195       -1351.020          48.000    20915964.596    85647744.245       -1052.767          50.000  
G05  24810644.416   130380819.242       -2701.817          46.000    24810639.032   101595541.657       -2105.688          37.000  
E26  24900794.844   130854811.260         993.702          47.000    24900793.862   100265520.572         761.395          51.000  
E14  22959983.058   120655587.917       -2577.333          47.000    22959982.384    92450411.668       -1974.852          51.000  
> 2024 04 17 05 24 30.0020000  0 25                     
G31  22822984.647   119935509.311       -2020.704          47.000    22822979.320    93456365.064       -1574.645          44.000  
G16  24447997.236                        2615.253          33.000                                                                  
G26  21530405.147   113143064.210        1296.173          48.000    21530402.603    88163437.972        1010.181          46.000  
G23  22928242.404   120488857.936        2434.248          47.000    22928238.895    93887385.318        1896.857          45.000  
R10  24310749.500                3      -5112.989          21.000                                                                  
R22  20513631.736   109503308.075        -117.172          52.000    20513627.515    85169066.950         -91.071          50.000  
R11  20352774.420   108759096.655       -3057.949          52.000    20352769.513    84590398.453       -2378.346          51.000  
G25  23601995.437   124029325.948       -3797.516          44.000    23601994.185    96646245.298       -2959.090          44.000  
G29  22997932.560   120855099.864       -2380.045          47.000    22997926.452    94172888.797       -1854.797          41.000  
S31  39341126.597   206739102.794        -643.469          43.000  
S33  40296007.798   211757078.357        -643.712          42.000  
R12  20837961.684   111312782.530        1627.940          51.000    20837958.392    86576567.909        1266.216          50.000  
R06  24214469.865   129213048.707        2060.142          37.000                                                                  
R23  23783613.655   127226289.246        2036.718          45.000                                                                  
R21  21303241.998   113998465.611       -3015.289          52.000    21303236.043    88665566.675       -2345.154          48.000  
G28  23777350.464   124950814.614       -3517.677          44.000    23777346.469    97364253.814       -2741.133          41.000  
E15  27507119.985   144551027.808       -3264.439          44.000    27507120.654   110759956.806       -2501.344          41.000  
E21  23991860.437   126078153.078        -310.191          47.000    23991860.241    96605375.603        -237.598          52.000  
E13  24046206.894   126364081.947       -1594.784          47.000    24046208.058    96824532.079       -1221.984          52.000  
E27  25739562.344   135262348.501       -2739.513          46.000    25739563.048   103642592.154       -2099.145          50.000  
G18  20923727.343   109955229.955       -1366.578          48.000    20923722.259    85679511.331       -1064.863          50.000  
G05  24826109.529   130462089.407       -2715.966          46.000    24826103.735   101658869.019       -2116.381          37.000  
E26  24895147.622   130825139.777         984.445          46.000    24895147.338   100242785.311         754.244          50.000  
E14  22974713.954   120733000.687       -2583.303          47.000    22974713.325    92509727.962       -1979.489          51.000  
R05                                                                  23452620.618                3       -875.148          15.000  
> 2024 04 17 05 25 00.0020000  0 23                     
G31  22834565.198   119996366.457       -2036.289          47.000    22834559.742    93503786.175       -1586.688          43.000  
G16  24433069.355                        2613.721          34.000                                                                  
G26  21523044.167   113104382.527        1282.758          47.000    21523042.248    88133296.419         999.524          45.000  
G23  22914370.967   120415958.702        2425.748          47.000    22914365.950    93830580.753        1890.122          44.000  
R22  20514329.379   109507031.636        -130.918          52.000    20514324.651    85171963.075        -101.891          50.000  
R11  20370004.368   108851168.313       -3080.005          52.000    20369999.772    84662009.705       -2395.592          51.000  
G25  23623698.600   124143380.946       -3805.876          44.000    23623698.169    96735119.258       -2965.707          43.000  
G29  23011528.013   120926546.832       -2382.829          46.000    23011523.393    94228561.720       -1856.832          41.000  
S31  39344801.815   206758413.252        -643.675          44.000  
S33  40299683.094   211776392.587        -643.491          42.000  
R12  20828879.300   111264268.594        1606.474          51.000    20828876.877    86538834.863        1249.479          50.000  
R06  24202914.043   129151384.747        2050.817          38.000                                                                  
R23  23772216.524   127165323.828        2027.869          45.000                                                                  
R21  21320160.430   114088999.753       -3020.056          52.000    21320154.861    88735982.153       -2348.914          47.000  
G28  23797448.436   125056429.153       -3523.116          45.000    23797444.321    97446550.787       -2745.528          42.000  
E15  27525758.597   144648970.736       -3264.988          45.000    27525758.811   110835004.000       -2501.628          42.000  
E21  23993663.140   126087619.679        -320.836          48.000    23993661.724    96612629.234        -245.760          52.000  
E13  24055337.237   126412062.240       -1603.771          47.000    24055338.234    96861296.202       -1228.861          52.000  
E27  25755225.708   135344659.834       -2747.549          46.000    25755226.393   103705661.858       -2105.315          50.000  
G18  20931573.418   109996462.283       -1382.082          48.000    20931568.690    85711640.426       -1076.849          50.000  
G05  24841655.871   130543784.836       -2730.151          44.000    24841650.413   101722527.852       -2127.282          37.000  
E26  24889554.545   130795748.913         975.029          46.000    24889554.374   100220265.059         747.202          50.000  
E14  22989479.796   120810593.615       -2589.239          47.000    22989478.621    92569182.307       -1983.968          51.000  
> 2024 04 17 05 25 30.0020000  0 24                     
G31  22846236.784   120057700.423       -2052.065          47.000    22846230.775    93551578.840       -1598.930          42.000  
G16  24418156.351   128318315.252        2611.450          34.000                                                                  
G26  21515762.660   113066119.785        1268.579          47.000    21515760.648    88103481.313         988.623          45.000  
G23  22900550.253   120343330.464        2416.627          47.000    22900544.510    93773987.377        1882.844          43.000  
R10  24368343.621                3      -5123.608          15.000                                                                  
R22  20515105.572   109511178.394        -144.920          52.000    20515101.129    85175188.344        -112.831          49.000  
R11  20387360.978   108943917.376       -3102.549          52.000    20387354.899    84734147.865       -2413.299          49.000  
G25  23645453.497   124257701.447       -3814.799          45.000    23645452.195    96824200.146       -2972.834          43.000  
G29  23025142.651   120998094.596       -2386.381          46.000    23025137.691    94284313.234       -1859.557          42.000  
S31  39348477.751   206777731.397        -643.906          44.000  
S33  40303359.674   211795713.233        -643.967          42.000  
R12  20819920.422   111216412.869        1584.399          51.000    20819918.188    86501613.754        1232.298          50.000  
R06  24191415.018   129090018.519        2040.932          39.000                                                                  
R23  23760872.360   127104638.768        2018.466          44.000                                                                  
R21  21337107.467   114179691.953       -3025.458          50.000    21337103.290    88806520.519       -2353.210          49.000  
G28  23817578.779   125162213.617       -3528.636          45.000    23817574.843    97528980.192       -2749.709          43.000  
E15  27544401.647   144746941.254       -3265.872          45.000    27544402.620   110910072.341       -2502.421          43.000  
E21  23995528.059   126097420.317        -331.989          48.000    23995526.676    96620138.824        -254.530          52.000  
E13  24064521.268   126460322.899       -1612.981          47.000    24064521.804    96898275.146       -1236.094          51.000  
E27  25770937.824   135427227.493       -2756.238          47.000    25770938.726   103768927.986       -2112.006          50.000  
G18  20939509.918   110038168.945       -1397.772          48.000    20939505.184    85744139.133       -1089.271          50.000  
G05  24857285.063   130625915.767       -2744.568          44.000    24857280.326   101786526.001       -2138.940          40.000  
E26  24884017.271   130766650.299         965.361          45.000    24884017.106   100197968.747         739.589          50.000  
E14  23004281.423   120888375.295       -2595.607          47.000    23004280.037    92628781.292       -1988.816          51.000  
> 2024 04 17 05 26 00.0020000  0 24                     
G31  22857996.186   120119499.548       -2067.372          46.000    22857989.920    93599733.987       -1611.026          41.000  
G16  24403257.506   128240007.496        2609.998          37.000                                                                  
G26  21508560.192   113028268.838        1255.188          48.000    21508557.396    88073987.095         978.046          45.000  
G23  22886779.941   120270966.964        2408.057          47.000    22886773.970    93717600.251        1876.270          44.000  
R10  24397155.464                3      -5128.235          11.000                                                                  
R22  20515959.341   109515737.264        -158.532          51.000    20515955.384    85178734.145        -123.366          50.000  
R11  20404842.805   109037331.838       -3124.566          52.000    20404837.196    84806803.537       -2430.200          50.000  
G25  23667256.084   124372276.239       -3823.070          44.000    23667255.447    96913479.181       -2979.104          43.000  
G29  23038775.514   121069733.864       -2389.248          46.000    23038770.256    94340135.990       -1861.820          42.000  
S31  39352153.039   206797047.087        -643.555          44.000  
S33  40307035.982   211815031.708        -643.705          42.000  
R12  20811084.208   111169208.910        1562.923          50.000    20811081.114    86464899.577        1215.545          50.000  
R06  24179969.884   129028944.573        2031.127          37.000                                                                  
R23  23749578.942   127044225.214        2009.428          45.000                                                                  
R21  21354083.739   114270530.196       -3030.133          52.000    21354078.500    88877172.493       -2356.708          48.000  
G28  23837738.308   125268155.424       -3533.735          44.000    23837734.788    97611532.191       -2753.540          43.000  
E15  27563048.177   144844928.580       -3266.294          45.000    27563049.134   110985153.529       -2502.826          44.000  
E21  23997454.710   126107546.481        -342.647          48.000    23997453.666    96627897.821        -262.514          52.000  
E13  24073756.092   126508853.067       -1621.804          47.000    24073756.464    96935460.592       -1242.696          51.000  
E27  25786697.403   135510041.395       -2764.389          47.000    25786697.693   103832382.777       -2118.056          50.000  
G18  20947535.067   110080338.735       -1413.099          48.000    20947529.785    85776998.691       -1101.092          50.000  
G05  24872995.018   130708470.572       -2758.564          44.000    24872989.376   101850854.440       -2149.893          40.000  
E26  24878534.429   130737834.596         956.023          46.000    24878533.397   100175889.186         732.673          50.000  
E14  23019116.320   120966333.339       -2601.286          47.000    23019115.070    92688515.399       -1993.167          51.000  
> 2024 04 17 05 26 30.0020000  0 23                     
G31  22869845.697   120181771.638       -2083.770          46.000    22869840.185    93648257.681       -1623.778          41.000  
G16  24388369.564   128161771.101        2606.281          38.000                                                                  
G26  21501438.224   112990842.103        1240.222          48.000    21501435.533    88044823.414         966.382          45.000  
G23  22873062.716   120198881.535        2397.982          47.000    22873056.853    93661429.826        1868.577          44.000  
R22  20516891.917   109520717.033        -173.093          51.000    20516888.551    85182607.313        -134.709          50.000  
R11  20422449.608   109131418.519       -3147.552          52.000    20422444.557    84879982.022       -2448.064          50.000  
G25  23689109.180   124487113.686       -3832.531          45.000    23689108.813    97002962.863       -2986.244          43.000  
G29  23052426.862   121141474.777       -2393.231          46.000    23052422.235    94396038.004       -1864.771          42.000  
S31  39355830.287   206816371.267        -644.480          44.000  
S33  40310713.489   211834358.698        -644.369          42.000  
R12  20802371.902   111122670.520        1540.018          51.000    20802368.410    86428703.077        1197.751          49.000  
R06  24168581.980   128968177.310        2020.174          38.000                                                                  
R23  23738337.593   126984093.307        1999.525          45.000                                                                  
R21  21371087.783   114361522.521       -3035.864          51.000    21371081.976    88947944.266       -2361.243          48.000  
G28  23857928.919   125374261.538       -3539.780          43.000    23857926.383    97694212.216       -2758.036          43.000  
E15  27581699.854   144942941.427       -3267.711          45.000    27581700.340   111060254.278       -2503.752          44.000  
E21  23999445.430   126118009.192        -354.560          48.000    23999444.805    96635914.704        -271.564          52.000  
E13  24083043.475   126557661.362       -1631.593          46.000    24083044.225    96972859.162       -1250.249          51.000  
E27  25802504.610   135593111.000       -2773.370          47.000    25802505.264   103896033.503       -2125.021          50.000  
G18  20955648.649   110122979.935       -1429.337          48.000    20955644.205    85810225.643       -1113.860          50.000  
G05  24888786.431   130791456.782       -2773.578          43.000    24888781.266   101915519.015       -2161.127          39.000  
E26  24873107.849   130709311.989         945.754          46.000    24873105.842   100154034.230         724.609          51.000  
E14  23033985.842   121044474.917       -2607.935          47.000    23033984.882    92748390.128       -1998.166          52.000  
> 2024 04 17 05 27 00.0020000  0 23                     
G31  22881787.799   120244523.222       -2099.348          46.000    22881781.521    93697154.944       -1635.817          42.000  
G16  24373497.606   128083616.721        2603.992          39.000                                                                  
G26  21494399.070   112953850.642        1225.995          48.000    21494396.279    88015998.924         955.444          45.000  
G23  22859400.630   120127086.142        2388.634          47.000    22859394.313    93605485.432        1861.157          43.000  
R22  20517904.836   109526125.042        -187.115          51.000    20517900.996    85186813.551        -145.551          50.000  
R11  20440183.592   109226184.488       -3169.859          52.000    20440178.118    84953688.870       -2465.586          50.000  
G25  23711013.430   124602220.734       -3840.926          44.000    23711012.867    97092656.622       -2992.922          43.000  
G29  23066101.266   121213326.158       -2396.675          47.000    23066095.423    94452026.037       -1867.475          42.000  
S31  39359510.835   206835712.327        -644.733          44.000  
S33  40314394.772   211853702.557        -644.976          42.000  
R12  20793786.472   111076809.828        1517.534          50.000    20793783.782    86393033.657        1180.414          50.000  
R06  24157253.257   128907730.062        2009.642          36.000                                                                  
R23  23727150.729   126924252.237        1990.263          45.000                                                                  
R21  21388121.810   114452675.232       -3040.778          52.000    21388115.863    89018840.840       -2365.063          48.000  
G28  23878153.481   125480537.553       -3545.067          45.000    23878149.611    97777024.616       -2762.291          43.000  
E15  27600357.486   145040987.281       -3268.445          45.000    27600357.889   111135380.337       -2504.412          43.000  
E21  24001501.536   126128818.158        -365.847          47.000    24001501.758    96644196.893        -280.299          52.000  
E13  24092385.589   126606755.199       -1640.918          46.000    24092386.581    97010476.528       -1257.305          50.000  
E27  25818362.987   135676444.461       -2781.857          47.000    25818362.968   103959886.390       -2131.631          50.000  
G18  20963854.379   110166099.625       -1444.926          49.000    20963849.142    85843825.420       -1125.976          50.000  
G05  24904662.070   130874882.187       -2787.771          42.000    24904657.229   101980525.830       -2172.162          41.000  
E26  24867737.825   130681091.403         935.884          47.000    24867735.747   100132410.684         717.165          51.000  
E14  23048891.631   121122805.894       -2613.940          46.000    23048890.615    92808409.988       -2002.878          52.000  
> 2024 04 17 05 27 30.0020000  0 24                     
G31  22893817.454   120307743.214       -2114.680          46.000    22893812.246    93746417.262       -1647.835          42.000  
G16  24358639.120   128005537.846        2602.179          38.000                                                                  
G26  21487441.214   112917287.859        1212.048          48.000    21487438.307    87987508.457         944.586          45.000  
G23  22845792.442   120055575.167        2379.462          47.000    22845786.061    93549762.672        1854.001          43.000  
R22  20518996.265   109531950.888        -200.560          51.000    20518992.251    85191344.797        -156.026          49.000  
R11  20458043.238   109321617.389       -3191.552          53.000    20458037.746    85027914.455       -2482.268          50.000  
G25  23732966.684   124717586.843       -3849.452          43.000    23732965.438    97182552.233       -2999.520          42.000  
G29  23079793.678   121285278.750       -2399.621          47.000    23079786.819    94508093.000       -1869.708          41.000  
S31  39363192.871   206855061.468        -644.516          44.000  
S33  40318077.171   211873055.124        -644.840          42.000  
R12  20785327.301   111031621.264        1495.498          51.000    20785324.284    86357886.984        1163.250          49.000  
R06  24145984.389   128847597.962        1999.278          35.000                                                                  
R23  23716017.342   126864693.035        1981.146          46.000                                                                  
R21  21405182.931   114543976.966       -3045.215          51.000    21405178.085    89089853.315       -2368.494          47.000  
G28  23898407.830   125586971.447       -3549.891          45.000    23898403.576    97859960.066       -2766.001          44.000  
E15  27619018.817   145139055.915       -3268.766          44.000    27619019.904   111210523.859       -2504.602          44.000  
E21  24003623.657   126139965.416        -376.765          48.000    24003622.975    96652738.296        -288.597          52.000  
E13  24101780.449   126656124.291       -1649.571          47.000    24101781.285    97048304.810       -1263.960          51.000  
E27  25834268.901   135760032.183       -2789.945          47.000    25834269.046   104023934.126       -2137.687          50.000  
G18  20972149.497   110209687.121       -1460.226          49.000    20972143.573    85877789.705       -1137.739          50.000  
G05  24920618.595   130958735.724       -2801.720          39.000    24920613.900   102045866.236       -2182.793          41.000  
E26  24862422.367   130653164.019         926.563          46.000    24862421.329   100111011.821         710.009          51.000  
E14  23063831.354   121201314.464       -2619.146          46.000    23063830.453    92868565.931       -2007.012          52.000  
R05                                                                  23475584.024                3       -978.131          11.000  
> 2024 04 17 05 28 00.0020000  0 23                     
G31  22905931.454   120371401.309       -2128.857          46.000    22905926.508    93796020.947       -1658.567          42.000  
G16  24343790.048   127927509.014        2600.549          38.000                                                                  
G26  21480560.171   112881128.310        1198.944          48.000    21480557.640    87959332.198         934.332          45.000  
G23  22832233.512   119984324.064        2371.175          46.000    22832227.976    93494242.416        1847.414          44.000  
R22  20520160.706   109538164.802        -213.068          51.000    20520156.507    85196177.852        -165.821          50.000  
R11  20476021.497   109417686.291       -3212.353          52.000    20476016.212    85102634.698       -2498.699          51.000  
G25  23754964.257   124833182.450       -3856.525          44.000    23754962.351    97272626.671       -3005.127          41.000  
G29  23093499.478   121357305.294       -2401.584          47.000    23093494.193    94564217.563       -1871.724          42.000  
S31  39366871.038   206874390.359        -643.649          44.000  
S33  40321756.181   211892386.212        -643.785          42.000  
R12  20776989.021   110987079.924        1474.240          52.000    20776986.145    86323243.743        1146.647          49.000  
R06  24134771.140   128787757.340        1989.437          36.000                                                                  
R23  23704929.483   126805388.075        1973.034          45.000                                                                  
R21  21422267.422   114635397.141       -3048.907          51.000    21422262.005    89160957.897       -2371.295          48.000  
G28  23918685.116   125693532.353       -3553.836          44.000    23918680.975    97942994.503       -2769.402          43.000  
E15  27637680.052   145237118.309       -3268.331          44.000    27637680.856   111285662.578       -2504.323          45.000  
E21  24005804.105   126151424.134        -386.762          48.000    24005803.527    96661518.352        -296.315          52.000  
E13  24111222.613   126705739.483       -1657.441          47.000    24111222.806    97086321.662       -1270.126          51.000  
E27  25850218.063   135843845.841       -2797.132          46.000    25850218.455   104088154.968       -2143.354          50.000  
G18  20980526.816   110253712.886       -1474.378          49.000    20980521.242    85912095.499       -1148.990          50.000  
G05  24936650.989   131042987.578       -2814.913          37.000    24936646.307   102111517.037       -2193.063          41.000  
E26  24857158.981   130625502.273         917.983          47.000    24857157.272   100089816.476         703.384          51.000  
E14  23078799.288   121279970.081       -2623.882          46.000    23078798.591    92928834.537       -2010.589          52.000  
> 2024 04 17 05 28 30.0020000  0 23                     
G31  22918124.958   120435478.312       -2142.674          47.000    22918120.435    93845951.070       -1669.678          43.000  
G16  24328947.540   127849515.198        2599.469          38.000                                                                  
G26  21473752.887   112845357.315        1186.090          48.000    21473751.190    87931458.714         924.097          45.000  
G23  22818721.140   119913319.141        2362.805          46.000    22818716.607    93438913.968        1841.102          45.000  
R22  20521394.715   109544748.067        -225.492          52.000    20521389.789    85201298.183        -175.393          50.000  
R11  20494114.258   109514371.513       -3233.000          53.000    20494109.950    85177834.287       -2514.586          51.000  
G25  23777002.348   124948988.777       -3863.574          45.000    23776999.871    97362865.329       -3010.666          41.000  
G29  23107216.556   121429388.681       -2403.687          47.000    23107210.702    94620386.430       -1872.913          42.000  
S31  39370542.285   206893683.004        -642.401          44.000  
S33  40325427.551   211911681.234        -642.149          42.000  
R12  20768768.987   110943171.860        1453.067          52.000    20768766.069    86289093.050        1130.210          50.000  
R06  24123608.338   128728195.229        1980.681          35.000                                                                  
R23  23693887.133   126746320.158        1965.074          46.000                                                                  
R21  21439370.507   114726916.162       -3052.142          51.000    21439364.072    89232139.277       -2373.767          48.000  
G28  23938982.839   125800200.189       -3557.314          42.000    23938978.953    98026112.198       -2771.720          43.000  
E15  27656336.205   145335156.162       -3267.285          43.000    27656336.693   111360782.507       -2503.680          44.000  
E21  24008040.330   126163178.299        -396.575          47.000    24008040.434    96670524.794        -303.910          52.000  
E13  24120707.509   126755582.382       -1665.066          47.000    24120707.646    97124512.978       -1275.892          51.000  
E27  25866207.384   135927867.790       -2804.122          47.000    25866207.418   104152535.398       -2148.578          50.000  
G18  20988984.231   110298158.179       -1488.473          49.000    20988978.859    85946728.198       -1159.798          49.000  
G05  24952755.123   131127618.595       -2827.346          38.000    24952750.899   102177463.313       -2202.941          42.000  
E26  24851942.629   130598089.245         909.748          47.000    24851940.560   100068811.720         696.962          50.000  
E14  23093790.962   121358752.897       -2628.046          46.000    23093790.539    92989200.620       -2013.770          53.000  
> 2024 04 17 05 29 00.0020000  0 24                     
G31  22930397.150   120499970.155       -2156.438          46.000    22930392.611    93896204.432       -1680.402          42.000  
G16  24314112.343   127771557.057        2597.931          39.000                                                                  
G26  21467020.527   112809975.712        1172.998          49.000    21467018.338    87903888.628         914.148          45.000  
G23  22805256.585   119842562.193        2354.517          46.000    22805251.718    93383778.752        1834.810          44.000  
R22  20522696.921   109551697.772        -237.678          52.000    20522691.736    85206703.537        -184.769          50.000  
R11  20512321.789   109611668.299       -3253.268          52.000    20512317.512    85253509.530       -2530.323          51.000  
G25  23799078.800   125065002.613       -3870.401          45.000    23799076.422    97453265.634       -3015.798          41.000  
G29  23120943.816   121501527.543       -2405.528          46.000    23120938.435    94676598.520       -1874.332          41.000  
S31  39374205.887   206912936.953        -640.912          44.000  
S33  40329092.019   211930937.976        -640.747          42.000  
R12  20760668.286   110899898.779        1431.916          52.000    20760664.936    86255436.224        1113.679          49.000  
R06  24112498.926   128668914.230        1971.538          37.000    24113286.056                3       1318.351          11.000  
R23  23682889.385   126687488.057        1957.326          47.000                                                                  
R21  21456491.307   114818530.101       -3055.164          52.000    21456484.275    89303394.577       -2376.184          47.000  
G28  23959299.839   125906970.377       -3560.425          41.000    23959298.072    98109309.708       -2774.660          44.000  
E15  27674987.161   145433166.761       -3266.329          43.000    27674987.611   111435881.542       -2502.763          45.000  
E21  24010332.995   126175227.334        -406.465          47.000    24010333.430    96679757.178        -311.377          52.000  
E13  24130235.031   126805650.118       -1672.647          47.000    24130235.168    97162876.567       -1281.598          51.000  
E27  25882234.638   136012095.922       -2810.858          46.000    25882235.234   104217073.829       -2153.810          49.000  
G18  20997521.252   110343019.726       -1502.206          49.000    20997515.294    85981685.246       -1170.541          49.000  
G05  24968931.301   131212626.072       -2840.277          37.000    24968926.624   102243702.917       -2212.532          42.000  
E26  24846773.106   130570923.537         901.560          47.000    24846770.811   100047996.467         690.851          50.000  
E14  23108805.589   121437658.641       -2632.088          45.000    23108805.547    93049660.891       -2016.757          53.000  
R05                                                                  23487323.041                3      -1025.948          11.000  
> 2024 04 17 05 29 30.0020000  0 23                     
G31  22942747.005   120564868.295       -2169.964          48.000    22942741.581    93946774.414       -1690.969          40.000  
G16  24299283.197   127693630.180        2596.893          40.000                                                                  
G26  21460360.676   112774979.141        1160.156          49.000    21460358.552    87876618.576         903.955          45.000  
G23  22791838.300   119772049.784        2346.250          46.000    22791832.982    93328834.046        1828.250          44.000  
R22  20524065.253   109559005.631        -249.521          51.000    20524061.222    85212387.458        -194.065          51.000  
R11  20530642.097   109709567.064       -3273.354          52.000    20530637.882    85329652.987       -2545.925          51.000  
G25  23821193.274   125181215.566       -3877.140          44.000    23821191.423    97543821.109       -3021.128          43.000  
G29  23134680.631   121573715.266       -2407.031          47.000    23134675.109    94732848.678       -1875.551          42.000  
S31  39377861.362   206932146.267        -639.625          44.000  
S33  40332748.047   211950149.929        -639.734          42.000  
R12  20752685.515   110857257.421        1410.743          51.000    20752682.409    86222270.739        1097.336          49.000  
R06  24101441.969   128609912.147        1962.213          39.000                                                                  
R23  23671934.198   126628885.020        1949.572          47.000                                                                  
R21  21473627.320   114910230.054       -3058.130          51.000    21473621.610    89374716.771       -2378.528          48.000  
G28  23979634.795   126013832.935       -3563.550          40.000    23979632.912    98192579.158       -2776.784          44.000  
E15  27693630.933   145531142.187       -3265.334          43.000    27693631.689   111510953.609       -2501.948          45.000  
E21  24012680.069   126187565.515        -416.037          46.000    24012681.245    96689211.118        -318.810          52.000  
E13  24139803.648   126855934.634       -1679.854          47.000    24139803.958    97201406.250       -1287.036          51.000  
E27  25898300.581   136096522.948       -2817.548          47.000    25898301.161   104281764.660       -2158.914          49.000  
G18  21006135.895   110388289.101       -1515.687          49.000    21006129.857    86016960.084       -1181.179          49.000  
G05  24985177.788   131298001.239       -2852.482          38.000    24985172.397   102310229.052       -2222.397          41.000  
E26  24841649.680   130543998.667         893.330          47.000    24841647.197   100027365.755         684.553          50.000  
E14  23123842.358   121516677.829       -2635.974          45.000    23123842.482    93110208.089       -2019.777          53.000  
