     3.00           OBSERVATION DATA    M: Mixed            RINEX VERSION / TYPE
CONVBIN 2.4.3                           20240417 071442 UTC PGM / RUN BY / DATE 
format: u-blox UBX                                          COMMENT             
log: /home/regis/git/gnsspwv/obsdata/VERT00CHL/2024-04-17/VECOMMENT             
{self.marker}                                               MARKER NAME         
                                                            MARKER NUMBER       
GEODETIC                                                    MARKER TYPE         
{self.observer}     {self.institution}                      OBSERVER / AGENCY   
UNKNOWN             UBLOX-ZED-F9P                           REC # / TYPE / VERS 
UNKNOWN             TWIVSP6037L                             ANT # / TYPE        
  1713381.0000 -5047934.0000 -3490983.0000                  APPROX POSITION XYZ 
        0.0000        0.0000        0.0000                  ANTENNA: DELTA H/E/N
G    8 C1C L1C D1C S1C C2L L2L D2L S2L                      SYS / # / OBS TYPES 
R    8 C1C L1C D1C S1C C2C L2C D2C S2C                      SYS / # / OBS TYPES 
E    8 C1C L1C D1C S1C C7Q L7Q D7Q S7Q                      SYS / # / OBS TYPES 
S    4 C1C L1C D1C S1C                                      SYS / # / OBS TYPES 
  2024    04    17    07    00   00.0040000     GPS         TIME OF FIRST OBS   
  2024    04    17    07    14   30.0050000     GPS         TIME OF LAST OBS    
                                                            END OF HEADER       
> 2024 04 17 07 00 00.0040000  0 25                     
G16  22318675.464   117285483.6991        793.949          46.000                                                                  
G26  21903423.301   115103286.6771      -2116.693          48.000    21903421.812    89690883.1971      -1649.420          46.000  
G27  23686169.244   124471637.5251       1741.808          44.000    23686165.785    96990935.4481       1357.262          44.000  
G23  21790744.573   114511283.6711       -739.405          46.000    21790740.094    89229539.0791       -576.290          49.000  
R08  24597270.264   131717241.4851       3428.235          48.000    24597265.238   102446771.2581       2666.529          44.000  
R22  21699222.911   115832078.2641      -1752.004          53.000    21699219.125    90091444.3811      -1362.635          50.000  
R07  22821743.950   122166598.6981       1704.955          51.000    22821739.977    95018501.9441       1326.076          51.000  
R13  22158980.837   118327621.3961        315.582          42.000    22158977.642    92032620.8841        245.575          41.000  
E08  29340406.724                1        775.641          29.000    29340404.947   118141653.9431        594.443          34.000  
G29  25949456.716   136365450.0991      -3063.269          42.000    25949452.489   106258872.7941      -2387.380          40.000  
S31  40037571.340   210398946.1821       -618.728          44.000  
S33  40992402.791   215416665.3591       -618.629          42.000  
G10  22284112.623   117103926.4821       1962.283          49.000    22284109.869    91249744.0481       1529.011          46.000  
E33  27422318.696   144105349.3321       1068.276          43.000    27422318.678   110418360.6021        818.594          47.000  
R12  21696258.675   115897642.9851      -3190.896          51.000    21696255.810    90142568.7121      -2481.943          49.000  
R06  23767410.017   126827436.0801      -1712.325          38.000                                                                  
R23  22473310.486   120217093.5251        555.669          49.000                                                                  
R21  24673344.478   132032052.0421      -3055.033          37.000    24673335.563   102692061.5651      -2376.031          42.000  
E21  25567750.303   134359499.4071      -2561.582          48.000    25567751.084   102950820.7081      -1962.808          52.000  
E13  26418933.852   138832839.5251      -2473.561          46.000    26418934.005   106378514.3381      -1895.342          49.000  
E07  29345959.791   154214063.5141       1653.392          41.000    29345962.522   118164031.0531       1266.772          45.000  
G18  23590409.663   123968737.2761      -3095.526          48.000    23590406.308    96599126.5701      -2412.040          45.000  
E26  24752684.347   130076500.0141       -594.377          47.000    24752683.739    99669154.8941       -455.352          53.000  
E14  25918536.503   136202895.5021      -2461.911          46.000    25918535.041   104363285.0461      -1886.463          51.000  
E27                                                                  29382132.356                3      -2827.545          21.000  
> 2024 04 17 07 00 30.0040000  0 25                     
G16  22314195.306   117261942.465         775.475          46.000                                                                  
G26  21915562.372   115167076.133       -2135.974          49.000    21915560.431    89740589.239       -1664.520          46.000  
G27  23676233.302   124419422.381        1739.088          45.000    23676230.275    96950248.337        1355.112          44.000  
G23  21795028.880   114533798.444        -761.488          46.000    21795024.192    89247083.047        -593.453          48.000  
R08  24578067.659   131614416.293        3426.861          47.000    24578062.183   102366796.261        2665.383          44.000  
R22  21709084.375   115884719.497       -1757.466          52.000    21709079.890    90132387.569       -1366.890          50.000  
R07  22812245.452   122115750.570        1684.767          51.000    22812240.360    94978953.408        1310.344          51.000  
R13  22157284.337   118318567.038         288.251          41.000    22157281.718    92025578.582         224.365          41.000  
E08  29336009.472                         765.806          30.000    29336003.558                         586.203          31.000  
G29  25966959.957   136457430.215       -3068.693          43.000    25966955.317   106330545.559       -2391.176          41.000  
S31  40041107.750   210417529.572        -620.155          44.000  
S33  40995937.997   215435243.771        -619.845          42.000  
G10  22272959.693   117045318.206        1944.875          48.000    22272957.918    91204075.267        1515.569          47.000  
E33  27416238.932   144073402.785        1061.465          43.000    27416239.405   110393882.097         813.382          47.000  
R12  21714240.360   115993699.657       -3212.917          51.000    21714237.389    90217279.414       -2498.847          48.000  
R06  23777106.195   126879179.181       -1737.765          38.000                                                                  
R23  22470212.815   120200522.135         549.086          50.000                                                                  
R21  24690471.387   132123694.963       -3054.215          39.000    24690460.971   102763339.344       -2375.536          41.000  
E21  25582407.767   134436526.208       -2573.563          47.000    25582408.483   103009841.227       -1971.865          52.000  
E13  26433061.533   138907079.889       -2475.705          46.000    26433061.827   106435399.793       -1897.017          50.000  
E07  29336519.774   154164458.115        1653.894          40.000    29336522.686   118126021.848        1266.980          45.000  
G18  23608093.638   124061667.705       -3099.945          47.000    23608088.958    96671539.920       -2415.392          42.000  
E26  24756098.165   130094438.483        -601.589          48.000    24756097.262    99682899.950        -461.046          52.000  
E14  25932581.989   136276704.604       -2458.645          46.000    25932580.571   104419840.064       -1883.958          51.000  
E27                                                                  29403173.345                3      -2822.390          20.000  
> 2024 04 17 07 01 00.0040000  0 25                     
G16  22309822.527   117238957.471         757.273          48.000                                                                  
G26  21927809.551   115231436.984       -2154.456          49.000    21927807.724    89790740.536       -1678.693          46.000  
G27  23666311.902   124367286.612        1736.914          44.000    23666309.049    96909623.071        1353.407          45.000  
G23  21799438.363   114556969.996        -782.863          46.000    21799433.859    89265138.792        -610.005          49.000  
R08  24558872.467   131511629.256        3426.116          47.000    24558867.585   102286850.917        2664.634          45.000  
R22  21718974.838   115937518.737       -1762.209          51.000    21718971.288    90173453.659       -1370.534          51.000  
R07  22802858.972   122065509.192        1665.066          50.000    22802854.856    94939876.791        1295.055          51.000  
R13  22155741.374   118310329.398         261.603          42.000    22155739.783    92019171.516         203.284          41.000  
E08  29331664.880                         755.625          30.000    29331659.873   118106450.283         579.198          32.000  
G29  25984494.230   136549571.741       -3073.285          43.000    25984490.053   106402344.132       -2394.912          41.000  
S31  40044650.125   210436145.941        -620.730          44.000  
S33  40999479.230   215453853.127        -620.542          42.000  
G10  22261906.303   116987225.806        1928.315          50.000    22261902.796    91158808.482        1502.544          47.000  
E33  27410197.283   144041653.342        1055.493          43.000    27410198.050   110369554.615         808.707          48.000  
R12  21732344.642   116090409.931       -3234.103          52.000    21732341.714    90292498.472       -2515.413          48.000  
R06  23786945.148   126931684.268       -1762.331          38.000                                                                  
R23  22467150.677   120184143.932         543.236          50.000                                                                  
R21  24707594.058   132215324.011       -3053.504          39.000    24707583.677   102834606.351       -2374.970          41.000  
E21  25597132.504   134513904.820       -2584.648          47.000    25597133.093   103069131.322       -1980.477          52.000  
E13  26447200.277   138981378.974       -2477.108          46.000    26447200.275   106492330.246       -1898.176          49.000  
E07  29327077.875   154114842.318        1654.374          40.000    29327081.418   118088004.584        1267.757          46.000  
G18  23625801.548   124154721.368       -3103.364          47.000    23625795.992    96744049.256       -2418.296          42.000  
E26  24759553.339   130112591.295        -608.104          48.000    24759551.476    99696809.241        -466.028          52.000  
E14  25946607.400   136350406.601       -2454.416          46.000    25946605.763   104476313.014       -1880.651          51.000  
E27                                                                  29424224.385                3      -2818.385          18.000  
> 2024 04 17 07 01 30.0040000  0 25                     
G16  22305548.570   117216494.911         740.285          48.000                                                                  
G26  21940158.931   115296331.811       -2171.826          49.000    21940156.470    89841307.901       -1692.328          45.000  
G27  23656399.125   124315195.626        1735.854          44.000    23656396.116    96869032.703        1352.448          44.000  
G23  21803965.641   114580762.089        -803.101          46.000    21803961.522    89283678.091        -625.819          49.000  
R08  24539679.247   131408847.366        3426.394          48.000    24539674.824   102206909.570        2664.936          46.000  
R22  21728888.922   115990438.780       -1765.711          52.000    21728884.881    90214613.678       -1373.390          51.000  
R07  22793582.110   122015841.968        1646.345          51.000    22793576.849    94901246.754        1280.436          51.000  
R13  22154346.097   118302873.841         235.834          42.000    22154343.405    92013372.729         183.496          41.000  
E08  29327371.106                         747.879          27.000    29327365.944   118089157.455         573.463          34.000  
G29  26002052.139   136641838.765       -3077.256          42.000    26002047.580   106474240.530       -2397.856          41.000  
S31  40048191.910   210454758.723        -620.047          44.000  
S33  41003020.046   215472460.475        -619.992          42.000  
G10  22250943.024   116929616.040        1912.436          50.000    22250939.494    91113917.793        1490.220          46.000  
E33  27404186.880   144010064.899        1050.597          44.000    27404187.613   110345350.503         804.976          49.000  
R12  21750563.224   116187733.611       -3254.030          51.000    21750561.448    90368194.636       -2531.020          49.000  
R06  23796918.397   126984914.287       -1786.212          36.000                                                                  
R23  22464118.046   120167921.248         538.452          50.000                                                                  
R21  24724705.942   132306902.890       -3051.358          40.000    24724697.810   102905834.236       -2373.302          42.000  
E21  25611917.156   134591598.314       -2594.719          47.000    25611917.285   103128662.691       -1988.185          51.000  
E13  26461342.731   139055700.065       -2477.392          45.000    26461342.680   106549277.536       -1898.338          49.000  
E07  29317628.396   154065182.171        1656.428          41.000    29317631.575   118049953.367        1269.242          47.000  
G18  23643525.467   124247860.913       -3105.495          47.000    23643521.243    96816625.519       -2420.182          43.000  
E26  24763041.378   130130921.717        -613.596          48.000    24763039.708    99710854.626        -470.292          52.000  
E14  25960605.360   136423965.071       -2449.229          46.000    25960603.462   104532675.988       -1876.705          51.000  
E27                                                                  29445276.739                3      -2826.503          16.000  
> 2024 04 17 07 02 00.0040000  0 25                     
G16  22301373.685   117194555.204         722.135          48.000                                                                  
G26  21952608.945   115361757.475       -2190.039          48.000    21952606.416    89892288.919       -1706.482          45.000  
G27  23646494.753   124263149.080        1733.812          44.000    23646491.665    96828476.976        1350.683          44.000  
G23  21808611.230   114605172.722        -824.453          47.000    21808606.401    89302699.359        -642.570          49.000  
R08  24520486.699   131306073.494        3425.147          47.000    24520482.822   102126974.434        2664.159          47.000  
R22  21738824.730   116043477.068       -1770.450          52.000    21738820.656    90255865.664       -1376.918          51.000  
R07  22784411.948   121966751.209        1626.283          51.000    22784405.642    94863065.070        1264.939          49.000  
R13  22153095.806   118296199.037         209.039          41.000    22153092.117    92008181.180         162.732          39.000  
E08  29323129.338   154094059.0831        739.238          31.000    29323119.853   118072062.040         566.029          34.000  
G29  26019632.785   136734229.597       -3082.306          42.000    26019629.641   106546233.369       -2401.709          42.000  
S31  40051733.352   210473366.869        -620.563          44.000  
S33  41006560.221   215491063.028        -620.638          42.000  
G10  22240071.344   116872489.899        1895.549          49.000    22240068.009    91069403.960        1476.968          46.000  
E33  27398206.040   143978635.639        1044.445          44.000    27398206.706   110321268.376         800.413          49.000  
R12  21768895.979   116285665.000       -3274.985          51.000    21768894.576    90444363.449       -2547.176          50.000  
R06  23807028.235   127038866.235       -1811.209          36.000                                                                  
R23  22461114.317   120151852.080         532.642          49.000                                                                  
R21  24741806.428   132398429.852       -3050.589          37.000    24741801.303   102977021.819       -2372.375          41.000  
E21  25626761.041   134669604.000       -2605.731          47.000    25626761.305   103188433.267       -1996.637          51.000  
E13  26475489.598   139130040.726       -2478.738          46.000    26475489.608   106606239.835       -1899.245          49.000  
E07  29308169.950   154015478.053        1657.276          41.000    29308173.074   118011868.500        1269.627          46.000  
G18  23661264.510   124341083.326       -3109.210          46.000    23661260.738    96889266.356       -2422.886          44.000  
E26  24766562.553   130149427.220        -620.134          48.000    24766561.150    99725034.160        -475.211          52.000  
E14  25974575.694   136497377.864       -2445.084          47.000    25974573.570   104588927.343       -1873.529          51.000  
E27                                                                  29466340.105                3      -2828.944          17.000  
> 2024 04 17 07 02 30.0040000  0 24                     
G16  22297301.849   117173159.776         704.077          47.000                                                                  
G26  21965162.950   115427732.079       -2208.276          48.000    21965160.727    89943697.691       -1720.642          45.000  
G27  23636603.353   124211167.889        1731.735          45.000    23636599.761    96787972.179        1349.364          44.000  
G23  21813378.078   114630221.105        -845.551          48.000    21813373.461    89322217.584        -658.998          49.000  
R08  24501299.882   131203331.597        3424.035          47.000    24501296.762   102047064.200        2663.266          46.000  
R22  21748786.497   116096652.834       -1774.785          52.000    21748782.441    90297224.594       -1380.370          51.000  
R07  22775353.201   121918261.061        1606.382          50.000    22775346.768    94825350.525        1249.367          50.000  
R13  22151995.286   118290326.338         182.275          39.000    22151992.093    92003613.511         141.772          40.000  
E08  29318937.700                         729.781          30.000    29318926.728   118055180.418         559.421          34.000  
G29  26037242.166   136826763.974       -3086.904          43.000    26037237.811   106618338.041       -2405.432          41.000  
S31  40055277.023   210491989.369        -621.081          44.000  
S33  41010102.905   215509679.951        -620.860          42.000  
G10  22229296.704   116815869.585        1878.906          50.000    22229293.988    91025284.258        1464.227          45.000  
E33  27392259.410   143947384.971        1038.625          44.000    27392259.262   110297323.090         795.999          49.000  
R12  21787346.651   116384220.537       -3295.539          52.000    21787344.682    90521017.729       -2563.215          50.000  
R06  23817278.066   127093559.173       -1835.422          36.000                                                                  
R23  22458142.252   120135955.256         527.025          49.000                                                                  
R21  24758905.510   132489925.495       -3049.052          34.000    24758899.438   103048185.046       -2371.845          41.000  
E21  25641668.577   134747940.424       -2616.763          47.000    25641668.025   103248457.248       -2005.078          51.000  
E13  26489642.741   139204419.814       -2480.098          45.000    26489643.091   106663231.580       -1900.243          49.000  
E07  29298706.590   153965751.634        1657.853          42.000    29298709.535   117973766.514        1270.343          45.000  
G18  23679023.977   124434406.837       -3112.480          47.000    23679018.990    96961985.965       -2425.302          44.000  
E26  24770120.495   130168126.537        -626.632          47.000    24770119.437    99739362.212        -480.139          52.000  
E14  25988520.806   136570664.070       -2440.803          46.000    25988519.599   104645081.699       -1870.213          51.000  
> 2024 04 17 07 03 00.0040000  0 24                     
G16  22293334.249   117152311.669         685.825          46.000                                                                  
G26  21977822.265   115494255.486       -2226.453          48.000    21977820.335    89995534.092       -1734.808          46.000  
G27  23626724.556   124159254.812        1729.128          45.000    23626721.766    96747520.459        1347.661          45.000  
G23  21818266.361   114655908.260        -866.846          48.000    21818261.464    89342233.552        -675.441          49.000  
R08  24482121.260   131100628.102        3422.964          47.000    24482117.175   101967183.816        2662.182          47.000  
R22  21758773.500   116149966.767       -1779.309          53.000    21758770.362    90338690.952       -1384.010          50.000  
R07  22766407.393   121870376.647        1586.056          51.000    22766401.574    94788107.085        1233.638          49.000  
R13  22151045.714   118285257.955         155.585          41.000    22151043.439    91999671.442         120.819          40.000  
E08  29314801.015                1        720.100          28.000    29314787.119   118038514.858         552.110          34.000  
G29  26054879.649   136919443.521       -3091.598          43.000    26054873.094   106690555.843       -2408.817          39.000  
S31  40058823.941   210510629.180        -621.646          44.000  
S33  41013648.653   215528313.361        -621.375          42.000  
G10  22218619.966   116759759.226        1861.796          50.000    22218616.370    90981561.899        1450.740          46.000  
E33  27386347.038   143916314.047        1032.645          45.000    27386346.843   110273515.537         791.348          49.000  
R12  21805913.655   116483397.834       -3316.219          52.000    21805911.256    90598155.586       -2579.261          50.000  
R06  23827665.432   127148993.327       -1860.327          34.000                                                                  
R23  22455201.967   120120231.349         521.419          48.000                                                                  
R21  24775999.249                3      -3031.734          13.000    24775992.154   103119325.280       -2370.936          42.000  
E21  25656638.446   134826607.925       -2627.716          48.000    25656637.842   103308734.928       -2013.454          51.000  
E13  26503804.352   139278837.905       -2481.197          45.000    26503804.888   106720253.228       -1901.196          49.000  
E07  29289241.015   153916006.363        1658.383          41.000    29289243.835   117935650.046        1270.885          46.000  
G18  23696802.453   124527831.394       -3115.675          46.000    23696796.988    97034784.307       -2427.788          44.000  
E26  24773716.186   130187020.225        -633.054          47.000    24773714.947    99753839.194        -485.073          52.000  
E14  26002442.535   136643824.613       -2436.645          46.000    26002441.633   104701139.773       -1867.006          51.000  
> 2024 04 17 07 03 30.0040000  0 24                     
G16  22289468.532   117131999.491         668.132          46.000                                                                  
G26  21990582.776   115561312.440       -2243.964          48.000    21990580.840    90047786.250       -1748.657          45.000  
G27  23616856.851   124107397.426        1727.631          46.000    23616854.311    96707112.128        1346.096          45.000  
G23  21823273.294   114682220.033        -887.417          48.000    21823268.169    89362736.234        -691.438          48.000  
R08  24462948.147   130997953.448        3421.974          48.000    24462943.513   101887325.869        2661.575          47.000  
R22  21768785.236   116203404.286       -1783.149          52.000    21768781.255    90380253.471       -1386.847          51.000  
R07  22757573.846   121823088.499        1566.332          51.000    22757567.481    94751327.418        1218.180          49.000  
R13  22150245.677   118280981.074         129.498          42.000    22150243.463    91996344.966         100.726          41.000  
E08  29310700.759                3        711.244          25.000    29310699.866   118022056.378         544.928          35.000  
G29  26072540.316   137012254.507       -3095.767          42.000    26072534.246   106762876.104       -2412.286          40.000  
S31  40062371.217   210529270.474        -621.160          44.000  
S33  41017195.129   215546948.933        -621.172          42.000  
G10  22208037.743   116704147.629        1845.280          50.000    22208034.024    90938228.191        1437.738          46.000  
E33  27380466.281   143885409.029        1027.417          45.000    27380465.676   110249835.090         787.235          49.000  
R12  21824592.767   116583178.937       -3335.946          52.000    21824590.218    90675763.089       -2594.637          50.000  
R06  23838188.817   127205153.774       -1884.077          34.000                                                                  
R23  22452292.363   120104665.703         516.325          48.000                                                                  
R21  24793081.958                       -3046.270          27.000    24793076.793   103190431.678       -2369.563          40.000  
E21  25671669.415   134905591.701       -2637.927          49.000    25671667.928   103369254.961       -2021.297          51.000  
E13  26517970.305   139353280.605       -2481.695          45.000    26517970.543   106777293.709       -1901.539          49.000  
E07  29279769.511   153866230.538        1659.805          41.000    29279771.941   117897510.225        1271.682          47.000  
G18  23714596.251   124621341.991       -3118.385          45.000    23714591.376    97107649.673       -2429.618          43.000  
E26  24777345.334   130206093.712        -638.630          47.000    24777344.454    99768453.952        -489.347          52.000  
E14  26016337.641   136716845.305       -2431.670          46.000    26016337.100   104757090.690       -1863.176          51.000  
> 2024 04 17 07 04 00.0040000  0 24                     
G16  22285701.979   117112209.336         650.778          46.000                                                                  
G26  22003440.771   115628885.502       -2261.121          47.000    22003439.154    90100440.560       -1761.853          45.000  
G27  23606996.743   124055581.266        1726.221          47.000    23606994.292    96666735.906        1345.250          45.000  
G23  21828396.307   114709140.109        -907.602          49.000    21828390.287    89383712.935        -707.242          48.000  
R08  24443777.025   130895295.149        3421.455          47.000    24443772.982   101807480.654        2661.180          47.000  
R22  21778815.636   116256948.561       -1786.776          53.000    21778811.541    90421898.984       -1389.662          51.000  
R07  22748848.385   121776384.518        1546.909          51.000    22748843.494    94715002.114        1203.169          49.000  
R13  22149590.651   118277480.646         103.748          42.000    22149588.114    91993622.390          80.713          41.000  
E08  29306673.585                3        703.656          25.000    29306661.613   118005794.083         538.672          34.000  
G29  26090221.929   137105181.404       -3099.610          41.000    26090218.245   106835286.644       -2415.298          40.000  
S31  40065916.298   210547899.276        -621.070          44.000  
S33  41020738.792   215565572.282        -620.609          42.000  
G10  22197547.520   116649021.526        1829.261          50.000    22197544.043    90895272.806        1425.527          46.000  
E33  27374613.775   143854653.843        1022.576          44.000    27374613.411   110226269.420         783.618          49.000  
R12  21843381.808   116683543.975       -3355.337          52.000    21843378.497    90753824.743       -2609.793          49.000  
R06  23848847.232   127262023.258       -1906.544          33.000                                                                  
R23  22449409.235   120089241.662         511.727          48.000                                                                  
R21  24810147.914                1      -3044.597          31.000    24810149.070   103261492.129       -2367.964          39.000  
E21  25686755.927   134984874.825       -2647.813          48.000    25686755.027   103430004.361       -2028.833          51.000  
E13  26532138.037   139427731.258       -2481.960          45.000    26532138.488   106834340.283       -1901.583          49.000  
E07  29270289.202   153816410.386        1661.238          42.000    29270290.764   117859336.403        1272.957          46.000  
G18  23732403.175   124714921.359       -3120.385          44.000    23732399.081    97180568.676       -2431.558          45.000  
E26  24781005.950   130225330.287        -643.987          47.000    24781004.897    99783193.674        -493.476          52.000  
E14  26030203.070   136789709.769       -2426.275          46.000    26030202.783   104812921.903       -1859.097          52.000  
> 2024 04 17 07 04 30.0040000  0 24                     
G16  22282036.084   117092941.003         633.730          47.000                                                                  
G26  22016396.996   115696971.342       -2277.985          48.000    22016395.043    90153494.446       -1775.183          45.000  
G27  23597144.211   124003805.954        1724.905          48.000    23597141.276    96626391.524        1344.295          44.000  
G23  21833634.385   114736666.290        -927.725          48.000    21833628.652    89405161.882        -722.768          48.000  
R08  24424609.143   130792656.706        3421.094          47.000    24424604.555   101727650.849        2660.721          45.000  
R22  21788865.852   116310597.168       -1789.979          52.000    21788861.388    90463625.678       -1392.312          50.000  
R07  22740232.422   121730266.306        1527.340          51.000    22740227.349    94679132.405        1187.996          49.000  
R13  22149080.484   118274755.741          77.765          42.000    22149077.765    91991503.016          60.516          41.000  
G29  26107927.812   137198222.332       -3103.224          42.000    26107922.487   106907786.080       -2418.159          39.000  
S31  40069458.213   210566514.048        -620.282          44.000  
S33  41024279.881   215584180.505        -620.013          42.000  
G10  22187149.845   116594381.807        1813.138          50.000    22187146.766    90852696.417        1412.802          47.000  
E33  27368788.878   143824046.508        1017.847          44.000    27368789.073   110202817.078         779.877          49.000  
R12  21862277.841   116784487.466       -3374.392          51.000    21862274.684    90832336.306       -2624.483          49.000  
R06  23859636.621   127319598.647       -1930.579          33.000                                                                  
R23  22446552.342   120073956.402         507.201          49.000                                                                  
R21  24827215.231   132855492.3871      -3042.316          38.000    24827211.493   103332505.514       -2366.297          40.000  
E21  25701899.058   135064454.488       -2657.616          48.000    25701898.759   103490980.965       -2036.317          51.000  
E13  26546308.045   139502187.393       -2482.011          47.000    26546306.898   106891391.088       -1901.821          49.000  
E07  29260800.652   153766546.247        1662.838          41.000    29260801.759   117821128.855        1274.166          46.000  
G18  23750223.849   124808566.484       -3122.606          43.000    23750219.374    97253538.852       -2433.323          44.000  
E26  24784697.192   130244727.379        -649.229          48.000    24784696.015    99798056.372        -497.387          52.000  
E14  26044038.591   136862415.875       -2420.878          46.000    26044038.311   104868631.765       -1854.967          52.000  
E08                                                                  29302671.813   117989728.010         532.143          36.000  
> 2024 04 17 07 05 00.0040000  0 24                     
G16  22278466.920   117074182.435         616.620          47.000                                                                  
G26  22029448.360   115765554.421       -2294.586          48.000    22029446.562    90206935.771       -1787.836          45.000  
G27  23587296.827   123952058.898        1724.466          47.000    23587293.506    96586069.187        1343.624          43.000  
G23  21838984.477   114764784.091        -947.163          48.000    21838979.903    89427071.869        -738.019          48.000  
R08  24405443.518   130690027.804        3420.688          46.000    24405439.253   101647828.428        2660.414          45.000  
R22  21798932.268   116364335.235       -1792.810          51.000    21798928.105    90505421.971       -1394.409          49.000  
R07  22731725.783   121684723.954        1508.333          52.000    22731720.507    94643710.604        1173.098          50.000  
R13  22148712.484   118272792.861          52.600          42.000    22148709.989    91989976.320          40.851          41.000  
G29  26125652.024   137291363.411       -3106.434          41.000    26125647.337   106980363.498       -2420.992          40.000  
S31  40072995.069   210585099.132        -619.415          44.000  
S33  41027815.699   215602760.122        -619.113          42.000  
G10  22176841.931   116540217.045        1797.565          50.000    22176840.041    90810490.128        1400.659          47.000  
E33  27362989.599   143793572.923        1013.420          44.000    27362990.250   110179467.214         776.529          49.000  
R12  21881279.574   116885991.235       -3392.836          52.000    21881276.564    90911283.642       -2638.856          49.000  
R06  23870556.812   127377864.776       -1954.102          33.000                                                                  
R23  22443717.685   120058795.046         503.134          48.000                                                                  
R21  24844265.959   132946720.910       -3040.031          38.000    24844259.380   103403461.012       -2364.097          39.000  
E21  25717096.172   135144315.666       -2666.785          48.000    25717096.027   103552173.275       -2043.450          51.000  
E13  26560472.886   139576634.312       -2481.392          46.000    26560473.820   106948434.832       -1901.538          48.000  
E07  29251301.205   153716626.208        1664.719          42.000    29251302.444   117782878.511        1275.639          46.000  
G18  23768053.977   124902262.044       -3123.927          44.000    23768048.142    97326548.355       -2434.448          43.000  
E26  24788416.995   130264270.173        -654.066          48.000    24788415.217    99813030.715        -501.112          52.000  
E14  26057841.634   136934949.211       -2415.049          46.000    26057840.970   104924209.244       -1850.521          52.000  
E08                                                                  29298728.668   117973848.742         525.984          36.000  
> 2024 04 17 07 05 30.0040000  0 24                     
G16  22274995.112   117055937.492         599.344          48.000                                                                  
G26  22042594.151   115834634.864       -2311.292          48.000    22042592.615    90260764.671       -1800.989          45.000  
G27  23577455.587   123900343.330        1722.945          47.000    23577451.900    96545771.358        1342.558          42.000  
G23  21844448.105   114793494.855        -967.207          48.000    21844443.024    89449443.876        -753.713          48.000  
R08  24386281.249   130587415.533        3419.774          46.000    24386277.376   101568018.996        2659.626          45.000  
R22  21809016.070   116418164.004       -1796.045          51.000    21809012.215    90547288.785       -1396.949          50.000  
R07  22723326.976   121639763.363        1488.699          52.000    22723321.508    94608741.312        1157.899          49.000  
R13  22148488.614   118271594.828          26.843          42.000    22148485.480    91989044.497          20.990          41.000  
G29  26143395.303   137384606.444       -3110.192          41.000    26143391.792   107053020.382       -2423.516          41.000  
S31  40076526.627   210603657.884        -618.359          44.000  
S33  41031345.995   215621312.906        -618.369          42.000  
G10  22166626.862   116486531.639        1781.256          50.000    22166623.739    90768657.339        1387.940          47.000  
E33  27357216.759   143763234.671        1008.806          45.000    27357217.322   110156221.062         772.836          49.000  
R12  21900385.634   116988053.156       -3411.627          50.000    21900383.044    90990665.090       -2653.418          49.000  
R06  23881606.380                       -1977.376          30.000                                                                  
R23  22440906.374   120043758.640         498.677          47.000                                                                  
R21  24861300.406   133037877.436       -3037.666          40.000    24861295.498   103474360.463       -2362.698          39.000  
E21  25732347.362   135224459.036       -2676.351          48.000    25732346.873   103613581.799       -2050.853          51.000  
E13  26574637.283   139651073.106       -2481.410          45.000    26574638.988   107005472.351       -1901.401          48.000  
E07  29241791.927   153666654.176        1666.102          42.000    29241793.303   117744588.297        1276.721          46.000  
G18  23785893.415   124996008.577       -3126.228          45.000    23785887.829    97399597.572       -2435.853          44.000  
E26  24792163.285   130283959.606        -659.108          48.000    24792162.163    99828117.436        -505.010          52.000  
E14  26071611.754   137007311.102       -2409.592          46.000    26071611.112   104979655.367       -1846.255          52.000  
E08                                                                  29294833.465   117958159.063         519.671          37.000  
> 2024 04 17 07 06 00.0040000  0 24                     
G16  22271628.941   117038248.601         579.719          47.000                                                                  
G26  22055841.538   115904251.360       -2329.999          48.000    22055839.893    90315011.270       -1815.619          46.000  
G27  23567627.798   123848700.947        1719.495          47.000    23567624.784    96505530.551        1339.580          43.000  
G23  21850032.528   114822838.231        -989.137          49.000    21850026.708    89472308.858        -770.771          47.000  
R08  24367130.127   130484864.731        3416.721          48.000    24367126.148   101488257.342        2657.537          45.000  
R22  21819125.018   116472123.703       -1801.325          53.000    21819120.760    90589257.476       -1401.144          50.000  
R07  22715044.174   121595429.354        1466.765          51.000    22715039.668    94574259.330        1140.785          50.000  
R13  22148415.353   118271203.198          -0.977          42.000    22148411.429    91988739.857          -0.543          39.000  
E08  29291002.341                3        666.157          24.000    29290992.349   117942691.147         511.665          38.000  
G29  26161165.765   137477991.686       -3115.766          40.000    26161162.221   107125788.105       -2428.053          40.000  
S31  40080061.080   210622230.307        -619.927          44.000  
S33  41034879.406   215639879.874        -619.812          42.000  
G10  22156509.698   116433368.327        1762.854          50.000    22156506.856    90727231.399        1373.676          47.000  
E33  27351477.200   143733071.819        1001.995          45.000    27351477.358   110133109.305         767.683          49.000  
R12  21919602.916   117090710.365       -3432.385          51.000    21919600.836    91070509.533       -2669.586          49.000  
R06  23892793.117                       -2002.352          27.000                                                                  
R23  22438126.824   120028887.768         492.334          49.000                                                                  
R21  24878330.204   133129002.893       -3037.340          39.000    24878326.266   103545235.894       -2362.767          40.000  
E21  25747658.980   135304923.784       -2688.022          48.000    25747658.649   103675236.577       -2059.667          51.000  
E13  26588810.247   139725543.387       -2483.472          47.000    26588810.212   107062533.983       -1902.920          48.000  
E07  29232280.960   153616672.464        1665.577          42.000    29232282.184   117706290.674        1276.207          46.000  
G18  23803748.612   125089844.992       -3130.061          43.000    23803744.053    97472716.826       -2439.050          44.000  
E26  24795945.020   130303835.120        -666.273          48.000    24795944.474    99843346.745        -510.543          52.000  
E14  26085357.306   137079541.436       -2405.932          47.000    26085356.019   105035000.691       -1843.640          52.000  
> 2024 04 17 07 06 30.0040000  0 25                     
G16  22268372.425   117021136.090         560.887          46.000                                                                  
G26  22069194.770   115974421.947       -2348.096          47.000    22069193.795    90369689.637       -1829.700          46.000  
G27  23557818.031   123797152.826        1716.818          47.000    23557815.552    96465363.167        1337.918          43.000  
G23  21855740.456   114852833.402       -1010.530          49.000    21855734.632    89495681.729        -787.532          48.000  
R08  24347996.157   130382400.024        3414.179          48.000    24347991.978   101408562.700        2655.356          45.000  
R22  21829261.389   116526233.737       -1806.025          51.000    21829257.315    90631343.033       -1404.676          50.000  
R07  22706884.291   121551745.902        1445.446          51.000    22706879.438    94540283.349        1124.254          50.000  
R13  22148496.818   118271639.013         -28.076          42.000    22148492.348    91989078.845         -22.345          39.000  
G29  26178966.203   137571539.310       -3120.916          39.000    26178962.120   107198682.372       -2431.890          38.000  
S31  40083601.681   210640836.785        -620.525          44.000  
S33  41038418.765   215658479.927        -620.287          42.000  
G10  22146496.756   116380749.402        1745.026          50.000    22146493.680    90686229.675        1359.790          46.000  
E33  27345774.026   143703103.863         995.893          45.000    27345774.351   110110146.863         762.996          49.000  
R12  21938935.303   117193978.770       -3452.240          51.000    21938933.006    91150829.396       -2685.144          49.000  
R06  23904121.080                       -2026.372          30.000                                                                  
R23  22435380.489   120014201.410         486.694          48.000                                                                  
R21  24895357.600   133220117.830       -3037.140          36.000    24895352.437   103616103.044       -2362.195          40.000  
E21  25763034.764   135385728.542       -2699.055          47.000    25763035.167   103737151.883       -2068.027          51.000  
E13  26602990.870   139800064.146       -2484.722          46.000    26602990.946   107119634.286       -1903.914          48.000  
E07  29222770.676   153566702.909        1665.542          41.000    29222773.411   117668002.357        1276.226          46.000  
G18  23821625.785   125183789.718       -3133.208          43.000    23821620.385    97545920.493       -2441.560          43.000  
E26  24799766.393   130323915.643        -672.470          48.000    24799765.476    99858733.135        -515.425          52.000  
E14  26099080.390   137151659.488       -2402.013          47.000    26099079.729   105090259.971       -1840.506          52.000  
E08                                                                  29287210.025   117927461.420         503.568          38.000  
E31                                                                  28840326.738                1       1512.909          27.000  
> 2024 04 17 07 07 00.0040000  0 25                     
G16  22265224.182   117004594.571         541.329          46.000                                                                  
G26  22082650.872   116045136.389       -2366.730          47.000    22082649.805    90424791.782       -1844.409          46.000  
G27  23548025.820   123745691.941        1713.274          47.000    23548023.119    96425263.763        1335.141          44.000  
G23  21861570.161   114883471.264       -1032.569          48.000    21861565.200    89519555.394        -804.609          48.000  
R08  24328877.473   130280017.567        3410.662          49.000    24328872.220   101328932.002        2652.747          44.000  
R22  21839425.122   116580484.889       -1811.372          52.000    21839420.610    90673538.375       -1408.870          51.000  
R07  22698844.007   121508707.945        1423.123          51.000    22698838.987    94506809.394        1106.832          49.000  
R13  22148731.555   118272894.097         -56.049          41.000    22148727.802    91990054.961         -43.573          40.000  
G29  26196796.729   137665240.790       -3125.969          39.000    26196793.488   107271696.512       -2436.551          39.000  
S31  40087147.123   210659467.564        -622.029          44.000  
S33  41041962.986   215677104.143        -621.764          42.000  
G10  22136585.714   116328668.841        1726.453          50.000    22136582.924    90645647.435        1345.288          46.000  
E33  27340106.819   143673322.112         988.958          45.000    27340106.962   110087327.090         757.761          49.000  
R12  21958379.461   117297846.014       -3472.833          52.000    21958377.330    91231615.015       -2701.203          50.000  
R06  23915585.159                3      -2051.648          24.000                                                                  
R23  22432668.591   119999690.425         480.235          49.000                                                                  
R21  24912380.978   133311214.348       -3036.511          37.000    24912375.319   103686955.856       -2361.841          40.000  
E21  25778474.481   135466863.659       -2710.478          48.000    25778474.666   103799320.323       -2077.037          51.000  
E13  26617177.999   139874626.136       -2486.832          46.000    26617179.722   107176766.198       -1905.435          48.000  
E07  29213262.366   153516739.067        1664.829          40.000    29213265.072   117629718.462        1275.476          46.000  
G18  23839522.671   125277832.995       -3137.139          44.000    23839515.897    97619200.927       -2444.448          42.000  
E26  24803625.851   130344191.816        -679.831          49.000    24803623.925    99874269.414        -520.984          52.000  
E14  26112781.184   137223656.358       -2398.483          47.000    26112780.239   105145426.396       -1837.830          52.000  
E08                                                                  29283485.094   117912464.656         495.357          38.000  
E31                                                                  28829069.306   116082717.8491       1508.191          29.000  
> 2024 04 17 07 07 30.0040000  0 26                     
G16  22262187.500   116988638.533         521.892          46.000                                                                  
G26  22096213.455   116116406.183       -2385.077          47.000    22096211.595    90480326.655       -1858.636          45.000  
G27  23538253.237   123694332.812        1710.110          48.000    23538250.081    96385243.672        1332.546          44.000  
G23  21867525.000   114914764.327       -1054.225          48.000    21867519.854    89543939.599        -821.511          47.000  
R08  24309776.799   130177734.873        3407.543          49.000    24309771.965   101249378.873        2650.191          45.000  
R22  21849616.623   116634889.971       -1816.298          53.000    21849612.745    90715853.438       -1412.623          51.000  
R11  24975889.186                3      -4996.000          13.000                                                                  
R07  22690928.228   121466332.655        1401.251          50.000    22690922.940    94473850.830        1089.833          49.000  
R13  22149122.224   118274982.350         -83.459          41.000    22149119.579    91991679.126         -65.161          41.000  
G29  26214659.356   137759109.226       -3132.068          42.000    26214657.566   107344840.710       -2440.724          40.000  
S31  40090699.873   210678138.118        -623.395          44.000  
S33  41045514.457   215695768.785        -623.003          42.000  
G10  22126780.706   116277142.274        1708.124          50.000    22126777.514    90605496.879        1330.933          46.000  
E33  27334477.626   143643739.448         982.467          45.000    27334477.164   110064659.893         752.846          48.000  
R12  21977938.331   117402321.245       -3492.822          52.000    21977935.751    91312873.484       -2716.663          50.000  
R06  23927196.456                2      -2077.743          26.000                                                                  
R23  22429991.197   119985367.279         474.039          49.000                                                                  
R21  24929400.586   133402305.790       -3036.877          34.000    24929397.177   103757804.756       -2361.646          38.000  
E21  25793979.336   135548341.182       -2721.944          48.000    25793979.352   103861751.109       -2085.531          51.000  
E13  26631378.429   139949241.839       -2488.277          47.000    26631378.305   107233939.276       -1906.520          48.000  
E31  28817860.832                3       1960.891          24.000    28817849.500                        1503.982          30.000  
E07  29203758.687   153466796.232        1664.163          40.000    29203760.973   117591450.615        1275.265          45.000  
G18  23857439.875   125371986.728       -3140.500          44.000    23857433.128    97692567.451       -2447.021          43.000  
E26  24807523.638   130364675.916        -686.479          48.000    24807521.583    99889965.012        -525.981          52.000  
E14  26126461.390   137295544.835       -2394.644          47.000    26126460.078   105200509.774       -1834.850          51.000  
E08                                                                  29279820.492   117897712.233         487.236          36.000  
> 2024 04 17 07 08 00.0040000  0 25                     
G16  22259263.151   116973271.267         502.736          47.000                                                                  
G26  22109880.703   116188231.195       -2403.357          47.000    22109879.946    90536294.150       -1872.473          46.000  
G27  23528500.184   123643078.519        1706.905          49.000    23528496.821    96345305.295        1330.114          44.000  
G23  21873604.493   114946713.517       -1075.702          47.000    21873599.207    89568835.074        -838.171          47.000  
R08  24290695.750   130075558.272        3404.279          48.000    24290690.893   101169908.244        2647.755          45.000  
R22  21859837.666   116689449.952       -1821.031          53.000    21859833.179    90758288.985       -1416.388          51.000  
R07  22683138.397   121424625.687        1379.281          52.000    22683131.634    94441412.063        1072.838          49.000  
R13  22149670.356   118277906.482        -111.279          41.000    22149667.551    91993953.456         -86.591          41.000  
G29  26232554.848   137853146.128       -3137.119          42.000    26232552.821   107418116.215       -2444.255          40.000  
S31  40094260.030   210696847.418        -623.969          44.000  
S33  41049073.655   215714472.049        -623.809          43.000  
G10  22117081.893   116226173.780        1689.801          50.000    22117078.598    90565781.191        1316.638          47.000  
E33  27328886.189   143614357.278         976.285          45.000    27328885.716   110042146.315         748.088          48.000  
R12  21997610.260   117507402.203       -3512.561          52.000    21997607.187    91394603.072       -2731.970          50.000  
R06  23938934.255                1      -2100.878          31.000                                                                  
R23  22427348.643   119971232.733         468.105          48.000                                                                  
R21  24946423.719   133493394.786       -3036.066          38.000    24946417.733   103828651.711       -2361.444          37.000  
E21  25809549.373   135630161.561       -2732.872          48.000    25809549.085   103924444.624       -2094.035          51.000  
E13  26645586.713   140023912.215       -2489.819          46.000    26645587.615   107291154.218       -1907.728          48.000  
E07  29194259.686   153416878.060        1663.721          39.000    29194262.032   117553201.683        1274.822          45.000  
G18  23875377.663   125466251.221       -3143.772          42.000    23875370.606    97766020.309       -2449.738          43.000  
E26  24811460.525   130385368.717        -692.924          48.000    24811459.026    99905820.532        -531.090          52.000  
E14  26140120.700   137367326.122       -2390.739          47.000    26140119.489   105255511.025       -1831.881          51.000  
E08                                                                  29276218.799   117883206.684         479.659          36.000  
E31                                                                  28806669.899                        1498.619          30.000  
> 2024 04 17 07 08 30.0040000  0 25                     
G16  22256451.129   116958487.605         483.151          47.000                                                                  
G26  22123653.329   116260602.599       -2421.350          47.000    22123651.481    90592687.433       -1886.743          46.000  
G27  23518765.031   123591923.494        1703.587          48.000    23518761.922    96305444.263        1327.481          44.000  
G23  21879808.002   114979311.124       -1097.317          48.000    21879802.234    89594235.808        -855.055          47.000  
R08  24271635.111   129973484.756        3400.816          48.000    24271628.526   101090517.830        2645.115          46.000  
R22  21870085.806   116744157.067       -1825.868          53.000    21870081.795    90800838.973       -1420.174          50.000  
R07  22675468.773   121383583.700        1357.031          49.000    22675464.672    94409490.529        1055.457          49.000  
R13  22150373.268   118281659.793        -138.922          41.000    22150370.592    91996872.689        -108.038          41.000  
G29  26250481.062   137947344.686       -3142.503          44.000    26250477.496   107491517.661       -2448.494          39.000  
S31  40097826.839   210715590.378        -625.149          44.000  
S33  41052639.171   215733209.305        -625.112          42.000  
G10  22107488.045   116175758.749        1671.454          49.000    22107485.391    90526496.771        1302.393          47.000  
E33  27323331.634   143585168.353         969.841          45.000    27323330.958   110019780.799         743.116          47.000  
R12  22017393.233   117613077.928       -3532.281          52.000    22017389.366    91476795.262       -2747.315          49.000  
R06  23950822.006   127806210.2061      -2126.713          32.000                                                                  
R23  22424740.096   119957279.105         462.246          49.000                                                                  
R21  24963445.565   133584474.098       -3035.467          40.000    24963438.456   103899491.171       -2361.450          36.000  
E21  25825183.308   135712316.617       -2743.941          48.000    25825182.801   103987394.581       -2102.550          51.000  
E13  26659804.033   140098629.487       -2491.191          45.000    26659805.754   107348405.112       -1908.894          48.000  
E31  28795521.709                3       1947.950          25.000    28795529.778                        1493.064          30.000  
E07  29184763.407   153366979.573        1663.156          40.000    29184766.218   117514967.863        1274.131          45.000  
G18  23893335.423   125560618.150       -3147.158          43.000    23893330.125    97839552.964       -2452.222          45.000  
E26  24815437.046   130406262.344        -699.578          48.000    24815434.863    99921829.926        -536.125          51.000  
E14  26153758.413   137438992.775       -2386.797          47.000    26153757.198   105310424.438       -1828.867          51.000  
E08                                                                  29272678.974   117868943.956         471.442          38.000  
> 2024 04 17 07 09 00.0040000  0 26                     
G16  22253748.791   116944285.130         463.285          48.000                                                                  
G26  22137528.004   116333514.838       -2439.783          48.000    22137526.139    90649502.160       -1901.288          46.000  
G27  23509048.861   123540865.373        1699.978          48.000    23509045.615    96265658.719        1324.657          43.000  
G23  21886133.801   115012552.644       -1119.019          47.000    21886127.504    89620138.284        -872.089          47.000  
R08  24252592.305   129871515.382        3396.901          47.000    24252586.573   101011208.456        2642.094          46.000  
R22  21880361.020   116799006.985       -1831.020          53.000    21880356.301    90843499.989       -1424.178          50.000  
R07  22667924.563   121343206.351        1334.349          49.000    22667921.747    94378085.953        1037.854          48.000  
R13  22151230.821   118286238.488        -166.797          42.000    22151228.040    92000433.850        -129.688          41.000  
G29  26268437.038   138041701.250       -3148.164          45.000    26268433.114   107565042.255       -2453.041          40.000  
S31  40101399.364   210734363.124        -626.658          44.000  
S33  41056210.207   215751974.602        -626.442          42.000  
G10  22097998.963   116125895.743        1652.545          49.000    22097997.219    90487642.500        1287.756          47.000  
E33  27317812.890   143556168.625         963.207          44.000    27317812.846   109997560.242         738.022          47.000  
R12  22037285.393   117719340.344       -3552.179          52.000    22037282.453    91559443.734       -2762.769          49.000  
R06  23962846.492   127870372.914       -2151.621          35.000                                                                  
R23  22422164.171   119943501.770         455.839          48.000                                                                  
R21  24980464.121   133675540.391       -3035.840          39.000    24980457.823   103970320.499       -2361.005          38.000  
E21  25840878.548   135794801.353       -2755.171          47.000    25840879.264   104050597.154       -2111.146          51.000  
E13  26674031.934   140173389.200       -2492.910          46.000    26674032.489   107405688.506       -1910.172          49.000  
E07  29175271.797   153317099.124        1661.881          40.000    29175274.383   117476747.807        1273.326          45.000  
G18  23911310.226   125655082.470       -3150.814          43.000    23911306.016    97913161.547       -2455.223          44.000  
E26  24819450.379   130427352.137        -706.704          48.000    24819448.392    99937989.623        -541.413          52.000  
E14  26167373.388   137510540.623       -2383.318          47.000    26167372.290   105365246.813       -1826.166          51.000  
E08                                                                  29269196.064   117854922.348         463.106          37.000  
E31                                                                  28784427.078                        1487.519          31.000  
R14                                                                  25786084.427                3       2050.410          10.000  
> 2024 04 17 07 09 30.0040000  0 25                     
G16  22251157.080   116930666.370         443.834          47.000                                                                  
G26  22151505.991   116406966.764       -2457.764          49.000    22151503.966    90706737.407       -1915.314          46.000  
G27  23499351.564   123489906.270        1696.552          48.000    23499347.973    96225950.334        1321.909          43.000  
G23  21892581.803   115046437.923       -1140.680          48.000    21892575.864    89646542.420        -888.947          47.000  
R08  24233569.722   129769655.374        3392.962          47.000    24233564.406   100931984.103        2639.143          45.000  
R22  21890663.273   116853999.720       -1835.925          51.000    21890658.678    90886272.125       -1427.863          50.000  
R07  22660508.914   121303498.424        1311.975          50.000    22660504.375    94347202.034        1020.546          48.000  
R13  22152243.272   118291644.120        -194.434          41.000    22152240.327    92004638.236        -151.166          41.000  
G29  26286422.556   138136216.222       -3153.439          44.000    26286418.948   107638690.243       -2457.383          39.000  
S31  40104977.257   210753165.087        -627.644          44.000  
S33  41059787.149   215770770.385        -627.561          42.000  
G10  22088616.597   116076587.864        1633.917          50.000    22088614.290    90449220.799        1273.175          47.000  
E33  27312330.908   143527358.482         956.889          44.000    27312330.608   109975484.947         733.113          48.000  
R12  22057287.326   117826186.023       -3571.601          52.000    22057284.123    91642545.926       -2777.948          49.000  
R06  23975009.436   127935273.021       -2176.589          37.000                                                                  
R23  22419621.663   119929900.936         449.822          48.000                                                                  
R21  24997479.747   133766594.758       -3035.547          38.000    24997474.209   104041140.473       -2360.938          36.000  
E21  25856637.292   135877615.290       -2766.281          47.000    25856638.628   104114051.985       -2119.741          52.000  
E13  26688265.799   140248191.341       -2494.574          45.000    26688266.458   107463004.411       -1911.306          49.000  
E07  29165784.161   153267239.430        1661.050          40.000    29165786.036   117438543.664        1272.969          45.000  
G18  23929303.705   125749643.667       -3154.162          41.000    23929301.215    97986845.520       -2457.524          45.000  
E26  24823501.093   130448637.904        -713.198          48.000    24823499.240    99954299.490        -546.478          52.000  
E14  26180966.594   137581969.890       -2379.425          47.000    26180964.656   105419978.334       -1823.074          51.000  
E08                                                                  29265773.122   117841143.674         454.892          37.000  
E31                                                                  28773362.091   115858397.137        1482.605          31.000  
> 2024 04 17 07 10 00.0040000  0 25                     
G16  22248678.386   116917642.340         423.776          46.000                                                                  
G26  22165587.590   116480965.730       -2476.172          48.000    22165585.690    90764398.920       -1929.419          46.000  
G27  23489675.522   123439056.799        1692.712          49.000    23489671.121    96186327.354        1319.178          42.000  
G23  21899154.050   115080975.385       -1162.531          48.000    21899148.959    89673454.717        -905.817          48.000  
R08  24214571.815   129667918.576        3388.594          47.000    24214565.782   100852855.563        2635.637          46.000  
R22  21900994.096   116909144.124       -1841.028          52.000    21900989.553    90929162.223       -1431.940          50.000  
R07  22653218.687   121264472.219        1289.094          50.000    22653213.978    94316848.346        1002.600          49.000  
R13  22153411.957   118297886.168        -222.504          42.000    22153408.708    92009493.114        -172.992          41.000  
G29  26304440.276   138230899.027       -3159.161          45.000    26304436.183   107712469.022       -2461.623          39.000  
S31  40108562.638   210772008.017        -629.219          44.000  
S33  41063371.601   215789607.831        -628.900          42.000  
G10  22079341.740   116027846.641        1614.966          50.000    22079338.965    90411240.616        1258.411          47.000  
E33  27306885.463   143498746.800         949.972          43.000    27306886.275   109953561.735         727.975          48.000  
R12  22077398.603   117933620.222       -3591.236          52.000    22077395.880    91726105.808       -2793.103          49.000  
R06  23987310.078   128000917.798       -2201.253          37.000                                                                  
R23  22417114.209   119916485.337         443.812          49.000                                                                  
R21  25014494.990   133857646.796       -3035.791          37.000    25014490.675   104111958.746       -2360.510          37.000  
E21  25872461.612   135960766.384       -2777.754          48.000    25872461.525   104177765.124       -2128.396          51.000  
E13  26702509.801   140323044.350       -2496.234          45.000    26702511.219   107520359.322       -1912.741          50.000  
E07  29156300.895   153217411.705        1660.199          39.000    29156304.457   117400364.056        1271.874          46.000  
G18  23947318.603   125844309.592       -3157.462          41.000    23947314.938    98060611.182       -2460.529          44.000  
E26  24827590.847   130470127.943        -720.091          48.000    24827588.680    99970765.877        -551.725          52.000  
E14  26194537.680   137653289.378       -2375.868          46.000    26194536.183   105474625.722       -1820.441          50.000  
E08                                                                  29262413.270   117827616.267         446.168          37.000  
E31                                                                  28762335.950   115813998.228        1477.517          31.000  
> 2024 04 17 07 10 30.0040000  0 25                     
G16  22246313.973   116905218.365         404.206          47.000                                                                  
G26  22179773.263   116555513.892       -2494.006          48.000    22179772.102    90822488.396       -1943.359          46.000  
G27  23480021.188   123388322.485        1689.340          49.000    23480017.371    96146794.161        1316.416          42.000  
G23  21905851.106   115116168.250       -1183.838          48.000    21905846.330    89700877.735        -922.540          48.000  
R08  24195597.909   129566313.557        3384.726          48.000    24195592.101   100773829.497        2632.604          47.000  
R22  21911353.514   116964443.665       -1845.825          52.000    21911349.139    90972172.979       -1435.632          51.000  
R07  22646057.929   121226136.180        1266.364          51.000    22646052.608    94287031.445         984.989          49.000  
R13  22154738.597   118304969.268        -250.110          42.000    22154734.822    92015002.166        -194.226          40.000  
G29  26322490.456   138325753.598       -3164.562          44.000    26322485.867   107786381.662       -2465.947          38.000  
S31  40112156.613   210790893.539        -630.214          44.000  
S33  41066963.924   215808486.792        -629.876          42.000  
G10  22070175.575   115979678.433        1596.124          50.000    22070171.667    90373706.962        1243.768          46.000  
E33  27301478.811   143470337.322         943.702          43.000    27301480.001   109931793.450         723.182          48.000  
R12  22097620.718   118041642.946       -3610.407          52.000    22097618.037    91810123.462       -2808.185          49.000  
R06  23999750.401   128067310.006       -2225.454          36.000                                                                  
R23  22414641.616   119903257.543         437.943          49.000                                                                  
R21  25031510.177   133948701.239       -3034.796          39.000    25031506.708   104182778.848       -2360.059          36.000  
E21  25888348.927   136044257.458       -2788.576          47.000    25888349.312   104241738.782       -2136.613          51.000  
E13  26716765.881   140397951.659       -2497.595          45.000    26716765.205   107577755.815       -1913.681          50.000  
E31  28751336.197                3       1921.865          26.000    28751350.451   115769764.757        1471.665          31.000  
E07  29146825.996   153167622.134        1659.282          39.000    29146829.794   117362213.649        1271.330          46.000  
G18  23965355.090   125939083.045       -3160.682          43.000    23965350.283    98134460.622       -2462.998          45.000  
E26  24831719.747   130491825.443        -726.639          48.000    24831717.495    99987391.232        -556.697          52.000  
E14  26208088.950   137724502.735       -2371.863          46.000    26208087.611   105529191.774       -1817.336          50.000  
E08                                                                  29259116.016   117814344.340         438.311          35.000  
> 2024 04 17 07 11 00.0040000  0 25                     
G16  22244059.065   116893367.801         385.801          46.000                                                                  
G26  22194057.764   116630580.969       -2510.536          48.000    22194056.801    90880982.180       -1956.192          46.000  
G27  23470382.800   123337676.306        1687.233          48.000    23470379.954    96107329.620        1314.752          43.000  
G23  21912666.864   115151987.194       -1203.931          48.000    21912661.748    89728788.601        -938.159          47.000  
R08  24176643.368   129464815.650        3381.768          48.000    24176639.361   100694886.802        2630.312          48.000  
R22  21921735.811   117019868.861       -1849.182          52.000    21921732.404    91015281.474       -1438.306          51.000  
R07  22639018.675   121188464.401        1245.065          50.000    22639014.919    94257731.227         968.306          48.000  
R13  22156217.037   118312864.706        -276.257          41.000    22156213.648    92021143.036        -214.502          40.000  
G29  26340567.820   138420751.259       -3168.622          44.000    26340563.293   107860405.753       -2468.760          40.000  
S31  40115753.627   210809794.759        -629.880          44.000  
S33  41070559.833   215827381.610        -629.479          42.000  
G10  22061113.698   115932057.117        1578.613          50.000    22061110.419    90336599.447        1230.042          47.000  
E33  27296105.273   143442101.349         938.750          43.000    27296107.097   109910158.133         719.173          49.000  
R12  22117946.318   118150221.186       -3628.052          52.000    22117943.128    91894573.154       -2821.771          49.000  
R06  24012325.787   128134418.857       -2248.878          38.000                                                                  
R23  22412197.769   119890188.562         433.386          48.000                                                                  
R21  25048521.721   134039729.606       -3033.990          39.000    25048519.456   104253578.650       -2359.070          35.000  
E21  25904296.445   136128058.845       -2798.181          48.000    25904296.053   104305950.222       -2144.092          51.000  
E13  26731024.356   140472884.109       -2497.749          44.000    26731025.046   107635171.559       -1913.932          50.000  
E31  28740375.506                3       1914.223          26.000    28740400.343   115725676.214        1467.212          31.000  
E07  29137353.983   153117844.354        1659.247          40.000    29137357.674   117324072.242        1271.360          46.000  
G18  23983403.842   126033934.332       -3162.721          41.000    23983399.733    98208370.659       -2464.265          45.000  
E26  24835882.049   130513701.048        -731.799          48.000    24835879.933   100004153.069        -560.714          51.000  
E14  26221614.576   137795581.175       -2366.646          46.000    26221613.158   105583654.467       -1813.351          50.000  
E08                                                                  29255878.770   117801307.428         430.755          37.000  
> 2024 04 17 07 11 30.0040000  0 26                     
G16  22241905.424   116882052.651         368.112          47.000                                                                  
G26  22208434.230   116706125.304       -2526.053          48.000    22208432.342    90939847.879       -1968.405          46.000  
G27  23460754.751   123287080.119        1685.621          48.000    23460751.876    96067904.033        1313.293          43.000  
G23  21919594.684   115188391.688       -1223.328          48.000    21919588.862    89757155.748        -953.113          46.000  
R08  24157702.697   129363389.850        3379.594          48.000    24157699.169   100616000.142        2628.562          48.000  
R22  21932135.161   117075378.993       -1851.874          52.000    21932131.019    91058455.992       -1440.192          51.000  
R07  22632100.269   121151420.511        1224.220          52.000    22632093.882    94228919.302         952.036          47.000  
R13  22157840.483   118321532.608        -301.825          41.000    22157837.362    92027884.739        -234.985          41.000  
G29  26358664.644   138515852.452       -3171.966          42.000    26358660.467   107934510.544       -2471.601          40.000  
S31  40119345.556   210828671.243        -628.803          44.000  
S33  41074150.669   215846250.874        -628.654          42.000  
G10  22052148.540   115884945.266        1561.890          50.000    22052145.234    90299888.928        1216.962          47.000  
E33  27290758.138   143413998.946         934.515          43.000    27290759.145   109888625.147         716.053          49.000  
R12  22138369.254   118259310.474       -3644.867          53.000    22138364.574    91979420.355       -2834.857          48.000  
R06  24025028.718   128202202.547       -2270.654          37.000                                                                  
R23  22409777.261   119877237.246         429.556          49.000                                                                  
R21  25065519.777   134130691.684       -3030.841          39.000    25065518.010   104324326.893       -2357.532          33.000  
E21  25920294.942   136212129.619       -2806.814          49.000    25920294.397   104370368.067       -2150.729          52.000  
E13  26745278.946   140547801.300       -2496.918          43.000    26745281.301   107692575.642       -1913.412          51.000  
E07  29127878.052   153068040.663        1660.435          42.000    29127880.087   117285911.030        1272.323          45.000  
G18  24001459.383   126128822.621       -3163.691          38.000    24001456.471    98282309.545       -2465.316          45.000  
E26  24840071.276   130535714.225        -736.174          48.000    24840068.621   100021020.301        -563.986          51.000  
E14  26235107.243   137866484.651       -2360.636          46.000    26235105.471   105637983.100       -1808.824          49.000  
E08                                                                  29252693.557   117788476.360         424.276          38.000  
E31                                                                  28729479.404   115681703.525        1464.354          31.000  
G15                                                                  26656811.919                3       -874.844          19.000  
> 2024 04 17 07 12 00.0040000  0 25                     
G16  22239852.609   116871263.704         350.946          47.000                                                                  
G26  22222898.183   116782134.632       -2541.281          48.000    22222896.334    90999075.909       -1980.274          46.000  
G27  23451134.009   123236524.997        1684.437          47.000    23451132.295    96028510.416        1312.602          45.000  
G23  21926631.806   115225370.422       -1242.133          48.000    21926625.386    89785970.350        -967.828          46.000  
R08  24138773.735   129262029.247        3377.590          47.000    24138771.140   100537164.221        2626.896          48.000  
R22  21942547.808   117130962.935       -1854.004          52.000    21942543.711    91101687.932       -1442.011          51.000  
R07  22625295.621   121114997.205        1203.778          51.000    22625289.745    94200590.075         936.200          48.000  
R13  22159606.292   118330962.562        -326.990          40.000    22159603.155    92035219.123        -254.413          41.000  
G29  26376779.424   138611046.689       -3174.666          41.000    26376775.038   108008687.880       -2473.913          40.000  
S31  40122930.788   210847513.124        -627.530          44.000  
S33  41077734.982   215865086.647        -627.387          42.000  
G10  22043278.607   115838334.805        1545.190          50.000    22043275.445    90263569.095        1204.120          47.000  
E33  27285434.197   143386019.396         930.600          44.000    27285434.863   109867186.294         712.950          49.000  
R12  22158883.890   118368895.958       -3661.096          53.000    22158879.661    92064653.466       -2847.546          49.000  
R06  24037854.030   128270648.744       -2292.839          38.000                                                                  
R23  22407375.903   119864392.120         426.410          48.000                                                                  
R21  25082504.539   134221577.690       -3028.144          40.000    25082500.720   104395016.004       -2355.621          35.000  
E21  25936341.727   136296458.161       -2815.276          48.000    25936341.296   104434983.422       -2157.150          51.000  
E13  26759532.346   140622692.240       -2495.853          44.000    26759532.382   107749959.573       -1912.442          51.000  
E31  28718583.234                        1905.803          27.000    28718585.471   115637840.288        1460.105          30.000  
E07  29118395.129   153018202.806        1661.856          44.000    29118395.638   117247723.660        1273.382          44.000  
G18  24019520.601   126223736.085       -3164.215          38.000    24019517.389    98356268.079       -2465.738          45.000  
E26  24844283.749   130557853.707        -739.983          48.000    24844281.606   100037984.326        -567.118          51.000  
E14  26248564.112   137937202.336       -2354.075          46.000    26248562.635   105692169.379       -1803.828          49.000  
E08                                                                  29249555.815   117775844.411         417.757          38.000  
> 2024 04 17 07 12 30.0040000  0 25                     
G16  22237899.639   116860999.842         332.939          48.000                                                                  
G26  22237449.183   116858603.952       -2557.040          47.000    22237448.554    91058662.352       -1992.460          46.000  
G27  23441521.896   123186009.364        1682.788          48.000    23441519.059    95989147.576        1311.323          44.000  
G23  21933776.316   115262919.379       -1261.530          47.000    21933771.034    89815229.277        -983.020          46.000  
R08  24119858.093   129160735.647        3374.898          47.000    24119854.947   100458380.383        2624.842          48.000  
R22  21952974.552   117186617.002       -1856.659          53.000    21952969.534    91144974.478       -1444.122          51.000  
R07  22618607.741   121079194.851        1182.627          51.000    22618601.483    94172743.819         919.773          48.000  
R13  22161512.814   118341151.612        -353.076          38.000    22161511.504    92043143.901        -274.274          41.000  
E08  29246472.131                         536.410          30.000    29246466.998   117763410.302         411.188          39.000  
G29  26394911.268   138706331.027       -3178.256          40.000    26394907.625   108082935.335       -2476.260          40.000  
S31  40126508.957   210866317.247        -626.600          44.000  
S33  41081311.830   215883884.740        -626.359          43.000  
G10  22034503.484   115792224.879        1528.235          50.000    22034501.287    90227639.305        1190.747          47.000  
E33  27280132.314   143358159.316         926.212          44.000    27280133.232   109845838.962         709.802          49.000  
R12  22179489.228   118478970.459       -3677.619          52.000    22179485.978    92150266.893       -2860.425          50.000  
R06  24050803.347   128339752.675       -2314.642          36.000                                                                  
R23  22404993.471   119851649.567         422.636          48.000                                                                  
R21  25099473.580   134312384.606       -3026.080          39.000    25099467.183   104465643.594       -2353.638          33.000  
E21  25952437.302   136381040.133       -2823.848          48.000    25952436.702   104499792.969       -2163.741          51.000  
E13  26773775.312   140697553.135       -2495.185          42.000    26773778.004   107807320.510       -1911.841          51.000  
E07  29108904.182   152968329.799        1662.700          43.000    29108905.747   117209509.331        1273.881          45.000  
G18  24037587.753   126318670.656       -3165.187          42.000    24037583.374    98430243.064       -2466.442          45.000  
E26  24848520.399   130580115.552        -744.389          48.000    24848518.087   100055042.094        -570.379          51.000  
E14  26261985.259   138007730.885       -2348.085          46.000    26261983.489   105746210.730       -1799.172          49.000  
E31                                                                  28707717.925                        1456.795          31.000  
> 2024 04 17 07 13 00.0040000  0 25                     
G16  22236049.380   116851276.395         315.289          48.000                                                                  
G26  22252090.738   116935545.360       -2572.546          47.000    22252089.668    91118616.652       -2004.528          46.000  
G27  23431919.894   123135548.779        1681.126          49.000    23431916.616    95949827.650        1309.905          44.000  
G23  21941032.815   115301051.719       -1280.603          47.000    21941028.501    89844942.786        -997.961          48.000  
R08  24100959.928   129059528.203        3372.184          49.000    24100954.088   100379663.527        2622.860          47.000  
R22  21963414.920   117242355.107       -1859.173          52.000    21963411.459    91188326.306       -1446.045          50.000  
R07  22612039.542   121044031.144        1161.528          51.000    22612033.634    94145394.292         903.458          49.000  
R13  22163566.679   118352114.054        -378.168          40.000    22163563.978    92051670.248        -294.293          40.000  
E08  29243443.606                         527.451          28.000    29243431.437   117751186.191         403.917          40.000  
G29  26413064.313   138801719.514       -3181.294          43.000    26413059.592   108157264.040       -2478.872          41.000  
S31  40130082.852   210885097.728        -625.673          44.000  
S33  41084884.663   215902658.738        -625.535          43.000  
G10  22025827.747   115746631.844        1511.334          50.000    22025825.381    90192112.275        1177.521          47.000  
E33  27274855.744   143330432.454         922.008          44.000    27274857.166   109824593.725         706.502          49.000  
R12  22200189.087   118589544.049       -3693.963          52.000    22200185.911    92236268.522       -2873.033          50.000  
R06  24063880.596   128409526.590       -2336.881          40.000                                                                  
R23  22402633.139   119839023.053         419.061          48.000                                                                  
R21  25116430.424   134403127.145       -3023.596          41.000    25116424.416   104536221.148       -2351.636          35.000  
E21  25968583.041   136465888.377       -2832.554          48.000    25968583.021   104564806.533       -2170.487          51.000  
E13  26788019.515   140772397.400       -2494.396          43.000    26788020.599   107864668.723       -1911.417          51.000  
E07  29099410.184   152918437.807        1663.410          44.000    29099411.121   117171280.422        1274.529          45.000  
G18  24055659.613   126413639.158       -3166.091          43.000    24055653.696    98504244.459       -2467.070          44.000  
E26  24852782.707   130602512.993        -748.888          48.000    24852780.393   100072203.754        -573.794          51.000  
E14  26275373.187   138078083.921       -2341.982          46.000    26275371.068   105800117.602       -1794.554          49.000  
E31                                                                  28696879.281   115550451.009        1452.851          31.000  
> 2024 04 17 07 13 30.0040000  0 25                     
G16  22234301.472   116842090.798         297.137          47.000                                                                  
G26  22266821.201   117012953.013       -2588.197          47.000    22266818.930    91178934.270       -2016.646          46.000  
G27  23422327.847   123085140.868        1679.190          48.000    23422323.940    95910548.757        1308.549          44.000  
G23  21948399.851   115339762.545       -1300.098          48.000    21948395.194    89875107.080       -1013.043          48.000  
R08  24082076.106   128958407.082        3369.179          50.000    24082069.269   100301013.868        2620.487          47.000  
R22  21973871.000   117298172.662       -1861.932          51.000    21973868.349    91231739.952       -1448.157          51.000  
R07  22605588.548   121009505.721        1140.029          49.000    22605584.103    94118541.203         886.805          49.000  
R13  22165764.367   118363845.949        -403.815          41.000    22165761.608    92060795.054        -314.008          41.000  
E08  29240456.825                         517.948          31.000    29240446.789   117739170.250         396.985          38.000  
G29  26431235.113   138897208.095       -3184.648          43.000    26431230.680   108231670.766       -2481.498          41.000  
S31  40133651.839   210903851.152        -624.761          44.000  
S33  41088451.801   215921404.879        -624.613          42.000  
G10  22017250.344   115701553.954        1494.000          50.000    22017246.856    90156986.672        1164.105          46.000  
E33  27269604.473   143302834.671         917.799          44.000    27269605.089   109803447.413         703.219          49.000  
R12  22220980.202   118700608.495       -3710.383          51.000    22220977.483    92322651.941       -2885.823          49.000  
R06  24077082.189   128479964.754       -2359.132          41.000                                                                  
R23  22400293.781   119826508.110         415.176          48.000                                                                  
R21  25133375.750   134493802.073       -3021.381          40.000    25133369.546   104606746.071       -2349.670          34.000  
E21  25984778.360   136550997.714       -2841.345          47.000    25984778.798   104630020.164       -2177.243          51.000  
E13  26802256.064   140847220.577       -2493.723          41.000    26802258.944   107922000.749       -1910.874          51.000  
E31  28686069.254                        1890.775          27.000    28686072.149   115506935.570        1448.595          32.000  
E07  29089912.781   152868525.034        1663.862          44.000    29089913.441   117133035.614        1275.102          47.000  
G18  24073735.336   126508636.468       -3166.892          41.000    24073731.696    98578268.334       -2467.899          44.000  
E26  24857069.057   130625041.235        -753.212          47.000    24857067.410   100089465.659        -577.131          52.000  
E14  26288726.988   138148257.328       -2336.236          47.000    26288724.766   105853886.844       -1790.073          48.000  
> 2024 04 17 07 14 00.0040000  0 25                     
G16  22232656.214   116833443.435         279.022          48.000                                                                  
G26  22281639.821   117090823.212       -2603.651          48.000    22281636.647    91239612.360       -2029.016          45.000  
G27  23412745.173   123034785.492        1677.427          49.000    23412741.006    95871310.824        1307.120          44.000  
G23  21955875.882   115379049.165       -1319.336          48.000    21955870.345    89905720.011       -1027.948          47.000  
R08  24063208.717   128857375.292        3366.014          49.000    24063201.602   100222433.649        2618.042          46.000  
R22  21984341.852   117354067.552       -1864.551          51.000    21984338.966    91275213.756       -1450.299          51.000  
R07  22599258.615   120975620.235        1118.639          49.000    22599253.914    94092185.867         870.015          49.000  
R13  22168104.150   118376345.807        -429.620          39.000    22168103.106    92070517.155        -334.308          42.000  
E08  29237513.095                         508.948          28.000    29237513.836   117727362.396         389.880          37.000  
G29  26449425.290   138992795.301       -3187.856          43.000    26449419.310   108306154.291       -2484.165          40.000  
S31  40137214.924   210922574.877        -623.756          44.000  
S33  41092013.907   215940123.009        -623.566          42.000  
G10  22008769.855   115656991.755        1476.752          50.000    22008766.983    90122262.893        1150.726          46.000  
E33  27264376.711   143275363.943         913.402          44.000    27264377.326   109782398.415         699.822          48.000  
R12  22241862.434   118812158.007       -3726.640          51.000    22241859.809    92409412.580       -2898.379          48.000  
R06  24090405.737   128551063.922       -2381.158          41.000                                                                  
R23  22397974.180   119814102.194         411.521          48.000                                                                  
R21  25150307.624   134584408.076       -3019.202          41.000    25150302.604   104677217.486       -2348.773          36.000  
E21  26001022.806   136636365.238       -2850.113          46.000    26001023.828   104695431.610       -2183.855          51.000  
E13  26816488.952   140922020.276       -2493.163          39.000    26816493.124   107979314.796       -1910.383          51.000  
E07  29080410.313   152818591.900        1664.497          42.000    29080412.122   117094775.221        1275.333          48.000  
G18  24091819.333   126603659.766       -3168.057          43.000    24091813.872    98652312.435       -2468.852          44.000  
E26  24861380.193   130647697.749        -757.543          47.000    24861378.875   100106825.844        -580.506          52.000  
E14  26302045.729   138218249.091       -2330.353          47.000    26302043.780   105907516.896       -1785.594          48.000  
E31                                                                  28675293.637   115463539.127        1444.648          33.000  
> 2024 04 17 07 14 30.0050000  0 25                     
G16  22231116.284   116825353.627         260.107          48.000                                                                  
G26  22296549.292   117169174.835       -2619.952          48.000    22296547.284    91300665.541       -2041.589          46.000  
G27  23403176.035   122984500.805        1674.564          48.000    23403171.821    95832127.967        1305.009          44.000  
G23  21963463.960   115418930.184       -1339.485          47.000    21963459.045    89936796.119       -1043.818          47.000  
R08  24044361.230   128756452.963        3361.803          48.000    24044356.114   100143938.641        2614.676          47.000  
R22  21994832.136   117410059.768       -1868.207          52.000    21994827.211    91318763.242       -1453.064          51.000  
R07  22593052.396   120942395.566        1096.135          49.000    22593047.187    94066344.453         852.458          49.000  
R13  22170591.877   118389632.768        -456.129          40.000    22170591.075    92080851.423        -354.995          42.000  
E08  29234639.268   153629103.6181        499.262          32.000    29234636.633   117715777.438         382.430          37.000  
G29  26467638.293   139088502.341       -3192.245          43.000    26467631.180   108380731.199       -2487.495          40.000  
S31  40140776.229   210941289.516        -623.791          44.000  
S33  41095573.393   215958829.836        -623.899          42.000  
G10  22000391.280   115612964.265        1458.275          49.000    22000388.537    90087955.749        1136.469          46.000  
E33  27259176.178   143248037.296         908.111          44.000    27259177.416   109761459.840         695.715          48.000  
R12  22262838.548   118924210.430       -3743.536          50.000    22262836.138    92496564.475       -2911.707          48.000  
R06  24103857.712   128622842.872       -2404.125          42.000                                                                  
R23  22395679.270   119801822.819         406.897          49.000                                                                  
R21  25167231.566   134674967.085       -3018.130          42.000    25167225.756   104747652.240       -2347.197          35.000  
E21  26017320.527   136722010.713       -2859.548          47.000    26017321.621   104761056.054       -2191.179          51.000  
E13  26830726.661   140996816.687       -2493.287          42.000    26830726.056   108036626.310       -1910.561          51.000  
E07  29070907.089   152768657.059        1663.961          41.000    29070909.793   117056513.516        1275.060          48.000  
G18  24109910.962   126698729.272       -3170.002          44.000    24109904.718    98726392.549       -2470.049          44.000  
E26  24865719.863   130670500.696        -762.781          47.000    24865718.287   100124298.231        -584.500          52.000  
E14  26315334.176   138288079.372       -2325.157          47.000    26315332.067   105961023.209       -1781.620          48.000  
E31                                                                  28664549.659   115420275.702        1439.125          34.000  
