     3.00           OBSERVATION DATA    M: Mixed            RINEX VERSION / TYPE
CONVBIN 2.4.3                           20240414 234442 UTC PGM / RUN BY / DATE 
format: u-blox UBX                                          COMMENT             
log: /home/regis/git/gnsspwv/obsdata/VERT00CHL/2024-04-14/VECOMMENT             
{self.marker}                                               MARKER NAME         
                                                            MARKER NUMBER       
GEODETIC                                                    MARKER TYPE         
{self.observer}     {self.institution}                      OBSERVER / AGENCY   
UNKNOWN             UBLOX-ZED-F9P                           REC # / TYPE / VERS 
UNKNOWN             TWIVSP6037L                             ANT # / TYPE        
  1713381.0000 -5047934.0000 -3490983.0000                  APPROX POSITION XYZ 
        0.0000        0.0000        0.0000                  ANTENNA: DELTA H/E/N
G    8 C1C L1C D1C S1C C2L L2L D2L S2L                      SYS / # / OBS TYPES 
R    8 C1C L1C D1C S1C C2C L2C D2C S2C                      SYS / # / OBS TYPES 
E    8 C1C L1C D1C S1C C7Q L7Q D7Q S7Q                      SYS / # / OBS TYPES 
S    4 C1C L1C D1C S1C                                      SYS / # / OBS TYPES 
  2024    04    14    23    30   00.0050000     GPS         TIME OF FIRST OBS   
  2024    04    14    23    44   30.0050000     GPS         TIME OF LAST OBS    
                                                            END OF HEADER       
> 2024 04 14 23 30 00.0050000  0 27                     
S33  41165496.632   216326206.9221       -780.876          43.000  
E33  29005597.474   152425441.7641        394.949          33.000    29005599.429   116793564.6911        303.056          35.000  
G13  23773920.987   124932736.2261      -4129.369          47.000                                                                  
G15  22796164.890   119794659.9941      -2837.009          46.000    22796164.535    93346518.2691      -2210.604          44.000  
G17  24573952.285   129137086.8661      -3765.253          46.000    24573946.285   100626453.6921      -2934.336          37.000  
R14  22119332.885   117908555.5031      -1936.464          51.000    22119331.035    91706737.5741      -1506.227          49.000  
R17  23858225.198   127670522.4911       3157.248          49.000    23858230.794    99299483.9491       2455.742          48.000  
R05  22142874.072   118366381.3621       -600.942          51.000    22142870.914    92062755.2051       -467.366          49.000  
R04  22453840.872   120239272.3501      -4150.153          52.000    22453839.005    93519446.5681      -3227.912          49.000  
G19  23208320.856   121960722.4461      -2725.010          48.000                                                                  
G22  25348692.194   133208270.0051      -3853.479          38.000                                                                  
G06  25726541.197   135194025.9961       1386.821          43.000    25726543.066   105346032.1281       1080.874          42.000  
S31  40213325.953   211322508.4151       -780.491          43.000  
R15  22277359.712   119043660.3091        333.368          53.000    22277357.293    92589680.6371        259.277          48.000  
R23  24788906.682   132603867.6541      -3078.325          40.000                                                                  
R24  22685140.237   121307950.0361        375.329          48.000    22685137.436    94350644.9701        291.853          46.000  
E31  26688920.271   140251251.7881      -2569.937          47.000    26688921.180   107465281.7211      -1969.142          46.000  
E09  26098683.760   137149500.3371      -3078.100          48.000    26098687.298   105088592.5351      -2358.583          51.000  
E24  25255128.328   132716705.9821       -870.662          48.000    25255128.929   101692077.8401       -667.096          51.000  
G24  22390820.874   117664659.8471        634.119          49.000    22390819.614    91686817.7981        494.116          47.000  
G12  23099605.634   121389515.6421        398.449          49.000    23099601.823    94589351.1651        310.387          44.000  
E05  24050857.516   126388179.4991       -372.056          48.000    24050859.635    96842932.1891       -285.107          50.000  
G25  25052602.518   131652440.5361       1353.502          44.000    25052608.829   102586361.4471       1054.545          44.000  
E25  27617481.626   145131059.4481        870.525          43.000    27617488.814   111204448.8661        666.984          47.000  
E12  29390487.432   154448197.1451       1675.850          40.000    29390499.242   118343583.9351       1284.097          43.000  
E14  20605832.272   108284445.2381       1645.391          48.000    20605837.053    82971233.0821       1260.766          53.000  
E03                                                                  28909928.761                1       1312.860          29.000  
> 2024 04 14 23 30 30.0050000  0 27                     
S33  41169953.781   216349631.088        -780.824          42.000  
E33  29003372.941   152413747.041         383.767          33.000    29003374.900   116784603.821         294.608          38.000  
G13  23797520.413   125056747.255       -4138.350          46.000                                                                  
G15  22812400.907   119879979.476       -2851.036          46.000    22812400.651    93413000.889       -2221.570          44.000  
G17  24595480.642   129250218.615       -3777.224          46.000    24595474.868   100714608.335       -2942.955          37.000  
R14  22130240.807   117966699.474       -1940.119          53.000    22130239.802    91751960.665       -1509.004          51.000  
R17  23840539.946   127575885.088        3151.463          50.000    23840544.309    99225878.096        2451.140          49.000  
R05  22146321.488   118384811.949        -627.985          51.000    22146319.397    92077090.060        -488.496          50.000  
R04  22477134.264   120364002.458       -4165.436          52.000    22477132.085    93616458.638       -3239.686          49.000  
G19  23223923.508   122042716.167       -2741.454          48.000                                                                  
G22  25370692.068   133323866.659       -3853.326          37.000                                                                  
G06  25718642.215   135152519.363        1379.662          43.000    25718644.751   105313689.586        1075.292          42.000  
S31  40217779.960   211345915.704        -780.492          44.000  
R15  22275499.018   119033722.074         328.979          52.000    22275497.990    92581950.998         255.896          48.000  
R23  24806229.257   132696525.884       -3098.998          40.000                                                                  
R24  22683100.913   121297046.424         351.269          48.000    22683097.122    94342164.491         273.046          47.000  
E31  26703591.345   140328350.979       -2570.280          47.000    26703593.580   107524357.741       -1969.426          49.000  
E09  26116281.192   137241974.162       -3087.192          48.000    26116284.809   105159448.981       -2365.474          51.000  
E24  25260112.366   132742894.180        -875.447          48.000    25260111.584   101712144.157        -670.803          50.000  
G24  22387223.397   117645753.169         626.013          49.000    22387221.589    91672085.334         487.793          47.000  
G12  23097354.244   121377687.095         389.726          48.000    23097351.161    94580134.214         303.639          45.000  
E05  24053019.257   126399541.236        -385.681          47.000    24053021.324    96851637.944        -295.547          50.000  
G25  25044889.421   131611907.197        1348.332          43.000    25044895.389   102554777.300        1050.769          43.000  
E25  27612524.018   145105009.740         865.884          43.000    27612531.435   111184488.921         663.372          47.000  
E12  29380918.277   154397914.851        1676.011          39.000    29380929.570   118305056.945        1284.062          43.000  
E14  20596538.879   108235609.496        1610.059          48.000    20596543.829    82933813.820        1233.573          53.000  
E03                                                                  28900160.279                        1306.732          30.000  
> 2024 04 14 23 31 00.0050000  0 27                     
S33  41174410.959   216373053.573        -780.640          42.000  
E33  29001215.453   152402378.723         373.850          34.000    29001211.673   116775893.176         286.090          39.000  
G13  23821170.363   125181026.347       -4147.109          47.000                                                                  
G15  22828717.343   119965721.668       -2865.063          45.000    22828717.128    93479812.847       -2232.654          45.000  
G17  24617076.431   129363706.717       -3788.814          47.000    24617071.663   100803040.680       -2952.144          39.000  
R14  22141168.900   118024951.817       -1943.598          54.000    22141166.615    91797268.067       -1511.609          50.000  
R17  23822887.290   127481425.409        3145.681          50.000    23822891.135    99152410.413        2446.561          48.000  
R05  22149919.816   118404054.236        -654.877          51.000    22149919.302    92092056.222        -509.419          50.000  
R04  22500512.041   120489189.638       -4180.420          51.000    22500509.718    93713826.237       -3251.454          49.000  
G19  23239619.693   122125200.797       -2757.680          48.000                                                                  
G22  25392689.768   133439464.921       -3853.094          37.000                                                                  
G06  25710784.495   135111227.744        1373.029          41.000    25710785.922   105281514.576        1069.747          41.000  
S31  40222233.851   211369320.096        -780.079          44.000  
R15  22273664.439   119023915.509         324.719          53.000    22273662.144    92574323.704         252.618          47.000  
R23  24823668.234   132789812.020       -3120.041          36.000                                                                  
R24  22681198.168   121286867.966         327.369          49.000    22681194.918    94334247.970         254.685          47.000  
E31  26718267.277   140405466.060       -2570.660          48.000    26718267.546   107583445.925       -1969.738          48.000  
E09  26133930.243   137334721.367       -3096.098          48.000    26133934.277   105230514.927       -2372.304          52.000  
E24  25265123.268   132769230.194        -880.252          48.000    25265122.584   101732323.758        -674.465          49.000  
G24  22383672.021   117627090.704         618.024          49.000    22383670.181    91657543.172         481.641          47.000  
G12  23095153.386   121366120.920         381.129          49.000    23095150.702    94571121.689         296.959          45.000  
E05  24055259.391   126411312.075        -399.084          47.000    24055261.476    96860657.154        -305.758          50.000  
G25  25037205.012   131571526.169        1343.728          43.000    25037209.600   102523311.862        1047.109          42.000  
E25  27607593.547   145079096.306         861.498          43.000    27607599.570   111164633.356         660.025          46.000  
E12  29371350.045   154347639.091        1675.599          39.000    29371361.015   118266534.962        1283.937          42.000  
E14  20587448.160   108187841.544        1574.540          47.000    20587452.942    82897212.725        1206.502          52.000  
E03                                                                  28890432.066                        1303.848          31.000  
> 2024 04 14 23 31 30.0050000  0 28                     
S33  41178866.601   216396469.575        -780.573          42.000  
E33  28999103.926   152391336.590         362.631          34.000    28999109.510   116767432.368         277.780          39.000  
G13  23844870.205   125305568.650       -4155.881          46.000                                                                  
G15  22845113.699   120051882.035       -2878.928          46.000    22845112.926    93546950.693       -2243.464          44.000  
G17  24638739.559   129477545.905       -3800.389          47.000    24638734.119   100891746.575       -2961.690          36.000  
R14  22152116.486   118083309.937       -1947.070          52.000    22152114.864    91842657.718       -1514.367          50.000  
R17  23805268.008   127387145.875        3139.585          50.000    23805272.414    99079082.886        2441.707          48.000  
R05  22153671.122   118424106.158        -681.990          52.000    22153670.001    92107652.132        -530.508          50.000  
R04  22523973.656   120614827.287       -4195.436          51.000    22523971.600    93811544.140       -3263.134          49.000  
G19  23255408.848   122208172.497       -2773.968          48.000                                                                  
G22  25414687.274   133555061.236       -3853.436          38.000                                                                  
G06  25702967.526   135070152.252        1365.512          41.000    25702968.851   105249507.934        1063.884          40.000  
S31  40226686.362   211392719.684        -779.749          44.000  
R15  22271853.838   119014238.327         320.294          53.000    22271851.583    92566797.081         249.158          48.000  
R23  24841223.510                       -3141.021          32.000                                                                  
R24  22679429.254   121277415.192         302.896          49.000    22679425.169    94326895.872         235.572          46.000  
E31  26732943.263   140482594.320       -2571.177          47.000    26732945.018   107642544.215       -1970.250          48.000  
E09  26151630.872   137427738.514       -3105.101          48.000    26151635.173   105301787.698       -2379.189          52.000  
E24  25270162.683   132795711.231        -885.249          48.000    25270161.955   101752614.461        -678.279          50.000  
G24  22380167.435   117608672.312         609.766          49.000    22380165.644    91643191.208         475.110          48.000  
G12  23093001.671   121354814.246         372.545          49.000    23092998.707    94562311.397         290.383          46.000  
E05  24057576.557   126423490.569        -412.751          48.000    24057579.164    96869988.731        -316.323          51.000  
G25  25029549.306   131531295.308        1338.348          42.000    25029553.882   102491963.417        1042.865          42.000  
E25  27602686.550   145053316.792         857.033          43.000    27602694.296   111144880.425         656.727          47.000  
E12  29361783.585   154297370.045        1675.420          38.000    29361794.292   118228018.041        1283.900          42.000  
E14  20578561.195   108141142.832        1538.604          47.000    20578566.719    82861430.922        1178.945          52.000  
E03                                                                  28880742.321   116290793.7521       1298.487          32.000  
R03                                                                  25812102.808                3      -3757.063          12.000  
> 2024 04 14 23 32 00.0050000  0 27                     
S33  41183323.913   216419890.567        -780.956          42.000  
E33  28997070.856   152380630.317         351.155          32.000    28997072.537   116759228.921         269.185          39.000  
G13  23868620.779   125430380.170       -4164.899          45.000                                                                  
G15  22861590.427   120138466.684       -2893.229          47.000    22861590.032    93614419.139       -2254.375          44.000  
G17  24660469.764   129591742.146       -3812.390          47.000    24660463.965   100980730.640       -2970.576          36.000  
R14  22163085.409   118141781.975       -1950.866          53.000    22163084.115    91888135.993       -1517.383          50.000  
R17  23787684.387   127293059.481        3132.877          50.000    23787688.789    99005905.521        2436.755          48.000  
R05  22157575.854   118444976.018        -709.278          51.000    22157574.546    92123884.198        -551.765          49.000  
R04  22547520.934   120740919.044       -4210.618          50.000    22547518.828    93909615.282       -3274.983          49.000  
G19  23271291.906   122291636.916       -2790.370          47.000                                                                  
G22  25436683.762   133670662.720       -3853.320          34.000                                                                  
G06  25695194.925   135029304.084        1357.916          42.000    25695195.760   105217678.395        1058.199          41.000  
S31  40231139.834   211416123.170        -780.313          43.000  
R15  22270068.157   119004698.233         315.717          52.000    22270066.136    92559377.024         245.709          48.000  
R23  24858897.679   132978260.003       -3161.295          35.000                                                                  
R24  22677798.632   121268698.651         278.180          49.000    22677794.908    94320116.408         216.456          47.000  
E31  26747624.114   140559743.249       -2572.027          47.000    26747625.555   107701658.347       -1970.840          48.000  
E09  26169384.930   137521032.298       -3114.424          48.000    26169388.589   105373272.443       -2386.371          52.000  
E24  25275231.013   132822344.536        -890.261          48.000    25275230.029   101773021.858        -682.100          49.000  
G24  22376710.982   117590507.944         601.263          49.000    22376709.097    91629037.171         468.475          48.000  
G12  23090900.627   121343775.057         363.395          49.000    23090898.095    94553709.522         283.244          46.000  
E05  24059973.614   126436085.408        -426.813          48.000    24059975.723    96879639.324        -327.021          50.000  
G25  25021923.424   131491222.464        1333.061          43.000    25021926.398   102460738.128        1038.713          41.000  
E25  27597807.737   145027679.046         852.353          43.000    27597815.116   111125236.139         653.090          47.000  
E12  29352220.699   154247117.967        1674.606          39.000    29352230.947   118189514.124        1283.280          42.000  
E14  20569881.933   108095524.915        1502.408          49.000    20569885.532    82826477.253        1151.259          52.000  
E03                                                                  28871087.510   116251924.419        1293.281          34.000  
> 2024 04 14 23 32 30.0050000  0 27                     
S33  41187781.283   216443314.706        -781.394          42.000  
E33  28995097.758   152370260.429         339.885          31.000    28995098.680   116751283.227         260.327          37.000  
G13  23892423.719   125555457.268       -4174.034          47.000                                                                  
G15  22878146.748   120225472.500       -2907.706          47.000    22878146.957    93682215.758       -2265.752          44.000  
G17  24682268.137   129706291.858       -3824.485          47.000    24682261.297   101069990.279       -2980.976          35.000  
R14  22174073.959   118200367.217       -1955.001          52.000    22174074.834    91933702.281       -1520.552          50.000  
R17  23770138.719   127199170.264        3126.028          51.000    23770142.133    98932881.459        2431.255          48.000  
R05  22161632.483   118466662.408        -736.820          51.000    22161631.489    92140751.371        -573.043          49.000  
R04  22571152.123   120867459.790       -4225.788          51.000    22571149.361    94008035.603       -3286.802          49.000  
G19  23287267.413   122375591.126       -2807.083          47.000                                                                  
G22  25458682.395   133786267.713       -3853.424          34.000                                                                  
G06  25687464.496   134988685.395        1349.214          40.000    25687465.913   105186027.667        1051.825          41.000  
S31  40235593.746   211439529.929        -780.738          44.000  
R15  22268308.295   118995293.965         310.956          52.000    22268305.451    92552062.665         241.864          47.000  
R23  24876686.446                       -3182.780          28.000                                                                  
R24  22676307.933   121260719.954         253.252          51.000    22676303.493    94313910.824         196.983          46.000  
E31  26762309.052   140636911.344       -2572.914          47.000    26762310.528   107760787.135       -1971.469          49.000  
E09  26187189.849   137614600.344       -3123.908          48.000    26187193.709   105444967.327       -2393.514          51.000  
E24  25280327.792   132849128.384        -895.424          48.000    25280326.978   101793544.578        -686.168          50.000  
G24  22373302.511   117572598.525         592.450          49.000    22373301.183    91615081.798         461.609          48.000  
G12  23088850.481   121333001.713         354.349          48.000    23088848.251    94545314.792         276.141          46.000  
E05  24062449.308   126449096.189        -440.989          47.000    24062451.687    96889608.628        -337.894          51.000  
G25  25014327.859   131451306.642        1327.462          43.000    25014330.305   102429635.200        1034.216          39.000  
E25  27592956.529   145002181.824         847.165          44.000    27592963.149   111105699.531         649.190          46.000  
E12  29342660.551   154196884.144        1673.786          39.000    29342670.876   118151024.157        1282.716          43.000  
E14  20561406.264   108050990.187        1466.098          49.000    20561410.564    82792353.525        1123.387          52.000  
E03                                                                  28861470.898   116213208.023        1287.768          35.000  
> 2024 04 14 23 33 00.0050000  0 27                     
S33  41192239.220   216466741.573        -780.745          42.000  
E33  28993183.285                         328.114          29.000    28993188.146   116743596.478         252.538          33.000  
G13  23916274.883   125680797.434       -4182.220          47.000                                                                  
G15  22894783.209   120312897.279       -2921.014          46.000    22894782.469    93750338.869       -2276.067          44.000  
G17  24704132.685   129821192.009       -3835.626          47.000    24704127.312   101159522.786       -2988.757          38.000  
R14  22185086.736   118259065.346       -1958.350          52.000    22185086.498    91979356.421       -1523.120          50.000  
R17  23752630.096   127105482.922        3119.672          50.000    23752633.788    98860014.459        2426.344          48.000  
R05  22165842.836   118489165.223        -763.464          52.000    22165840.160    92158253.524        -593.817          49.000  
R04  22594865.836   120994444.812       -4239.995          51.000    22594862.582    94106801.467       -3297.662          48.000  
G19  23303335.655   122460032.947       -2822.718          46.000                                                                  
G22  25480681.576   133901875.436       -3854.230          36.000                                                                  
G06  25679779.132   134948299.472        1342.701          43.000    25679781.482   105154558.369        1046.140          42.000  
S31  40240048.566   211462939.925        -780.261          43.000  
R15  22266573.851   118986025.483         306.903          53.000    22266571.252    92544853.907         238.733          48.000  
R23  24894592.294                       -3201.683          29.000                                                                  
R24  22674953.667   121253481.291         229.063          50.000    22674950.487    94308280.844         178.172          47.000  
E31  26776997.012   140714098.221       -2572.920          46.000    26776998.497   107819930.338       -1971.537          48.000  
E09  26205047.003   137708441.450       -3132.373          47.000    26205050.943   105516871.448       -2400.186          51.000  
E24  25285452.223   132876062.255        -900.199          47.000    25285452.516   101814182.242        -689.674          50.000  
G24  22369943.676   117554946.215         584.369          49.000    22369941.959    91601326.771         455.280          48.000  
G12  23086850.530   121322493.904         345.969          48.000    23086847.967    94537126.984         269.469          45.000  
E05  24065004.968   126462523.739        -454.424          47.000    24065006.946    96899897.276        -348.198          51.000  
G25  25006762.258   131411547.923        1322.809          44.000    25006764.542   102398654.635        1030.804          40.000  
E25  27588131.164   144976825.161         842.884          44.000    27588137.662   111086270.606         645.903          46.000  
E12  29333104.581   154146670.903        1673.616          39.000    29333115.509   118112549.985        1282.322          44.000  
E14  20553136.913   108007542.234        1430.319          48.000    20553142.217    82759062.504        1095.882          52.000  
E03                                                                  28851894.493   116174646.108        1282.744          35.000  
> 2024 04 14 23 33 30.0050000  0 27                     
S33  41196695.661   216490160.498        -780.320          42.000  
E33  28991343.302   152350525.851         317.831          36.000    28991343.836   116736161.852         243.527          34.000  
G13  23940174.348   125806387.517       -4190.547          46.000                                                                  
G15  22911497.489   120400728.220       -2934.546          47.000    22911496.719    93818778.486       -2286.925          44.000  
G17  24726061.374   129936428.809       -3846.856          47.000    24726055.976   101249317.737       -2997.468          38.000  
R14  22196117.269   118317865.723       -1961.768          53.000    22196116.892    92025090.043       -1525.787          49.000  
R17  23735157.805   127011991.157        3113.043          50.000    23735161.736    98787299.509        2421.302          48.000  
R05  22170202.974   118512473.606        -790.455          52.000    22170200.675    92176382.226        -614.807          48.000  
R04  22618659.171   121121858.804       -4254.283          51.000    22618656.578    94205900.989       -3308.877          47.000  
G19  23319495.079   122544949.553       -2838.525          46.000                                                                  
G22  25502682.020   134017473.844       -3853.012          37.000                                                                  
G06  25672137.346   134908138.748        1334.632          44.000    25672138.360   105123264.523        1039.983          41.000  
S31  40244501.910   211486342.236        -780.071          43.000  
R15  22264862.670   118976881.016         302.722          52.000    22264859.761    92537741.587         235.413          47.000  
R23  24912613.259                       -3222.545          32.000                                                                  
R24  22673736.702   121246974.241         204.688          50.000    22673733.696    94303219.844         159.164          47.000  
E31  26791687.076   140791292.433       -2573.436          46.000    26791688.437   107879079.150       -1971.739          49.000  
E09  26222954.115   137802543.331       -3141.097          47.000    26222957.983   105588975.373       -2406.813          51.000  
E24  25290603.746   132903134.399        -904.700          46.000    25290604.191   101834925.879        -693.405          50.000  
G24  22366631.755   117537541.959         575.903          49.000    22366630.130    91587765.045         448.779          48.000  
G12  23084899.859   121312239.836         337.596          48.000    23084896.207    94529136.895         262.769          45.000  
E05  24067636.271   126476357.729        -467.904          47.000    24067639.770    96910497.370        -358.592          51.000  
G25  24999224.065   131371935.223        1317.938          45.000    24999226.647   102367787.903        1026.941          41.000  
E25  27583329.975   144951597.783         838.616          45.000    27583336.304   111066940.755         642.563          46.000  
E12  29323549.368   154096469.686        1673.071          38.000    29323561.788   118074085.029        1282.034          45.000  
E14  20545075.187   107965173.401        1394.172          49.000    20545079.669    82726598.321        1068.259          53.000  
E03                                                                  28842353.870   116136231.520        1278.024          36.000  
> 2024 04 14 23 34 00.0050000  0 27                     
S33  41201151.471   216513575.719        -780.377          42.000  
E33  28989560.172   152341157.209         306.773          36.000    28989558.298                         234.633          30.000  
G13  23964121.507   125932228.945       -4198.732          47.000                                                                  
G15  22928288.013   120488966.597       -2948.069          48.000    22928287.822    93887535.558       -2297.172          44.000  
G17  24748054.345   130052003.477       -3857.899          47.000    24748049.712   101339375.979       -3006.189          39.000  
R14  22207168.815   118376772.049       -1965.234          53.000    22207168.662    92070906.101       -1528.497          51.000  
R17  23717725.421   126918703.856        3106.201          51.000    23717728.497    98714743.571        2415.945          49.000  
R05  22174714.625   118536590.962        -817.274          52.000    22174712.466    92195140.135        -635.646          49.000  
R04  22642532.637   121249701.158       -4268.466          51.000    22642531.292    94305333.677       -3319.998          48.000  
G19  23335744.590   122630342.610       -2854.504          47.000                                                                  
G22  25524676.797   134133066.106       -3853.059          35.000                                                                  
G06  25664538.636   134868210.101        1326.970          44.000    25664540.501   105092151.526        1033.996          42.000  
S31  40248954.448   211509740.959        -779.710          44.000  
R15  22263174.381   118967864.605         298.480          52.000    22263172.866    92530728.895         232.104          48.000  
R23  24930747.121                       -3243.475          27.000                                                                  
R24  22672658.203   121241204.849         180.052          51.000    22672654.505    94298732.657         140.107          46.000  
E31  26806379.084   140868497.333       -2573.635          46.000    26806379.972   107938236.148       -1971.911          48.000  
E09  26240911.790   137896908.406       -3149.781          47.000    26240915.486   105661280.965       -2413.504          51.000  
E24  25295782.660   132930347.979        -909.357          47.000    25295783.136   101855777.881        -696.769          51.000  
G24  22363368.262   117520391.596         567.560          49.000    22363366.673    91574401.149         442.310          48.000  
G12  23082997.617   121302243.149         328.998          48.000    23082993.725    94521347.358         256.276          45.000  
E05  24070347.011   126490602.605        -481.733          47.000    24070350.459    96921412.272        -369.121          51.000  
G25  24991713.979   131332472.339        1313.104          44.000    24991717.988   102337037.875        1023.040          41.000  
E25  27578554.034   144926503.414         834.461          44.000    27578561.007   111047712.775         639.332          45.000  
E12  29313999.632   154046286.514        1672.468          38.000    29314011.856   118035633.888        1281.559          46.000  
E14  20537217.779   107923890.662        1357.982          47.000    20537223.690    82694966.387        1040.514          53.000  
E03                                                                  28832850.727   116097968.797        1272.922          36.000  
> 2024 04 14 23 34 30.0050000  0 27                     
S33  41205603.281   216536971.433        -779.933          42.000  
E33  28987837.833   152332107.442         295.836          37.000    28987834.744                         226.430          28.000  
G13  23988113.524   126058302.405       -4206.621          47.000                                                                  
G15  22945153.316   120577593.469       -2961.062          47.000    22945152.789    93956595.347       -2307.151          43.000  
G17  24770108.090   130167896.938       -3868.747          47.000    24770103.664   101429682.605       -3014.323          40.000  
R14  22218235.382   118435767.440       -1968.384          52.000    22218234.607    92116791.448       -1530.963          49.000  
R17  23700326.208   126825608.443        3099.553          50.000    23700329.920    98642336.844        2410.852          48.000  
R05  22179374.566   118561499.668        -843.881          52.000    22179371.360    92214513.520        -656.350          49.000  
R04  22666482.432   121377950.072       -4282.051          52.000    22666480.977    94405082.574       -3330.498          48.000  
G19  23352081.261   122716193.210       -2869.636          46.000                                                                  
G22  25546671.575   134248634.327       -3852.177          39.000                                                                  
G06  25656981.945   134828500.032        1319.737          44.000    25656983.998   105061208.809        1028.109          43.000  
S31  40253403.071   211533118.643        -779.156          43.000  
R15  22261507.983   118958958.592         294.672          53.000    22261505.786    92523802.015         229.053          47.000  
R23  24948991.433                3      -3270.484          17.000                                                                  
R24  22671713.925   121236158.420         155.785          50.000    22671709.839    94294807.725         121.196          44.000  
E31  26821068.695   140945695.642       -2573.347          45.000    26821070.434   107997388.123       -1971.892          48.000  
E09  26258915.985   137991518.555       -3158.013          48.000    26258919.381   105733774.339       -2419.811          52.000  
E24  25300985.242   132957685.511        -913.648          48.000    25300985.020   101876724.855        -700.002          51.000  
G24  22360150.150   117503480.344         559.302          49.000    22360148.524    91561223.571         435.809          48.000  
G12  23081140.860   121292486.208         320.970          48.000    23081137.315    94513744.614         249.954          46.000  
E05  24073133.314   126505242.209        -494.756          48.000    24073136.326    96932629.630        -379.273          51.000  
G25  24984228.924   131293142.380        1308.556          42.000    24984233.833   102306391.410        1019.640          41.000  
E25  27573800.985   144901525.047         830.279          44.000    27573807.522   111028573.682         636.193          45.000  
E12  29304450.468   153996106.843        1672.111          39.000    29304462.118   117997185.430        1281.303          45.000  
E14  20529566.157   107883680.455        1322.261          47.000    20529571.623    82664156.253        1013.078          53.000  
E03                                                                  28823382.510   116059846.389        1268.210          37.000  
> 2024 04 14 23 35 00.0050000  0 27                     
S33  41210051.562   216560349.338        -779.175          42.000  
E33  28986178.115   152323382.094         285.240          35.000    28986177.380                         219.026          31.000  
G13  24012148.609   126184609.215       -4214.254          46.000                                                                  
G15  22962093.163   120666610.920       -2973.964          48.000    22962092.875    94025959.478       -2317.573          43.000  
G17  24792222.960   130284109.765       -3879.234          47.000    24792218.287   101520238.088       -3022.751          41.000  
R14  22229320.811   118494855.824       -1971.405          52.000    22229319.996    92162749.049       -1533.228          49.000  
R17  23682966.647   126732713.843        3092.894          50.000    23682969.677    98570086.302        2405.613          49.000  
R05  22184182.646   118587203.669        -870.181          51.000    22184180.155    92234505.499        -676.859          48.000  
R04  22690507.293   121506605.107       -4295.444          52.000    22690506.820    94505147.324       -3340.866          48.000  
G19  23368506.254   122802502.987       -2884.657          45.000                                                                  
G22  25568657.885   134364181.495       -3851.392          37.000                                                                  
G06  25649468.174   134789015.460        1311.938          44.000    25649470.380   105030441.783        1022.497          44.000  
S31  40257848.814   211556480.739        -778.533          43.000  
E03  28813953.998                3       1647.440          25.000    28813950.182   116021868.569        1263.594          36.000  
R15  22259862.772   118950166.443         290.955          53.000    22259860.395    92516963.712         226.257          48.000  
R23  24967359.112                3      -3287.946          22.000                                                                  
R24  22670907.444   121231840.998         131.613          52.000    22670901.518    94291449.801         102.358          44.000  
E31  26835757.824   141022890.647       -2573.195          45.000    26835759.389   108056537.555       -1971.670          46.000  
E09  26276966.520   138086376.208       -3166.046          48.000    26276970.519   105806457.347       -2426.002          52.000  
E24  25306211.713   132985150.080        -917.647          48.000    25306211.075   101897769.157        -703.187          50.000  
G24  22356978.165   117486813.891         551.239          49.000    22356977.084    91548236.749         429.486          48.000  
G12  23079329.771   121282972.517         312.916          48.000    23079327.127    94506331.423         243.887          46.000  
E05  24075996.198   126520280.931        -508.118          48.000    24075998.158    96944152.799        -389.365          51.000  
G25  24976770.754   131253949.104        1304.033          43.000    24976775.949   102275851.448        1016.087          43.000  
E25  27569070.447   144876666.258         826.544          44.000    27569076.238   111009526.210         633.303          44.000  
E12  29294902.561   153945936.850        1672.173          39.000    29294913.687   117958744.369        1281.167          45.000  
E14  20522120.138   107844549.662        1286.205          48.000    20522125.270    82634173.179         985.480          53.000  
> 2024 04 14 23 35 30.0050000  0 26                     
S33  41214498.610   216583717.826        -778.615          42.000  
E33  28984578.664   152314988.496         274.324          35.000    28984580.272   116708932.219         210.021          34.000  
G13  24036228.998   126311152.676       -4222.145          45.000                                                                  
G15  22979108.119   120756022.336       -2987.059          48.000    22979106.706    94095630.605       -2327.557          44.000  
G17  24814399.356   130400645.375       -3889.999          46.000    24814393.852   101611045.146       -3031.321          41.000  
R14  22240425.130   118554042.847       -1974.670          52.000    22240423.967    92208783.451       -1535.852          50.000  
R17  23665647.163   126640030.940        3085.809          51.000    23665648.708    98498000.405        2399.910          48.000  
R05  22189141.109   118613707.998        -896.967          52.000    22189138.726    92255119.934        -697.632          49.000  
R04  22714609.967   121635668.049       -4308.892          52.000    22714607.912    94605529.343       -3351.369          47.000  
G19  23385018.335   122889275.594       -2900.285          45.000                                                                  
G22  25590643.451   134479712.612       -3851.055          39.000                                                                  
G06  25641999.126   134749765.492        1304.150          45.000    25642001.337   104999857.603        1016.312          44.000  
S31  40262292.539   211579831.714        -778.239          44.000  
E03  28804558.038                        1641.883          29.000    28804555.970   115984041.368        1258.279          36.000  
R15  22258240.538   118941494.191         287.024          53.000    22258237.531    92510218.682         223.260          48.000  
R24  22670236.872   121228261.008         106.931          50.000    22670231.818    94288665.425          83.220          44.000  
E31  26850448.239   141100087.854       -2573.589          45.000    26850449.988   108115688.657       -1971.760          47.000  
E09  26295065.049   138181485.877       -3174.617          47.000    26295069.208   105879333.459       -2432.484          52.000  
E24  25311462.698   133012746.875        -922.156          48.000    25311462.305   101918914.772        -706.580          50.000  
G24  22353855.097   117470400.161         542.841          49.000    22353853.296    91535446.842         422.992          47.000  
G12  23077566.628   121273707.857         304.518          48.000    23077564.381    94499112.300         237.416          46.000  
E05  24078934.848   126535725.211        -521.654          49.000    24078937.297    96955986.736        -399.727          51.000  
G25  24969341.015   131214898.284        1299.335          42.000    24969344.312   102245422.467        1012.365          42.000  
E25  27564363.059   144851932.748         822.167          44.000    27564370.156   110990574.747         629.984          46.000  
E12  29285358.463   153895784.683        1671.083          40.000    29285369.004   117920316.925        1280.653          44.000  
E14  20514881.284   107806507.164        1249.787          48.000    20514885.601    82605023.983         957.672          53.000  
> 2024 04 14 23 36 00.0050000  0 27                     
S33  41218945.112   216607084.171        -779.038          42.000  
E33  28983049.268   152306936.585         262.468          37.000    28983049.646   116702762.643         201.251          35.000  
G13  24060356.413   126437938.601       -4230.271          46.000                                                                  
G15  22996198.420   120845833.893       -3000.571          47.000    22996197.623    94165613.476       -2337.966          44.000  
G17  24836637.661   130517508.843       -3900.915          45.000    24836632.295   101702107.587       -3039.691          42.000  
R14  22251547.610   118613337.284       -1978.436          53.000    22251546.458    92254901.335       -1538.715          51.000  
R17  23648368.498   126547572.995        3078.080          52.000    23648370.220    98426089.392        2394.239          48.000  
R05  22194249.932   118641020.943        -924.042          52.000    22194248.209    92276363.296        -718.732          50.000  
R04  22738787.545   121765142.480       -4322.683          51.000    22738786.391    94706231.409       -3362.174          45.000  
G19  23401619.601   122976517.021       -2915.975          45.000                                                                  
G22  25612626.357   134595235.286       -3850.754          38.000                                                                  
G06  25634576.954   134710761.538        1296.124          45.000    25634579.307   104969465.088        1009.882          44.000  
S31  40266735.396   211603181.046        -778.395          44.000  
E03  28795199.013                        1635.384          27.000    28795200.805   115946372.411        1252.982          36.000  
R15  22256641.180   118932950.117         282.611          52.000    22256638.928    92503573.349         219.855          48.000  
R23  25004395.791                3      -3320.591          25.000                                                                  
R24  22669706.775   121225428.928          81.825          50.000    22669701.102    94286462.743          63.781          43.000  
E31  26865139.343   141177294.950       -2573.847          44.000    26865141.640   108174847.362       -1972.019          46.000  
E09  26313213.157   138276854.411       -3183.471          47.000    26313217.658   105952407.913       -2439.163          52.000  
E24  25316740.416   133040483.442        -926.988          48.000    25316740.141   101940167.484        -710.230          50.000  
G24  22350781.818   117454249.375         533.881          49.000    22350779.346    91522861.829         416.028          47.000  
G12  23075852.240   121264699.528         295.991          47.000    23075850.157    94492092.912         230.653          46.000  
E05  24081953.054   126551583.901        -535.647          48.000    24081955.157    96968138.180        -410.337          51.000  
G25  24961937.352   131175997.984        1294.049          42.000    24961941.354   102215110.824        1008.429          42.000  
E25  27559682.916   144827332.551         817.879          44.000    27559689.029   110971725.420         626.521          46.000  
E12  29275820.612   153845660.865        1670.316          41.000    29275829.560   117881911.205        1279.666          44.000  
E14  20507851.475   107769564.118        1212.943          49.000    20507855.125    82576717.223         929.411          52.000  
> 2024 04 14 23 36 30.0050000  0 26                     
S33  41223391.428   216630447.897        -778.759          43.000  
E33  28981581.858   152299227.006         251.559          37.000    28981581.426   116696855.326         192.698          33.000  
G13  24084529.516   126564963.886       -4238.066          47.000                                                                  
G15  23013365.190   120936042.536       -3013.362          47.000    23013363.338    94235905.794       -2348.021          43.000  
G17  24858937.994   130634697.226       -3911.654          43.000    24858932.370   101793423.246       -3047.881          42.000  
R14  22262690.145   118672738.595       -1981.818          53.000    22262690.712    92301102.370       -1541.364          51.000  
R17  23631132.638   126455344.025        3070.482          51.000    23631134.167    98354356.479        2388.027          48.000  
R05  22199511.264   118669141.310        -950.702          53.000    22199509.734    92298234.683        -739.502          50.000  
R04  22763042.030   121895023.092       -4335.936          51.000    22763042.310    94807249.346       -3372.511          46.000  
G19  23418309.697   123064224.309       -2931.272          45.000                                                                  
G22  25634607.484   134710747.714       -3850.183          38.000                                                                  
G06  25627201.630   134672005.976        1287.550          44.000    25627204.104   104939266.128        1003.544          44.000  
S31  40271178.232   211626528.057        -778.115          44.000  
R15  22255066.229   118924532.881         278.583          52.000    22255063.686    92497026.667         216.650          48.000  
R24  22669316.694   121223345.930          56.941          50.000    22669312.201    94284842.705          44.148          44.000  
E31  26879833.283   141254510.709       -2573.844          44.000    26879835.438   108234012.686       -1972.079          46.000  
E09  26331410.002   138372479.565       -3191.701          47.000    26331414.338   106025679.007       -2445.523          52.000  
E24  25322045.646   133068358.252        -931.316          48.000    25322044.674   101961526.135        -713.600          50.000  
G24  22347758.124   117438362.637         525.165          49.000    22347756.032    91510482.588         409.241          47.000  
G12  23074187.042   121255946.027         287.542          48.000    23074184.561    94485272.064         224.043          46.000  
E05  24085049.914   126567856.709        -549.173          48.000    24085051.639    96980606.958        -420.841          51.000  
G25  24954563.359   131137247.326        1289.269          42.000    24954567.397   102184915.775        1004.643          42.000  
E25  27555025.280   144802864.605         813.592          43.000    27555032.707   110952977.434         623.319          47.000  
E12  29266288.141   153795566.855        1669.274          41.000    29266296.339   117843528.279        1279.110          43.000  
E14  20501030.630   107733722.592        1176.381          49.000    20501034.660    82549254.468         901.401          53.000  
E03                                                                  28785885.354   115908862.591        1247.332          35.000  
> 2024 04 14 23 37 00.0050000  0 26                     
S33  41227836.454   216653808.085        -779.341          43.000  
E33  28980180.525   152291861.142         239.079          38.000    28980180.142   116691211.374         183.474          34.000  
G13  24108746.845   126692225.831       -4246.367          47.000                                                                  
G15  23030606.117   121026645.789       -3026.948          47.000    23030605.215    94306505.613       -2358.601          44.000  
G17  24881299.160   130752207.283       -3922.541          39.000    24881294.118   101884989.541       -3056.532          42.000  
R14  22273855.345   118732246.569       -1985.785          54.000    22273854.131    92347386.355       -1544.562          49.000  
R17  23613939.694   126363348.466        3062.098          50.000    23613941.262    98282805.043        2381.731          47.000  
R05  22204922.820   118698068.329        -978.009          52.000    22204921.524    92320733.463        -760.797          50.000  
R04  22787372.459   122025305.584       -4349.818          52.000    22787372.847    94908579.885       -3383.163          48.000  
G19  23435087.709   123152395.268       -2946.954          44.000                                                                  
G22  25656584.870   134826248.927       -3849.767          34.000                                                                  
G06  25619874.025   134633501.808        1278.961          44.000    25619876.168   104909263.061         996.511          43.000  
S31  40275620.131   211649871.812        -778.470          44.000  
R15  22253514.813   118916242.290         273.834          52.000    22253512.056    92490578.461         212.933          48.000  
R24  22669067.713   121222014.094          31.472          50.000    22669063.902    94283806.885          24.532          45.000  
E31  26894528.341   141331734.523       -2574.765          44.000    26894530.375   108293184.185       -1972.808          45.000  
E09  26349655.627   138468359.790       -3200.604          47.000    26349660.195   106099145.558       -2452.440          52.000  
E24  25327376.350   133096370.470        -936.405          49.000    25327375.298   101982990.081        -717.491          50.000  
G24  22344785.302   117422741.839         515.930          48.000    22344783.451    91498310.563         402.039          46.000  
G12  23072569.691   121247447.066         278.676          47.000    23072567.091    94478649.583         217.120          46.000  
E05  24088225.126   126584544.036        -563.562          48.000    24088226.935    96993393.349        -431.778          51.000  
G25  24947218.186   131098646.058        1283.959          44.000    24947221.069   102154837.162        1000.365          42.000  
E25  27550395.275   144778528.596         808.696          45.000    27550401.573   110934330.535         619.644          47.000  
E12  29256760.423   153745504.759        1667.885          41.000    29256768.844   117805169.784        1277.903          43.000  
E14  20494420.463   107698985.195        1139.203          49.000    20494423.829    82522637.750         872.837          53.000  
E03                                                                  28776609.581   115871513.035        1241.891          36.000  
> 2024 04 14 23 37 30.0050000  0 26                     
S33  41232284.049   216677179.621        -778.832          42.000  
E33  28978845.596   152284852.340         228.116          37.000    28978844.747   116685841.073         174.638          34.000  
G13  24133010.899   126819733.653       -4254.150          47.000                                                                  
G15  23047923.991   121117653.349       -3039.915          47.000    23047923.797    94377420.469       -2368.821          44.000  
G17  24903723.247   130870048.326       -3933.226          38.000    24903718.947   101976813.756       -3064.676          43.000  
R14  22285041.394   118791873.358       -1989.203          54.000    22285039.917    92393762.761       -1547.144          51.000  
R17  23596794.904   126271603.297        3054.281          51.000    23596796.348    98211448.361        2375.542          48.000  
R05  22210487.071   118727813.540       -1004.895          51.000    22210485.916    92343868.596        -781.604          50.000  
R04  22811778.347   122155997.187       -4362.874          52.000    22811779.892    95010228.618       -3393.207          48.000  
G19  23451956.365   123241039.236       -2962.432          45.000                                                                  
G22  25678564.780                       -3850.171          30.000                                                                  
G06  25612597.584   134595264.094        1270.357          44.000    25612599.606   104879467.598         989.884          42.000  
S31  40280064.402   211673225.059        -778.350          44.000  
R15  22251989.330   118908089.956         269.727          52.000    22251986.170    92484237.808         209.833          48.000  
R24  22668962.520   121221447.398           6.473          51.000    22668958.451    94283366.210           5.072          46.000  
E31  26909227.085   141408977.731       -2574.892          44.000    26909229.524   108352370.580       -1972.927          46.000  
E09  26367951.443   138564505.547       -3209.105          47.000    26367955.950   106172815.571       -2458.868          51.000  
E24  25332735.181   133124531.252        -940.859          49.000    25332734.042   102004567.857        -720.918          50.000  
G24  22341866.186   117407400.764         506.976          49.000    22341863.846    91486356.509         394.971          47.000  
G12  23071002.321   121239213.474         270.321          48.000    23071000.021    94472233.893         210.680          46.000  
E05  24091480.806   126601658.242        -577.466          47.000    24091483.519    97006506.830        -442.355          51.000  
G25  24939903.202   131060205.995        1278.956          44.000    24939905.655   102124884.094         996.404          41.000  
E25  27545792.572   144754336.165         804.284          46.000    27545797.747   110915793.627         616.243          47.000  
E12  29247242.051   153695488.704        1666.605          40.000    29247250.616   117766846.575        1277.102          44.000  
E14  20488022.015   107665366.481        1102.296          48.000    20488026.110    82496878.197         844.546          53.000  
E03                                                                  28767376.649   115834334.349        1236.675          35.000  
> 2024 04 14 23 38 00.0050000  0 26                     
S33  41236730.337   216700547.324        -778.821          43.000  
E33  28977578.165   152278191.393         216.161          37.000    28977574.637   116680737.259         166.278          33.000  
G13  24157320.360   126947474.221       -4262.006          48.000                                                                  
G15  23065317.686   121209052.186       -3053.375          48.000    23065315.947    94448640.192       -2379.071          43.000  
G17  24926207.520   130988206.769       -3943.413          32.000    24926203.537   102068885.302       -3073.078          43.000  
R14  22296246.572   118851608.162       -1993.030          53.000    22296245.172    92440223.149       -1550.122          50.000  
R17  23579695.426   126180102.606        3045.818          51.000    23579697.253    98140281.840        2368.870          47.000  
R05  22216202.447   118758365.362       -1031.964          52.000    22216200.270    92367631.092        -802.637          49.000  
R04  22836258.111   122287082.551       -4376.150          52.000    22836259.520    95112183.581       -3403.576          47.000  
G19  23468911.922   123330143.630       -2977.938          44.000                                                                  
G22  25700540.228                       -3849.314          26.000                                                                  
G06  25605369.388   134557285.211        1261.478          43.000    25605373.017   104849873.868         983.082          42.000  
S31  40284507.426   211696576.928        -778.558          44.000  
E03  28758187.349   151125271.5771       1606.451          29.000    28758182.244   115797319.716        1230.812          33.000  
R15  22250486.805   118900064.956         265.295          51.000    22250484.582    92477996.205         206.354          48.000  
R24  22668998.254   121221637.156         -19.111          51.000    22668994.713    94283513.855         -14.697          46.000  
E31  26923928.521   141486229.267       -2575.225          43.000    26923929.742   108411563.303       -1973.337          45.000  
E09  26386295.322   138660904.717       -3217.599          47.000    26386300.281   106246679.746       -2465.434          51.000  
E24  25338120.209   133152829.162        -945.689          49.000    25338118.689   102026250.698        -724.655          50.000  
G24  22338998.381   117392330.707         497.546          49.000    22338996.620    91474613.631         387.689          47.000  
G12  23069484.393   121231234.379         261.653          47.000    23069481.415    94466016.492         203.739          46.000  
E05  24094817.468   126619189.139        -591.402          47.000    24094819.446    97019939.591        -453.246          51.000  
G25  24932615.333   131021916.252        1273.748          43.000    24932619.466   102095048.190         992.571          42.000  
E25  27541213.715   144730276.322         799.784          46.000    27541219.121   110897358.331         612.868          47.000  
E12  29237731.760   153645510.355        1665.140          41.000    29237739.326   117728552.233        1275.875          43.000  
E14  20481835.456   107632858.367        1065.060          48.000    20481840.124    82471969.620         816.062          54.000  
> 2024 04 14 23 38 30.0050000  0 26                     
S33  41241176.187   216723910.565        -778.661          43.000  
E33  28976375.989   152271875.532         204.881          36.000    28976370.550   116675897.911         156.860          33.000  
G13  24181672.187   127075440.675       -4269.366          48.000                                                                  
G15  23082783.469   121300835.732       -3065.809          48.000    23082782.054    94520159.732       -2388.864          44.000  
G17  24948748.714   131106675.819       -3954.827          32.000    24948747.076   102161198.782       -3081.173          43.000  
R14  22307472.659   118911446.851       -1996.381          53.000    22307471.076    92486764.377       -1552.631          49.000  
R17  23562641.101   126088846.795        3037.796          51.000    23562643.575    98069305.739        2362.698          48.000  
R05  22222067.418   118789718.443       -1058.490          52.000    22222065.458    92392016.817        -823.334          49.000  
R04  22860808.638   122418552.867       -4388.639          51.000    22860811.185    95214437.990       -3413.490          47.000  
G19  23485954.154   123419701.866       -2992.904          43.000                                                                  
G22  25722513.089                3      -3849.038          27.000                                                                  
G06  25598191.683   134519564.119        1253.141          43.000    25598194.777   104820481.002         976.298          41.000  
S31  40288950.330   211719923.568        -778.271          44.000  
E03  28749036.665                        1599.390          30.000    28749030.684   115760467.298        1225.940          34.000  
R15  22249007.172   118892162.730         261.243          51.000    22249005.481    92471850.078         203.229          48.000  
R24  22669175.193   121222581.136         -44.154          51.000    22669170.614    94284248.150         -34.415          45.000  
E31  26938628.188   141563484.324       -2575.041          43.000    26938631.014   108470758.794       -1973.153          46.000  
E09  26404687.272   138757551.624       -3225.635          47.000    26404691.652   106320733.735       -2471.570          51.000  
E24  25343529.936   133181259.266        -949.857          49.000    25343528.847   102048034.836        -727.809          50.000  
G24  22336181.455   117377529.377         488.806          49.000    22336179.643    91463080.142         380.951          47.000  
G12  23068013.638   121223504.924         253.470          47.000    23068010.346    94459993.634         197.367          46.000  
E05  24098232.228   126637133.001        -604.882          48.000    24098234.322    97033688.775        -463.569          51.000  
G25  24925356.288   130983772.516        1268.955          43.000    24925360.555   102065326.030         988.725          42.000  
E25  27536659.064   144706344.635         795.470          45.000    27536664.573   110879021.215         609.632          47.000  
E12  29228226.795   153595567.698        1664.250          40.000    29228234.919   117690285.244        1274.941          44.000  
E14  20475860.348   107601459.133        1028.214          48.000    20475864.654    82447910.710         787.803          53.000  
> 2024 04 14 23 39 00.0050000  0 27                     
S33  41245621.553   216747270.404        -778.766          43.000  
E33  28975237.587   152265908.166         192.552          33.000    28975239.597   116671325.513         147.814          36.000  
G13  24206065.856   127203632.586       -4277.207          47.000                                                                  
G15  23100322.646   121393003.864       -3078.928          48.000    23100321.850    94591978.917       -2399.191          44.000  
G17  24971353.654                       -3964.692          29.000    24971349.221   102253753.511       -3089.393          42.000  
R14  22318717.304   118971391.400       -2000.244          53.000    22318716.740    92533387.890       -1555.676          49.000  
R17  23545634.302   125997842.893        3028.984          51.000    23545636.151    97998525.521        2355.920          49.000  
R05  22228083.851   118821874.599       -1085.486          53.000    22228080.816    92417027.117        -844.226          49.000  
R04  22885430.588   122550405.508       -4401.609          49.000    22885431.995    95316989.722       -3423.487          45.000  
G19  23503082.770   123509713.449       -3008.032          44.000                                                                  
G22  25744482.431   135288164.5401      -3848.412          32.000                                                                  
G06  25591063.721   134482105.950        1243.872          42.000    25591065.255   104791292.961         969.133          39.000  
S31  40293392.675   211743266.560        -778.225          44.000  
E03  28739924.181   151029295.800        1592.043          32.000    28739918.638   115723779.973        1219.773          33.000  
R15  22247551.967   118884385.189         257.013          51.000    22247549.793    92465800.936         199.884          48.000  
R24  22669493.627   121224282.859         -69.675          52.000    22669489.545    94285571.769         -54.231          46.000  
E31  26953333.237   141640744.583       -2575.786          44.000    26953333.534   108529958.180       -1973.552          46.000  
E09  26423126.358   138854446.733       -3234.226          48.000    26423130.368   106394977.918       -2478.182          51.000  
G11  26453146.637   139012238.0731       1868.552          41.000                                                                  
E24  25348964.635   133209822.852        -954.629          48.000    25348964.189   102069921.251        -731.402          50.000  
G24  22333416.681   117363000.716         479.468          49.000    22333415.005    91451759.117         373.621          47.000  
G12  23066590.417   121216026.695         245.093          47.000    23066587.122    94454166.534         190.703          46.000  
E05  24101725.236   126655492.206        -619.068          47.000    24101728.194    97047756.213        -474.421          52.000  
G25  24918126.089   130945776.553        1263.694          42.000    24918130.012   102035718.992         984.696          42.000  
E25  27532129.322   144682542.730         790.969          45.000    27532135.225   110860783.565         606.068          47.000  
E12  29218729.676   153545664.923        1662.386          40.000    29218737.774   117652048.772        1273.823          43.000  
E14  20470097.369   107571173.153         990.752          49.000    20470101.331    82424704.788         759.109          53.000  
> 2024 04 14 23 39 30.0050000  0 27                     
S33  41250069.364   216770642.963        -780.309          43.000  
E33  28974174.127   152260306.820         179.554          36.000    28974173.409   116667033.619         138.033          36.000  
G13  24230506.462   127332063.263       -4285.914          47.000                                                                  
G15  23117937.212   121485570.032       -3093.180          48.000    23117937.229    94664108.237       -2410.222          45.000  
G17  24994028.072   131344530.1443      -3976.081          28.000    24994013.865   102346559.710       -3098.441          42.000  
R14  22329985.100   119031458.284       -2005.219          53.000    22329985.440    92580106.572       -1559.631          49.000  
R17  23528678.524   125907111.984        3018.815          51.000    23528681.197    97927957.604        2347.987          49.000  
R05  22234252.101   118854849.009       -1113.690          52.000    22234249.862    92442673.858        -866.132          49.000  
R04  22910127.412   122682652.424       -4415.691          49.000    22910128.983    95419848.043       -3434.501          47.000  
G19  23520300.839   123600192.044       -3024.589          45.000                                                                  
G22  25766452.129                       -3849.220          27.000                                                                  
G06  25583989.098   134444929.746        1233.745          42.000    25583990.486   104762324.710         961.425          39.000  
S31  40297837.160   211766622.320        -779.807          44.000  
E03  28730856.535                        1583.681          30.000    28730850.557                        1213.363          31.000  
R15  22246122.861   118876748.404         251.398          51.000    22246120.780    92459861.273         195.471          49.000  
R24  22669956.182   121226760.844         -96.473          51.000    22669952.651    94287499.123         -74.994          45.000  
E31  26968035.934   141718025.458       -2577.187          43.000    26968039.906   108589173.456       -1974.776          46.000  
E09  26441613.573   138951604.679       -3243.774          46.000    26441618.826   106469423.463       -2485.463          51.000  
G11  26442476.176   138956169.364        1868.483          44.000                                                                  
E24  25354429.590   133238535.206        -960.499          49.000    25354428.208   102091921.658        -735.906          50.000  
G24  22330707.348   117348762.702         468.811          49.000    22330705.503    91440664.582         365.302          47.000  
G12  23065218.218   121208814.620         234.972          47.000    23065214.459    94448546.829         183.049          45.000  
E05  24105300.389   126674283.295        -634.384          47.000    24105303.892    97062154.578        -486.170          51.000  
G25  24910926.892   130907944.233        1257.375          42.000    24910931.160   102006239.505         979.702          43.000  
E25  27527627.004   144658886.460         785.243          45.000    27527634.099   110842657.522         601.747          48.000  
E12  29209243.856   153495820.451        1659.430          41.000    29209252.342   117613856.942        1271.743          44.000  
E14  20464549.417   107542018.846         952.010          48.000    20464553.258    82402366.013         729.484          53.000  
> 2024 04 14 23 40 00.0050000  0 27                     
S33  41254516.994   216794016.280        -778.270          42.000  
E33  28973176.145   152255060.356         169.777          36.000    28973174.235   116663013.586         129.986          35.000  
G13  24254989.120   127460717.926       -4291.524          47.000                                                                  
G15  23135625.225   121578519.342       -3103.910          49.000    23135624.655    94736536.118       -2418.669          45.000  
R14  22341274.636   119091635.050       -2006.964          52.000    22341273.010    92626910.770       -1560.889          48.000  
R17  23511772.778   125816646.247        3011.840          50.000    23511774.871    97857595.961        2342.521          49.000  
R05  22240570.939   118888628.266       -1138.739          52.000    22240568.524    92468946.578        -885.547          49.000  
R04  22934894.357   122815275.937       -4426.156          49.000    22934896.014    95522999.285       -3442.455          46.000  
G19  23537604.987   123691123.024       -3037.776          45.000                                                                  
G22  25788413.881   135519040.4123      -3847.218          29.000                                                                  
G06  25576967.069   134408026.163        1226.332          43.000    25576968.084   104733568.876         955.625          41.000  
S31  40302281.579   211789979.158        -777.538          44.000  
E03  28721827.789                        1578.288          28.000    28721826.887   115650933.316        1208.941          34.000  
R15  22244718.305   118869239.354         248.944          51.000    22244715.396    92454020.959         193.805          48.000  
R24  22670562.541   121230004.215        -120.118          51.000    22670558.757    94290021.799         -93.378          45.000  
E31  26982745.811   141795314.074       -2575.651          45.000    26982747.625   108648394.585       -1973.450          47.000  
E09  26460150.187   139049011.428       -3250.263          46.000    26460154.162   106544059.667       -2490.338          50.000  
G11  26431798.655   138900063.480        1871.560          43.000                                                                  
E24  25359918.958   133267383.053        -963.127          49.000    25359917.854   102114025.888        -737.885          51.000  
G24  22328050.905   117334804.727         461.200          49.000    22328049.670    91429788.248         359.442          47.000  
G12  23063894.693   121201855.906         228.322          48.000    23063889.937    94443124.539         177.798          45.000  
E05  24108956.226   126693494.120        -646.503          46.000    24108959.320    97076874.544        -495.424          51.000  
G25  24903756.592   130870262.830        1254.234          42.000    24903760.202   101976877.574         977.688          42.000  
E25  27523151.551   144635362.978         782.668          45.000    27523157.537   110824633.238         599.669          48.000  
E12  29199768.135   153446023.883        1660.028          40.000    29199775.786   117575701.843        1271.867          44.000  
E14  20459214.813   107513985.926         916.381          48.000    20459218.040    82380886.482         702.222          52.000  
G17                                                                  25016736.722   102439605.675       -3104.944          42.000  
> 2024 04 14 23 40 30.0050000  0 27                     
S33  41258961.109   216817369.969        -778.780          43.000  
E33  28972240.620   152250150.855         157.439          35.000    28972242.384   116659251.810         120.412          36.000  
G13  24279509.529   127589574.458       -4299.165          47.000                                                                  
G15  23153381.796   121671830.154       -3117.008          49.000    23153380.945    94809245.713       -2428.859          44.000  
G17  25039516.306                3      -3996.489          26.000    25039513.974   102532873.761       -3113.101          42.000  
R14  22352580.220   119151902.126       -2011.176          53.000    22352578.841    92673785.138       -1564.301          48.000  
R17  23494913.387   125726430.578        3002.200          50.000    23494914.508    97787428.795        2334.999          47.000  
R05  22247036.464   118923191.991       -1165.857          51.000    22247034.550    92495829.428        -906.848          49.000  
R04  22959727.834   122948252.108       -4439.071          50.000    22959728.031    95626424.776       -3452.450          44.000  
G19  23554990.512   123782484.635       -3053.222          45.000                                                                  
G22  25810379.225                1      -3847.091          30.000                                                                  
G06  25569992.928   134371378.969        1216.472          42.000    25569994.547   104705012.769         947.839          40.000  
S31  40306722.418   211813316.105        -778.040          44.000  
R15  22243332.782   118861838.080         244.232          51.000    22243329.979    92448264.489         189.990          48.000  
R24  22671309.383   121233994.958        -146.157          51.000    22671304.804    94293125.790        -113.523          44.000  
E31  26997450.205   141872590.583       -2576.402          44.000    26997453.313   108707606.502       -1974.113          48.000  
E09  26478730.173   139146646.169       -3258.943          47.000    26478733.800   106618870.548       -2497.085          50.000  
G11  26421109.811   138843903.926        1872.265          40.000                                                                  
E24  25365429.805   133296346.372        -967.961          49.000    25365429.387   102136218.590        -741.716          51.000  
G24  22325444.953   117321109.410         451.514          48.000    22325443.372    91419116.591         351.807          47.000  
G12  23062614.121   121195130.741         219.681          47.000    23062610.836    94437884.221         171.101          45.000  
E05  24112688.529   126713105.771        -660.926          46.000    24112691.282    97091901.647        -506.518          51.000  
G25  24896611.052   130832712.863        1248.697          42.000    24896613.934   101947618.133         972.846          41.000  
E25  27518696.862   144611952.715         777.785          46.000    27518702.489   110806695.667         595.987          48.000  
E12  29190297.103   153396258.251        1657.776          40.000    29190305.344   117537570.402        1270.167          44.000  
E14  20454090.409   107487057.272         878.552          49.000    20454093.274    82360253.056         673.172          52.000  
E03                                                                  28712840.474   115614752.332        1203.006          33.000  
> 2024 04 14 23 41 00.0050000  0 27                     
S33  41263405.758   216840726.251        -778.807          43.000  
E33  28971376.401   152245600.437         145.622          36.000    28971375.393   116655765.153         112.160          34.000  
G13  24304073.502   127718651.196       -4306.097          47.000                                                                  
G15  23171210.637   121765521.285       -3129.180          49.000    23171210.311    94882251.624       -2438.329          44.000  
G17  25062348.996   131703480.7911      -4003.908          31.000    25062348.376   102626378.122       -3120.457          42.000  
R14  22363908.959   119212280.656       -2014.398          53.000    22363905.738    92720746.251       -1566.785          47.000  
R17  23478105.222   125636490.976        2993.359          50.000    23478106.151    97717476.275        2328.077          47.000  
R05  22253652.562   118958559.832       -1192.267          52.000    22253650.506    92523337.703        -927.222          48.000  
R04  22984629.168   123081597.375       -4450.866          50.000    22984630.751    95730137.337       -3461.673          45.000  
G19  23572461.427   123874295.646       -3067.803          45.000                                                                  
G22  25832341.219   135749842.8181      -3846.019          33.000                                                                  
G06  25563071.957   134335011.879        1207.758          44.000    25563074.123   104676674.979         940.935          43.000  
S31  40311163.744   211836655.866        -777.896          44.000  
R15  22241971.457   118854565.598         240.332          51.000    22241969.305    92442608.193         186.951          49.000  
R24  22672198.812   121238755.729        -171.492          51.000    22672194.649    94296828.729        -133.304          44.000  
E31  27012158.370   141949875.352       -2575.987          44.000    27012160.078   108766824.692       -1973.995          48.000  
E09  26497356.090   139244528.097       -3266.844          47.000    26497360.262   106693870.848       -2503.111          50.000  
G11  26410415.363   138787714.480        1873.290          42.000                                                                  
E24  25370967.297   133325445.158        -972.202          49.000    25370966.601   102158515.081        -744.901          51.000  
G24  22322893.408   117307699.467         442.236          49.000    22322891.489    91408667.292         344.647          47.000  
G12  23061381.677   121188659.183         211.606          47.000    23061379.553    94432841.539         164.714          45.000  
E05  24116500.245   126733139.361        -674.773          46.000    24116503.452    97107252.067        -517.066          51.000  
G25  24889494.338   130795314.903        1243.993          43.000    24889497.162   101918477.087         969.551          42.000  
E25  27514266.662   144588676.079         773.834          45.000    27514273.011   110788860.507         592.814          48.000  
E12  29180837.075   153346546.571        1656.141          41.000    29180845.107   117499480.327        1269.067          44.000  
E14  20449181.354   107461255.732         841.190          50.000    20449183.327    82340483.232         644.601          52.000  
E03                                                                  28703897.177   115578745.762        1196.487          31.000  
> 2024 04 14 23 41 30.0050000  0 27                     
S33  41267850.000   216864081.703        -778.524          43.000  
E33  28970579.447   152241408.183         133.651          36.000    28970577.423   116652552.917         102.572          35.000  
G13  24328677.439   127847943.150       -4313.256          47.000                                                                  
G15  23189110.116   121859587.573       -3141.794          49.000    23189110.565    94955549.892       -2448.061          44.000  
G17  25085238.666   131823776.539       -4014.027          35.000    25085239.861   102720115.051       -3128.086          41.000  
R14  22375255.643   119272768.415       -2018.048          54.000    22375253.485    92767792.299       -1569.653          50.000  
R17  23461348.323   125546830.119        2984.017          49.000    23461350.230    97647740.534        2321.013          47.000  
R05  22260418.778   118994728.812       -1218.903          51.000    22260416.887    92551469.105        -948.041          49.000  
R04  23009598.846   123215304.955       -4462.815          50.000    23009600.532    95834131.755       -3471.262          44.000  
G19  23590016.794   123966551.214       -3082.531          45.000                                                                  
G22  25854296.710   135865220.037       -3845.346          33.000                                                                  
G06  25556205.763   134298925.819        1198.053          45.000    25556206.766   104648556.138         933.554          44.000  
S31  40315605.372   211859995.283        -777.645          44.000  
R15  22240635.153   118847419.351         236.237          52.000    22240632.255    92437050.057         183.783          49.000  
R24  22673233.054   121244286.027        -197.073          51.000    22673229.562    94301130.144        -153.344          46.000  
E31  27026864.435   142027165.562       -2576.428          44.000    27026867.673   108826047.073       -1974.071          48.000  
E09  26516028.216   139342653.439       -3274.833          46.000    26516033.304   106769057.631       -2509.143          51.000  
G11  26399716.408   138731495.800        1874.571          41.000                                                                  
E24  25376529.538   133354676.380        -976.489          49.000    25376528.975   102180913.062        -748.213          51.000  
G24  22320395.967   117294574.501         432.837          48.000    22320394.118    91398440.061         337.299          47.000  
G12  23060198.356   121182438.601         203.420          47.000    23060195.516    94427994.413         158.468          45.000  
E05  24120392.871   126753592.983        -688.737          47.000    24120395.805    97122924.320        -527.599          51.000  
G25  24882405.331   130758066.496        1239.396          41.000    24882409.524   101889452.580         965.786          43.000  
E25  27509862.671   144565530.550         769.542          46.000    27509868.204   110771125.774         589.513          48.000  
E12  29171386.473   153296888.745        1654.731          41.000    29171394.474   117461431.487        1267.776          43.000  
E14  20444484.533   107436581.002         803.711          49.000    20444487.875    82321576.826         615.893          52.000  
E03                                                                  28694997.848   115542913.057        1192.188          32.000  
> 2024 04 14 23 42 00.0050000  0 27                     
S33  41272293.890   216887437.747        -778.270          43.000  
E33  28969848.826   152237574.499         121.605          35.000    28969848.624   116649615.499          93.420          36.000  
G13  24353321.846   127977446.704       -4320.132          47.000                                                                  
G15  23207080.925   121954025.662       -3153.963          48.000    23207081.353    95029137.874       -2457.875          44.000  
G17  25108190.616   131944366.688       -4024.542          36.000    25108187.000   102814081.367       -3135.746          39.000  
R14  22386624.319   119333364.689       -2021.655          53.000    22386621.687    92814922.743       -1572.437          50.000  
R17  23444646.193   125457451.896        2974.499          49.000    23444647.786    97578224.646        2313.503          48.000  
R05  22267335.085   119031697.200       -1245.545          51.000    22267332.369    92580222.263        -968.774          48.000  
R04  23034635.494   123349369.062       -4474.643          50.000    23034635.399    95938403.427       -3480.322          42.000  
G19  23607655.668   124059247.838       -3097.060          45.000                                                                  
G22  25876251.582   135980578.171       -3844.927          35.000                                                                  
G06  25549392.104   134263122.860        1188.589          44.000    25549393.345   104620657.896         926.211          44.000  
S31  40320045.887   211883333.356        -777.991          44.000  
E03  28686140.577                1       1547.595          29.000    28686141.664   115507255.012        1185.940          32.000  
R15  22239320.638   118840398.292         232.050          52.000    22239317.804    92431589.323         180.402          49.000  
R24  22674412.838   121250586.714        -222.873          52.000    22674408.131    94306030.743        -173.198          46.000  
E31  27041574.143   142104459.878       -2576.514          45.000    27041576.034   108885272.585       -1974.263          48.000  
E09  26534746.657   139441019.758       -3282.868          46.000    26534751.519   106844429.085       -2515.400          50.000  
G11  26389011.974   138675249.909        1875.372          41.000                                                                  
E24  25382117.196   133384038.392        -980.888          49.000    25382116.503   102203411.251        -751.587          51.000  
G24  22317952.534   117281735.548         423.285          49.000    22317950.964    91388435.695         329.883          47.000  
G12  23059061.665   121176467.058         195.120          46.000    23059058.930    94423341.350         151.835          45.000  
E05  24124365.794   126774466.076        -702.849          47.000    24124367.897    97138917.964        -538.533          51.000  
G25  24875344.207   130720966.494        1234.086          41.000    24875347.986   101860543.700         961.667          42.000  
E25  27505481.964   144542514.845         765.004          45.000    27505488.484   110753490.536         586.230          48.000  
E12  29161948.186   153247286.244        1652.661          42.000    29161954.994   117423424.993        1266.260          44.000  
E14  20440002.138   107413034.060         766.050          48.000    20440007.026    82303534.595         587.028          53.000  
> 2024 04 14 23 42 30.0050000  0 28                     
S33  41276739.652   216910797.438        -778.645          43.000  
E33  28969189.972   152234106.733         109.875          37.000    28969189.954   116646958.452          84.058          38.000  
G13  24378007.602   128107165.494       -4327.151          47.000                                                                  
G15  23225123.685   122048839.145       -3166.319          48.000    23225124.449    95103018.344       -2467.500          44.000  
G17  25131196.158   132065253.964       -4034.266          41.000    25131190.620   102908279.257       -3143.950          37.000  
R14  22398011.844   119394075.716       -2025.317          55.000    22398011.396    92862142.438       -1575.330          49.000  
R17  23427999.347   125368367.208        2964.770          50.000    23428000.662    97508937.029        2305.899          49.000  
R05  22274401.150   119069469.402       -1272.131          51.000    22274399.044    92609600.597        -989.404          49.000  
R04  23059738.825   123483791.361       -4486.400          50.000    23059739.246    96042953.697       -3489.162          44.000  
G19  23625380.277   124152389.172       -3111.854          45.000                                                                  
G22  25898201.361   136095922.681       -3844.613          35.000                                                                  
G06  25542633.897   134227611.963        1178.990          43.000    25542635.977   104592987.234         918.889          44.000  
S31  40324488.188   211906676.189        -777.913          44.000  
R15  22238031.331   118833508.257         227.747          52.000    22238028.911    92426230.483         177.246          48.000  
R23  25255848.365                3      -3572.719          25.000                                                                  
R24  22675736.564   121257665.107        -248.663          52.000    22675731.845    94311536.229        -193.503          46.000  
E31  27056283.581   142181763.829       -2576.824          43.000    27056286.252   108944505.480       -1974.282          48.000  
E09  26553511.583   139539631.447       -3290.900          46.000    26553516.867   106919988.564       -2521.585          50.000  
G11  26378303.548   138618985.774        1876.208          42.000                                                                  
E24  25387730.865   133413536.392        -985.098          49.000    25387729.834   102226013.648        -754.831          51.000  
G24  22315565.075   117269190.493         413.464          48.000    22315563.658    91378660.354         322.034          47.000  
G12  23057973.208   121170749.583         186.637          46.000    23057970.190    94418886.240         145.498          44.000  
E05  24128418.860   126795764.884        -716.706          47.000    24128420.993    97155237.820        -549.283          51.000  
G25  24868313.462   130684020.673        1228.979          42.000    24868316.749   101831754.962         958.023          40.000  
E25  27501128.185   144519634.640         760.693          46.000    27501134.134   110735959.114         582.874          48.000  
E12  29152520.009   153197747.096        1650.401          41.000    29152527.703   117385467.067        1264.474          44.000  
E14  20435737.580   107390622.754         728.357          48.000    20435742.388    82286362.495         558.028          53.000  
E03                                                                  28677331.027   115471777.470        1180.000          34.000  
> 2024 04 14 23 43 00.0050000  0 28                     
S33  41281183.152   216934150.078        -778.585          42.000  
E33  28968596.038   152230994.975          97.847          37.000    28968597.746   116644574.135          74.920          39.000  
G13  24402730.328   128237085.685       -4334.136          45.000                                                                  
G15  23243236.155   122144014.391       -3178.587          49.000    23243235.776    95177180.664       -2476.713          44.000  
G17  25154254.894   132186424.694       -4044.188          41.000    25154248.324   103002697.999       -3150.836          37.000  
R14  22409420.244   119454889.913       -2029.028          55.000    22409419.651    92909442.377       -1578.192          51.000  
R17  23411404.695   125279569.206        2954.961          51.000    23411405.591    97439872.409        2298.340          48.000  
R05  22281616.105   119108033.106       -1298.737          52.000    22281613.157    92639594.557       -1010.175          50.000  
R04  23084904.766   123618555.610       -4497.808          50.000    23084905.201    96147769.863       -3498.227          45.000  
G19  23643186.284   124245961.699       -3126.286          45.000                                                                  
G22  25920145.475   136211241.753       -3843.916          35.000                                                                  
G06  25535930.605   134192384.941        1169.247          44.000    25535931.967   104565537.813         911.168          43.000  
S31  40328929.011   211930012.970        -777.723          44.000  
R15  22236764.082   118826737.696         223.529          52.000    22236761.798    92420964.507         173.828          49.000  
R23  25275936.545                3      -3588.006          23.000                                                                  
R24  22677202.728   121265511.788        -274.349          52.000    22677198.654    94317639.244        -213.451          46.000  
E31  27070994.269   142259065.668       -2576.756          44.000    27070996.266   109003736.763       -1974.468          48.000  
E09  26572322.059   139638475.772       -3298.696          46.000    26572326.800   106995726.257       -2527.602          50.000  
G11  26367591.253   138562695.136        1876.452          42.000                                                                  
E24  25393366.991   133443158.463        -989.506          49.000    25393366.555   102248711.119        -758.235          51.000  
G24  22313232.061   117256929.973         403.748          47.000    22313230.526    91369106.725         314.563          47.000  
G12  23056931.968   121165274.611         178.304          48.000    23056928.195    94414620.074         138.998          44.000  
E05  24132550.518   126817478.506        -730.856          47.000    24132552.973    97171875.530        -560.006          51.000  
G25  24861310.214   130647217.577        1224.244          41.000    24861312.910   101803077.441         953.688          39.000  
E25  27496797.047   144496878.359         756.511          46.000    27496803.361   110718522.646         579.642          48.000  
E12  29143103.431   153148262.361        1648.348          41.000    29143110.516   117347550.835        1263.250          44.000  
E14  20431687.668   107369337.578         690.714          48.000    20431691.531    82270053.269         529.240          53.000  
E03                                                                  28668563.037   115436473.127        1174.143          34.000  
> 2024 04 14 23 43 30.0050000  0 28                     
S33  41285624.619   216957488.539        -777.428          43.000  
E33  28968070.024   152228231.164          86.908          36.000    28968070.925   116642456.401          66.478          40.000  
G13  24427490.519   128367195.105       -4339.823          45.000                                                                  
G15  23261413.822   122239539.409       -3189.789          48.000    23261413.596    95251615.581       -2485.493          44.000  
G17  25177364.490   132307867.324       -4052.284          43.000    25177356.571   103097328.666       -3157.698          36.000  
R14  22420847.719   119515798.616       -2031.622          54.000    22420846.340    92956815.811       -1580.243          52.000  
R17  23394862.605   125191053.249        2946.032          50.000    23394863.010    97371027.084        2291.359          47.000  
R05  22288975.801   119147377.625       -1324.188          52.000    22288973.826    92670195.801       -1029.926          49.000  
R04  23110132.857   123753647.940       -4508.172          49.000    23110133.169    96252841.213       -3506.544          45.000  
G19  23661073.142   124339953.678       -3139.720          46.000                                                                  
G22  25942083.635                       -3842.485          34.000                                                                  
G06  25529279.479   134157435.515        1160.624          44.000    25529280.872   104538304.634         904.249          44.000  
S31  40333366.784   211953334.049        -776.731          44.000  
R15  22235517.657   118820076.807         220.508          52.000    22235515.271    92415783.893         171.588          49.000  
R23  25296136.195                3      -3611.298          22.000                                                                  
R24  22678811.773   121274118.408        -299.283          50.000    22678807.839    94324333.347        -232.871          48.000  
E31  27085701.435   142336355.661       -2575.991          43.000    27085703.518   109062958.976       -1973.698          48.000  
E09  26591174.023   139737541.842       -3305.710          46.000    26591178.555   107071633.832       -2532.796          50.000  
G11  26356871.907   138506371.562        1878.275          43.000                                                                  
E24  25399025.976   133472894.456        -992.736          49.000    25399025.470   102271495.869        -760.745          52.000  
G24  22310952.138   117244946.601         395.001          49.000    22310950.245    91359769.052         307.770          47.000  
G12  23055934.546   121160032.283         170.975          46.000    23055930.819    94410535.234         133.436          45.000  
E05  24136759.113   126839597.876        -743.778          47.000    24136761.780    97188824.140        -569.965          50.000  
G25  24854332.819   130610547.595        1220.392          44.000    24854334.315   101774503.663         950.907          40.000  
E25  27492488.715   144474236.365         753.112          46.000    27492494.715   110701173.747         576.940          48.000  
E12  29133694.889   153098824.959        1647.193          40.000    29133702.156   117309670.858        1262.384          45.000  
E14  20427850.079   107349170.856         653.861          48.000    20427853.497    82254601.033         500.966          53.000  
E03                                                                  28659837.333   115401336.251        1168.516          35.000  
> 2024 04 14 23 44 00.0050000  0 27                     
S33  41290057.535   216980785.532        -775.775          42.000  
E33  28967603.665   152225791.563          76.382          33.000    28967607.010   116640587.159          58.044          40.000  
G13  24452279.719   128497466.377       -4345.186          44.000                                                                  
G15  23279653.587   122335387.134       -3200.462          49.000    23279653.064    95326301.951       -2493.898          44.000  
G17  25200519.979   132429553.664       -4060.400          44.000    25200513.364   103192149.189       -3164.026          38.000  
R14  22432285.888   119576776.261       -2034.015          54.000    22432285.131    93004242.838       -1581.982          51.000  
R17  23378370.197   125102798.728        2937.192          50.000    23378369.487    97302385.070        2284.604          46.000  
R05  22296476.837   119187476.514       -1349.378          51.000    22296474.711    92701383.758       -1049.542          50.000  
R04  23135416.908   123889038.146       -4518.064          50.000    23135415.460    96358144.224       -3514.122          43.000  
G19  23679033.521   124434337.455       -3152.764          46.000                                                                  
G22  25964011.154                       -3841.238          34.000                                                                  
G06  25522677.668   134122741.731        1152.043          43.000    25522678.837   104511270.680         897.619          44.000  
S31  40337797.087   211976614.958        -775.400          44.000  
E03  28651148.720                        1518.832          28.000    28651148.826   115366348.917        1163.625          37.000  
R15  22234287.495   118813499.927         217.572          52.000    22234284.469    92410668.608         169.232          49.000  
R24  22680558.659   121283461.015        -323.940          50.000    22680555.344    94331599.863        -251.927          47.000  
E31  27100403.915   142413608.353       -2574.592          45.000    27100404.651   109122152.603       -1972.752          48.000  
E09  26610063.058   139836803.040       -3312.103          47.000    26610067.544   107147690.960       -2537.865          51.000  
G11  26346142.668   138449992.956        1880.049          44.000    26346159.908   107883204.8101       1464.623          43.000  
E24  25404701.381   133502718.709        -995.772          49.000    25404700.912   102294348.243        -762.980          52.000  
G24  22308720.450   117233217.280         386.700          48.000    22308718.280    91350629.318         301.257          47.000  
G12  23054975.188   121154996.914         164.275          45.000    23054972.310    94406611.678         127.902          44.000  
E05  24141041.824   126862098.340        -756.640          48.000    24141043.438    97206064.730        -579.647          50.000  
G25  24847375.818   130573985.537        1216.765          44.000    24847376.635   101746013.952         948.228          40.000  
E25  27488197.159   144451683.298         750.151          46.000    27488202.826   110683893.012         574.658          48.000  
E12  29124290.418   153049412.077        1646.385          40.000    29124298.766   117271809.685        1261.555          45.000  
E14  20424220.158   107330099.184         617.254          48.000    20424224.352    82239987.861         472.938          53.000  
> 2024 04 14 23 44 30.0050000  0 28                     
S33  41294485.172   217004052.509        -774.788          43.000  
E33  28967204.919   152223686.762          65.381          35.000    28967204.629   116638974.392          49.632          38.000  
G13  24477102.912   128627906.013       -4350.561          45.000                                                                  
G15  23297955.151   122431564.159       -3211.223          49.000    23297954.502    95401244.911       -2502.321          43.000  
G17  25223723.571   132551490.001       -4068.506          44.000    25223717.196   103287164.500       -3170.288          37.000  
R14  22443740.601   119637832.357       -2036.365          54.000    22443739.513    93051730.937       -1583.899          52.000  
R17  23361929.488   125014819.852        2928.086          51.000    23361928.545    97233957.493        2277.425          47.000  
R05  22304120.484   119228337.918       -1374.585          51.000    22304119.153    92733164.795       -1069.214          50.000  
R04  23160756.525   124024730.955       -4527.812          49.000    23160755.939    96463682.578       -3521.589          45.000  
G19  23697069.326   124529119.745       -3165.914          47.000                                                                  
G22  25985927.904                       -3838.042          31.000                                                                  
G06  25516126.144   134088315.731        1143.144          44.000    25516127.100   104484445.395         890.849          43.000  
S31  40342221.236   211999864.809        -774.420          44.000  
E03  28642500.478                        1511.905          29.000    28642498.796   115331519.560        1158.478          37.000  
R15  22233073.881   118807016.335         214.770          52.000    22233071.242    92405625.895         166.998          49.000  
R23  25336780.336                3      -3653.516          11.000                                                                  
R24  22682445.373   121293550.557        -348.590          50.000    22682441.875    94339447.322        -271.150          47.000  
E31  27115097.160   142490832.518       -2573.755          43.000    27115099.798   109181324.373       -1971.979          48.000  
E09  26628990.489   139936267.025       -3318.633          46.000    26628994.814   107223903.460       -2542.877          50.000  
G11  26335404.738   138393571.565        1881.677          43.000    26335422.714   107839241.876        1465.898          43.000  
E24  25410395.075   133532639.639        -998.795          48.000    25410394.462   102317274.688        -765.343          51.000  
G24  22306538.487   117221753.108         377.905          49.000    22306536.455    91341696.220         294.470          47.000  
G12  23054058.127   121150176.893         157.323          46.000    23054055.725    94402855.886         122.363          45.000  
E05  24145397.552   126884989.285        -769.529          48.000    24145399.548    97223604.552        -589.623          50.000  
G25  24840439.824   130537540.341        1213.013          44.000    24840441.751   101717615.297         945.178          41.000  
E25  27483923.318   144429228.006         746.999          45.000    27483929.201   110666687.179         572.468          47.000  
E12  29114893.599   153000035.282        1645.561          39.000    29114902.529   117233976.130        1260.788          46.000  
E14  20420801.945   107312133.248         580.479          48.000    20420805.393    82226221.924         444.844          53.000  
