     3.00           OBSERVATION DATA    M: Mixed            RINEX VERSION / TYPE
CONVBIN 2.4.3                           20240414 232942 UTC PGM / RUN BY / DATE 
format: u-blox UBX                                          COMMENT             
log: /home/regis/git/gnsspwv/obsdata/VERT00CHL/2024-04-14/VECOMMENT             
{self.marker}                                               MARKER NAME         
                                                            MARKER NUMBER       
GEODETIC                                                    MARKER TYPE         
{self.observer}     {self.institution}                      OBSERVER / AGENCY   
UNKNOWN             UBLOX-ZED-F9P                           REC # / TYPE / VERS 
UNKNOWN             TWIVSP6037L                             ANT # / TYPE        
  1713381.0000 -5047934.0000 -3490983.0000                  APPROX POSITION XYZ 
        0.0000        0.0000        0.0000                  ANTENNA: DELTA H/E/N
G    8 C1C L1C D1C S1C C2L L2L D2L S2L                      SYS / # / OBS TYPES 
R    8 C1C L1C D1C S1C C2C L2C D2C S2C                      SYS / # / OBS TYPES 
E    8 C1C L1C D1C S1C C7Q L7Q D7Q S7Q                      SYS / # / OBS TYPES 
S    4 C1C L1C D1C S1C                                      SYS / # / OBS TYPES 
  2024    04    14    23    15   00.0040000     GPS         TIME OF FIRST OBS   
  2024    04    14    23    29   30.0050000     GPS         TIME OF LAST OBS    
                                                            END OF HEADER       
> 2024 04 14 23 15 00.0040000  0 29                     
S33  41031612.507   215622633.3111       -780.185          42.000  
E33  29099828.065                         698.575          31.000    29099825.056   117172964.4611        536.006          40.000  
G13  23092087.557   121349709.5251      -3818.493          47.000                                                                  
G15  22348493.099   117442130.8551      -2378.726          49.000    22348490.775    91513380.9421      -1853.452          44.000  
G17  23962329.929   125922992.8181      -3361.253          44.000    23962326.675    98121964.3001      -2619.158          42.000  
R14  21801801.214   116215935.0521      -1820.950          52.000    21801800.988    90390254.3751      -1416.212          51.000  
R17  24400040.466   130569687.6081       3264.868          49.000    24400057.331   101554341.8101       2539.321          47.000  
R05  22109910.366   118190176.8251        208.752          52.000    22109908.244    91925707.5811        162.329          48.000  
R03  24850507.546                3      -5241.904          20.000    24850549.890                3      -4078.857          17.000  
R04  21798926.222   116732246.7951      -3619.198          53.000    21798922.696    90791764.6251      -2814.920          48.000  
G19  22785674.218   119739696.6181      -2198.741          47.000                                                                  
G22  24690031.904   129747026.4381      -3830.104          39.000                                                                  
G06  25979654.244   136524112.7721       1555.372          40.000    25979659.470   106382454.0251       1212.045          42.000  
S31  40079540.824   210619458.1401       -779.637          44.000  
R15  22345138.581   119405841.1401        476.709          51.000    22345136.534    92871374.2491        370.801          49.000  
R23  24326272.853   130129090.9301      -2407.327          45.000                                                                  
R24  22806923.227   121959175.4551       1059.223          48.000    22806922.779    94857151.0431        823.866          48.000  
E31  26250893.963   137949403.6651      -2539.389          48.000    26250894.560   105701527.4011      -1945.682          49.000  
E09  25596321.680   134509580.8511      -2779.544          48.000    25596325.953   103065798.9981      -2129.728          52.000  
E04  29234043.062                       -3848.303          26.000    29234078.451   117712999.3841      -2948.046          34.000  
E24  25119565.007   132004310.1891       -706.043          48.000    25119565.437   101146214.7861       -540.967          52.000  
G24  22518719.555   118336771.3831        852.725          44.000    22518718.063    92210540.1291        664.534          46.000  
G12  23190932.136   121869432.7341        672.953          48.000    23190930.984    94963309.2821        524.153          45.000  
E05  24021624.835   126234560.8481         29.221          47.000    24021627.342    96725223.9601         22.397          51.000  
G25  25297678.903   132940274.0071       1511.092          45.000    25297685.361   103589856.6371       1177.920          41.000  
E25  27778569.569   145977560.8211       1014.325          40.000    27778579.475   111853059.2191        777.154          47.000  
E12  29676218.997                3       1651.307          25.000    29676239.210                1       1265.649          30.000  
E14  20975377.828   110226372.9611       2649.649          45.000                                                                  
R13                                                                  25322810.565                3      -2520.834          21.000  
> 2024 04 14 23 15 30.0040000  0 29                     
S33  41036067.105   215646040.474        -780.736          42.000  
E33  29095858.333                         689.580          31.000    29095860.340   117156998.848         527.992          40.000  
G13  23113919.051   121464436.188       -3830.560          47.000                                                                  
G15  22362119.309   117513736.710       -2395.412          49.000    22362117.499    91569177.684       -1866.586          45.000  
G17  23981560.871   126024051.277       -3376.632          45.000    23981557.731    98200711.171       -2631.034          42.000  
R14  21812060.099   116270623.544       -1825.380          52.000    21812059.945    90432789.899       -1419.802          50.000  
R17  24381738.110   130471761.324        3262.997          49.000    24381755.623   101478179.073        2537.702          47.000  
R05  22108813.008   118184313.546         181.702          51.000    22108811.248    91921147.266         141.248          48.000  
R03  24879896.226                3      -5246.079          24.000    24879942.272                3      -4084.275          19.000  
R04  21819256.861   116841120.453       -3639.388          51.000    21819253.710    90876444.032       -2830.752          48.000  
G19  22798278.941   119805934.676       -2217.625          46.000                                                                  
G22  24711901.963   129861947.360       -3830.958          39.000                                                                  
G06  25970785.649   136477508.566        1550.784          40.000    25970790.659   106346139.452        1208.394          42.000  
S31  40083991.486   210642848.309        -780.162          43.000  
R15  22342475.847   119391617.714         471.115          51.000    22342474.847    92860311.685         366.484          48.000  
R23  24339839.978   130201665.511       -2431.385          47.000                                                                  
R24  22801040.399   121927717.829        1037.534          48.000    22801038.601    94832684.077         806.922          47.000  
E31  26265394.604   138025604.126       -2541.243          48.000    26265395.729   105759914.784       -1947.203          49.000  
E09  25612220.640   134593126.389       -2790.630          47.000    25612223.983   103129814.336       -2138.301          52.000  
E04  29256014.036                3      -3852.904          24.000    29256048.563   117801466.777       -2949.975          32.000  
E24  25123612.157   132025576.255        -712.353          49.000    25123612.184   101162509.606        -545.812          52.000  
G24  22513869.460   118311281.431         845.876          46.000    22513867.980    92190677.899         659.093          46.000  
G12  23187117.891   121849389.004         663.101          48.000    23187116.052    94947690.908         516.547          45.000  
E05  24021495.961   126233880.469          15.704          47.000    24021497.882    96724702.676          11.995          51.000  
G25  25289066.675   132895019.378        1505.289          44.000    25289073.909   103554593.742        1173.238          41.000  
E25  27772794.974   145947209.232        1008.863          41.000    27772803.498   111829803.120         772.871          47.000  
E12  29666773.346                3       1652.940          26.000    29666800.430   119455919.2631       1266.520          32.000  
E14  20960340.869   110147354.065        2618.018          45.000    20960349.817    84398643.2721       2005.872          51.000  
R13                                                                  25341057.889                3      -2525.622          18.000  
> 2024 04 14 23 16 00.0040000  0 28                     
S33  41040524.784   215669468.491        -781.185          44.000  
E33  29091952.156   152879234.210         679.274          35.000    29091952.979   117141263.170         520.570          42.000  
G13  23135821.120   121579527.176       -3842.394          48.000                                                                  
G15  22375841.150   117585846.692       -2411.977          48.000    22375838.944    91625367.218       -1879.355          44.000  
G17  24000879.455   126125571.649       -3391.487          43.000    24000875.805    98279817.976       -2642.669          42.000  
R14  21822346.400   116325452.919       -1829.768          53.000    21822346.367    90475434.987       -1423.163          51.000  
R17  24363448.351   130373900.138        3261.138          46.000    24363465.203   101402066.949        2536.342          44.000  
R05  22107870.012   118179268.688         154.651          52.000    22107867.557    91917223.506         120.374          48.000  
R03  24909301.994                3      -5244.280          16.000    24909335.180                3      -4079.477          25.000  
R04  21839702.080   116950605.038       -3659.504          52.000    21839699.133    90961598.598       -2846.180          49.000  
G19  22810992.219   119872744.554       -2236.349          48.000                                                                  
G22  24733782.170   129976929.239       -3833.355          42.000                                                                  
G06  25961944.842   136431049.204        1546.616          43.000    25961949.683   106309937.765        1205.072          42.000  
S31  40088446.670   210666258.881        -780.845          40.000  
R15  22339846.852   119377566.121         465.721          53.000    22339845.444    92849382.809         362.165          49.000  
R23  24353541.166   130274961.197       -2455.284          44.000                                                                  
R24  22795280.815   121896920.452        1015.654          48.000    22795279.159    94808730.627         790.025          49.000  
E31  26279906.480   138101865.825       -2543.039          48.000    26279907.415   105818349.080       -1948.537          49.000  
E09  25628182.128   134677008.143       -2801.397          47.000    25628186.164   103194087.307       -2146.626          51.000  
E24  25127696.196   132047038.848        -718.451          48.000    25127696.574   101178955.019        -550.552          52.000  
G24  22509060.067   118286005.506         839.205          45.000    22509058.053    92170982.412         653.776          46.000  
G12  23183361.115   121829646.105         653.235          48.000    23183359.411    94932306.900         508.986          45.000  
E05  24021444.487   126233609.758           2.286          47.000    24021446.603    96724495.289           1.677          51.000  
G25  25280488.922   132849943.256        1499.680          44.000    25280495.910   103519469.962        1168.811          40.000  
E25  27767051.806   145917024.401        1003.452          44.000    27767059.533   111806674.750         768.922          47.000  
E12  29657331.785                        1654.580          26.000    29657355.239   119417896.517        1267.840          37.000  
E14  20945486.628   110069292.059        2586.068          46.000    20945494.210    84338830.120        1981.650          50.000  
E04                                                                  29278027.908                       -2950.675          31.000  
> 2024 04 14 23 16 30.0040000  0 28                     
S33  41044985.067   215692907.461        -781.517          43.000  
E33  29088097.707                         670.234          29.000    29088100.026   117125750.762         513.227          42.000  
G13  23157789.135   121694969.536       -3853.871          48.000                                                                  
G15  22389657.915   117658448.712       -2428.173          49.000    22389654.620    91681940.172       -1892.227          44.000  
G17  24020283.958   126227540.514       -3406.344          45.000    24020279.714    98359274.206       -2654.370          44.000  
R14  21832656.385   116380412.236       -1834.095          53.000    21832655.333    90518181.163       -1426.588          48.000  
R17  24345169.797   130276097.318        3259.148          47.000    24345186.554   101326000.193        2534.590          45.000  
R05  22107077.360   118175033.370         127.728          52.000    22107074.977    91913929.353          99.304          49.000  
R04  21860259.880   117060685.570       -3679.091          52.000    21860255.885    91047216.685       -2861.451          49.000  
G19  22823812.004   119940113.927       -2254.882          49.000                                                                  
G22  24755671.309   130091960.165       -3835.225          36.000                                                                  
G06  25953129.048   136384727.149        1541.745          40.000    25953134.870   106273843.007        1201.303          41.000  
S31  40092903.294   210689679.521        -780.610          44.000  
R15  22337246.907   119363674.662         460.489          51.000    22337245.711    92838578.468         358.138          49.000  
R23  24367374.803   130348965.612       -2478.513          45.000                                                                  
R24  22789644.656   121866776.041         994.011          49.000    22789642.729    94785285.091         772.965          48.000  
E31  26294427.986   138178177.368       -2544.431          48.000    26294428.878   105876821.570       -1949.704          49.000  
E09  25644205.810   134761214.349       -2812.174          47.000    25644210.217   103258608.892       -2154.779          51.000  
E24  25131815.856   132068686.502        -724.551          49.000    25131815.522   101195542.233        -555.183          52.000  
G24  22504288.732   118260934.766         832.239          46.000    22504287.403    92151446.790         648.650          47.000  
G12  23179659.553   121810193.243         643.646          48.000    23179656.990    94917148.961         501.435          44.000  
E05  24021468.334   126233739.052         -10.875          47.000    24021471.190    96724594.394          -8.365          51.000  
G25  25271942.476   132805035.009        1494.374          43.000    25271948.954   103484476.958        1164.393          40.000  
E25  27761336.880   145886995.441         998.394          44.000    27761344.807   111783665.843         765.064          48.000  
E12  29647875.919   155800654.4731       1656.573          33.000    29647901.570   119379842.147        1269.139          39.000  
E14  20930811.546   109992181.482        2554.590          45.000    20930819.847    84279746.014        1957.398          50.000  
E04                                                                  29300013.628                       -2951.168          29.000  
R03                                                                  24938702.463                3      -4078.987          20.000  
> 2024 04 14 23 17 00.0040000  0 28                     
S33  41049446.550   215716351.881        -781.365          43.000  
E33  29084302.435   152839034.456         660.462          33.000    29084301.818   117110460.947         505.913          42.000  
G13  23179822.595   121810758.359       -3865.519          46.000                                                                  
G15  22403566.111   117731538.344       -2444.397          49.000    22403563.583    91738893.075       -1904.737          44.000  
G17  24039772.737   126329952.492       -3421.033          46.000    24039767.192    98439075.757       -2665.644          42.000  
R14  21842991.152   116435498.087       -1838.208          53.000    21842989.210    90561025.755       -1429.755          50.000  
R17  24326902.261   130178354.865        3257.204          48.000    24326918.902   101249980.382        2533.302          45.000  
R05  22106435.675   118171605.976         100.830          51.000    22106433.971    91911263.582          78.406          48.000  
R04  21880926.598   117171355.208       -3698.572          53.000    21880923.641    91133292.967       -2876.715          49.000  
G19  22836737.563   120008038.585       -2273.325          48.000                                                                  
G22  24777569.430   130207036.397       -3836.802          33.000                                                                  
G06  25944340.723   136338542.961        1537.263          42.000    25944345.090   106237855.680        1197.899          40.000  
S31  40097361.674   210713107.363        -780.953          43.000  
R15  22334677.210   119349940.409         455.344          51.000    22334674.603    92827896.379         354.120          47.000  
R23  24381341.246   130423673.937       -2501.688          46.000                                                                  
R24  22784128.779   121837285.256         972.218          48.000    22784127.204    94762347.941         756.205          47.000  
E31  26308958.509   138254535.329       -2545.949          49.000    26308959.615   105935329.619       -1950.786          49.000  
E09  25660290.827   134845741.200       -2822.803          47.000    25660294.865   103323376.181       -2162.983          51.000  
E24  25135969.242   132090515.825        -730.391          48.000    25135969.528   101212268.642        -559.711          52.000  
G24  22499556.622   118236068.343         825.591          46.000    22499555.530    92132070.399         643.257          46.000  
G12  23176012.839   121791027.166         634.147          49.000    23176009.358    94902214.458         494.108          44.000  
E05  24021568.747   126234266.699         -24.098          46.000    24021571.639    96724998.711         -18.536          52.000  
G25  25263427.620   132760292.068        1488.926          43.000    25263434.456   103449612.792        1160.112          41.000  
E25  27755650.381   145857119.664         993.438          43.000    27755659.120   111760774.302         761.178          48.000  
E12  29638417.723   155750945.738        1657.590          36.000    29638440.717   119341755.665        1270.103          43.000  
E14  20916319.343   109916025.216        2522.481          45.000    20916327.185    84221393.079        1932.850          50.000  
E04                                                                  29322006.293                       -2952.357          28.000  
R03                                                                  24968085.145                3      -4077.430          16.000  
> 2024 04 14 23 17 30.0040000  0 28                     
S33  41053907.640   215739795.734        -781.528          43.000  
E33  29080557.597   152819362.617         650.543          28.000    29080558.651   117095387.832         498.826          42.000  
G13  23201920.690   121926881.950       -3876.502          47.000                                                                  
G15  22417564.656   117805104.555       -2460.442          48.000    22417562.133    91796217.313       -1917.077          44.000  
G17  24059342.741   126432795.385       -3435.379          47.000    24059337.791    98519213.134       -2676.947          42.000  
R14  21853346.723   116490700.487       -1842.170          51.000    21853344.468    90603960.983       -1432.863          49.000  
R17  24308646.486   130080667.401        3255.026          49.000    24308661.125   101174003.315        2531.619          43.000  
R05  22105944.810   118168977.640          74.115          52.000    22105942.297    91909219.300          57.629          48.000  
R03  24997421.497                3      -5232.521          17.000    24997445.858                3      -4068.550          12.000  
R04  21901700.839   117282600.294       -3717.920          52.000    21901697.823    91219816.798       -2891.645          50.000  
G19  22849766.605   120076507.158       -2291.459          48.000                                                                  
G22  24799477.136   130322113.0643      -3837.796          34.000                                                                  
G06  25935576.496   136292490.247        1532.731          40.000    25935581.288   106201970.774        1194.324          40.000  
S31  40101819.267   210736532.927        -780.749          43.000  
R15  22332134.144   119336352.750         450.297          51.000    22332131.725    92817328.316         350.358          49.000  
R23  24395436.960   130499074.525       -2525.033          47.000                                                                  
R24  22778735.127   121808441.941         950.405          49.000    22778732.888    94739914.306         739.259          48.000  
E31  26323496.103   138330929.409       -2547.281          48.000    26323496.860   105993865.381       -1951.783          48.000  
E09  25676435.115   134930578.014       -2833.206          47.000    25676439.701   103388380.973       -2170.893          52.000  
E24  25140155.790   132112516.482        -736.385          48.000    25140156.320   101229126.329        -564.234          52.000  
G24  22494862.478   118211398.409         818.899          47.000    22494861.408    92112847.093         638.054          47.000  
G12  23172418.468   121772138.133         624.781          49.000    23172415.004    94887495.857         486.951          45.000  
E05  24021743.659   126235184.079         -37.284          47.000    24021745.962    96725701.677         -28.478          51.000  
G25  25254942.555   132715704.949        1483.387          43.000    25254949.912   103414869.980        1155.883          41.000  
E25  27749992.000   145827387.373         988.599          42.000    27750001.252   111737992.647         757.352          48.000  
E12  29628946.985   155701187.508        1659.416          36.000    29628969.347   119303631.333        1271.273          43.000  
E14  20902007.959   109840818.760        2490.908          46.000    20902015.267    84163767.951        1908.617          49.000  
E04                                                                  29344002.009                       -2952.168          25.000  
> 2024 04 14 23 18 00.0040000  0 27                     
S33  41058371.212   215763251.477        -781.885          42.000  
E33  29076873.227   152799989.911         640.831          32.000    29076872.265   117080543.887         490.947          42.000  
G13  23224085.339   122043352.366       -3888.006          48.000                                                                  
G15  22431657.708   117879159.979       -2476.620          49.000    22431654.915    91853922.831       -1929.947          43.000  
G17  24078997.736   126536081.143       -3450.248          46.000    24078992.707    98599695.529       -2688.353          43.000  
R14  21863726.555   116546033.490       -1846.539          52.000    21863725.494    90646997.749       -1436.268          50.000  
R17  24290403.658   129983054.272        3252.571          50.000    24290417.470   101098084.015        2529.775          44.000  
R05  22105605.286   118167164.025          46.960          52.000    22105603.038    91907808.688          36.401          49.000  
R04  21922584.610   117394431.327       -3737.445          51.000    21922582.357    91306796.352       -2906.836          50.000  
G19  22862902.863   120145532.822       -2310.050          48.000                                                                  
G22  24821389.200   130437270.883       -3839.148          35.000                                                                  
G06  25926841.588   136246586.659        1527.906          41.000    25926845.609   106166202.143        1190.426          40.000  
S31  40106278.979   210759971.171        -781.406          44.000  
R15  22329621.292   119322926.004         444.946          51.000    22329618.916    92806885.390         346.092          48.000  
R23  24409664.372   130575180.336       -2548.469          48.000                                                                  
R24  22773467.072   121780264.281         928.199          50.000    22773463.576    94717998.462         721.868          48.000  
E31  26338042.254   138407373.338       -2548.864          47.000    26338043.341   106052439.304       -1953.144          48.000  
E09  25692641.466   135015738.119       -2843.984          48.000    25692644.687   103453633.467       -2179.130          52.000  
E24  25144377.352   132134702.112        -742.494          48.000    25144378.309   101246125.769        -568.980          52.000  
G24  22490208.016   118186941.289         811.658          47.000    22490207.332    92093789.608         632.556          47.000  
G12  23168878.938   121753540.383         615.142          48.000    23168876.083    94873004.224         479.312          45.000  
E05  24021995.623   126236506.658         -50.762          48.000    24021998.073    96726715.117         -39.001          52.000  
G25  25246490.142   132671288.080        1477.695          44.000    25246497.196   103380259.862        1151.189          41.000  
E25  27744364.831   145797812.884         983.048          42.000    27744373.535   111715331.966         753.400          49.000  
E12  29619472.320   155651396.428        1660.612          38.000    29619492.495   119265481.705        1271.988          42.000  
E14  20887880.700   109766581.959        2458.452          46.000    20887888.011    84106885.764        1883.726          49.000  
E04                                                                  29366004.966                3      -2951.732          21.000  
> 2024 04 14 23 18 30.0040000  0 27                     
S33  41062836.355   215786716.621        -782.037          42.000  
E33  29073244.553   152780915.113         630.605          34.000    29073241.792   117065928.148         483.556          40.000  
G13  23246313.857   122160164.408       -3898.970          47.000                                                                  
G15  22445841.601   117953699.876       -2492.430          48.000    22445839.632    91912005.813       -1942.110          44.000  
G17  24098735.941   126639804.429       -3464.385          46.000    24098730.819    98680518.929       -2699.638          44.000  
R14  21874131.070   116601494.041       -1850.519          52.000    21874129.987    90690133.775       -1439.393          50.000  
R17  24272175.616   129885516.627        3250.138          50.000    24272187.948   101022223.375        2528.025          45.000  
R05  22105418.421   118166163.939          20.013          51.000    22105416.074    91907030.810          15.491          49.000  
R04  21943576.153   117506841.062       -3756.213          52.000    21943573.568    91394226.051       -2921.637          50.000  
G19  22876142.827   120215110.652       -2328.230          49.000                                                                  
G22  24843312.492   130552471.722       -3840.177          38.000                                                                  
G06  25918134.841   136200832.385        1522.881          42.000    25918138.544   106130549.760        1186.758          39.000  
S31  40110741.377   210783418.744        -781.688          43.000  
R15  22327137.836   119309656.613         440.131          51.000    22327136.530    92796564.868         342.051          48.000  
R23  24424022.701   130651986.649       -2571.720          49.000                                                                  
R24  22768322.772   121752752.535         906.277          51.000    22768319.471    94696600.548         704.857          49.000  
E31  26352597.648   138483863.321       -2550.186          48.000    26352598.802   106111048.545       -1953.960          48.000  
E09  25708907.750   135101217.285       -2854.337          48.000    25708910.908   103519130.433       -2187.078          52.000  
E24  25148633.439   132157068.898        -748.311          48.000    25148633.959   101263263.992        -573.375          51.000  
G24  22485594.749   118162695.712         804.858          47.000    22485593.522    92074896.976         627.050          47.000  
G12  23165394.160   121735229.962         605.906          49.000    23165391.867    94858736.473         471.914          45.000  
E05  24022323.572   126238232.308         -64.094          47.000    24022326.225    96728037.394         -49.051          51.000  
G25  25238069.469   132627038.464        1472.608          45.000    25238076.282   103345780.016        1147.422          42.000  
E25  27738766.975   145768393.022         978.442          44.000    27738773.914   111692789.746         749.628          47.000  
E12  29609989.605   155601571.468        1661.523          39.000    29610009.507   119227306.055        1273.064          43.000  
E14  20873938.779   109693316.810        2426.173          47.000    20873945.112    84050748.064        1859.071          49.000  
E04                                                                  29388008.607                3      -2956.856          13.000  
> 2024 04 14 23 19 00.0040000  0 26                     
S33  41067301.326   215810181.071        -782.254          43.000  
G13  23268604.591   122277305.852       -3909.961          46.000                                                                  
G15  22460116.324   118028712.439       -2508.096          49.000    22460114.339    91970457.095       -1954.355          45.000  
G17  24118554.540   126743952.610       -3478.541          46.000    24118550.054    98761673.412       -2710.565          44.000  
R14  21884557.312   116657071.324       -1854.206          52.000    21884556.418    90733360.602       -1442.342          50.000  
R17  24253959.107   129788048.758        3247.955          48.000    24253972.245   100946416.983        2526.251          46.000  
R05  22105381.109   118165967.599          -6.659          52.000    22105379.052    91906878.064          -5.231          47.000  
R04  21964673.737   117619815.213       -3774.982          51.000    21964670.544    91482094.719       -2936.060          50.000  
G19  22889485.430   120285229.178       -2346.113          49.000                                                                  
G22  24865240.866   130667723.5091      -3841.646          36.000                                                                  
G06  25909454.579   136155220.553        1518.192          41.000    25909458.419   106095008.360        1183.370          39.000  
S31  40115203.458   210806865.945        -781.610          42.000  
R15  22324682.717   119296533.738         435.074          52.000    22324680.666    92786358.257         338.385          48.000  
R23  24438509.534   130729480.910       -2594.326          50.000                                                                  
R24  22763299.834   121725899.443         884.423          50.000    22763297.290    94675714.878         687.919          49.000  
E31  26367159.554   138560388.606       -2551.287          48.000    26367161.157   106169684.802       -1954.854          49.000  
E09  25725232.003   135187004.258       -2864.522          47.000    25725235.629   103584863.274       -2194.822          52.000  
E24  25152921.985   132179606.055        -753.870          47.000    25152922.614   101280532.750        -577.647          52.000  
G24  22481019.044   118138653.461         798.143          47.000    22481017.976    92056162.760         621.933          46.000  
G12  23161962.698   121717196.682         596.625          48.000    23161960.594    94844684.694         465.031          45.000  
E05  24022726.499   126240351.907         -77.211          47.000    24022729.840    96729661.518         -59.042          52.000  
G25  25229678.778   132582946.109        1467.263          45.000    25229684.956   103311422.693        1143.244          42.000  
E25  27733195.372   145739117.596         973.772          43.000    27733203.056   111670358.203         745.949          47.000  
E12  29600498.966   155551704.732        1662.894          40.000    29600518.749   119189098.335        1274.226          43.000  
E14  20860179.949   109621018.444        2393.859          45.000    20860187.676    83995351.169        1834.269          50.000  
E33                                                                  29069666.983   117051534.321         476.145          39.000  
> 2024 04 14 23 19 30.0040000  0 26                     
S33  41071765.484   215833640.906        -782.175          42.000  
G13  23290957.889   122394768.941       -3921.043          47.000                                                                  
G15  22474479.207   118104191.035       -2523.963          48.000    22474477.752    92029271.478       -1966.580          45.000  
G17  24138452.075   126848517.904       -3492.465          44.000    24138447.964    98843152.865       -2721.430          44.000  
R14  21895004.527   116712760.246       -1858.502          52.000    21895003.387    90776674.208       -1445.447          50.000  
R17  24235757.440   129690650.647        3245.095          49.000    24235769.521   100870664.791        2523.917          46.000  
R05  22105493.530   118166571.087         -33.673          51.000    22105491.455    91907347.447         -26.190          48.000  
R04  21985872.927   117733344.551       -3793.781          50.000    21985871.831    91570395.186       -2950.672          50.000  
G19  22902930.376   120355881.401       -2364.187          48.000                                                                  
G22  24887160.238                3      -3842.188          28.000                                                                  
G06  25900801.630   136109749.338        1512.555          40.000    25900805.974   106059576.552        1178.864          39.000  
S31  40119663.873   210830307.629        -781.492          44.000  
R15  22322253.072   119283551.683         430.135          50.000    22322251.089    92776261.161         334.551          49.000  
R23  24453123.417   130807656.161       -2617.417          49.000                                                                  
R24  22758400.165   121699703.368         862.030          48.000    22758397.356    94655340.279         670.389          47.000  
E31  26381727.240   138636943.339       -2552.535          47.000    26381729.424   106228343.643       -1955.736          48.000  
E09  25741614.349   135273092.836       -2874.859          48.000    25741617.665   103650827.187       -2202.743          52.000  
E24  25157242.353   132202307.614        -759.606          48.000    25157242.724   101297927.514        -582.042          52.000  
G24  22476482.752   118114811.261         791.068          48.000    22476481.228    92037584.462         616.342          47.000  
G12  23158582.452   121699435.199         587.238          48.000    23158580.251    94830844.666         457.474          45.000  
E05  24023204.386   126242861.310         -90.400          47.000    24023206.706    96731584.317         -69.170          51.000  
G25  25221317.021   132539005.886        1461.765          44.000    25221323.540   103277183.949        1139.362          43.000  
E25  27727650.706   145709981.451         968.679          44.000    27727659.187   111648033.353         742.236          48.000  
E12  29591000.679   155501793.271        1663.859          40.000    29591018.899   119150856.308        1274.995          43.000  
E14  20846605.955   109549686.809        2361.344          46.000    20846613.455    83940694.991        1809.334          51.000  
E33                                                                  29066147.721   117037359.859         468.716          42.000  
> 2024 04 14 23 20 00.0040000  0 27                     
S33  41076228.972   215857097.244        -781.959          42.000  
G13  23313372.552   122512554.644       -3931.902          49.000                                                                  
G15  22488931.630   118180136.940       -2539.631          48.000    22488930.333    92088450.051       -1978.770          46.000  
G17  24158429.591   126953500.782       -3506.454          44.000    24158425.003    98924957.749       -2732.417          44.000  
R14  21905472.708   116768563.224       -1862.237          53.000    21905470.965    90820076.560       -1448.425          48.000  
R17  24217568.079   129593329.586        3242.411          48.000    24217580.710   100794972.482        2521.875          47.000  
R13  25504989.381                3      -3240.888          15.000                                                                  
R05  22105757.595   118167978.567         -60.620          51.000    22105755.626    91908442.154         -47.046          49.000  
R04  22007178.586   117847428.133       -3812.201          52.000    22007176.141    91659126.733       -2965.064          49.000  
G19  22916476.593   120427068.550       -2382.142          47.000                                                                  
G22  24909101.308   130898226.6781      -3843.835          31.000                                                                  
G06  25892177.363   136064425.062        1508.115          43.000    25892180.534   106024259.241        1175.190          41.000  
S31  40124123.796   210853746.831        -781.603          44.000  
R15  22319849.772   119270713.151         425.283          50.000    22319848.163    92766275.723         330.990          48.000  
R23  24467864.930   130886513.695       -2640.192          49.000                                                                  
R24  22753626.814   121674171.029         839.764          50.000    22753623.671    94635481.877         653.156          48.000  
E31  26396300.823   138713530.075       -2553.620          47.000    26396303.197   106287027.001       -1956.770          49.000  
E09  25758054.275   135359485.019       -2885.034          48.000    25758057.583   103717023.751       -2210.646          52.000  
E24  25161593.729   132225176.076        -765.362          48.000    25161594.328   101315450.131        -586.370          51.000  
G24  22471984.617   118091174.171         784.092          48.000    22471983.305    92019165.981         610.888          47.000  
G12  23155254.535   121681948.355         578.022          48.000    23155251.957    94817218.672         450.582          44.000  
E05  24023756.478   126245764.685        -103.739          47.000    24023759.695    96733808.996         -79.447          51.000  
G25  25212984.803   132495221.093        1456.571          45.000    25212991.100   103243066.344        1135.119          43.000  
E25  27722132.393   145680987.612         963.756          44.000    27722141.214   111625817.543         738.469          48.000  
E12  29581493.573   155451842.395        1665.198          40.000    29581511.344   119112584.014        1275.887          41.000  
E14  20833216.316   109479330.171        2328.686          46.000    20833223.980    83886785.875        1784.358          50.000  
E33                                                                  29062682.525   117023408.639         461.038          41.000  
> 2024 04 14 23 20 30.0040000  0 26                     
S33  41080694.258   215880561.764        -782.175          42.000  
G13  23335848.679   122630670.288       -3942.639          48.000                                                                  
G15  22503472.983   118256557.779       -2555.251          48.000    22503473.171    92147998.691       -1990.982          46.000  
G17  24178487.273   127058907.928       -3520.594          42.000    24178483.976    99007093.221       -2743.305          45.000  
R14  21915964.470   116824490.138       -1866.205          53.000    21915962.207    90863575.282       -1451.520          50.000  
R17  24199397.354   129496099.730        3239.415          48.000    24199409.138   100719351.073        2519.663          47.000  
R05  22106172.794   118170200.539         -87.537          52.000    22106171.249    91910170.318         -67.975          50.000  
R04  22028587.159   117962071.308       -3830.652          52.000    22028585.207    91748293.492       -2979.352          50.000  
G19  22930126.784   120498798.789       -2399.975          48.000                                                                  
G22  24931053.220   131013548.626       -3844.580          32.000                                                                  
G06  25883582.713   136019260.377        1502.655          43.000    25883585.686   105989066.287        1171.197          39.000  
S31  40128585.670   210877193.695        -781.793          44.000  
R15  22317476.282   119258027.081         420.429          52.000    22317474.689    92756408.882         326.910          48.000  
R23  24482735.592   130966060.771       -2663.027          49.000                                                                  
R24  22748976.614   121649314.999         817.347          48.000    22748974.715    94616149.497         635.712          47.000  
E31  26410882.722   138790157.518       -2554.942          47.000    26410884.603   106345741.560       -1957.496          47.000  
E09  25774553.601   135446189.049       -2895.215          48.000    25774556.619   103783459.254       -2218.421          51.000  
E24  25165980.097   132248220.099        -771.004          49.000    25165979.378   101333107.293        -590.719          52.000  
G24  22467527.922   118067753.417         777.058          48.000    22467525.825    92000916.038         605.635          47.000  
G12  23151981.477   121664745.138         568.669          48.000    23151978.572    94803813.650         443.235          44.000  
E05  24024386.915   126249072.280        -117.099          47.000    24024388.763    96736343.408         -89.610          51.000  
G25  25204683.097   132451601.100        1451.331          44.000    25204689.630   103209077.176        1130.529          43.000  
E25  27716642.829   145652145.389         958.944          43.000    27716651.964   111603717.915         734.789          47.000  
E12  29571982.826   155401863.801        1666.191          40.000    29571999.362   119074290.399        1276.574          42.000  
E14  20820016.363   109409962.869        2295.646          47.000    20820023.706    83833634.803        1758.911          51.000  
E33                                                                  29059275.154   117009689.261         453.700          41.000  
> 2024 04 14 23 21 00.0040000  0 26                     
S33  41085159.820   215904031.429        -782.784          42.000  
E33  29055925.274                1        581.632          30.000    29055925.683   116996201.493         445.695          41.000  
G13  23358386.369   122749111.170       -3953.713          46.000                                                                  
G15  22518105.821   118333449.716       -2571.198          48.000    22518104.172    92207914.405       -2003.505          45.000  
G17  24198625.481   127164735.038       -3534.580          42.000    24198621.605    99089555.916       -2754.407          43.000  
R14  21926479.449   116880538.186       -1870.495          52.000    21926478.030    90907168.220       -1454.883          49.000  
R17  24181244.087   129398963.593        3235.918          48.000    24181254.775   100643802.503        2516.854          45.000  
R05  22106741.301   118173235.681        -114.972          52.000    22106739.834    91912530.974         -89.362          50.000  
R04  22050099.719   118077267.969       -3849.341          53.000    22050097.303    91837890.776       -2993.909          50.000  
G19  22943878.878   120571067.926       -2418.124          48.000                                                                  
G22  24953006.086   131128902.853       -3845.953          36.000                                                                  
G06  25875018.208   135974256.421        1496.885          43.000    25875020.772   105953998.564        1166.682          40.000  
S31  40133048.599   210900645.583        -782.195          43.000  
R15  22315130.339   119245491.281         415.157          52.000    22315128.818    92746658.906         322.845          48.000  
R23  24497733.707   131046293.586       -2685.996          46.000                                                                  
R24  22744456.211   121625136.492         794.308          49.000    22744452.959    94597344.103         617.682          46.000  
E31  26425472.160   138866822.903       -2556.296          47.000    26425473.343   106404485.166       -1958.666          47.000  
E09  25791112.337   135533201.652       -2905.706          49.000    25791114.930   103850131.208       -2226.471          52.000  
E24  25170397.388   132271436.820        -776.864          49.000    25170397.472   101350896.769        -595.356          52.000  
G24  22463112.439   118044548.801         769.552          48.000    22463110.373    91982834.551         599.751          47.000  
G12  23148761.334   121647822.923         559.205          48.000    23148758.745    94790627.626         435.628          45.000  
E05  24025091.629   126252782.968        -130.684          46.000    24025094.609    96739186.664         -99.969          51.000  
G25  25196413.493   132408143.925        1445.458          45.000    25196419.856   103175214.788        1126.429          42.000  
E25  27711182.976   145623452.550         953.652          44.000    27711192.226   111581732.723         730.764          47.000  
E12  29562464.705   155351857.482        1666.957          40.000    29562481.627   119035975.480        1277.448          41.000  
E14  20807005.454   109341587.729        2262.375          47.000    20807011.828    83781243.957        1733.531          51.000  
> 2024 04 14 23 21 30.0040000  0 26                     
S33  41089626.944   215927506.894        -782.291          41.000  
E33  29052635.645   152672638.5811        572.042          33.000    29052633.734   116982947.321         437.902          39.000  
G13  23380986.960   122867876.043       -3964.122          46.000                                                                  
G15  22532827.112   118410811.932       -2586.486          48.000    22532825.337    92268196.567       -2015.413          45.000  
G17  24218843.081   127270979.907       -3548.164          40.000    24218839.820    99172344.146       -2764.870          45.000  
R14  21937016.777   116936707.721       -1874.267          53.000    21937015.286    90950855.676       -1457.764          50.000  
R17  24163109.154   129301926.685        3233.080          48.000    24163120.100   100568331.037        2514.529          47.000  
R05  22107461.805   118177086.008        -141.766          52.000    22107459.833    91915525.706        -110.242          50.000  
R04  22071714.637   118193014.548       -3867.133          52.000    22071712.255    91927915.781       -3007.849          49.000  
G19  22957733.692   120643875.430       -2435.720          48.000                                                                  
G22  24974962.401   131244289.128       -3846.338          37.000                                                                  
G06  25866485.308   135929417.163        1492.265          40.000    25866487.754   105919059.240        1162.341          40.000  
S31  40137512.440   210924103.401        -781.906          44.000  
R15  22312812.805   119233105.784         410.484          52.000    22312810.708    92737025.821         319.309          48.000  
R23  24512859.946   131127210.704       -2708.542          46.000                                                                  
R24  22740063.229   121601639.480         771.966          50.000    22740057.851    94579068.751         600.341          46.000  
E31  26440068.981   138943526.263       -2557.250          48.000    26440069.590   106463257.915       -1959.503          47.000  
E09  25807728.375   135620522.385       -2915.775          49.000    25807731.729   103917039.258       -2234.144          52.000  
E24  25174847.886   132294826.198        -782.347          48.000    25174848.644   101368818.554        -599.502          52.000  
G24  22458738.198   118021562.873         762.589          49.000    22458736.281    91964923.481         594.287          47.000  
G12  23145594.329   121631182.132         550.215          48.000    23145592.149    94777660.896         428.661          45.000  
E05  24025875.139   126256898.464        -143.844          46.000    24025878.006    96742340.097        -110.218          51.000  
G25  25188174.887   132364850.242        1440.398          45.000    25188180.968   103141479.853        1122.373          42.000  
E25  27705752.387   145594909.736         949.061          44.000    27705760.199   111559862.471         727.244          47.000  
E12  29552942.744   155301826.311        1668.264          39.000    29552960.003   118997641.463        1278.075          41.000  
E14  20794182.831   109274210.382        2229.411          45.000    20794189.594    83729617.660        1708.179          50.000  
> 2024 04 14 23 22 00.0050000  0 26                     
S33  41094094.272   215950980.665        -782.342          43.000  
E33  29049401.870   152655638.144         561.378          34.000    29049398.849   116969921.012         430.621          39.000  
G13  23403648.322   122986958.091       -3974.521          47.000                                                                  
G15  22547636.969   118488636.387       -2601.799          48.000    22547636.034    92328838.909       -2027.264          45.000  
G17  24239138.021   127377635.075       -3562.039          39.000    24239135.781    99255452.132       -2775.675          45.000  
R14  21947574.380   116992992.037       -1877.948          51.000    21947575.219    90994632.364       -1460.614          50.000  
R17  24144991.094   129204981.544        3229.764          49.000    24145002.785   100492930.956        2511.891          48.000  
R05  22108333.244   118181743.557        -168.714          51.000    22108331.250    91919148.205        -131.208          49.000  
R04  22093431.276   118309302.028       -3885.010          53.000    22093428.420    92018361.443       -3021.656          49.000  
G19  22971689.784   120717213.018       -2453.314          48.000                                                                  
G22  24996926.963   131359701.791       -3847.271          38.000                                                                  
G06  25857981.374   135884735.655        1487.048          40.000    25857985.204   105884242.853        1158.384          42.000  
S31  40141975.609   210947560.435        -781.846          43.000  
R15  22310521.056   119220860.803         405.768          50.000    22310519.355    92727502.036         315.570          49.000  
R23  24528112.639   131208804.041       -2730.974          43.000                                                                  
R24  22735794.371   121578817.817         749.447          50.000    22735790.124    94561318.649         582.937          46.000  
E31  26454670.894   139020260.981       -2558.131          48.000    26454671.596   106522054.663       -1960.176          47.000  
E09  25824402.108   135708144.431       -2925.595          48.000    25824405.831   103984178.161       -2241.676          52.000  
E24  25179329.633   132318379.730        -787.647          47.000    25179330.553   101386866.094        -603.688          52.000  
G24  22454404.288   117998788.219         755.682          49.000    22454402.708    91947177.037         588.886          47.000  
G12  23142479.757   121614813.221         540.928          48.000    23142476.685    94764906.000         421.694          45.000  
E05  24026734.053   126261411.130        -156.975          47.000    24026736.188    96745797.879        -120.277          50.000  
G25  25179965.309   132321710.142        1435.314          45.000    25179970.821   103107864.584        1118.444          41.000  
E25  27700348.218   145566507.304         944.540          44.000    27700354.589   111538099.810         723.508          46.000  
E12  29543413.689   155251762.334        1669.469          37.000    29543432.549   118959282.285        1278.945          43.000  
E14  20781550.028   109207824.851        2196.141          47.000    20781555.762    83678751.284        1682.700          49.000  
> 2024 04 14 23 22 30.0050000  0 28                     
S33  41098560.969   215974452.281        -782.222          42.000  
E33  29046220.658   152638938.553         551.843          31.000    29046221.134   116957125.260         422.586          39.000  
G13  23426366.988   123106347.244       -3984.693          45.000                                                                  
G15  22562532.870   118566916.699       -2616.864          47.000    22562531.903    92389836.492       -2039.194          44.000  
G17  24259510.743   127484691.415       -3574.900          41.000    24259507.532    99338872.661       -2785.835          44.000  
R14  21958154.230   117049387.256       -1881.610          54.000    21958153.832    91038495.341       -1463.514          50.000  
R17  24126892.027   129108139.956        3226.395          49.000    24126904.612   100417611.368        2509.401          49.000  
R13  25595790.509                3      -3227.133          12.000                                                                  
R05  22109355.017   118187209.163        -195.515          51.000    22109352.707    91923399.237        -152.113          47.000  
R03  25290776.627                3      -5391.948          15.000                                                                  
R04  22115245.962   118426118.916       -3902.551          53.000    22115243.345    92109218.888       -3035.445          51.000  
G19  22985744.747   120791074.494       -2470.682          48.000                                                                  
G22  25018892.643   131475132.469       -3848.083          38.000                                                                  
G06  25849509.850   135840218.772        1481.246          41.000    25849513.822   105849554.718        1154.321          42.000  
S31  40146438.626   210971013.893        -781.642          44.000  
R15  22308255.832   119208757.562         401.263          52.000    22308253.445    92718088.479         312.152          47.000  
R23  24543491.478   131291066.238       -2753.008          44.000                                                                  
R24  22731653.216   121556676.318         726.976          50.000    22731649.780    94544097.577         565.106          46.000  
E31  26469278.611   139097021.759       -2559.157          49.000    26469279.170   106580871.381       -1960.784          48.000  
E09  25841131.369   135796061.204       -2935.469          47.000    25841135.988   104051542.907       -2249.211          52.000  
E24  25183842.737   132342095.600        -793.186          48.000    25183843.175   101405038.029        -607.712          51.000  
G24  22450111.215   117976228.736         748.456          49.000    22450109.768    91929598.268         583.057          47.000  
G12  23139415.967   121598717.584         532.051          48.000    23139413.088    94752364.077         414.474          44.000  
E05  24027669.182   126266322.151        -170.298          48.000    24027671.280    96749560.865        -130.451          51.000  
G25  25171786.396   132278726.980        1430.212          46.000    25171791.504   103074371.582        1114.366          42.000  
E25  27694969.946   145538247.486         939.843          44.000    27694976.947   111516446.409         720.000          47.000  
E12  29533881.797   155201671.468        1670.460          36.000    29533898.676   118920902.451        1279.811          42.000  
E14  20769107.092   109142440.815        2162.934          46.000    20769113.464    83628652.304        1657.396          50.000  
> 2024 04 14 23 23 00.0050000  0 26                     
S33  41103028.349   215997927.038        -782.203          42.000  
G13  23449146.516   123226049.776       -3995.234          46.000                                                                  
G15  22577517.212   118645658.262       -2632.244          47.000    22577515.303    92451193.486       -2051.040          43.000  
G17  24279960.641   127592153.789       -3588.747          43.000    24279956.787    99422609.607       -2796.203          44.000  
R14  21968756.644   117105899.865       -1885.441          53.000    21968755.917    91082449.606       -1466.510          50.000  
R17  24108814.227   129011407.890        3222.791          48.000    24108826.207   100342376.935        2506.537          49.000  
R05  22110529.632   118193488.267        -222.631          50.000    22110527.525    91928282.984        -173.224          48.000  
R04  22137160.126   118543469.663       -3920.287          53.000    22137157.400    92200491.537       -3049.115          49.000  
G19  22999901.254   120865465.289       -2488.340          49.000                                                                  
G22  25040862.602   131590588.408       -3848.909          38.000                                                                  
G06  25841070.900   135795872.693        1475.499          41.000    25841074.528   105814999.705        1149.763          41.000  
S31  40150902.681   210994472.173        -781.921          43.000  
R15  22306017.472   119196799.495         396.356          52.000    22306015.731    92708787.827         308.307          48.000  
R23  24558995.555   131374002.853       -2775.483          44.000                                                                  
R24  22727641.710   121535222.228         703.865          50.000    22727638.360    94527411.128         547.408          47.000  
E31  26483891.982   139173815.081       -2560.115          49.000    26483891.973   106639713.041       -1961.622          47.000  
E09  25857919.283   135884279.016       -2945.477          48.000    25857922.858   104119138.309       -2256.934          52.000  
E24  25188387.233   132365978.378        -798.738          48.000    25188388.151   101423337.877        -612.090          52.000  
G24  22445860.580   117953890.090         741.083          49.000    22445859.049    91912191.564         577.429          48.000  
G12  23136406.380   121582898.464         522.827          49.000    23136403.028    94740037.588         407.491          45.000  
E05  24028680.495   126271637.042        -183.750          48.000    24028683.051    96753633.333        -140.830          52.000  
G25  25163636.682   132235903.850        1425.021          45.000    25163641.942   103041003.296        1110.359          42.000  
E25  27689618.879   145510133.767         934.838          42.000    27689627.327   111494904.974         716.250          47.000  
E12  29524343.868   155151558.843        1670.711          35.000    29524360.744   118882505.951        1280.303          42.000  
E14  20756857.346   109078065.296        2128.914          47.000    20756862.830    83579326.060        1631.323          50.000  
E33                                                                  29043101.683   116944564.479         414.790          40.000  
> 2024 04 14 23 23 30.0050000  0 26                     
S33  41107495.791   216021406.178        -782.888          42.000  
E33  29040046.277                1        530.999          28.000    29040040.673   116932240.705         406.489          40.000  
G13  23471984.812   123346064.345       -4005.636          47.000                                                                  
G15  22592588.091   118724860.135       -2647.621          46.000    22592588.468    92512909.166       -2063.203          45.000  
G17  24300488.075   127700020.950       -3602.320          42.000    24300482.618    99506661.925       -2806.979          43.000  
R14  21979379.732   117162530.654       -1889.730          54.000    21979379.581    91126495.798       -1469.814          51.000  
R17  24090758.277   128914790.779        3218.594          48.000    24090769.706   100267231.833        2503.308          48.000  
R05  22111857.023   118200582.693        -250.211          51.000    22111853.991    91933800.880        -194.565          47.000  
R04  22159173.338   118661350.626       -3938.241          51.000    22159171.146    92292176.593       -3063.163          50.000  
G19  23014158.073   120940384.354       -2506.276          49.000                                                                  
G22  25062837.652   131706069.307       -3850.132          38.000                                                                  
G06  25832665.669   135751701.528        1469.265          43.000    25832667.760   105780580.935        1144.818          39.000  
S31  40155366.961   211017932.728        -782.311          44.000  
R15  22303806.891   119184987.360         391.180          51.000    22303805.330    92699600.716         304.205          48.000  
R23  24574626.513   131457612.437       -2798.127          44.000                                                                  
R24  22723756.937   121514459.404         680.498          48.000    22723755.593    94511262.404         529.138          46.000  
E31  26498511.019   139250641.177       -2561.442          48.000    26498511.932   106698579.812       -1962.799          48.000  
E09  25874762.557   135972797.488       -2955.608          47.000    25874767.951   104186964.102       -2264.732          52.000  
E24  25192963.685   132390028.194        -804.587          47.000    25192964.102   101441765.686        -616.458          51.000  
G24  22441651.774   117931775.066         733.295          48.000    22441650.571    91894959.105         571.387          47.000  
G12  23133448.508   121567356.938         513.299          48.000    23133445.327    94727927.421         399.975          44.000  
E05  24029769.413   126277357.621        -197.645          48.000    24029771.511    96758016.633        -151.414          51.000  
G25  25155518.372   132193241.684        1419.291          46.000    25155523.423   103007760.440        1105.703          42.000  
E25  27684297.599   145482166.894         929.724          43.000    27684305.550   111473476.067         712.410          48.000  
E12  29514801.925   155101427.684        1671.532          35.000    29514819.804   118844095.208        1280.405          42.000  
E14  20744799.506   109014703.817        2094.950          47.000    20744805.525    83530776.807        1605.382          50.000  
> 2024 04 14 23 24 00.0050000  0 26                     
S33  41111963.083   216044882.399        -782.419          42.000  
G13  23494880.061   123466382.661       -4015.468          46.000                                                                  
G15  22607746.189   118804514.338       -2662.341          46.000    22607746.774    92574977.271       -2074.644          46.000  
G17  24321090.816   127808284.752       -3615.094          41.000    24321084.954    99591023.317       -2816.937          44.000  
R14  21990024.083   117219273.191       -1893.061          53.000    21990024.231    91170628.914       -1472.375          51.000  
R17  24072724.507   128818287.387        3215.070          49.000    24072733.192   100192175.106        2500.503          47.000  
R05  22113334.950   118208487.296        -276.845          50.000    22113332.919    91939948.890        -215.235          48.000  
R04  22181283.791   118779751.889       -3955.152          52.000    22181282.026    92384266.288       -3076.241          50.000  
G19  23028513.448   121015824.026       -2523.326          48.000                                                                  
G22  25084815.931   131821568.212       -3849.908          39.000                                                                  
G06  25824292.563   135707702.617        1463.822          43.000    25824294.373   105746296.427        1140.729          37.000  
S31  40159831.361   211041391.868        -781.465          44.000  
R15  22301621.859   119173314.517         386.981          50.000    22301621.221    92690521.895         300.861          48.000  
R23  24590380.369   131541886.616       -2819.924          43.000                                                                  
R24  22720004.419   121494385.098         657.813          50.000    22720000.917    94495649.124         511.575          46.000  
E31  26513135.727   139327493.600       -2561.956          49.000    26513135.948   106757466.740       -1963.058          47.000  
E09  25891663.813   136061609.613       -2965.085          47.000    25891668.542   104255014.856       -2271.936          53.000  
E24  25197571.048   132414238.481        -809.419          48.000    25197570.979   101460316.475        -620.189          51.000  
G24  22437485.072   117909879.656         726.361          49.000    22437483.679    91877897.785         565.912          47.000  
G12  23130542.164   121552086.285         504.784          48.000    23130539.000    94716028.329         393.044          44.000  
E05  24030933.765   126283478.833        -210.504          48.000    24030936.384    96762706.915        -161.421          51.000  
G25  25147429.227   132150734.608        1414.396          44.000    25147434.212   102974638.409        1101.987          42.000  
E25  27679003.805   145454340.918         925.463          44.000    27679009.766   111452155.119         709.006          48.000  
E12  29505257.993   155051274.201        1672.263          38.000    29505274.896   118805667.299        1281.436          43.000  
E14  20732934.656   108952355.099        2061.535          47.000    20732939.948    83483003.561        1579.539          50.000  
E33                                                                  29037037.096   116920150.743         399.388          39.000  
> 2024 04 14 23 24 30.0050000  0 26                     
S33  41116430.250   216068355.906        -782.308          42.000  
G13  23517833.795   123587001.511       -4025.533          45.000                                                                  
G15  22622989.724   118884618.317       -2677.594          47.000    22622989.375    92637395.854       -2086.249          45.000  
G17  24341767.445   127916941.110       -3628.252          41.000    24341761.693    99675690.651       -2827.354          44.000  
R14  22000689.501   117276126.679       -1896.720          52.000    22000689.768    91214848.325       -1475.304          51.000  
R17  24054710.663   128721901.417        3211.028          49.000    24054719.516   100117209.708        2497.474          47.000  
R05  22114965.607   118217201.270        -303.901          51.000    22114963.294    91946726.439        -236.310          49.000  
R04  22203490.987   118898668.179       -3972.260          52.000    22203488.218    92476756.593       -3089.569          49.000  
G19  23042967.219   121091781.549       -2540.426          48.000                                                                  
G22  25106797.724   131937082.991       -3850.558          40.000                                                                  
G06  25815952.451   135663878.258        1457.922          43.000    25815954.845   105712147.837        1135.955          38.000  
S31  40164295.358   211064848.936        -781.760          44.000  
R15  22299463.762   119161779.706         382.355          51.000    22299462.351    92681550.441         297.388          48.000  
R23  24606259.122   131626822.205       -2842.017          41.000                                                                  
R24  22716380.362   121475001.181         634.645          50.000    22716376.542    94480572.845         493.569          47.000  
E31  26527764.924   139404370.698       -2562.847          49.000    26527765.664   106816372.600       -1963.705          47.000  
E09  25908620.419   136150713.121       -2974.788          48.000    25908623.948   104323288.923       -2279.415          52.000  
E24  25202208.060   132438607.496        -814.810          47.000    25202208.152   101478988.890        -624.331          51.000  
G24  22433360.859   117888204.807         718.896          49.000    22433358.752    91861008.321         560.144          47.000  
G12  23127687.584   121537085.177         495.732          47.000    23127684.991    94704339.274         386.150          44.000  
E05  24032174.390   126290000.600        -223.995          47.000    24032177.372    96767704.098        -171.607          51.000  
G25  25139369.251   132108381.630        1409.333          44.000    25139374.440   102941636.469        1098.010          42.000  
E25  27673734.769   145426654.670         920.683          43.000    27673741.256   111430941.229         705.471          48.000  
E12  29495711.508   155001099.654        1672.916          41.000    29495726.011   118767223.253        1281.982          44.000  
E14  20721264.041   108891022.705        2027.446          48.000    20721268.616    83436009.036        1553.587          50.000  
E33                                                                  29034093.168   116908295.304         391.343          40.000  
> 2024 04 14 23 25 00.0050000  0 26                     
S33  41120896.601   216091830.660        -782.446          43.000  
E33  29031213.941                1        500.218          28.000    29031207.420   116896677.308         383.310          40.000  
G13  23540845.060   123707920.741       -4035.573          46.000                                                                  
G15  22638318.497   118965172.375       -2692.616          46.000    22638318.398    92700165.176       -2098.026          45.000  
G17  24362518.314   128025989.655       -3641.367          42.000    24362512.754    99760663.533       -2837.333          44.000  
R14  22011377.664   117333093.023       -1900.708          52.000    22011375.616    91259155.491       -1478.307          50.000  
R17  24036720.680   128625639.698        3206.748          49.000    24036728.651   100042340.902        2494.120          47.000  
R05  22116746.691   118226727.219        -330.957          50.000    22116745.386    91954135.500        -257.472          48.000  
R04  22225793.811   119018097.225       -3989.337          52.000    22225791.605    92569645.670       -3102.942          50.000  
G19  23057519.813   121168257.344       -2557.639          47.000                                                                  
G22  25128782.524   132052614.643       -3851.382          41.000                                                                  
G06  25807647.341   135620233.814        1451.914          42.000    25807650.355   105678139.475        1131.184          38.000  
S31  40168758.628   211088304.902        -781.742          44.000  
R15  22297332.722   119150384.738         377.637          52.000    22297330.163    92672687.788         293.750          49.000  
R23  24622261.671   131712419.417       -2864.229          42.000                                                                  
R24  22712884.465   121456313.028         611.396          48.000    22712882.552    94466037.677         475.540          48.000  
E31  26542398.716   139481274.063       -2563.885          48.000    26542399.485   106875298.575       -1964.555          47.000  
E09  25925631.401   136240108.974       -2984.745          47.000    25925635.615   104391786.987       -2287.004          52.000  
E24  25206876.866   132463136.680        -820.216          49.000    25206876.329   101497784.037        -628.510          51.000  
G24  22429278.967   117866754.614         711.273          49.000    22429276.710    91844293.941         554.083          47.000  
G12  23124884.659   121522355.595         486.539          48.000    23124882.329    94692861.769         379.154          45.000  
E05  24033491.607   126296925.909        -237.560          47.000    24033495.057    96773010.509        -182.043          51.000  
G25  25131339.279   132066184.972        1404.035          44.000    25131344.150   102908756.295        1093.920          42.000  
E25  27668491.084   145399110.194         915.663          42.000    27668499.435   111409835.976         701.729          47.000  
E12  29486158.089   154950908.427        1673.359          40.000    29486173.660   118728766.427        1282.116          44.000  
E14  20709786.754   108830713.254        1993.247          48.000    20709791.752    83389798.334        1527.196          50.000  
> 2024 04 14 23 25 30.0050000  0 26                     
S33  41125361.899   216115295.994        -782.132          42.000  
G13  23563910.394   123829130.015       -4045.289          46.000                                                                  
G15  22653730.578   119046166.379       -2707.393          46.000    22653731.489    92763277.302       -2109.594          45.000  
G17  24383342.121   128135419.514       -3654.156          42.000    24383335.733    99845933.616       -2847.244          43.000  
R14  22022084.338   117390163.742       -1904.251          53.000    22022082.208    91303543.844       -1481.063          50.000  
R17  24018752.718   128529499.041        3202.466          48.000    24018761.079    99967566.241        2490.636          47.000  
R05  22118680.230   118237058.110        -358.006          51.000    22118678.362    91962170.640        -278.409          49.000  
R04  22248190.130   119138026.957       -4006.085          52.000    22248187.814    92662924.139       -3115.918          50.000  
G19  23072169.376   121245241.503       -2574.659          47.000                                                                  
G22  25150769.445   132168154.501       -3851.762          40.000                                                                  
G06  25799375.995   135576764.618        1445.671          43.000    25799378.668   105644267.653        1126.447          40.000  
S31  40173220.520   211111753.463        -781.542          44.000  
R15  22295224.251   119139120.925         373.120          52.000    22295221.646    92663927.114         290.216          48.000  
R23  24638383.086   131798667.566       -2885.860          41.000                                                                  
R24  22709518.711   121438315.416         588.227          49.000    22709517.016    94452039.627         457.430          47.000  
E31  26557037.194   139558195.188       -2564.517          48.000    26557037.336   106934238.154       -1964.935          47.000  
E09  25942695.156   136329788.049       -2994.231          45.000    25942700.877   104460502.039       -2294.218          52.000  
E24  25211572.924   132487817.362        -825.226          48.000    25211572.780   101516695.267        -632.369          51.000  
G24  22425238.753   117845523.043         703.931          49.000    22425236.193    91827749.898         548.486          47.000  
G12  23122131.445   121507888.728         477.679          47.000    23122129.261    94681588.990         372.330          45.000  
E05  24034884.826   126304247.672        -250.821          47.000    24034888.234    96778620.688        -192.159          51.000  
G25  25123337.297   132024136.688        1398.990          44.000    25123342.838   102875991.752        1090.074          43.000  
E25  27663274.207   145371699.466         911.386          40.000    27663283.016   111388833.198         698.278          47.000  
E12  29476600.769   154900694.854        1674.023          39.000    29476617.084   118690292.422        1282.667          44.000  
E14  20698504.264   108771423.212        1959.080          49.000    20698508.913    83344368.712        1501.153          51.000  
E33                                                                  29028379.964   116885292.070         375.378          40.000  
> 2024 04 14 23 26 00.0050000  0 26                     
S33  41129825.367   216138751.927        -781.569          43.000  
E33  29025613.952                         480.353          28.000    29025610.486   116874139.121         367.899          41.000  
G13  23587028.847   123950624.628       -4054.357          44.000                                                                  
G15  22669225.718   119127596.198       -2721.732          45.000    22669226.990    92826729.018       -2120.615          45.000  
G17  24404237.638   128245226.246       -3666.519          43.000    24404232.228    99931497.324       -2857.262          43.000  
R14  22032810.594   117447336.691       -1907.466          52.000    22032807.647    91348011.714       -1483.539          50.000  
R17  24000808.315   128433481.696        3198.477          49.000    24000816.410    99892887.404        2487.590          48.000  
R05  22120763.294   118248192.155        -384.388          51.000    22120761.708    91970830.432        -299.018          50.000  
R04  22270678.881   119258450.592       -4022.229          52.000    22270676.255    92756586.764       -3128.370          50.000  
G19  23086915.081   121322729.933       -2591.328          48.000                                                                  
G22  25172755.752   132283699.031       -3851.447          41.000                                                                  
G06  25791137.243   135533471.597        1440.234          42.000    25791139.430   105610533.095        1122.480          39.000  
S31  40177680.629   211135191.658        -781.107          44.000  
R15  22293140.018   119127985.911         369.098          52.000    22293137.482    92655266.629         287.115          47.000  
R23  24654627.475   131885562.075       -2907.123          40.000                                                                  
R24  22706282.036   121421009.026         565.401          47.000    22706279.660    94438579.165         439.643          47.000  
E31  26571676.319   139635131.169       -2564.701          46.000    26571677.216   106993189.136       -1965.181          47.000  
E09  25959814.868   136419746.809       -3003.249          46.000    25959819.252   104529431.397       -2301.259          51.000  
E24  25216297.876   132512646.563        -830.039          49.000    25216297.393   101535720.294        -636.003          51.000  
G24  22421240.082   117824509.762         696.844          49.000    22421237.606    91811375.954         543.005          47.000  
G12  23119427.857   121493682.101         469.351          47.000    23119425.623    94670518.982         365.629          45.000  
E05  24036353.804   126311964.440        -263.695          47.000    24036356.533    96784533.546        -202.179          50.000  
G25  25115364.006   131982234.479        1394.342          46.000    25115368.296   102843341.032        1086.364          43.000  
E25  27658082.637   145344420.007         907.295          40.000    27658090.759   111367930.999         695.183          46.000  
E12  29467041.275   154850458.844        1674.980          38.000    29467056.093   118651801.175        1283.290          44.000  
E14  20687415.938   108713154.668        1925.317          49.000    20687420.374    83299721.773        1475.153          51.000  
> 2024 04 14 23 26 30.0050000  0 26                     
S33  41134286.996   216162197.642        -781.280          42.000  
G13  23610203.254   124072402.967       -4064.056          45.000                                                                  
G15  22684805.537   119209460.819       -2736.055          47.000    22684805.875    92890519.560       -2131.979          46.000  
G17  24425204.177   128355407.942       -3678.985          42.000    24425199.359   100017353.199       -2866.563          43.000  
R14  22043553.453   117504612.625       -1910.988          52.000    22043553.505    91392559.636       -1486.256          50.000  
R17  23982888.670   128337593.293        3194.126          49.000    23982896.868    99818308.828        2484.210          49.000  
R05  22122996.029   118260130.312        -411.348          50.000    22122994.561    91980115.632        -319.955          49.000  
R04  22293258.772   119379364.686       -4038.538          52.000    22293256.622    92850630.857       -3141.120          49.000  
G19  23101755.995   121400721.231       -2608.024          48.000                                                                  
G22  25194744.606   132399248.042       -3851.581          40.000                                                                  
G06  25782933.058   135490358.805        1434.072          42.000    25782934.630   105576938.935        1117.588          40.000  
S31  40182139.194   211158619.952        -780.923          44.000  
R15  22291079.691   119116979.844         364.770          51.000    22291078.345    92646706.440         283.710          48.000  
R23  24670991.286   131973101.298       -2928.341          37.000                                                                  
R24  22703175.775   121404397.421         542.153          46.000    22703173.501    94425659.086         421.671          48.000  
E31  26586319.195   139712082.145       -2565.146          47.000    26586320.977   107052151.585       -1965.568          47.000  
E09  25976986.532   136509984.705       -3012.581          47.000    25976991.043   104598574.647       -2308.309          51.000  
E24  25221051.059   132537624.264        -835.024          49.000    25221050.576   101554859.097        -639.866          51.000  
G24  22417283.279   117803717.434         689.429          49.000    22417281.511    91795174.172         537.115          47.000  
G12  23116773.846   121479736.212         460.555          46.000    23116771.445    94659652.161         358.715          45.000  
E05  24037898.665   126320077.747        -276.974          48.000    24037900.210    96790750.244        -212.275          50.000  
G25  25107417.681   131940479.076        1389.378          46.000    25107422.565   102810804.689        1082.696          43.000  
E25  27652917.396   145317272.462         902.796          41.000    27652924.738   111347129.876         691.565          46.000  
E12  29457477.589   154800203.320        1675.826          38.000    29457491.940   118613294.955        1283.846          45.000  
E14  20676522.587   108655912.605        1891.039          49.000    20676527.099    83255861.386        1448.849          51.000  
E33                                                                  29022898.647   116863220.394         359.973          40.000  
> 2024 04 14 23 27 00.0050000  0 26                     
S33  41138746.240   216185631.462        -781.014          42.000  
E33  29020243.465                1        459.567          30.000    29020246.130   116852535.612         352.227          41.000  
G13  23633430.518   124194460.442       -4073.161          45.000                                                                  
G15  22700465.813   119291756.164       -2750.321          47.000    22700466.591    92954645.712       -2143.291          46.000  
G17  24446241.612   128465959.660       -3691.049          42.000    24446236.447   100103497.408       -2876.316          43.000  
R14  22054316.168   117561989.026       -1914.321          53.000    22054315.990    91437185.761       -1488.960          50.000  
R17  23964993.490   128241836.406        3189.615          49.000    23965001.591    99743832.500        2480.645          48.000  
R05  22125379.391   118272870.814        -438.162          50.000    22125377.451    91990024.905        -340.774          49.000  
R04  22315928.661   119500762.731       -4054.633          52.000    22315926.119    92945051.380       -3153.589          49.000  
G19  23116692.767   121479211.654       -2624.695          48.000                                                                  
G22  25216732.994   132514798.443       -3851.782          40.000                                                                  
G06  25774762.899   135447427.369        1427.736          39.000    25774766.165   105543486.140        1112.750          42.000  
S31  40186595.298   211182037.450        -780.436          44.000  
R15  22289044.188   119106100.383         360.498          52.000    22289041.983    92638244.719         280.426          48.000  
R23  24687475.422   132061281.041       -2950.154          39.000                                                                  
R24  22700199.293   121388481.337         518.721          46.000    22700196.589    94413279.982         403.583          47.000  
E31  26600965.958   139789045.511       -2565.721          47.000    26600966.862   107111123.539       -1965.882          47.000  
E09  25994210.773   136600498.442       -3021.794          47.000    25994215.206   104667929.253       -2315.391          51.000  
E24  25225831.145   132562747.722        -840.035          48.000    25225831.720   101574109.582        -643.626          51.000  
G24  22413367.923   117783145.850         681.982          49.000    22413367.389    91779144.422         531.238          48.000  
G12  23114170.121   121466048.784         451.918          48.000    23114166.349    94648986.747         352.005          44.000  
E05  24039517.346   126328586.287        -290.314          48.000    24039519.228    96797269.809        -222.434          50.000  
G25  25099499.255   131898868.429        1384.364          46.000    25099503.808   102778381.147        1078.813          42.000  
E25  27647777.188   145290254.564         898.202          43.000    27647782.828   111326428.077         688.384          46.000  
E12  29447908.510   154749928.533        1676.459          38.000    29447923.896   118574773.973        1284.258          45.000  
E14  20665824.989   108599699.152        1856.637          48.000    20665829.399    83212789.145        1422.533          50.000  
> 2024 04 14 23 27 30.0050000  0 26                     
S33  41143204.959   216209061.339        -780.857          42.000  
E33  29017652.165                         449.421          30.000    29017651.060   116842089.654         344.206          40.000  
G13  23656709.993   124316799.541       -4082.607          45.000                                                                  
G15  22716208.223   119374484.927       -2765.024          46.000    22716207.631    93019109.580       -2154.367          44.000  
G17  24467349.555   128576883.339       -3703.918          43.000    24467344.834   100189931.448       -2885.967          43.000  
R14  22065100.158   117619470.657       -1917.852          52.000    22065099.764    91481893.719       -1491.631          51.000  
R17  23947124.556   128146220.297        3184.721          47.000    23947132.339    99669465.591        2476.978          49.000  
R05  22127914.376   118286418.782        -465.088          50.000    22127911.843    92000562.182        -361.799          49.000  
R04  22338689.666   119622645.137       -4070.825          53.000    22338686.101    93039848.599       -3166.236          47.000  
G19  23131724.461   121558203.606       -2641.467          48.000                                                                  
G22  25238723.505   132630353.873       -3852.063          38.000                                                                  
G06  25766628.664   135404685.098        1421.518          40.000    25766631.861   105510180.738        1107.705          42.000  
S31  40191049.933   211205448.247        -780.338          43.000  
R15  22287033.373   119095351.612         356.000          52.000    22287030.550    92629884.622         276.959          48.000  
R23  24704080.064   132150103.221       -2971.509          43.000                                                                  
R24  22697354.957   121373268.457         495.145          47.000    22697352.229    94401447.845         385.207          47.000  
E31  26615614.673   139866025.279       -2566.331          47.000    26615616.032   107170108.057       -1966.497          48.000  
E09  26011489.203   136691291.395       -3031.129          47.000    26011492.821   104737497.805       -2322.619          51.000  
E24  25230640.696   132588020.781        -844.994          48.000    25230640.966   101593474.694        -647.481          51.000  
G24  22409496.522   117762801.647         674.329          49.000    22409495.738    91763291.817         525.647          47.000  
G12  23111615.595   121452623.283         443.079          48.000    23111611.298    94638525.450         345.277          44.000  
E05  24041212.761   126337495.521        -303.695          47.000    24041214.697    96804096.386        -232.801          50.000  
G25  25091608.869   131857407.128        1379.702          46.000    25091613.919   102746073.971        1075.038          43.000  
E25  27642660.088   145263370.788         893.900          43.000    27642667.164   111305829.086         684.847          47.000  
E12  29438339.512   154699641.247        1676.222          40.000    29438352.644   118536243.335        1284.435          43.000  
E14  20655325.406   108544523.119        1821.723          49.000    20655329.426    83170511.767        1395.968          51.000  
> 2024 04 14 23 28 00.0050000  0 26                     
S33  41147663.081   216232490.453        -781.014          44.000  
E33  29015117.781                1        438.128          30.000    29015116.067   116831890.391         336.039          35.000  
G13  23680045.804   124439426.601       -4092.535          45.000                                                                  
G15  22732034.588   119457653.732       -2779.814          45.000    22732033.670    93083916.365       -2166.023          44.000  
G17  24488529.631   128688184.556       -3716.374          41.000    24488524.646   100276659.666       -2895.693          42.000  
R14  22075905.380   117677065.786       -1921.758          51.000    22075905.119    91526689.943       -1494.659          50.000  
R17  23929284.528   128050758.566        3179.292          48.000    23929290.597    99595218.762        2472.931          48.000  
R05  22130600.943   118300783.364        -492.519          51.000    22130599.451    92011734.624        -383.027          49.000  
R04  22361542.172   119745016.289       -4087.079          53.000    22361539.698    93135025.984       -3178.992          48.000  
G19  23146851.943   121637704.159       -2658.552          47.000                                                                  
G22  25260714.118   132745921.601       -3852.252          36.000                                                                  
G06  25758533.266   135362143.924        1414.436          42.000    25758536.807   105477032.036        1102.348          43.000  
S31  40195504.890   211228860.747        -780.453          43.000  
R15  22285048.351   119084742.042         351.434          52.000    22285045.500    92621632.839         273.309          49.000  
R23  24720805.125   132239574.136       -2993.173          45.000                                                                  
R24  22694643.537   121358770.247         471.326          47.000    22694640.837    94390171.534         366.643          46.000  
E31  26630267.863   139943029.552       -2567.219          47.000    26630269.305   107229111.368       -1967.153          48.000  
E09  26028821.388   136782370.886       -3040.688          48.000    26028824.679   104807285.919       -2330.007          51.000  
E24  25235480.226   132613451.380        -850.371          48.000    25235480.184   101612960.518        -651.588          51.000  
G24  22405670.861   117742695.402         666.260          49.000    22405669.286    91747624.637         519.159          47.000  
G12  23109111.930   121439468.384         434.043          49.000    23109108.419    94628274.981         338.061          45.000  
E05  24042985.392   126346814.865        -317.493          47.000    24042988.498    96811237.159        -243.277          51.000  
G25  25083748.604   131816103.774        1374.288          46.000    25083753.596   102713889.904        1070.701          43.000  
E25  27637571.525   145236629.649         888.877          44.000    27637578.696   111285339.356         681.217          48.000  
E12  29428769.146   154649352.363        1676.107          40.000    29428781.703   118497711.460        1284.350          42.000  
E14  20645025.497   108490397.181        1786.659          48.000    20645029.603    83129039.012        1369.011          51.000  
> 2024 04 14 23 28 30.0050000  0 26                     
S33  41152122.422   216255925.271        -781.133          42.000  
E33  29012647.211                         427.690          27.000    29012645.205   116821941.373         327.513          35.000  
G13  23703435.875   124562341.763       -4101.652          45.000                                                                  
G15  22747944.912   119541263.293       -2794.176          45.000    22747944.210    93149066.571       -2177.326          43.000  
G17  24509781.723   128799863.939       -3728.729          44.000    24509776.030   100363682.569       -2905.504          41.000  
R14  22086732.281   117734777.951       -1925.477          52.000    22086731.501    91571577.183       -1497.565          51.000  
R17  23911475.130   127955458.926        3174.142          49.000    23911480.749    99521097.987        2468.654          47.000  
R05  22133441.192   118315967.414        -519.532          49.000    22133439.946    92023544.437        -404.189          49.000  
R04  22384485.185   119867874.686       -4103.137          53.000    22384482.352    93230582.331       -3191.333          47.000  
G19  23162077.149   121717714.081       -2675.352          48.000                                                                  
G22  25282707.968   132861503.526       -3853.009          36.000                                                                  
G06  25750477.318   135319809.844        1407.904          43.000    25750480.532   105444044.740        1096.987          43.000  
S31  40199961.456   211252278.979        -780.406          43.000  
R15  22283088.474   119074274.299         346.777          52.000    22283086.629    92613491.319         269.550          47.000  
R23  24737652.058   132329694.268       -3014.621          45.000                                                                  
R24  22692067.364   121344992.290         447.339          49.000    22692063.754    94379455.435         347.898          47.000  
E31  26644926.424   140020060.563       -2567.948          47.000    26644927.853   107288135.114       -1967.625          48.000  
E09  26046207.557   136873738.479       -3050.148          47.000    26046211.812   104877294.768       -2337.112          51.000  
E24  25240348.768   132639041.571        -855.496          47.000    25240349.844   101632568.629        -655.435          51.000  
G24  22401890.991   117722831.786         658.282          49.000    22401889.453    91732146.523         512.915          47.000  
G12  23106660.347   121426586.095         425.092          49.000    23106656.701    94618236.953         331.211          44.000  
E05  24044837.653   126356547.839        -331.143          47.000    24044840.579    96818694.911        -253.718          51.000  
G25  25075919.776   131774961.116        1368.957          45.000    25075924.061   102681831.022        1066.574          43.000  
E25  27632509.890   145210033.756         884.468          43.000    27632518.013   111264960.932         677.556          48.000  
E12  29419200.125   154599066.929        1676.372          41.000    29419211.106   118459182.198        1284.420          42.000  
E14  20634925.262   108437328.179        1751.628          47.000    20634930.516    83088376.107        1342.103          51.000  
> 2024 04 14 23 29 00.0050000  0 27                     
S33  41156581.394   216279357.815        -780.772          42.000  
E33  29010239.849   152449810.6491        416.571          32.000    29010237.686   116812236.878         319.597          37.000  
G13  23726878.804   124685533.749       -4110.718          45.000                                                                  
G15  22763937.462   119625302.385       -2808.143          46.000    22763937.095    93214551.484       -2188.181          44.000  
G17  24531102.927   128911909.740       -3740.777          45.000    24531097.337   100450991.024       -2915.063          41.000  
R14  22097578.508   117792597.336       -1928.870          54.000    22097577.762    91616547.856       -1500.276          50.000  
R17  23893694.587   127860317.038        3168.940          50.000    23893700.031    99447099.812        2464.702          48.000  
R05  22136434.043   118331961.992        -546.486          51.000    22136431.855    92035984.600        -424.928          48.000  
R04  22407515.901   119991206.791       -4118.677          52.000    22407513.917    93326507.106       -3203.510          47.000  
G19  23177397.292   121798221.907       -2691.745          48.000                                                                  
G22  25304703.657   132977090.139       -3852.722          37.000                                                                  
G06  25742459.510   135277677.068        1401.281          44.000    25742462.822   105411214.292        1091.918          43.000  
S31  40204417.564   211275693.441        -780.390          45.000  
R15  22281154.163   119063938.682         342.450          52.000    22281152.293    92605452.584         266.461          49.000  
R23  24754619.018   132420452.002       -3035.759          44.000                                                                  
R24  22689624.330   121331928.255         423.715          50.000    22689620.700    94369294.583         329.411          47.000  
E31  26659588.032   140097108.668       -2568.346          48.000    26659589.004   107347172.004       -1967.927          46.000  
E09  26063646.819   136965383.836       -3059.295          47.000    26063650.938   104947516.447       -2344.098          51.000  
E24  25245246.803   132664781.592        -860.266          47.000    25245248.170   101652291.559        -659.153          51.000  
G24  22398156.183   117703203.769         650.525          49.000    22398154.348    91716851.977         506.903          47.000  
G12  23104258.753   121413967.146         416.374          49.000    23104255.307    94608404.096         324.533          45.000  
E05  24046767.018   126366686.165        -344.480          47.000    24046769.923    96826463.252        -263.939          51.000  
G25  25068118.913   131733970.120        1364.198          45.000    25068123.545   102649890.312        1063.129          43.000  
E25  27627474.960   145183573.923         879.982          43.000    27627482.705   111244686.757         674.257          49.000  
E12  29409628.749   154548778.093        1676.574          41.000    29409640.426   118420650.304        1284.628          42.000  
E14  20625026.842   108385310.994        1716.529          48.000    20625031.873    83048519.153        1315.306          52.000  
E03                                                                  28929556.870                1       1322.262          31.000  
> 2024 04 14 23 29 30.0050000  0 27                     
S33  41161038.824   216302784.220        -780.821          42.000  
E33  29007891.253   152437464.138         405.861          33.000    29007886.923   116802776.642         310.873          36.000  
G13  23750374.562   124808998.103       -4120.149          46.000                                                                  
G15  22780010.117   119709767.387       -2822.838          46.000    22780009.120    93280368.295       -2199.528          43.000  
G17  24552492.670   129024316.782       -3752.957          45.000    24552487.645   100538580.896       -2924.420          40.000  
R14  22108446.350   117850521.998       -1932.747          53.000    22108445.080    91661600.385       -1503.254          51.000  
R17  23875943.243   127765335.300        3163.188          50.000    23875950.320    99373226.204        2460.242          49.000  
R05  22139577.059   118348765.474        -573.745          50.000    22139574.988    92049053.984        -446.131          48.000  
R04  22430634.900   120115006.241       -4134.583          51.000    22430632.580    93422795.355       -3215.747          47.000  
G19  23192812.051   121879224.157       -2708.461          49.000                                                                  
G22  25326696.801   133092678.100       -3852.594          32.000                                                                  
G06  25734480.199   135235746.798        1394.163          43.000    25734482.291   105378541.593        1086.334          41.000  
S31  40208871.751   211299101.670        -780.341          43.000  
R15  22279245.078   119053732.800         337.903          53.000    22279242.014    92597514.749         262.738          48.000  
R23  24771703.446   132511842.737       -3056.962          44.000                                                                  
R24  22687314.147   121319578.643         399.591          47.000    22687311.625    94359689.384         310.812          47.000  
E31  26674252.488   140174171.315       -2569.092          47.000    26674253.854   107406220.031       -1968.552          48.000  
E09  26081138.994   137057303.620       -3068.656          47.000    26081142.667   105017948.392       -2351.285          51.000  
E24  25250173.136   132690668.672        -865.418          47.000    25250173.944   101672127.144        -663.168          51.000  
G24  22394465.459   117683811.189         642.267          49.000    22394463.767    91701740.890         500.623          47.000  
G12  23101906.539   121401609.174         407.501          48.000    23101903.367    94598774.632         317.462          45.000  
E05  24048773.375   126377228.528        -358.288          48.000    24048775.870    96834541.170        -274.531          50.000  
G25  25060346.085   131693128.639        1358.739          44.000    25060351.615   102618066.137        1058.646          43.000  
E25  27622466.412   145157247.929         875.213          44.000    27622472.652   111224515.135         670.603          48.000  
E12  29400057.209   154498486.146        1676.215          40.000    29400069.782   118382115.991        1284.609          43.000  
E14  20615328.795   108334347.460        1681.079          48.000    20615333.571    83009469.516        1288.138          52.000  
E03                                                                  28919723.324                        1317.500          27.000  
