     3.00           OBSERVATION DATA    M: Mixed            RINEX VERSION / TYPE
CONVBIN 2.4.3                           20240414 225942 UTC PGM / RUN BY / DATE 
format: u-blox UBX                                          COMMENT             
log: /home/regis/git/gnsspwv/obsdata/VERT00CHL/2024-04-14/VECOMMENT             
{self.marker}                                               MARKER NAME         
                                                            MARKER NUMBER       
GEODETIC                                                    MARKER TYPE         
{self.observer}     {self.institution}                      OBSERVER / AGENCY   
UNKNOWN             UBLOX-ZED-F9P                           REC # / TYPE / VERS 
UNKNOWN             TWIVSP6037L                             ANT # / TYPE        
  1713381.0000 -5047934.0000 -3490983.0000                  APPROX POSITION XYZ 
        0.0000        0.0000        0.0000                  ANTENNA: DELTA H/E/N
G    8 C1C L1C D1C S1C C2L L2L D2L S2L                      SYS / # / OBS TYPES 
R    8 C1C L1C D1C S1C C2C L2C D2C S2C                      SYS / # / OBS TYPES 
E    8 C1C L1C D1C S1C C7Q L7Q D7Q S7Q                      SYS / # / OBS TYPES 
S    4 C1C L1C D1C S1C                                      SYS / # / OBS TYPES 
  2024    04    14    22    45   00.0030000     GPS         TIME OF FIRST OBS   
  2024    04    14    22    59   30.0040000     GPS         TIME OF LAST OBS    
                                                            END OF HEADER       
> 2024 04 14 22 45 00.0030000  0 26                     
S33  40763928.684   214215928.1521       -783.563          42.000  
E33  29421212.209   154609495.7991       1136.781          32.000    29421213.696   118467037.3031        871.355          35.000  
G13  21916834.653   115173741.7691      -3006.087          47.000                                                                  
G14  25729431.733   135209099.0871      -3934.121          33.000    25729426.442                       -3064.978          30.000  
G15  21708906.974   114081090.3271      -1335.779          48.000    21708904.586    88894390.0621      -1040.857          46.000  
G17  22979123.490   120756196.7391      -2336.945          46.000    22979119.305    94095887.2151      -1820.981          45.000  
R14  21231737.172   113177163.8611      -1539.620          53.000    21231736.817    88026763.4351      -1197.574          51.000  
R13  24211887.565   129290097.9881      -3347.508          30.000    24211883.785   100559004.3181      -2603.544          37.000  
R05  22435591.759   119931120.6011       1676.768          49.000    22435590.402    93279772.6521       1304.014          47.000  
R03  23106432.603   123690426.7141      -5047.930          48.000    23106438.203    96203617.2681      -3926.175          48.000  
R04  20806412.461   111417404.3371      -2222.065          52.000    20806409.148    86658002.5351      -1728.348          50.000  
G19  22230289.993   116821123.1071      -1026.803          46.000                                                                  
G22  23402436.275   122980657.3401      -3655.800          45.000                                                                  
S31  39812062.434   209213835.0871       -782.648          41.000  
R15  22561083.875   120559758.4851        819.652          51.000    22561084.644    93768857.5261        637.436          47.000  
R23  23760381.361   127102073.8411       -943.644          46.000                                                                  
R24  23351573.995   124871624.5331       2094.100          49.000    23351573.948    97122379.6311       1628.654          46.000  
E31  25401274.475   133484620.1251      -2402.260          47.000    25401277.177   102280457.8971      -1840.672          52.000  
E09  24759442.611   130111753.4551      -2090.292          49.000    24759445.426    99696037.1071      -1601.742          52.000  
E04  27935856.089   146803762.0841      -3703.258          43.000    27935870.078   112485996.4111      -2837.335          48.000  
E24  24943711.854   131080183.0191       -305.450          48.000    24943713.293   100438113.4891       -233.982          51.000  
G24  22865105.572   120157025.9021       1138.549          46.000    22865105.106    93628916.8291        887.310          45.000  
G12  23519168.959   123594284.6091       1246.039          47.000    23519168.843    96307340.0811        970.869          44.000  
E05  24156755.225   126944667.8651        734.620          47.000    24156758.620    97269329.8021        562.886          51.000  
E25  28176425.013   148068198.8041       1308.513          44.000    28176439.220   113454950.2281       1002.591          46.000  
G30                                                                  26827484.433                3      -2692.892          19.000  
> 2024 04 14 22 45 30.0030000  0 25                     
S33  40768401.714   214239433.408        -783.114          42.000  
E33  29414731.078                        1132.704          31.000    29414735.890   118440953.324         867.593          36.000  
G13  21934039.230   115264151.869       -3021.154          48.000                                                                  
G14  25751882.570                       -3931.078          27.000    25751879.446                1      -3063.237          32.000  
G15  21716583.821   114121433.403       -1353.644          49.000    21716581.635    88925826.247       -1054.895          46.000  
G17  22992516.995   120826586.560       -2355.721          44.000    22992514.986    94150736.500       -1835.761          47.000  
R14  21240418.960   113223435.172       -1545.025          53.000    21240417.878    88062752.279       -1201.673          50.000  
R13  24230694.030                3      -3351.066          18.000    24230681.942   100637082.361       -2601.910          37.000  
R05  22426241.576   119881140.677        1655.286          48.000    22426239.759    93240899.486        1287.355          47.000  
R03  23134744.053   123841972.213       -5055.025          49.000    23134749.057    96321485.246       -3931.590          47.000  
R04  20818934.423   111484458.488       -2248.120          52.000    20818931.778    86710155.714       -1748.458          50.000  
G19  22236208.257   116852223.011       -1046.571          48.000                                                                  
G22  23423319.831   123090400.384       -3660.408          43.000                                                                  
S31  39816531.449   209237322.289        -782.622          44.000  
R15  22556500.128   120535263.757         813.424          51.000    22556500.401    93749806.273         632.753          48.000  
R23  23765742.804   127130754.008        -968.189          44.000                                                                  
R24  23339862.662   124808994.875        2081.339          51.000    23339862.297    97073667.903        1618.832          47.000  
E31  25414997.032   133556735.256       -2405.256          47.000    25414999.959   102335714.978       -1842.931          52.000  
E09  24771410.318   130174644.777       -2102.366          49.000    24771413.189    99744226.534       -1610.783          52.000  
E04  27957008.677   146914908.373       -3706.417          44.000    27957021.498   112571159.578       -2840.097          48.000  
E24  24945476.639   131089455.074        -312.633          48.000    24945477.269   100445218.102        -239.410          51.000  
G24  22858614.470   120122915.522        1135.442          47.000    22858613.894    93602337.431         884.750          46.000  
G12  23512081.448   123557042.981        1236.658          47.000    23512081.754    96278320.839         963.726          44.000  
E05  24152590.189   126922784.276         724.351          47.000    24152594.273    97252561.908         555.080          51.000  
E25  28168967.991   148029013.380        1303.935          43.000    28168982.402   113424925.578         999.140          47.000  
> 2024 04 14 22 46 00.0030000  0 25                     
S33  40772873.540   214262931.907        -782.757          43.000  
E33  29408285.018   154541567.705        1127.072          34.000    29408287.330   118414988.709         864.031          37.000  
G13  21951329.601   115355014.652       -3035.951          47.000                                                                  
G15  21724363.445   114162316.606       -1371.533          49.000    21724361.526    88957683.276       -1068.750          45.000  
G17  23006019.755   120897541.561       -2374.365          47.000    23006016.915    94206026.094       -1850.056          47.000  
R14  21249128.720   113269868.524       -1550.214          53.000    21249127.843    88098867.152       -1205.603          51.000  
R13  24249478.610                3      -3342.788          21.000    24249470.412   100715116.208       -2600.294          37.000  
R05  22417013.238   119831810.878        1633.806          50.000    22417012.820    93202531.943        1270.656          48.000  
R03  23163094.820   123993731.204       -5061.753          48.000    23163100.123    96439519.238       -3936.844          48.000  
R04  20831601.736   111552290.779       -2273.767          52.000    20831598.624    86762914.144       -1768.344          50.000  
G19  22242241.247   116883923.233       -1066.390          46.000                                                                  
G22  23444229.002   123200275.904       -3664.501          46.000                                                                  
S31  39820999.904   209260802.247        -782.164          41.000  
R15  22551951.936   120510957.186         807.494          52.000    22551951.230    93730901.316         628.043          47.000  
R23  23771240.808   127160168.605        -992.635          44.000                                                                  
R24  23328222.604   124746754.330        2068.491          50.000    23328222.865    97025258.877        1608.914          48.000  
E31  25428738.013   133628944.133       -2408.322          47.000    25428740.836   102391043.892       -1845.262          52.000  
E09  24783447.048   130237897.572       -2114.061          50.000    24783450.482    99792692.943       -1619.902          53.000  
E04  27978180.469   147026164.111       -3710.122          45.000    27978193.816   112656406.556       -2842.790          48.000  
E24  24947282.950   131098944.967        -319.689          49.000    24947282.983   100452489.660        -244.888          50.000  
G24  22852142.045   120088900.925        1132.555          47.000    22852141.571    93575832.601         882.433          45.000  
G12  23505047.855   123520085.009        1227.372          47.000    23505048.295    96249522.637         956.390          43.000  
E05  24148485.140   126901210.569         714.260          47.000    24148489.070    97236031.434         547.266          51.000  
E25  28161537.417   147989969.324        1299.486          44.000    28161551.917   113395009.239         995.643          46.000  
G14                                                                  25774319.229                       -3061.242          32.000  
> 2024 04 14 22 46 30.0030000  0 25                     
S33  40777341.379   214286412.107        -782.585          42.000  
E33  29401858.975   154507827.523        1122.650          30.000    29401866.571   118389135.985         859.867          37.000  
G13  21968703.863   115446316.667       -3050.867          47.000                                                                  
G15  21732243.871   114203727.964       -1389.374          48.000    21732242.866    88989951.823       -1082.538          46.000  
G17  23019627.712   120969048.458       -2392.719          47.000    23019624.209    94261745.824       -1864.557          47.000  
R14  21257866.670   113316451.092       -1555.299          53.000    21257867.333    88135098.072       -1209.700          51.000  
R13  24268262.926                2      -3341.845          25.000    24268244.335   100793096.577       -2598.464          36.000  
R05  22407904.707   119783122.536        1612.236          49.000    22407903.529    93164663.288        1253.975          46.000  
R03  23191482.380   124145687.736       -5068.493          49.000    23191487.200    96557706.880       -3942.041          48.000  
R04  20844411.372   111620886.774       -2299.264          51.000    20844408.311    86816266.540       -1788.327          50.000  
G19  22248384.903   116916211.894       -1086.115          47.000                                                                  
G22  23465160.600   123310269.726       -3668.706          45.000                                                                  
S31  39825464.505   209284263.697        -781.757          44.000  
R15  22547435.511   120486825.950         801.425          51.000    22547435.377    93712132.793         623.378          48.000  
R23  23776875.039   127190306.404       -1016.886          45.000                                                                  
R24  23316653.956   124684895.243        2055.565          50.000    23316653.650    96977146.540        1598.642          46.000  
E31  25442493.488   133701233.876       -2411.134          46.000    25442497.331   102446434.758       -1847.438          52.000  
E09  24795549.564   130301499.515       -2125.902          49.000    24795553.178    99841426.880       -1628.983          53.000  
E04  27999368.966   147137516.065       -3713.270          44.000    27999384.651   112741727.270       -2845.302          49.000  
E24  24949127.101   131108640.283        -326.724          48.000    24949128.696   100459918.604        -250.335          52.000  
G24  22845685.514   120054971.595        1129.503          48.000    22845684.694    93549394.223         880.207          46.000  
G12  23498066.421   123483398.793        1218.166          46.000    23498067.024    96220936.194         949.442          45.000  
E05  24144437.041   126879936.333         704.203          47.000    24144440.664    97219730.435         539.537          51.000  
E25  28154131.795   147951054.914        1294.966          43.000    28154146.383   113365192.248         992.279          47.000  
G14                                                                  25796741.711                       -3060.187          30.000  
> 2024 04 14 22 47 00.0030000  0 25                     
S33  40781808.313   214309883.971        -782.596          43.000  
E33  29395473.764   154474241.3881       1116.529          31.000    29395476.318   118363405.076         855.237          35.000  
G13  21986163.214   115538067.378       -3066.142          47.000                                                                  
G15  21740226.953   114245678.085       -1407.623          49.000    21740224.970    89022640.202       -1096.900          45.000  
G17  23033341.425   121041116.739       -2411.973          47.000    23033338.162    94317902.969       -1879.412          46.000  
R14  21266635.602   113363193.115       -1561.073          52.000    21266635.405    88171453.059       -1214.198          50.000  
R13  24287041.750                3      -3349.309          17.000    24287011.089   100871031.951       -2597.592          38.000  
R05  22398918.141   119735089.800        1589.824          50.000    22398916.927    93127304.552        1236.519          45.000  
R03  23219906.805   124297848.874       -5075.760          49.000    23219913.161    96676053.603       -3947.737          47.000  
R04  20857365.746   111690255.199       -2325.509          52.000    20857362.051    86870219.754       -1808.819          50.000  
G19  22254642.387   116949099.587       -1106.521          46.000                                                                  
G22  23486114.879   123420391.110       -3673.291          43.000                                                                  
S31  39829926.951   209307717.115        -781.962          44.000  
R15  22542953.523   120462880.944         794.772          51.000    22542954.542    93693509.112         618.014          47.000  
R23  23782646.328   127221178.979       -1041.648          44.000                                                                  
R24  23305159.315   124623433.571        2041.807          50.000    23305158.690    96929343.217        1587.887          46.000  
E31  25456267.289   133773614.297       -2414.511          47.000    25456270.639   102501895.121       -1850.164          52.000  
E09  24807720.988   130365461.070       -2138.384          49.000    24807724.759    99890436.357       -1638.499          53.000  
E04  28020579.798   147248973.873       -3717.390          44.000    28020594.896   112827129.046       -2848.365          48.000  
E24  24951012.874   131118551.242        -334.224          48.000    24951014.738   100467512.793        -256.185          52.000  
G24  22839247.109   120021139.805        1125.784          48.000    22839246.924    93523031.869         877.017          46.000  
G12  23491139.341   123446995.704        1208.397          46.000    23491139.476    96192570.345         941.691          44.000  
E05  24140448.772   126858974.016         693.222          48.000    24140451.959    97203668.455         531.076          51.000  
E25  28146754.190   147912281.299        1289.622          44.000    28146768.088   113335483.134         988.203          47.000  
G14                                                                  25819142.028                3      -3050.907          21.000  
> 2024 04 14 22 47 30.0030000  0 24                     
S33  40786276.451   214333366.566        -783.169          43.000  
E33  29389121.647   154440839.881        1110.236          32.000    29389120.020   118337811.692         850.752          35.000  
G13  22003711.611   115630283.744       -3081.721          47.000                                                                  
G15  21748316.110   114288184.979       -1426.172          49.000    21748314.161    89055762.445       -1111.377          45.000  
G17  23047165.370   121113762.483       -2431.219          48.000    23047162.768    94374510.068       -1894.541          46.000  
R14  21275437.393   113410111.975       -1566.969          52.000    21275437.352    88207945.545       -1218.795          50.000  
R13  24305785.230                1      -3337.962          28.000    24305769.200   100948936.734       -2596.620          38.000  
R05  22390060.546   119687735.296        1567.068          51.000    22390058.519    93090473.344        1218.794          47.000  
R03  23248373.552   124450228.714       -5083.044          50.000    23248378.976    96794570.447       -3953.377          47.000  
R04  20870467.534   111760413.105       -2351.786          52.000    20870463.759    86924786.948       -1829.153          50.000  
G19  22261017.818   116982604.703       -1127.264          47.000                                                                  
G22  23507096.953   123530656.676       -3677.959          42.000                                                                  
S31  39834392.062   209331181.435        -782.477          43.000  
R15  22538511.931   120439139.818         787.926          52.000    22538511.259    93675043.958         612.578          48.000  
R23  23788558.976   127252805.597       -1066.783          44.000                                                                  
R24  23293744.234   124562392.232        2027.564          50.000    23293745.278    96881866.846        1577.067          48.000  
E31  25470061.697   133846102.717       -2418.103          47.000    25470064.719   102557438.212       -1852.920          52.000  
E09  24819964.312   130429800.072       -2151.036          49.000    24819968.138    99939735.058       -1648.217          53.000  
E04  28041813.496   147360554.546       -3721.522          43.000    28041829.767   112912624.940       -2851.504          49.000  
E24  24952943.409   131128695.559        -342.161          48.000    24952944.958   100475285.780        -262.183          52.000  
G24  22832831.154   119987425.387        1121.724          48.000    22832831.078    93496760.954         873.969          46.000  
G12  23484269.421   123410894.085        1198.306          46.000    23484268.907    96164439.417         933.855          44.000  
E05  24136522.849   126838343.474         682.070          48.000    24136525.911    97187860.679         522.704          51.000  
E25  28139404.545   147873666.993        1284.365          44.000    28139419.100   113305896.100         984.069          46.000  
> 2024 04 14 22 48 00.0030000  0 24                     
S33  40790746.541   214356857.377        -783.313          43.000  
E33  29382797.033                1       1104.448          29.000    29382799.068   118312356.422         846.153          37.000  
G13  22021348.945   115722963.153       -3097.186          48.000                                                                  
G15  21756510.047   114331246.367       -1444.708          49.000    21756508.414    89089316.798       -1125.696          46.000  
G17  23061099.300   121186983.249       -2450.388          48.000    23061095.510    94431565.228       -1909.324          46.000  
R14  21284272.257   113457204.981       -1572.774          52.000    21284271.484    88244573.495       -1223.320          51.000  
R13  24324519.712                1      -3336.426          31.000    24324519.860   101026809.767       -2595.400          39.000  
R05  22381329.459   119641060.091        1544.396          50.000    22381327.470    93054170.470        1201.145          47.000  
R03  23276879.356   124602821.309       -5090.017          51.000    23276885.880    96913252.780       -3958.997          47.000  
R04  20883715.709   111831356.090       -2377.886          52.000    20883712.259    86979964.789       -1849.480          50.000  
G19  22267512.255   117016725.467       -1147.765          48.000                                                                  
G22  23528108.089   123641062.948       -3682.551          42.000                                                                  
S31  39838858.779   209354654.827        -782.854          43.000  
R15  22534106.903   120415600.094         781.094          52.000    22534106.162    93656735.428         607.560          48.000  
R23  23794611.291   127285184.605       -1092.153          43.000                                                                  
R24  23282408.902   124501774.270        2013.334          50.000    23282409.603    96834719.800        1565.934          48.000  
E31  25483877.233   133918696.472       -2421.681          48.000    25483879.068   102613062.023       -1855.532          52.000  
E09  24832279.445   130494514.416       -2163.521          49.000    24832282.667    99989321.362       -1657.753          52.000  
E04  28063069.827   147472255.110       -3725.511          43.000    28063087.182   112998212.680       -2854.612          50.000  
E24  24954918.135   131139070.939        -349.790          48.000    24954919.186   100483235.830        -268.038          52.000  
G24  22826438.361   119953828.070        1117.631          48.000    22826437.865    93470581.281         870.969          46.000  
G12  23477455.920   123375092.541        1188.287          46.000    23477455.842    96136542.346         925.949          44.000  
E05  24132660.048   126818044.626         670.838          48.000    24132662.916    97172307.063         514.080          51.000  
E25  28132086.455   147835210.608        1279.120          44.000    28132100.679   113276430.048         980.099          47.000  
> 2024 04 14 22 48 30.0040000  0 24                     
S33  40795218.294   214380354.637        -783.328          44.000  
E33  29376508.109   154374577.6781       1098.744          32.000    29376510.334   118287037.133         841.264          36.000  
G13  22039072.646   115816103.246       -3112.311          48.000                                                                  
G15  21764808.994   114374859.740       -1463.205          48.000    21764808.511    89123301.233       -1140.158          46.000  
G17  23075141.749   121260775.960       -2469.156          48.000    23075137.589    94489066.091       -1924.109          45.000  
R14  21293139.530   113504469.403       -1578.321          53.000    21293138.160    88281334.778       -1227.540          51.000  
R13  24343265.446                       -3335.237          27.000    24343261.447   101104650.965       -2593.749          37.000  
R05  22372724.115   119595062.788        1521.701          49.000    22372723.010    93018394.901        1183.520          47.000  
R03  23305425.072   124755624.345       -5096.787          49.000    23305431.643    97032098.764       -3964.278          47.000  
R04  20897109.349   111903080.978       -2403.922          52.000    20897106.189    87035750.747       -1869.647          50.000  
G19  22274122.396   117051459.379       -1168.027          48.000                                                                  
G22  23549144.057   123751608.629       -3687.284          42.000                                                                  
S31  39843327.218   209378134.427        -782.860          41.000  
R15  22529737.875   120392257.004         774.675          52.000    22529737.521    93638579.878         602.438          49.000  
R23  23800804.727   127318314.549       -1117.025          40.000                                                                  
R24  23271151.329   124441578.597        1999.225          49.000    23271151.880    96787901.137        1554.817          47.000  
E31  25497710.318   133991393.450       -2424.984          47.000    25497712.645   102668764.923       -1858.089          52.000  
E09  24844665.134   130559602.295       -2175.894          49.000    24844668.518   100039193.865       -1667.218          53.000  
E04  28084348.575   147584074.444       -3729.262          43.000    28084366.509   113083891.360       -2857.382          50.000  
E24  24956935.599   131149673.588        -357.325          48.000    24956936.733   100491360.008        -273.837          52.000  
G24  22820066.752   119920344.595        1114.044          48.000    22820065.954    93444490.372         867.931          46.000  
G12  23470699.912   123339586.547        1178.288          46.000    23470699.548    96108875.555         918.130          44.000  
E05  24128859.423   126798074.756         659.992          48.000    24128862.829    97157005.530         505.676          51.000  
E25  28124797.553   147796907.549        1274.069          45.000    28124811.292   113247081.504         976.159          46.000  
> 2024 04 14 22 49 00.0040000  0 24                     
S33  40799691.145   214403862.810        -783.568          42.000  
E33  29370257.893   154341719.712        1092.153          34.000    29370258.098   118261860.237         836.685          38.000  
G13  22056883.585   115909700.300       -3127.673          48.000                                                                  
G15  21773213.832   114419025.922       -1481.495          49.000    21773212.817    89157716.437       -1154.365          46.000  
G17  23089292.699   121335137.895       -2488.405          48.000    23089287.887    94547010.489       -1938.934          44.000  
R14  21302038.191   113551904.537       -1584.157          52.000    21302036.692    88318228.836       -1232.118          50.000  
R13  24361996.472                1      -3333.962          28.000    24361994.645   101182458.030       -2593.098          36.000  
R05  22364247.255   119549753.122        1498.799          48.000    22364246.834    92983154.130        1165.574          47.000  
R03  23334007.588   124908627.205       -5103.565          49.000    23334015.281    97151100.065       -3969.531          49.000  
R04  20910648.042   111975584.422       -2429.823          51.000    20910644.587    87092142.291       -1889.913          49.000  
G19  22280848.787   117086807.817       -1188.613          49.000                                                                  
G22  23570204.825   123862288.356       -3691.605          42.000                                                                  
S31  39847796.608   209401623.104        -783.029          43.000  
R15  22525406.576   120369115.070         768.058          51.000    22525406.764    93620580.749         597.083          49.000  
R23  23807138.420   127352197.053       -1142.028          39.000                                                                  
R24  23259976.255   124381817.759        1984.662          50.000    23259976.484    96741420.754        1543.648          48.000  
E31  25511562.824   134064191.502       -2428.435          46.000    25511565.507   102724545.282       -1860.709          52.000  
E09  24857121.451   130625062.597       -2188.294          49.000    24857124.890   100089351.744       -1676.786          52.000  
E04  28105650.829   147696007.581       -3733.102          44.000    28105667.081   113169657.208       -2860.442          48.000  
E24  24958997.192   131160505.895        -364.962          48.000    24958997.930   100499660.162        -279.702          52.000  
G24  22813717.737   119886982.468        1110.003          48.000    22813717.374    93418493.977         864.898          47.000  
G12  23464000.734   123304382.440        1168.358          47.000    23463999.802    96081443.994         910.306          44.000  
E05  24125123.324   126778440.487         648.858          48.000    24125126.497    97141961.125         497.104          51.000  
E25  28117539.054   147758764.318        1268.755          45.000    28117551.903   113217855.402         972.144          46.000  
> 2024 04 14 22 49 30.0040000  0 25                     
S33  40804166.401   214427379.250        -783.951          43.000  
E33  29364038.322   154309049.323        1085.856          34.000    29364041.006   118236827.109         832.162          37.000  
G13  22074782.704   116003756.586       -3142.841          49.000                                                                  
G15  21781723.997   114463746.615       -1500.050          49.000    21781722.354    89192563.722       -1168.806          46.000  
G17  23103550.714   121410070.613       -2507.236          48.000    23103548.404    94605399.669       -1953.487          44.000  
R14  21310968.939   113599512.097       -1589.745          53.000    21310967.593    88355256.984       -1236.548          49.000  
R13  24380724.957                       -3332.306          30.000    24380721.281   101260234.290       -2592.070          36.000  
R05  22355901.741   119505133.839        1475.651          51.000    22355899.530    92948450.289        1147.849          47.000  
R03  23362627.655   125061831.797       -5110.158          49.000    23362635.524    97270258.243       -3974.617          48.000  
R04  20924333.798   112048867.270       -2455.710          52.000    20924329.864    87149140.015       -1909.873          50.000  
G19  22287691.525   117122772.195       -1209.038          48.000                                                                  
G22  23591293.496   123973104.332       -3696.098          43.000                                                                  
S31  39852268.190   209425121.394        -783.305          43.000  
R15  22521113.932   120346173.707         761.332          52.000    22521113.525    93602737.643         592.237          48.000  
R23  23813612.540   127386834.780       -1167.299          41.000                                                                  
R24  23248881.719   124322494.797        1970.032          49.000    23248881.784    96695280.940        1532.228          47.000  
E31  25525435.149   134137092.845       -2431.788          46.000    25525438.224   102780404.785       -1863.212          52.000  
E09  24869649.068   130690897.769       -2200.704          48.000    24869652.577   100139796.860       -1686.269          52.000  
E04  28126974.285   147808057.602       -3736.796          46.000    28126990.044   113255512.615       -2863.294          47.000  
E24  24961102.209   131171568.282        -372.514          48.000    24961102.609   100508136.605        -285.451          51.000  
G24  22807392.381   119853742.752        1105.912          47.000    22807391.916    93392592.957         861.703          46.000  
G12  23457358.914   123269479.831        1158.372          46.000    23457358.538    96054247.367         902.627          45.000  
E05  24121451.017   126759143.388         637.568          48.000    24121454.021    97127175.103         488.510          51.000  
E25  28110309.923   147720780.555        1263.270          44.000    28110323.971   113188751.527         968.126          47.000  
G14                                                                  25931085.849                3      -3050.231          22.000  
> 2024 04 14 22 50 00.0040000  0 24                     
S33  40808642.412   214450901.240        -784.272          42.000  
E33  29357856.412   154276563.462        1079.988          35.000    29357859.084   118211935.483         827.347          36.000  
G13  22092766.896   116098265.554       -3157.782          48.000                                                                  
G15  21790338.284   114509016.123       -1518.081          47.000    21790336.534    89227838.671       -1182.869          45.000  
G17  23117917.511   121485566.969       -2525.821          47.000    23117913.957    94664228.046       -1968.236          43.000  
R14  21319930.712   113647285.761       -1595.212          53.000    21319929.828    88392414.340       -1240.737          50.000  
R13  24399439.696                3      -3331.356          26.000    24399438.227   101337975.562       -2590.607          33.000  
R05  22347682.961   119461202.744        1453.040          50.000    22347681.398    92914281.733        1129.922          47.000  
R03  23391283.852   125215228.203       -5116.288          50.000    23391292.089    97389565.587       -3979.235          48.000  
R04  20938163.808   112122921.590       -2481.231          52.000    20938159.443    87206737.727       -1929.826          50.000  
G19  22294652.102   117159347.020       -1229.280          48.000                                                                  
G22  23612405.037   124084049.825       -3700.356          44.000                                                                  
S31  39856741.238   209448625.822        -783.682          44.000  
R15  22516857.335   120323426.969         755.093          52.000    22516856.344    93585045.907         587.288          48.000  
R23  23820228.548   127422222.324       -1192.041          45.000    23820246.324                3       -969.172          13.000  
R24  23237871.472   124263609.052        1955.591          52.000    23237868.845    96649481.097        1521.030          47.000  
E31  25539326.885   134210091.222       -2434.779          47.000    25539329.132   102836338.654       -1865.574          52.000  
E09  24882246.929   130757102.056       -2212.846          48.000    24882250.826   100190524.801       -1695.532          52.000  
E04  28148317.478   147920217.996       -3740.400          45.000    28148334.067   113341452.573       -2865.997          46.000  
E24  24963249.899   131182854.916        -379.869          49.000    24963250.171   100516784.872        -291.047          51.000  
G24  22801089.791   119820621.665        1101.961          47.000    22801088.984    93366784.392         858.606          46.000  
G12  23450773.607   123234873.868        1148.781          46.000    23450773.003    96027281.909         895.087          45.000  
E05  24117842.298   126740179.760         626.643          48.000    24117845.274    97112644.590         480.172          51.000  
E25  28103110.965   147682951.317        1258.362          42.000    28103124.660   113159766.044         964.236          47.000  
> 2024 04 14 22 50 30.0040000  0 24                     
S33  40813118.958   214474425.710        -784.128          43.000  
E33  29351709.956   154244261.118        1073.756          33.000    29351711.719   118187184.452         822.719          37.000  
G13  22110836.646   116193222.529       -3172.723          48.000                                                                  
G15  21799056.741   114554830.668       -1536.164          48.000    21799053.816    89263538.288       -1197.146          45.000  
G17  23132390.878   121561622.575       -2544.312          47.000    23132386.021    94723492.250       -1982.749          42.000  
R14  21328922.795   113695221.374       -1600.476          52.000    21328922.450    88429697.585       -1244.870          50.000  
R13  24418153.670                3      -3328.666          24.000    24418146.296                       -2590.102          30.000  
R05  22339593.721   119417959.860        1429.945          49.000    22339591.308    92880648.434        1112.090          48.000  
R03  23419976.324   125368809.779       -5122.417          50.000    23419982.978    97509016.954       -3984.003          48.000  
R04  20952135.884   112197741.812       -2506.652          53.000    20952132.380    87264931.174       -1949.700          50.000  
G19  22301726.949   117196528.775       -1249.600          49.000                                                                  
G22  23633541.246   124195119.801       -3704.388          41.000                                                                  
S31  39861213.951   209472132.350        -783.462          43.000  
R15  22512636.059   120300870.872         748.747          52.000    22512634.666    93567502.374         582.342          47.000  
R23  23826984.211   127458356.892       -1216.932          44.000                                                                  
R24  23226941.521   124205161.822        1940.942          51.000    23226939.671    96604022.374        1509.432          48.000  
E31  25553235.026   134283182.446       -2437.857          46.000    25553237.855   102892343.630       -1868.012          51.000  
E09  24894914.916   130823671.707       -2225.060          48.000    24894918.715   100241532.674       -1704.876          52.000  
E04  28169682.256   148032484.179       -3743.855          46.000    28169698.432   113427473.558       -2868.600          45.000  
E24  24965439.192   131194361.902        -387.158          48.000    24965440.258   100525601.977        -296.671          51.000  
G24  22794809.563   119787617.467        1098.443          47.000    22794808.293    93341066.902         855.851          46.000  
G12  23444243.479   123200561.015        1138.892          45.000    23444243.039    96000544.840         887.431          44.000  
E05  24114296.989   126721547.878         615.587          48.000    24114299.997    97098368.244         471.715          51.000  
E25  28095941.078   147645273.491        1253.480          44.000    28095954.246   113130896.558         960.422          47.000  
> 2024 04 14 22 51 00.0040000  0 25                     
S33  40817595.560   214497949.693        -784.235          44.000  
E33  29345597.461   154212141.809        1067.335          32.000    29345599.889   118162573.694         818.173          35.000  
G13  22128990.518   116288623.068       -3187.543          49.000                                                                  
G15  21807877.922   114601187.187       -1554.434          48.000    21807875.317    89299660.206       -1211.195          45.000  
G17  23146968.877   121638232.614       -2563.092          48.000    23146964.527    94783188.430       -1997.292          42.000  
R14  21337945.291   113743315.034       -1605.819          52.000    21337944.865    88467103.855       -1248.987          51.000  
R13  24436848.603                3      -3327.805          26.000    24436845.901   101493343.353       -2587.787          33.000  
R05  22331631.730   119375405.231        1406.895          49.000    22331630.617    92847550.432        1094.303          49.000  
R03  23448701.003   125522569.099       -5128.193          51.000    23448706.946    97628606.490       -3988.732          47.000  
R04  20966249.642   112273322.754       -2532.099          52.000    20966246.046    87323716.339       -1969.492          50.000  
G19  22308917.301   117234314.538       -1269.682          49.000                                                                  
G22  23654699.912   124306310.210       -3708.465          44.000                                                                  
S31  39865686.801   209495637.404        -783.602          42.000  
R15  22508449.118   120278501.935         742.253          52.000    22508449.123    93550104.460         577.227          49.000  
R23  23833878.592   127495235.950       -1242.084          44.000                                                                  
R24  23216092.855   124147154.753        1926.117          50.000    23216092.085    96558905.972        1497.944          48.000  
E31  25567161.585   134356362.769       -2440.942          46.000    25567163.852   102948416.905       -1870.345          52.000  
E09  24907652.251   130890603.446       -2237.226          48.000    24907655.716   100292818.019       -1714.281          52.000  
E04  28191065.637   148144852.217       -3747.441          44.000    28191082.186   113513572.522       -2871.302          45.000  
E24  24967670.048   131206085.897        -394.577          48.000    24967671.554   100534585.356        -302.335          52.000  
G24  22788550.704   119754728.912        1094.216          48.000    22788550.111    93315439.537         852.585          47.000  
G12  23437769.430   123166539.055        1129.178          46.000    23437768.375    95974034.425         879.752          44.000  
E05  24110814.125   126703246.509         604.544          48.000    24110817.016    97084345.155         463.178          51.000  
E25  28088798.747   147607744.561        1248.534          43.000    28088812.294   113102141.209         956.440          48.000  
G14                                                                  25998086.563                3      -3047.276          24.000  
> 2024 04 14 22 51 30.0040000  0 25                     
S33  40822071.177   214521469.934        -783.700          43.000  
E33  29339518.249                        1061.477          30.000    29339520.214   118138102.126         813.866          32.000  
G13  22147228.161   116384462.468       -3201.862          48.000                                                                  
G15  21816802.019   114648081.810       -1572.028          48.000    21816799.104    89336201.436       -1224.866          46.000  
G17  23161651.879   121715392.155       -2581.091          47.000    23161648.110    94843312.759       -2011.163          44.000  
R14  21346996.188   113791562.349       -1610.730          53.000    21346995.949    88504629.559       -1252.728          51.000  
R13  24455547.401                3      -3318.470          22.000    24455535.523                       -2586.649          32.000  
R05  22323800.026   119333538.902        1384.133          49.000    22323799.313    92814987.776        1076.680          49.000  
R03  23477456.314   125676498.425       -5133.552          50.000    23477463.004    97748328.263       -3992.753          47.000  
R04  20980505.921   112349658.563       -2556.938          53.000    20980501.647    87383088.596       -1988.736          50.000  
G19  22316221.946   117272700.598       -1289.498          49.000                                                                  
G22  23675879.732   124417615.547       -3711.931          43.000                                                                  
S31  39870159.208   209519140.111        -783.326          42.000  
R15  22504297.912   120256315.936         736.605          53.000    22504297.573    93532848.823         572.943          49.000  
R23  23840910.486   127532856.293       -1266.369          41.000                                                                  
R24  23205326.763   124089588.856        1911.705          49.000    23205326.274    96514132.649        1486.796          48.000  
E31  25581103.125   134429627.876       -2443.351          47.000    25581105.895   103004555.138       -1872.167          52.000  
E09  24920456.571   130957893.383       -2248.865          48.000    24920460.519   100344377.818       -1723.215          52.000  
E04  28212468.126   148257317.293       -3750.307          45.000    28212485.031   113599745.810       -2873.621          45.000  
E24  24969941.935   131218022.831        -401.416          48.000    24969943.068   100543731.922        -307.510          52.000  
G24  22782313.960   119721954.168        1090.548          48.000    22782313.288    93289900.825         849.928          47.000  
G12  23431349.957   123132804.802        1119.717          46.000    23431348.933    95947748.156         872.631          43.000  
E05  24107393.706   126685273.779         593.712          47.000    24107397.159    97070573.887         454.940          51.000  
E25  28081684.667   147570361.448        1243.685          43.000    28081697.788   113073497.508         953.022          47.000  
G14                                                                  26020365.776                3      -3039.194          15.000  
> 2024 04 14 22 52 00.0040000  0 24                     
S33  40826545.675   214544984.277        -783.686          42.000  
E33  29333474.438                        1056.172          29.000    29333477.413                         809.204          30.000  
G13  22165548.622   116480736.222       -3216.168          48.000                                                                  
G15  21825827.245   114695511.253       -1589.557          48.000    21825825.019    89373159.435       -1238.796          45.000  
G17  23176438.226   121793096.472       -2599.072          46.000    23176434.689    94903861.644       -2025.314          43.000  
R14  21356075.747   113839959.846       -1615.646          52.000    21356074.569    88542272.078       -1256.574          48.000  
R13  24474225.147                3      -3323.529          26.000    24474214.927   101648543.249       -2584.886          31.000  
R05  22316096.841   119292361.145        1361.234          49.000    22316095.881    92782960.674        1058.719          49.000  
R03  23506243.291   125830590.761       -5138.892          50.000    23506250.044    97868176.736       -3997.000          48.000  
R04  20994900.554   112426743.648       -2581.885          53.000    20994897.264    87443043.603       -2008.023          51.000  
G19  22323640.319   117311683.842       -1309.164          49.000                                                                  
G22  23697080.970   124529031.241       -3715.406          43.000                                                                  
S31  39874629.997   209542636.186        -782.888          43.000  
R15  22500179.212   120234309.580         730.796          53.000    22500179.694    93515732.928         568.468          48.000  
R23  23848081.362   127571215.135       -1290.679          42.000                                                                  
R24  23194644.649   124032465.936        1896.740          49.000    23194644.119    96469703.849        1475.329          48.000  
E31  25595060.416   134502973.948       -2446.051          46.000    25595063.047   103060755.396       -1874.151          52.000  
E09  24933330.352   131025538.113       -2260.608          49.000    24933332.659   100396209.472       -1732.063          52.000  
E04  28233888.410   148369875.290       -3753.090          45.000    28233906.006   113685990.281       -2875.776          46.000  
E24  24972252.642   131230169.207        -408.037          48.000    24972253.816   100553038.993        -312.731          51.000  
G24  22776098.385   119689291.847        1086.989          47.000    22776096.869    93264449.721         847.135          47.000  
G12  23424984.711   123099355.154        1110.583          47.000    23424984.386    95921683.713         865.488          44.000  
E05  24104036.689   126667628.284         582.976          48.000    24104039.297    97057053.358         446.727          51.000  
E25  28074598.262   147533121.265        1239.280          44.000    28074611.061   113044963.447         949.404          48.000  
> 2024 04 14 22 52 30.0040000  0 24                     
S33  40831018.450   214568489.190        -783.224          43.000  
E33  29327467.820   154116871.498        1049.701          33.000    29327469.655   118089574.859         804.397          33.000  
G13  22183951.301   116577439.678       -3230.566          49.000                                                                  
G15  21834953.941   114743471.960       -1607.508          48.000    21834951.411    89410531.357       -1252.731          45.000  
G17  23191327.935   121871340.832       -2617.244          46.000    23191324.473    94964831.313       -2039.389          42.000  
R14  21365181.885   113888503.508       -1620.472          52.000    21365181.497    88580028.343       -1260.333          49.000  
R13  24492874.350                3      -3321.808          26.000    24492882.618   101726074.624       -2583.608          36.000  
R05  22308523.065   119251871.833        1338.236          49.000    22308521.033    92751469.031        1040.810          49.000  
R03  23535059.617   125984839.809       -5144.181          49.000    23535065.985    97988147.024       -4000.960          48.000  
R04  21009434.596   112504572.596       -2606.532          51.000    21009430.399    87503577.182       -2027.348          50.000  
G19  22331170.877   117351260.870       -1329.004          48.000                                                                  
G22  23718303.113   124640552.844       -3719.116          42.000                                                                  
S31  39879099.255   209566122.315        -782.736          43.000  
R15  22496093.777   120212479.277         724.764          52.000    22496093.995    93498753.896         563.759          48.000  
R23  23855390.639   127610309.635       -1315.417          43.000                                                                  
R24  23184046.350   123975787.466        1881.932          51.000    23184044.253    96425620.806        1463.757          48.000  
E31  25609032.079   134576397.070       -2448.617          47.000    25609034.804   103117014.717       -1876.245          52.000  
E09  24946269.177   131093534.185       -2272.210          48.000    24946272.451   100448310.351       -1741.146          53.000  
E04  28255325.355   148482522.022       -3756.120          45.000    28255343.258   113772302.690       -2878.162          47.000  
E24  24974603.793   131242521.568        -415.155          48.000    24974604.426   100562503.835        -318.115          51.000  
G24  22769903.999   119656740.587        1083.164          47.000    22769902.743    93239085.194         843.951          47.000  
G12  23418672.395   123066187.357        1100.879          46.000    23418672.318    95895838.858         857.950          45.000  
E05  24100741.241   126650308.685         571.875          48.000    24100743.545    97043782.563         438.153          51.000  
E25  28067537.779   147496021.459        1234.498          42.000    28067550.751   113016536.904         945.780          47.000  
> 2024 04 14 22 53 00.0040000  0 24                     
S33  40835488.561   214591980.867        -782.870          43.000  
E33  29321492.383   154085474.022        1043.495          36.000    29321496.095   118065517.160         799.548          39.000  
G13  22202434.220   116674567.732       -3244.752          50.000                                                                  
G15  21844181.697   114791959.496       -1625.074          49.000    21844178.241    89448313.841       -1266.180          44.000  
G17  23206319.550   121950119.524       -2634.913          46.000    23206315.232    95026217.345       -2052.924          42.000  
R14  21374314.679   113937188.596       -1625.243          53.000    21374314.802    88617894.583       -1264.080          49.000  
R13  24511537.093                       -3319.548          28.000    24511536.928   101803556.697       -2581.236          35.000  
R05  22301077.593   119212070.464        1315.082          50.000    22301074.821    92720512.439        1022.925          48.000  
R03  23563902.293   126139236.921       -5149.041          49.000    23563909.570    98108232.466       -4004.671          46.000  
R04  21024105.963   112583138.877       -2631.245          51.000    21024102.736    87564684.254       -2046.511          50.000  
G19  22338814.932   117391427.627       -1348.768          49.000                                                                  
G22  23739544.392   124752175.082       -3722.384          42.000                                                                  
S31  39883566.483   209589595.793        -782.648          43.000  
R15  22492041.087   120190820.565         719.050          52.000    22492040.387    93481908.356         559.304          47.000  
R23  23862834.402   127650136.216       -1339.686          41.000                                                                  
R24  23173530.267   123919554.303        1866.999          51.000    23173527.458    96381884.067        1452.087          47.000  
E31  25623018.244   134649892.693       -2451.128          47.000    25623020.529   103173329.580       -1878.144          52.000  
E09  24959274.026   131161877.439       -2283.892          48.000    24959277.403   100500677.220       -1750.010          52.000  
E04  28276777.801   148595252.469       -3759.196          44.000    28276796.371   113858679.174       -2880.308          47.000  
E24  24976992.415   131255075.528        -421.853          48.000    24976992.942   100572123.181        -323.266          51.000  
G24  22763730.842   119624298.305        1079.591          48.000    22763729.144    93213805.564         841.304          47.000  
G12  23412413.166   123033298.112        1091.541          45.000    23412413.659    95870211.071         850.523          45.000  
E05  24097506.276   126633312.772         561.074          47.000    24097508.960    97030759.767         429.964          51.000  
E25  28060502.835   147459058.613        1229.880          42.000    28060516.319   112988215.255         942.305          47.000  
> 2024 04 14 22 53 30.0040000  0 24                     
S33  40839956.724   214615460.025        -782.685          43.000  
E33  29315550.176   154054257.159        1037.397          36.000    29315554.780   118041597.966         794.715          40.000  
G13  22220997.122   116772118.752       -3258.918          49.000                                                                  
G15  21853508.581   114840973.075       -1642.654          49.000    21853506.019    89486506.245       -1279.995          46.000  
G17  23221411.419   122029430.749       -2652.804          45.000    23221407.412    95088018.405       -2066.859          41.000  
R14  21383474.212   113986014.363       -1629.970          52.000    21383474.695    88655870.161       -1267.703          51.000  
R13  24530178.357                3      -3317.862          28.000    24530180.481   101880989.531       -2580.654          35.000  
R05  22293761.091   119172959.899        1291.910          50.000    22293758.738    92690093.150        1004.954          48.000  
R03  23592773.154   126293778.004       -5153.786          50.000    23592780.509    98228429.867       -4008.470          48.000  
R04  21038914.084   112662439.708       -2655.702          51.000    21038911.627    87626362.655       -2065.614          50.000  
G19  22346570.166   117432183.596       -1368.458          48.000                                                                  
G22  23760804.158   124863896.222       -3725.792          43.000                                                                  
S31  39888030.952   209613057.386        -782.129          44.000  
R15  22488019.753   120169332.414         713.301          52.000    22488018.988    93465195.489         554.836          48.000  
R23  23870416.255   127690694.476       -1364.232          39.000                                                                  
R24  23163098.066   123863770.551        1851.819          50.000    23163096.779    96338496.862        1440.258          48.000  
E31  25637018.238   134723459.519       -2453.544          48.000    25637019.643   103229699.001       -1879.911          51.000  
E09  24972345.204   131230566.911       -2295.419          48.000    24972349.168   100553309.382       -1758.924          53.000  
E04  28298246.736   148708065.050       -3761.782          44.000    28298265.217   113945118.560       -2882.451          47.000  
E24  24979419.660   131267830.161        -428.626          49.000    24979420.290   100581896.280        -328.414          51.000  
G24  22757578.135   119591966.193        1075.782          48.000    22757576.651    93188611.790         838.179          47.000  
G12  23406207.480   123000687.310        1082.228          47.000    23406207.602    95844800.221         843.428          44.000  
E05  24094333.840   126616641.729         550.282          47.000    24094336.414    97017985.917         421.506          51.000  
E25  28053495.016   147422232.417        1225.158          42.000    28053507.825   112959998.345         938.754          47.000  
> 2024 04 14 22 54 00.0040000  0 24                     
S33  40844421.905   214638925.100        -782.085          42.000  
E33  29309646.250   154023221.376        1031.198          37.000    29309647.888   118017817.385         790.360          40.000  
G13  22239640.703   116870089.289       -3272.722          49.000                                                                  
G15  21862934.987   114890510.649       -1660.053          48.000    21862932.154    89525106.891       -1293.415          46.000  
G17  23236604.396   122109271.427       -2670.275          46.000    23236600.595    95150231.951       -2080.717          40.000  
R14  21392660.059   114034977.974       -1634.443          53.000    21392660.296    88693953.039       -1271.296          51.000  
R13  24548816.734                1      -3315.001          28.000    24548812.273   101958371.689       -2578.300          35.000  
R05  22286574.123   119134541.116        1268.868          50.000    22286572.462    92660211.885         987.011          48.000  
R03  23621669.500   126448457.234       -5158.301          51.000    23621678.662    98348734.675       -4012.050          50.000  
R04  21053860.378   112742470.719       -2679.937          53.000    21053856.254    87688608.922       -2084.367          49.000  
G19  22354437.421   117473526.669       -1387.895          49.000                                                                  
G22  23782082.254   124975712.509       -3728.795          42.000                                                                  
S31  39892492.500   209636503.660        -781.378          44.000  
R15  22484029.930   120148012.599         707.892          52.000    22484028.967    93448613.527         550.415          47.000  
R23  23878135.748   127731982.957       -1388.564          41.000                                                                  
R24  23152750.520   123808439.016        1836.684          50.000    23152748.749    96295461.366        1428.511          48.000  
E31  25651030.597   134797094.980       -2455.678          48.000    25651031.864   103286121.023       -1881.537          51.000  
E09  24985482.377   131299600.405       -2306.858          49.000    24985485.510   100606205.141       -1767.626          52.000  
E04  28319730.064   148820956.794       -3764.231          44.000    28319749.722   114031618.588       -2884.356          48.000  
E24  24981884.200   131280783.166        -435.094          48.000    24981884.548   100591821.375        -333.420          50.000  
G24  22751446.246   119559744.120        1072.234          48.000    22751444.639    93163503.746         835.511          46.000  
G12  23400054.259   122968353.211        1072.972          46.000    23400054.203    95819605.028         836.195          45.000  
E05  24091222.911   126600295.378         539.224          47.000    24091225.512    97005460.861         413.270          51.000  
E25  28046513.876   147385541.547        1220.715          43.000    28046525.248   112931885.136         935.327          48.000  
> 2024 04 14 22 54 30.0040000  0 24                     
S33  40848887.039   214662389.535        -782.235          43.000  
E33  29303777.499   153992381.957        1024.423          37.000    29303778.513   117994187.334         785.407          40.000  
G13  22258365.958   116968490.477       -3287.341          49.000                                                                  
G15  21872463.473   114940584.484       -1678.050          48.000    21872461.133    89564125.450       -1307.704          46.000  
G17  23251900.837   122189652.380       -2688.681          42.000    23251896.376    95212866.535       -2095.019          40.000  
R14  21401874.223   114084091.975       -1639.727          54.000    21401874.152    88732152.824       -1275.404          50.000  
R13  24567436.975                3      -3316.948          24.000    24567434.017   102035713.892       -2577.314          37.000  
R05  22279520.032   119096830.709        1245.022          48.000    22279516.919    92630881.593         968.328          48.000  
R03  23650593.816   126603284.087       -5163.431          51.000    23650601.744    98469154.215       -4015.947          48.000  
R04  21068944.397   112823242.596       -2704.817          52.000    21068941.722    87751431.458       -2103.705          51.000  
G19  22362419.634   117515469.463       -1408.150          50.000                                                                  
G22  23803380.795   125087635.712       -3732.815          43.000                                                                  
S31  39896953.798   209659948.893        -781.461          44.000  
R15  22480073.380   120126873.809         701.509          51.000    22480073.767    93432172.346         545.587          47.000  
R23  23885993.788   127774014.886       -1413.368          38.000                                                                  
R24  23142491.145   123753577.443        1820.819          50.000    23142489.909    96252791.399        1416.085          48.000  
E31  25665058.283   134870811.195       -2458.771          48.000    25665059.543   103342604.906       -1883.915          52.000  
E09  24998687.683   131368990.375       -2319.130          49.000    24998689.781   100659374.025       -1776.899          52.000  
E04  28341230.105   148933939.379       -3767.925          42.000    28341250.744   114118188.178       -2886.884          47.000  
E24  24984388.951   131293946.926        -442.412          48.000    24984389.977   100601907.959        -338.989          51.000  
G24  22745337.900   119527646.741        1067.825          47.000    22745336.984    93138492.882         832.025          46.000  
G12  23393956.901   122936309.129        1063.097          49.000    23393957.293    95794635.783         828.513          44.000  
E05  24088176.531   126584288.235         527.689          48.000    24088179.398    96993195.701         404.411          51.000  
E25  28039558.272   147348999.141        1215.624          42.000    28039571.684   112903885.678         931.328          48.000  
> 2024 04 14 22 55 00.0040000  0 24                     
S33  40853351.447   214685851.680        -782.061          44.000  
E33  29297945.862   153961741.189        1018.141          36.000    29297948.090   117970709.531         780.191          40.000  
G13  22277172.931   117067321.200       -3301.542          50.000                                                                  
G15  21882094.378   114991193.918       -1696.024          48.000    21882092.664    89603561.331       -1321.467          47.000  
G17  23267297.979   122270571.643       -2706.131          43.000    23267293.924    95275920.621       -2108.825          40.000  
R14  21411115.393   114133355.513       -1644.545          53.000    21411114.762    88770468.978       -1279.085          50.000  
R13  24586047.022                1      -3311.682          27.000    24586046.168   102113016.180       -2575.694          35.000  
R05  22272596.933   119059831.480        1221.422          48.000    22272595.833    92602104.417         950.177          47.000  
R03  23679544.147   126758254.338       -5167.966          51.000    23679552.766    98589685.261       -4019.522          48.000  
R04  21084165.864   112904752.375       -2729.296          51.000    21084162.875    87814827.894       -2122.809          50.000  
G19  22370515.053   117558011.351       -1427.979          49.000                                                                  
G22  23824698.508   125199664.222       -3735.917          38.000                                                                  
S31  39901415.085   209683393.873        -781.516          42.000  
R15  22476151.101   120105915.283         695.655          51.000    22476150.905    93415871.395         540.998          47.000  
R23  23893988.821   127816790.431       -1438.239          39.000                                                                  
R24  23132319.896   123699190.348        1804.963          50.000    23132319.108    96210490.503        1403.756          47.000  
E31  25679101.709   134944607.336       -2461.098          48.000    25679102.391   103399150.053       -1885.781          52.000  
E09  25011959.775   131438736.323       -2330.794          49.000    25011961.904   100712815.710       -1785.898          52.000  
E04  28362747.846   149047011.668       -3770.451          42.000    28362769.068   114204826.458       -2888.924          47.000  
E24  24986933.963   131307320.938        -449.199          48.000    24986934.873   100612155.642        -344.196          51.000  
G24  22739253.855   119495675.735        1063.624          47.000    22739253.161    93113580.488         828.710          47.000  
G12  23387914.787   122904555.338        1053.606          47.000    23387914.019    95769892.712         821.078          42.000  
E05  24085195.639   126568621.878         516.497          48.000    24085198.445    96981191.691         395.869          52.000  
E25  28032632.492   147312605.581        1210.520          42.000    28032645.580   112876000.223         927.673          48.000  
> 2024 04 14 22 55 30.0040000  0 24                     
S33  40857816.385   214709314.047        -782.378          42.000  
E33  29292153.610   153931301.365        1010.989          38.000    29292155.597   117947385.606         774.887          40.000  
G13  22296061.363   117166580.019       -3316.036          50.000                                                                  
G15  21891826.780   115042338.636       -1713.934          48.000    21891824.989    89643414.345       -1335.541          46.000  
G17  23282799.439   122352027.930       -2724.539          41.000    23282794.856    95339393.045       -2122.876          39.000  
R14  21420385.026   114182768.047       -1649.743          53.000    21420384.909    88808900.929       -1283.154          50.000  
R13  24604658.778                3      -3311.162          25.000    24604646.544   102190236.9111      -2574.876          36.000  
R05  22265808.639   119023546.690        1197.230          48.000    22265807.900    92573882.958         931.215          48.000  
R03  23708520.760   126913363.926       -5172.880          52.000    23708530.137    98710324.605       -4023.098          47.000  
R04  21099524.285   112986997.854       -2754.029          52.000    21099520.166    87878796.564       -2141.895          49.000  
G19  22378723.663   117601151.911       -1448.199          49.000                                                                  
G22  23846036.636   125311796.667       -3739.730          42.000                                                                  
S31  39905876.269   209706837.483        -781.798          44.000  
R15  22472263.090   120085136.786         689.368          53.000    22472262.130    93399710.445         536.128          47.000  
R23  23902121.770   127860221.3641      -1463.237          38.000                                                                  
R24  23122237.471   123645282.317        1788.730          49.000    23122237.625    96168562.210        1391.247          47.000  
E31  25693158.207   135018482.613       -2463.967          46.000    25693160.645   103455755.816       -1888.084          52.000  
E09  25025299.101   131508837.762       -2342.826          49.000    25025301.895   100766529.791       -1795.261          52.000  
E04  28384284.156   149160172.431       -3773.758          43.000    28384304.348   114291532.487       -2891.498          47.000  
E24  24989518.452   131320904.654        -456.556          48.000    24989519.331   100622564.025        -349.829          51.000  
G24  22733194.270   119463832.813        1058.926          47.000    22733193.538    93088767.859         825.421          46.000  
G12  23381927.386   122873091.637        1043.753          48.000    23381926.109    95745375.683         813.248          43.000  
E05  24082278.952   126553297.864         504.953          47.000    24082282.694    96969449.970         386.800          52.000  
E25  28025734.348   147276361.064        1205.416          41.000    28025747.513   112848229.011         923.572          47.000  
> 2024 04 14 22 56 00.0040000  0 24                     
S33  40862281.109   214732778.970        -781.863          45.000  
E33  29286399.816   153901067.887        1004.715          37.000    29286402.416   117924219.843         769.727          41.000  
G13  22315031.094   117266268.686       -3329.830          49.000                                                                  
G15  21901660.722   115094021.119       -1731.366          47.000    21901659.474    89683686.364       -1349.024          46.000  
G17  23298403.081   122434022.503       -2741.812          44.000    23298397.243    95403284.943       -2136.807          39.000  
R14  21429683.271   114232332.057       -1654.393          53.000    21429682.650    88847450.776       -1286.731          49.000  
R13  24623242.498                       -3307.778          28.000    24623242.693   102267462.899       -2573.856          34.000  
R05  22259157.130   118987982.303        1173.810          48.000    22259155.386    92546221.844         912.823          48.000  
R03  23737523.793   127068612.371       -5176.915          51.000    23737534.008    98831071.940       -4026.443          49.000  
R04  21115019.878   113069979.392       -2777.985          51.000    21115016.358    87943337.662       -2160.689          50.000  
G19  22387047.892   117644894.216       -1467.857          49.000                                                                  
G22  23867395.041   125424034.391       -3742.685          43.000                                                                  
S31  39910338.420   209730284.545        -781.137          42.000  
R15  22468409.101   120064541.056         683.774          52.000    22468408.233    93383691.625         531.789          49.000  
R23  23910398.640   127904487.300       -1486.991          34.000                                                                  
R24  23112249.172   123591861.144        1772.746          52.000    23112248.192    96127012.593        1378.811          48.000  
E31  25707232.653   135092439.424       -2466.282          48.000    25707233.863   103512424.042       -1889.800          51.000  
E09  25038707.314   131579297.417       -2354.443          49.000    25038709.943   100820518.312       -1804.012          52.000  
E04  28405835.178   149273423.679       -3776.352          42.000    28405856.710   114378307.802       -2893.377          47.000  
E24  24992144.757   131334700.738        -463.340          49.000    24992145.253   100633135.108        -354.910          51.000  
G24  22727159.670   119432122.827        1054.967          47.000    22727159.625    93064058.869         822.031          47.000  
G12  23375995.493   122841921.165        1034.355          48.000    23375994.776    95721087.167         806.012          44.000  
E05  24079429.219   126538320.992         493.627          47.000    24079432.464    96957974.235         378.210          52.000  
E25  28018867.062   147240269.056        1200.731          43.000    28018878.279   112820574.613         920.124          45.000  
> 2024 04 14 22 56 30.0040000  0 25                     
S33  40866745.937   214756239.263        -782.264          43.000  
E33  29280685.450   153871036.234         997.989          35.000    29280688.084   117901208.624         764.265          44.000  
G13  22334081.807   117366378.473       -3344.118          49.000                                                                  
G15  21911596.858   115146234.071       -1749.292          46.000    21911594.804    89724371.764       -1363.123          46.000  
G17  23314106.534   122516546.700       -2759.805          45.000    23314101.698    95467589.514       -2150.332          43.000  
R14  21439008.462   114282040.044       -1659.294          53.000    21439007.606    88886112.614       -1290.625          50.000  
R13  24641830.252                1      -3307.213          32.000    24641827.070   102344646.916       -2572.335          32.000  
R05  22252638.094   118953134.732        1149.448          48.000    22252635.945    92519118.186         894.065          49.000  
R03  23766550.471   127223988.862       -5181.313          51.000    23766561.122    98951918.828       -4030.046          48.000  
R04  21130652.779   113153687.321       -2802.472          51.000    21130648.682    88008443.804       -2179.704          49.000  
G19  22395484.815   117689230.953       -1487.884          49.000                                                                  
G22  23888771.623   125536369.166       -3746.157          46.000                                                                  
S31  39914798.996   209753727.235        -781.278          43.000  
R15  22464587.780   120044120.401         677.540          52.000    22464586.829    93367809.037         526.986          48.000  
R23  23918807.568                3      -1513.138          32.000                                                                  
R24  23102348.361   123538924.242        1756.294          51.000    23102347.991    96085839.641        1365.927          49.000  
E31  25721320.795   135166470.153       -2468.909          48.000    25721321.792   103569148.885       -1891.696          52.000  
E09  25052181.941   131650107.846       -2366.257          49.000    25052184.712   100874775.639       -1813.017          52.000  
E04  28427403.223   149386757.328       -3779.337          43.000    28427424.873   114465146.239       -2895.746          47.000  
E24  24994809.322   131348701.769        -470.058          49.000    24994809.766   100643863.246        -360.182          52.000  
G24  22721149.742   119400540.659        1050.490          46.000    22721149.534    93039449.423         818.726          47.000  
G12  23370118.091   122811037.792        1024.623          47.000    23370117.216    95697022.355         798.196          43.000  
E05  24076645.181   126523685.952         482.063          48.000    24076647.518    96946760.398         369.443          52.000  
E25  28012025.860   147204323.034        1195.739          42.000    28012037.744   112793032.088         916.197          46.000  
G06                                                                  26319026.803                3       1265.352          15.000  
> 2024 04 14 22 57 00.0040000  0 25                     
S33  40871209.919   214779699.249        -782.042          43.000  
E33  29275010.821   153841210.995         990.657          35.000    29275012.344   117878355.639         759.145          43.000  
G13  22353211.920   117466910.371       -3358.194          48.000                                                                  
G15  21921634.385   115198979.234       -1767.132          47.000    21921631.631    89765471.879       -1377.185          45.000  
G17  23329910.855   122599600.937       -2777.320          46.000    23329907.679    95532307.162       -2164.134          43.000  
R14  21448361.482   114331893.648       -1664.346          54.000    21448360.059    88924887.660       -1294.442          50.000  
R13  24660402.505                1      -3305.950          31.000    24660402.321   102421791.249       -2570.833          35.000  
R05  22246253.948   118919009.085        1125.327          49.000    22246252.630    92492576.046         875.304          48.000  
R03  23795601.364   127379492.125       -5185.614          51.000    23795610.931    99072864.245       -4033.153          47.000  
R04  21146420.194   113238121.135       -2826.533          51.000    21146415.087    88074114.477       -2198.429          49.000  
G19  22404035.291   117734163.694       -1507.818          49.000                                                                  
G22  23910166.433   125648802.087       -3749.472          44.000                                                                  
S31  39919260.062   209777169.105        -781.527          43.000  
R15  22460797.732   120023876.862         671.728          50.000    22460798.462    93352064.161         522.460          48.000  
R23  23927364.645   127995232.6671      -1537.710          39.000                                                                  
R24  23092541.191   123486478.883        1739.860          51.000    23092539.853    96045048.983        1353.244          48.000  
E31  25735421.904   135240576.299       -2471.576          48.000    25735423.734   103625931.541       -1893.670          52.000  
E09  25065723.850   131721270.950       -2378.067          49.000    25065726.483   100929303.182       -1822.109          52.000  
E04  28448987.028   149500174.561       -3782.076          41.000    28449009.255   114552048.674       -2897.914          47.000  
E24  24997512.149   131362909.557        -476.988          49.000    24997513.277   100654749.813        -365.477          52.000  
G24  22715165.240   119369090.364        1046.068          47.000    22715164.479    93014942.803         815.052          47.000  
G12  23364296.252   122780443.927        1014.862          47.000    23364295.705    95673183.142         790.821          44.000  
E05  24073926.110   126509396.588         470.442          48.000    24073928.233    96935811.459         360.471          51.000  
E25  28005212.955   147168525.574        1190.656          43.000    28005225.631   112765603.362         912.415          47.000  
G06                                                                  26309699.850                3       1279.218          20.000  
> 2024 04 14 22 57 30.0040000  0 25                     
S33  40875672.093   214803152.200        -781.270          42.000  
E33  29269374.096   153811588.084         984.373          36.000    29269375.181   117855657.677         754.113          43.000  
G13  22372421.767   117567856.328       -3371.791          49.000                                                                  
G15  21931771.305   115252249.510       -1784.528          47.000    21931769.526    89806981.155       -1390.466          46.000  
G17  23345814.048   122683177.351       -2794.547          44.000    23345809.996    95597431.716       -2177.620          42.000  
R14  21457739.585   114381886.034       -1668.740          53.000    21457738.330    88963770.659       -1297.916          50.000  
R13  24678961.859                3      -3303.590          26.000    24678964.680   102498890.879       -2569.223          34.000  
R05  22240004.710   118885601.767        1101.698          49.000    22240002.811    92466592.609         856.737          47.000  
R03  23824673.422   127535111.523       -5189.192          50.000    23824684.666    99193899.936       -4035.835          46.000  
R04  21162321.161   113323271.642       -2850.197          51.000    21162317.017    88140342.606       -2216.884          49.000  
G19  22412697.399   117779685.690       -1527.394          47.000                                                                  
G22  23931578.697   125761325.258       -3752.238          42.000                                                                  
S31  39923719.637   209800603.260        -781.093          45.000  
R15  22457041.387   120003803.512         666.292          51.000    22457042.170    93336451.686         518.096          48.000  
R23  23936054.304   128041715.579       -1561.562          41.000                                                                  
R24  23082824.275   123434522.646        1723.630          51.000    23082822.507    96004638.731        1340.585          47.000  
E31  25749536.290   135314750.794       -2473.542          47.000    25749538.457   103682766.579       -1895.350          52.000  
E09  25079331.237   131792779.803       -2389.382          49.000    25079334.287   100984095.649       -1830.776          52.000  
E04  28470584.937   149613667.802       -3784.403          42.000    28470608.092   114639009.320       -2899.682          47.000  
E24  25000253.454   131377317.249        -483.478          48.000    25000254.534   100665789.553        -370.509          51.000  
G24  22709204.478   119337767.384        1042.002          46.000    22709203.771    92990535.341         811.810          47.000  
G12  23358528.131   122750133.301        1005.547          48.000    23358527.411    95649564.610         783.787          43.000  
E05  24071271.329   126495448.169         459.280          48.000    24071273.542    96925123.756         351.831          51.000  
E25  27998428.050   147132870.614        1186.082          43.000    27998440.311   112738283.817         908.863          47.000  
G06                                                                  26300377.036                3       1278.145          18.000  
> 2024 04 14 22 58 00.0040000  0 25                     
S33  40880134.488   214826599.103        -781.783          43.000  
E33  29263774.379   153782170.749         977.047          35.000    29263777.276   117833117.239         748.513          43.000  
G13  22391709.819   117669215.721       -3385.830          49.000                                                                  
G15  21942008.286   115306045.309       -1802.258          49.000    21942006.940    89848899.942       -1404.272          46.000  
G17  23361817.570   122767274.987       -2812.031          46.000    23361811.992    95662962.372       -2190.949          39.000  
R14  21467144.010   114432017.497       -1673.677          53.000    21467142.875    89002761.851       -1301.723          49.000  
R13  24697513.878                3      -3303.877          23.000    24697517.887   102575947.103       -2568.007          34.000  
R05  22233890.015   118852916.912        1077.202          48.000    22233888.326    92441171.061         837.677          48.000  
R03  23853766.680   127690844.276       -5193.171          51.000    23853778.223    99315023.719       -4038.893          47.000  
R04  21178355.410   113409137.046       -2874.213          50.000    21178352.271    88207126.724       -2235.511          50.000  
G19  22421471.673   117825797.511       -1547.066          46.000                                                                  
G22  23953008.427   125873938.342       -3755.319          42.000                                                                  
S31  39928177.546   209824031.709        -780.844          44.000  
R15  22453317.428   119983900.845         660.390          51.000    22453317.396    93320971.934         513.673          47.000  
R23  23944880.909   128088934.872       -1586.429          42.000                                                                  
R24  23073201.182   123383061.298        1706.907          51.000    23073199.192    95964613.376        1327.717          46.000  
E31  25763664.172   135388993.868       -2476.166          46.000    25763666.724   103739654.112       -1897.250          52.000  
E09  25093004.880   131864634.843       -2401.286          49.000    25093007.586   101039153.385       -1839.841          51.000  
E04  28492197.167   149727236.802       -3787.318          42.000    28492221.391   114726027.993       -2901.721          47.000  
E24  25003033.116   131391925.293        -490.452          48.000    25003034.161   100676982.777        -375.742          51.000  
G24  22703268.915   119306574.372        1037.220          47.000    22703267.835    92966229.135         808.379          47.000  
G12  23352814.422   122720107.218         995.832          48.000    23352813.328    95626167.810         775.893          43.000  
E05  24068681.988   126481843.167         447.501          48.000    24068684.730    96914699.158         342.954          51.000  
E25  27991670.205   147097359.419        1180.954          44.000    27991681.902   112711074.404         904.843          47.000  
G06                                                                  26291057.831                        1271.591          26.000  
> 2024 04 14 22 58 30.0040000  0 25                     
S33  40884597.552   214850053.602        -781.686          44.000  
E33  29258218.915   153752975.117         969.912          35.000    29258221.554   117810746.613         743.046          44.000  
G13  22411078.901   117771000.761       -3399.650          48.000                                                                  
G15  21952347.833   115360379.846       -1819.751          48.000    21952346.280    89891238.500       -1418.079          47.000  
G17  23377922.701   122851905.794       -2829.518          46.000    23377918.325    95728908.452       -2204.619          42.000  
R14  21476577.562   114482300.978       -1678.384          54.000    21476575.797    89041871.292       -1305.353          51.000  
R13  24716064.682                3      -3296.492          23.000    24716063.853   102652970.869       -2566.304          32.000  
R05  22227913.670   118820970.920        1052.795          48.000    22227912.337    92416324.248         818.850          48.000  
R03  23882882.278   127846699.874       -5196.921          50.000    23882895.115    99436243.013       -4041.828          48.000  
R04  21194526.098   113495728.642       -2898.119          52.000    21194522.328    88274475.704       -2254.072          49.000  
G19  22430361.552   117872512.428       -1566.906          47.000                                                                  
G22  23974456.980   125986653.520       -3758.523          42.000                                                                  
G06  26281731.554                1       1631.232          29.000    26281744.979                        1271.434          31.000  
S31  39932637.404   209847468.541        -781.099          44.000  
R15  22449627.542   119964182.209         654.502          52.000    22449626.519    93305635.354         509.047          48.000  
R23  23953847.974   128136904.472       -1611.139          40.000                                                                  
R24  23063673.752   123332113.440        1689.921          51.000    23063672.265    95924987.441        1314.230          47.000  
E31  25777808.081   135463318.492       -2478.493          47.000    25777810.193   103796604.190       -1899.203          52.000  
E09  25106746.654   131936849.338       -2412.880          49.000    25106749.491   101094486.532       -1848.808          51.000  
E04  28513827.898   149840894.237       -3789.757          43.000    28513850.713   114813114.374       -2903.812          47.000  
E24  25005853.497   131406746.955        -497.224          48.000    25005854.480   100688339.694        -381.117          51.000  
G24  22697360.707   119275526.953        1032.614          46.000    22697359.905    92942036.412         804.594          47.000  
G12  23347157.509   122690379.486         986.248          47.000    23347155.838    95603003.528         768.268          43.000  
E05  24066160.880   126468596.948         435.858          48.000    24066164.120    96904549.490         333.913          51.000  
E25  27984942.072   147062005.982        1176.132          43.000    27984953.505   112683985.906         901.049          47.000  
> 2024 04 14 22 59 00.0040000  0 25                     
S33  40889060.259   214873505.202        -781.630          42.000  
E33  29252704.090   153723991.647         962.624          37.000    29252705.963   117788538.653         737.644          43.000  
G13  22430525.737   117873198.118       -3413.368          47.000                                                                  
G15  21962787.574   115415240.676       -1837.549          48.000    21962786.092    89933987.165       -1431.787          46.000  
G17  23394126.300   122937056.120       -2846.936          46.000    23394121.847    95795259.410       -2218.611          42.000  
R14  21486036.159   114532724.738       -1683.042          52.000    21486036.212    89081089.801       -1309.074          51.000  
R13  24734603.042                3      -3290.704          26.000    24734598.854   102729953.586       -2565.579          33.000  
R05  22222074.016   118789755.348        1028.337          49.000    22222072.840    92392045.525         799.847          48.000  
R03  23912018.913   128002663.575       -5200.466          50.000    23912032.235    99557546.307       -4044.619          47.000  
R04  21210828.995   113583031.659       -2921.898          50.000    21210825.817    88342377.976       -2272.565          49.000  
G19  22439363.370   117919818.358       -1586.602          47.000                                                                  
G22  23995923.147   126099457.714       -3761.818          41.000                                                                  
G06  26272418.985   138062499.0501       1630.579          36.000    26272428.397   107581172.6671       1271.108          35.000  
S31  39937096.391   209870901.755        -780.792          45.000  
R15  22445969.131   119944635.553         648.807          51.000    22445968.382    93290432.524         504.448          48.000  
R23  23962954.609   128185612.094       -1635.772          42.000                                                                  
R24  23054240.901   123281671.430        1673.038          51.000    23054240.243    95885754.941        1301.292          49.000  
E31  25791964.766   135537712.347       -2480.804          47.000    25791966.712   103853607.284       -1900.891          52.000  
E09  25120554.795   132009411.082       -2424.437          49.000    25120557.857   101150085.762       -1857.560          51.000  
E04  28535471.664   149954627.197       -3792.051          42.000    28535495.411   114900258.597       -2905.656          47.000  
E24  25008713.261   131421770.010        -504.047          49.000    25008713.401   100699850.923        -386.178          51.000  
G24  22691477.997   119244615.168        1028.315          46.000    22691477.096    92917949.374         801.091          46.000  
G12  23341554.628   122660938.926         976.608          46.000    23341554.192    95580062.960         760.990          44.000  
E05  24063707.425   126455699.424         424.179          48.000    24063709.706    96894666.991         325.061          51.000  
E25  27978242.127   147026799.051        1171.481          42.000    27978253.934   112657009.604         897.443          47.000  
> 2024 04 14 22 59 30.0040000  0 25                     
S33  40893519.898   214896942.487        -781.205          43.000  
E33  29247226.976   153695211.238         955.460          36.000    29247229.079   117766486.152         732.518          44.000  
G13  22450050.258   117975795.013       -3426.968          48.000                                                                  
G15  21973325.819   115470615.430       -1854.608          49.000    21973323.069    89977136.265       -1445.087          46.000  
G17  23410426.385   123022712.232       -2863.908          45.000    23410421.947    95862004.464       -2231.362          43.000  
R14  21495520.983   114583275.987       -1687.443          54.000    21495519.788    89120407.470       -1312.473          51.000  
R13  24753135.424                3      -3295.731          22.000    24753121.645                       -2563.617          30.000  
R05  22216369.574   118759260.954        1004.180          49.000    22216367.725    92368327.728         781.014          48.000  
R03  23941172.636   128158719.344       -5203.570          50.000    23941186.772    99678921.145       -4047.285          46.000  
R04  21227262.156   113671031.401       -2945.042          51.000    21227259.481    88410822.146       -2290.781          49.000  
G19  22448475.272   117967703.150       -1606.043          47.000                                                                  
G22  24017403.785   126212338.188       -3764.342          41.000                                                                  
G06  26263105.554   138013574.472        1630.407          38.000    26263117.931   107543050.907        1270.755          39.000  
S31  39941552.667   209894319.994        -780.891          42.000  
R15  22442341.251   119925248.434         643.391          52.000    22442340.587    93275353.787         500.369          49.000  
R23  23972195.701   128235045.502       -1659.926          42.000                                                                  
R24  23044901.121   123231728.246        1656.165          51.000    23044900.470    95846910.429        1288.028          48.000  
E31  25806132.927   135612163.092       -2482.922          48.000    25806134.375   103910653.966       -1902.493          52.000  
E09  25134426.444   132082307.939       -2435.703          49.000    25134429.916   101205941.773       -1866.299          51.000  
E04  28557128.219   150068422.945       -3794.522          43.000    28557151.923   114987450.928       -2907.418          47.000  
E24  25011608.106   131436982.363        -510.425          49.000    25011608.370   100711507.201        -391.076          51.000  
G24  22685619.958   119213829.298        1023.850          46.000    22685618.910    92893960.428         797.780          47.000  
G12  23336004.995   122631773.250         967.375          48.000    23336003.515    95557336.647         753.732          44.000  
E05  24061317.459   126443140.537         412.646          48.000    24061319.512    96885043.979         316.216          51.000  
E25  27971567.944   146991727.186        1166.704          43.000    27971579.547   112630136.827         893.923          48.000  
