     3.00           OBSERVATION DATA    M: Mixed            RINEX VERSION / TYPE
CONVBIN 2.4.3                           20240414 231442 UTC PGM / RUN BY / DATE 
format: u-blox UBX                                          COMMENT             
log: /home/regis/git/gnsspwv/obsdata/VERT00CHL/2024-04-14/VECOMMENT             
{self.marker}                                               MARKER NAME         
                                                            MARKER NUMBER       
GEODETIC                                                    MARKER TYPE         
{self.observer}     {self.institution}                      OBSERVER / AGENCY   
UNKNOWN             UBLOX-ZED-F9P                           REC # / TYPE / VERS 
UNKNOWN             TWIVSP6037L                             ANT # / TYPE        
  1713381.0000 -5047934.0000 -3490983.0000                  APPROX POSITION XYZ 
        0.0000        0.0000        0.0000                  ANTENNA: DELTA H/E/N
G    8 C1C L1C D1C S1C C2L L2L D2L S2L                      SYS / # / OBS TYPES 
R    8 C1C L1C D1C S1C C2C L2C D2C S2C                      SYS / # / OBS TYPES 
E    8 C1C L1C D1C S1C C7Q L7Q D7Q S7Q                      SYS / # / OBS TYPES 
S    4 C1C L1C D1C S1C                                      SYS / # / OBS TYPES 
  2024    04    14    23    00   00.0040000     GPS         TIME OF FIRST OBS   
  2024    04    14    23    14   30.0040000     GPS         TIME OF LAST OBS    
                                                            END OF HEADER       
> 2024 04 14 23 00 00.0040000  0 25                     
S33  40897978.364   214920371.8971       -781.038          43.000  
E33  29241791.500   153666643.5781        948.521          38.000    29241792.841   117744596.6951        726.860          44.000  
G13  22469650.881   118078796.8141      -3440.259          48.000                                                                  
G15  21983961.874   115526510.8991      -1871.960          49.000    21983959.716    90020691.1741      -1458.807          46.000  
G17  23426823.247   123108880.2911      -2880.814          45.000    23426819.011    95929148.4621      -2244.929          44.000  
R14  21505029.324   114633961.7031      -1691.915          53.000    21505027.343    89159829.7661      -1315.945          51.000  
R13  24771635.239                3      -3295.734          25.000    24771633.843                       -2562.184          31.000  
R05  22210801.856   118729498.0771        979.729          49.000    22210800.186    92345178.9111        762.119          49.000  
R03  23970345.225   128314870.8671      -5206.671          51.000    23970358.531    99800370.4121      -4049.511          45.000  
R04  21243826.683   113759732.7061      -2968.506          50.000    21243823.145    88479811.9781      -2308.730          48.000  
G19  22457699.234   118016173.4551      -1625.477          47.000                                                                  
G22  24038899.430   126325300.9671      -3766.991          42.000                                                                  
G06  26253800.055   137964669.3191       1629.606          42.000    26253810.165   107504944.2821       1269.679          42.000  
S31  39946007.930   209917732.8321       -780.465          44.000  
R15  22438744.674   119906028.0031        637.759          51.000    22438744.228    93260404.6631        496.028          49.000  
R23  23981572.581   128285212.1791      -1684.528          42.000                                                                  
R24  23035656.379   123182295.7741       1639.033          51.000    23035655.352    95808463.1341       1274.728          48.000  
E31  25820312.637   135686677.5171      -2485.018          48.000    25820313.945   103967749.4491      -1904.037          52.000  
E09  25148363.847   132155546.8711      -2447.137          48.000    25148366.953   101262059.8771      -1875.040          52.000  
E04  28578796.484   150182287.8491      -3796.600          42.000    28578820.922   115074696.2001      -2909.070          47.000  
E24  25014540.241   131452391.0331       -517.017          49.000    25014540.579   100723313.9081       -396.137          52.000  
G24  22679787.461   119183178.6161       1019.199          47.000    22679785.839    92870076.8271        794.382          46.000  
G12  23330508.494   122602890.7731        957.909          48.000    23330507.466    95534831.0071        746.390          44.000  
E05  24058992.493   126430929.3491        401.177          47.000    24058995.885    96875687.3821        307.393          51.000  
E25  27964921.640   146956798.2591       1161.800          43.000    27964932.154   112603373.5561        890.260          47.000  
> 2024 04 14 23 00 30.0040000  0 25                     
S33  40902437.399   214943804.460        -780.827          42.000  
E33  29236396.370   153638299.042         941.337          37.000    29236399.402   117722878.373         721.167          45.000  
G13  22489329.740   118182210.372       -3453.948          48.000                                                                  
G15  21994699.061   115582934.622       -1889.569          48.000    21994696.696    90064657.663       -1472.491          45.000  
G17  23443319.817   123195566.682       -2898.178          47.000    23443315.050    95996696.330       -2258.130          44.000  
R14  21514563.195   114684790.241       -1696.560          54.000    21514562.849    89199363.087       -1319.532          51.000  
R13  24790146.599                       -3292.828          28.000    24790139.110                       -2560.788          30.000  
R05  22205372.156   118700478.073         954.920          49.000    22205371.322    92322607.828         742.742          48.000  
R03  23999536.577   128471122.560       -5209.953          51.000    23999550.186    99921897.526       -4052.086          46.000  
R04  21260523.281   113849140.716       -2991.899          52.000    21260519.766    88549351.489       -2327.094          50.000  
G19  22467035.526   118065237.162       -1645.269          47.000                                                                  
G22  24060412.626   126438352.985       -3770.161          42.000                                                                  
G06  26244498.756   137915795.128        1628.715          43.000    26244508.369   107466861.731        1269.008          42.000  
S31  39950463.173   209941145.873        -780.292          44.000  
R15  22435180.054   119886982.308         631.998          51.000    22435179.748    93245591.459         491.606          48.000  
R23  23991088.891   128336120.233       -1709.189          41.000                                                                  
R24  23026510.870   123133386.713        1621.601          51.000    23026509.554    95770422.939        1261.192          48.000  
E31  25834505.383   135761263.175       -2487.337          47.000    25834506.746   104024899.514       -1905.873          52.000  
E09  25162366.851   132229135.505       -2458.708          49.000    25162370.316   101318445.951       -1883.877          52.000  
E04  28600479.593   150296228.919       -3799.235          41.000    28600505.769   115161999.852       -2911.259          47.000  
E24  25017510.310   131468003.726        -523.718          48.000    25017511.331   100735276.930        -401.343          51.000  
G24  22673982.697   119152673.182        1014.410          47.000    22673981.367    92846306.405         790.334          46.000  
G12  23325067.627   122574299.836         948.051          48.000    23325066.265    95512552.491         738.906          44.000  
E05  24056737.700   126419075.629         389.085          48.000    24056740.200    96866604.673         298.216          51.000  
E25  27958302.692   146922020.767        1156.947          42.000    27958313.840   112576726.291         886.292          47.000  
> 2024 04 14 23 01 00.0040000  0 25                     
S33  40906896.355   214967238.346        -781.759          42.000  
E33  29231046.625   153610180.639         933.276          39.000    29231048.690   117701333.148         715.089          45.000  
G13  22509086.823   118286034.610       -3467.908          49.000                                                                  
G15  22005536.364   115639886.611       -1907.416          48.000    22005533.973    90109035.822       -1486.334          44.000  
G17  23459914.607   123282770.071       -2915.788          48.000    23459910.207    96064647.005       -2271.925          45.000  
R14  21524124.819   114735761.035       -1701.712          53.000    21524124.880    89239007.068       -1323.606          52.000  
R13  24808647.563                3      -3291.586          25.000    24808634.265   103037444.066       -2560.066          32.000  
R05  22200084.491   118672204.137         929.822          50.000    22200081.658    92300617.029         723.064          48.000  
R03  24028745.013   128627471.264       -5213.499          51.000    24028758.947   100043500.060       -4054.918          47.000  
R04  21277351.482   113939253.116       -3015.711          52.000    21277348.145    88619438.834       -2345.632          50.000  
G19  22476485.261   118114893.913       -1665.445          46.000                                                                  
G22  24081943.582   126551493.140       -3772.829          45.000                                                                  
G06  26235204.081   137866955.665        1627.156          42.000    26235212.810   107428806.164        1267.968          41.000  
S31  39954919.490   209964562.411        -781.099          43.000  
R15  22431648.406   119868111.401         625.803          51.000    22431647.088    93230914.203         486.731          47.000  
R23  24000744.162   128387769.598       -1734.299          40.000                                                                  
R24  23017462.942   123085006.169        1603.594          52.000    23017460.500    95732793.740        1247.249          47.000  
E31  25848712.318   135835919.829       -2489.963          48.000    25848713.578   104082104.004       -1907.921          52.000  
E09  25176436.897   132303073.825       -2470.662          48.000    25176440.012   101375099.977       -1893.105          51.000  
E04  28622180.541   150410245.567       -3802.115          43.000    28622204.029   115249361.340       -2913.176          47.000  
E24  25020519.394   131483820.456        -530.891          47.000    25020520.834   100747396.316        -406.797          51.000  
G24  22668205.871   119122315.366        1009.224          47.000    22668204.815    92822651.009         786.428          47.000  
G12  23319682.830   122546000.803         938.154          48.000    23319681.164    95490501.467         731.094          44.000  
E05  24054549.889   126407581.417         376.890          47.000    24054552.742    96857797.451         288.756          51.000  
E25  27951713.796   146887395.446        1151.587          42.000    27951724.152   112550195.603         882.186          47.000  
> 2024 04 14 23 01 30.0040000  0 25                     
S33  40911357.612   214990681.988        -781.619          43.000  
E33  29225740.911   153582296.929         925.781          39.000    29225741.901   117679967.822         709.028          44.000  
G13  22528923.232   118390274.532       -3481.545          48.000                                                                  
G15  22016475.370   115697372.284       -1925.110          48.000    22016472.613    90153829.823       -1500.482          44.000  
G17  23476607.718   123370494.680       -2932.864          47.000    23476602.466    96133003.910       -2285.673          43.000  
R14  21533714.897   114786880.682       -1706.465          53.000    21533714.638    89278766.842       -1327.290          50.000  
R13  24827124.223                3      -3295.674          15.000    24827122.403   103114229.937       -2559.935          32.000  
R05  22194937.120   118644685.077         904.801          51.000    22194933.043    92279213.386         703.610          48.000  
R03  24057972.777   128783920.171       -5216.516          50.000    24057987.121   100165180.449       -4057.446          46.000  
R04  21294311.009   114030073.637       -3038.972          51.000    21294307.563    88690076.937       -2363.661          49.000  
G19  22486048.217   118165149.661       -1685.120          46.000                                                                  
G22  24103490.791   126664726.663       -3776.089          43.000                                                                  
G06  26225917.550   137818160.609        1625.744          42.000    26225926.400   107390785.174        1266.431          40.000  
S31  39959376.977   209987988.163        -781.019          44.000  
R15  22428150.830   119849421.549         620.033          51.000    22428149.798    93216377.775         482.158          48.000  
R23  24010538.510   128440166.751       -1759.092          40.000                                                                  
R24  23008516.375   123037165.347        1585.725          52.000    23008514.307    95695584.343        1233.295          49.000  
E31  25862933.385   135910653.293       -2492.416          48.000    25862935.013   104139367.329       -1909.751          52.000  
E09  25190574.703   132377367.734       -2482.584          48.000    25190577.910   101432026.423       -1902.104          51.000  
E04  28643893.147   150524343.004       -3804.837          42.000    28643918.104   115336784.750       -2915.130          46.000  
E24  25023568.918   131499847.170        -537.726          47.000    25023570.692   100759676.573        -412.074          52.000  
G24  22662458.620   119092113.427        1004.030          47.000    22662457.574    92799117.067         782.483          47.000  
G12  23314354.390   122518000.710         928.492          48.000    23314353.023    95468683.392         723.250          45.000  
E05  24052432.455   126396454.687         364.795          47.000    24052435.547    96849271.809         279.518          51.000  
E25  27945154.889   146852929.055        1146.158          43.000    27945165.496   112523786.722         878.214          48.000  
> 2024 04 14 23 02 00.0040000  0 26                     
S33  40915818.142   215014122.624        -781.452          42.000  
E33  29220476.643   153554637.954         918.141          38.000    29220478.592   117658774.671         703.482          44.000  
G13  22548835.299   118494915.780       -3494.734          47.000                                                                  
G15  22027513.063   115755378.480       -1942.248          48.000    22027511.012    90199029.415       -1513.397          44.000  
G17  23493396.855   123458726.151       -2949.378          47.000    23493393.372    96201755.739       -2298.311          46.000  
R14  21543330.135   114838135.771       -1710.837          53.000    21543329.951    89318631.952       -1330.667          51.000  
R13  24845605.070                1      -3287.694          25.000    24845599.667                1      -2557.089          30.000  
R05  22189928.291   118617911.503         879.993          49.000    22189924.994    92258389.579         684.274          48.000  
R03  24087214.308   128940452.545       -5219.044          48.000    24087230.529   100286925.692       -4059.245          46.000  
R04  21311399.861   114121586.708       -3061.973          52.000    21311397.092    88761253.712       -2381.516          49.000  
G19  22495723.318   118215991.627       -1704.465          47.000                                                                  
G22  24125052.738   126778040.202       -3778.440          42.000                                                                  
G06  26216637.982   137769401.101        1624.623          40.000    26216647.093   107352791.751        1266.188          41.000  
S31  39963834.362   210011411.314        -780.725          44.000  
R15  22424685.804   119830899.686         614.620          51.000    22424683.641    93201972.027         478.072          49.000  
R23  24020470.816   128493298.533       -1783.270          43.000                                                                  
R24  22999668.311   122989855.644        1567.972          51.000    22999666.681    95658788.084        1219.662          48.000  
E31  25877165.998   135985450.559       -2494.281          48.000    25877168.513   104196679.554       -1911.264          52.000  
E09  25204777.515   132452004.233       -2493.589          49.000    25204780.916   101489215.414       -1910.704          52.000  
E04  28665618.753   150638507.773       -3806.536          41.000    28665644.648   115424259.784       -2916.768          47.000  
E24  25026657.552   131516070.997        -544.100          48.000    25026658.074   100772107.895        -416.968          52.000  
G24  22656738.697   119062056.909         999.437          47.000    22656737.599    92775696.422         778.806          46.000  
G12  23309080.116   122490287.076         918.926          48.000    23309078.877    95447088.493         716.175          44.000  
E05  24050383.358   126385684.665         353.009          48.000    24050386.139    96841019.474         270.527          51.000  
G25  25532153.725                1       1646.893          29.000    25532179.305                3       1283.375          24.000  
E25  27938623.806   146818609.591        1141.421          42.000    27938633.885   112497490.384         874.665          47.000  
> 2024 04 14 23 02 30.0040000  0 26                     
S33  40920277.635   215037558.634        -781.469          42.000  
E33  29215257.106   153527202.511         910.455          38.000    29215256.929   117637752.801         697.648          42.000  
G13  22568823.793   118599953.406       -3508.218          48.000                                                                  
G15  22038650.306   115813901.301       -1959.723          48.000    22038648.276    90244631.570       -1527.100          45.000  
G17  23510282.596   123547459.564       -2966.502          47.000    23510277.364    96270898.666       -2311.504          44.000  
R14  21552969.832   114889522.400       -1715.432          53.000    21552969.699    89358599.347       -1334.206          50.000  
R13  24864073.595                3      -3285.667          25.000    24864066.493                       -2556.648          29.000  
R05  22185056.840   118591882.704         854.918          48.000    22185055.922    92238145.001         664.958          48.000  
R03  24116472.692   129097061.479       -5221.861          48.000    24116489.439   100408730.472       -4061.318          46.000  
R04  21328618.184   114213785.647       -3085.113          52.000    21328614.979    88832963.927       -2399.423          49.000  
G19  22505509.010   118267415.284       -1724.120          48.000                                                                  
G22  24146628.637   126891428.752       -3781.261          43.000                                                                  
G06  26207364.651   137720677.096        1623.311          40.000    26207375.661   107314825.978        1264.719          42.000  
S31  39968290.357   210034828.580        -780.857          44.000  
R15  22421248.948   119812541.857         608.981          49.000    22421248.561    93187693.900         473.534          49.000  
R23  24030541.566   128547161.078       -1807.808          44.000                                                                  
R24  22990922.041   122943078.457        1549.905          52.000    22990919.854    95622405.985        1205.548          49.000  
E31  25891411.199   136060307.565       -2496.510          48.000    25891413.383   104254037.545       -1912.910          53.000  
E09  25219044.243   132526979.428       -2505.194          48.000    25219048.218   101546663.900       -1919.531          51.000  
E04  28687355.281   150752735.352       -3808.666          40.000    28687382.990   115511782.934       -2918.503          46.000  
E24  25029780.876   131532488.071        -550.734          47.000    25029781.773   100784687.268        -422.017          51.000  
G24  22651046.383   119032144.267         994.269          47.000    22651045.268    92752387.917         774.808          46.000  
G12  23303859.957   122462856.644         909.204          48.000    23303858.267    95425714.298         708.517          44.000  
E05  24048400.837   126375269.448         340.986          48.000    24048403.992    96833039.035         261.216          51.000  
G25  25522767.349   134123061.2301       1640.942          31.000    25522773.304                3       1278.479          26.000  
E25  27932119.548   146784433.829        1136.542          42.000    27932130.397   112471304.185         870.798          48.000  
> 2024 04 14 23 03 00.0040000  0 26                     
S33  40924739.144   215061003.407        -781.772          43.000  
E33  29210079.277   153500008.314         902.115          35.000    29210082.293   117616915.761         691.485          42.000  
G13  22588890.020   118705401.083       -3521.875          48.000                                                                  
G15  22049888.004   115872954.891       -1977.496          48.000    22049886.545    90290647.312       -1540.924          46.000  
G17  23527266.227   123636708.091       -2983.644          46.000    23527262.539    96340442.976       -2324.871          45.000  
R14  21562637.294   114941055.873       -1720.269          53.000    21562637.091    89398680.959       -1337.908          49.000  
R13  24882529.962                2      -3285.577          29.000    24882526.754                       -2555.174          30.000  
R05  22180330.400   118566616.538         829.401          51.000    22180328.895    92218493.560         644.983          49.000  
R03  24145746.536   129253758.343       -5224.722          49.000    24145763.348   100530603.586       -4063.608          44.000  
R04  21345966.708   114306683.098       -3108.214          52.000    21345962.814    88905217.415       -2417.538          49.000  
G19  22515408.319   118319435.355       -1743.859          47.000                                                                  
G22  24168223.791   127004906.237       -3784.031          44.000                                                                  
G06  26198102.810   137672007.302        1621.172          41.000    26198112.418   107276902.429        1263.334          39.000  
S31  39972748.380   210058255.912        -781.162          44.000  
R15  22417846.990   119794363.119         602.988          50.000    22417846.325    93173554.998         468.910          49.000  
R23  24040750.133   128601769.403       -1832.595          44.000                                                                  
R24  22982277.068   122896853.441        1531.522          51.000    22982275.253    95586453.342        1191.146          49.000  
E31  25905670.210   136135238.967       -2499.017          48.000    25905672.127   104311452.557       -1914.812          52.000  
E09  25233379.870   132602307.998       -2516.837          48.000    25233383.146   101604383.150       -1928.573          52.000  
E04  28709108.666   150867039.988       -3811.438          40.000    28709136.186   115599365.043       -2920.421          47.000  
E24  25032944.722   131549113.220        -557.697          48.000    25032945.560   100797426.061        -427.308          52.000  
G24  22645384.638   119002392.676         989.180          47.000    22645383.959    92729204.940         770.786          47.000  
G12  23298697.169   122435724.985         899.486          47.000    23298695.390    95404572.891         700.822          44.000  
E05  24046490.254   126365225.923         328.526          48.000    24046492.986    96825343.381         251.725          51.000  
G25  25513413.210   134073903.063        1635.688          32.000    25513424.655                        1274.506          28.000  
E25  27925647.751   146750417.458        1131.191          44.000    27925657.198   112445240.092         866.793          48.000  
> 2024 04 14 23 03 30.0040000  0 26                     
S33  40929203.199   215084460.372        -782.022          42.000  
E33  29204951.262   153473058.518         894.311          36.000    29204953.766   117596265.985         685.282          41.000  
G13  22609033.466   118811258.365       -3535.242          47.000                                                                  
G15  22061227.205   115932539.667       -1994.928          49.000    22061225.220    90337076.964       -1554.486          46.000  
G17  23544346.972   123726470.532       -3000.553          45.000    23544342.557    96410387.771       -2337.913          44.000  
R14  21572332.543   114992736.486       -1725.019          53.000    21572331.618    89438877.033       -1341.742          50.000  
R13  24900989.157                1      -3284.125          28.000    24900979.827                3      -2561.816          29.000  
R05  22175747.421   118542116.735         803.931          50.000    22175745.870    92199438.216         625.317          49.000  
R03  24175036.593   129410540.870       -5227.519          49.000    24175053.421   100652543.336       -4065.769          44.000  
R04  21363443.830   114400276.925       -3131.246          51.000    21363442.206    88978012.524       -2435.410          51.000  
G19  22525420.448   118372052.102       -1763.740          47.000                                                                  
G22  24189834.803   127118472.866       -3787.166          43.000                                                                  
G06  26188852.858   137623396.039        1619.480          42.000    26188860.601   107239024.437        1261.906          40.000  
S31  39977208.411   210081693.777        -781.324          44.000  
R15  22414478.922   119776364.185         597.194          50.000    22414478.110    93159555.969         464.474          48.000  
R23  24051097.976   128657124.063       -1857.404          48.000                                                                  
R24  22973737.206   122851186.291        1513.117          51.000    22973734.742    95550934.552        1176.894          49.000  
E31  25919943.277   136210245.161       -2501.288          48.000    25919945.464   104368924.857       -1916.600          52.000  
E09  25247781.248   132677990.382       -2528.447          48.000    25247784.572   101662373.512       -1937.359          52.000  
E04  28730877.526   150981421.408       -3813.758          41.000    28730903.445   115687006.134       -2922.207          46.000  
E24  25036148.624   131565946.962        -564.438          48.000    25036148.583   100810324.693        -432.529          51.000  
G24  22639754.078   118972805.125         983.702          47.000    22639753.234    92706149.734         766.575          46.000  
G12  23293591.298   122408893.039         889.502          48.000    23293589.340    95383665.046         692.965          44.000  
E05  24044650.436   126355556.589         316.177          48.000    24044653.085    96817934.434         242.337          52.000  
G25  25504089.778   134024912.842        1629.940          33.000    25504100.867                1       1270.097          30.000  
E25  27919203.257   146716561.812        1125.934          42.000    27919214.445   112419299.098         862.666          49.000  
> 2024 04 14 23 04 00.0040000  0 26                     
S33  40933666.134   215107917.310        -781.987          42.000  
E33  29199868.903   153446344.236         885.900          38.000    29199869.750   117575796.702         678.957          39.000  
G13  22629253.431   118917512.075       -3548.614          48.000                                                                  
G15  22072663.888   115992643.560       -2012.408          48.000    22072661.949    90383911.164       -1568.176          46.000  
G17  23561523.754   123816733.936       -3017.420          45.000    23561519.512    96480722.947       -2351.253          45.000  
R14  21582053.501   115044552.536       -1729.683          53.000    21582052.352    89479178.439       -1345.283          49.000  
R13  24919431.123                3      -3275.013          22.000    24919425.359                1      -2553.003          28.000  
R05  22171307.262   118518374.722         778.473          52.000    22171305.208    92180972.260         605.548          49.000  
R03  24204339.932   129567393.624       -5229.801          49.000    24204357.541   100774537.749       -4067.551          46.000  
R04  21381049.938   114494552.370       -3154.124          51.000    21381047.781    89051337.793       -2453.219          51.000  
G19  22535544.080   118425253.566       -1783.489          46.000                                                                  
G22  24211459.657   127232115.853       -3789.479          42.000                                                                  
G06  26179611.693   137574835.560        1617.343          40.000    26179619.098   107201185.927        1260.477          38.000  
S31  39981669.226   210105133.358        -781.612          44.000  
R15  22411141.442   119758533.558         591.290          50.000    22411141.957    93145687.867         459.913          49.000  
R23  24061582.532   128713212.920       -1882.098          48.000                                                                  
R24  22965299.154   122806069.705        1494.441          49.000    22965297.990    95515844.025        1162.358          49.000  
E31  25934228.753   136285314.244       -2503.629          48.000    25934230.643   104426445.350       -1918.381          52.000  
E09  25262247.594   132754014.726       -2540.047          48.000    25262251.472   101720625.907       -1946.400          51.000  
E04  28752656.069   151095867.331       -3816.183          40.000    28752683.309   115774696.659       -2924.011          46.000  
E24  25039388.446   131582977.542        -571.180          47.000    25039389.604   100823374.152        -437.659          52.000  
G24  22634153.103   118943372.186         978.154          48.000    22634152.793    92683215.022         762.041          47.000  
G12  23288540.017   122382349.720         879.695          48.000    23288537.988    95362982.080         685.695          44.000  
E05  24042879.951   126346251.697         303.720          48.000    24042882.526    96810804.758         232.826          52.000  
G25  25494796.545   133976079.770        1625.078          35.000    25494808.321                        1266.364          31.000  
E25  27912789.843   146682855.809        1120.810          43.000    27912800.243   112393472.811         858.855          48.000  
> 2024 04 14 23 04 30.0040000  0 27                     
S33  40938130.503   215131378.032        -782.424          42.000  
E33  29194830.833   153419870.235         878.047          36.000    29194831.614   117555511.462         672.797          39.000  
G13  22649548.908   119024163.145       -3562.033          47.000                                                                  
G15  22084201.041   116053268.253       -2030.054          48.000    22084198.140    90431151.146       -1581.598          44.000  
G17  23578795.933   123907498.944       -3034.237          46.000    23578791.285    96551448.975       -2364.336          44.000  
R14  21591799.853   115096506.377       -1734.401          52.000    21591798.809    89519586.996       -1348.969          50.000  
R17  24784891.184   132628967.9121       3259.028          42.000                                                                  
R13  24937865.455                2      -3281.433          26.000    24937858.239                3      -2552.511          26.000  
R05  22167007.266   118495394.903         752.936          51.000    22167006.110    92163099.107         585.584          48.000  
R03  24233654.908   129724315.439       -5232.169          47.000    24233674.280   100896585.817       -4069.633          45.000  
R04  21398781.795   114589508.965       -3176.791          52.000    21398779.220    89125192.848       -2470.841          49.000  
G19  22545779.305   118479041.739       -1803.015          47.000                                                                  
G22  24233100.653   127345836.297       -3792.206          41.000                                                                  
G06  26170380.727   137526331.770        1615.380          39.000    26170387.870   107163391.549        1259.088          39.000  
S31  39986129.671   210128575.694        -781.965          44.000  
R15  22407836.850   119740872.965         585.433          52.000    22407836.157    93131952.007         455.445          49.000  
R23  24072206.378   128770038.126       -1906.852          48.000                                                                  
R24  22956966.650   122761510.673        1475.604          50.000    22956966.233    95481187.150        1147.762          50.000  
E31  25948526.661   136360448.104       -2505.915          49.000    25948528.022   104484015.502       -1920.097          52.000  
E09  25276780.249   132830382.953       -2551.655          47.000    25276784.113   101779141.789       -1955.170          51.000  
E04  28774447.952   151210379.117       -3818.464          40.000    28774476.158   115862437.672       -2925.774          46.000  
E24  25042667.226   131600207.026        -577.865          47.000    25042668.443   100836576.017        -442.837          52.000  
G24  22628582.488   118914098.330         973.087          47.000    22628582.439    92660404.292         758.030          47.000  
G12  23283544.007   122356097.675         869.954          48.000    23283542.957    95342526.113         677.746          44.000  
E05  24041178.840   126337315.310         291.454          48.000    24041182.438    96803957.420         223.303          53.000  
G25  25485533.213   133927407.040        1619.009          35.000    25485544.034   104359038.4171       1262.279          33.000  
E25  27906405.048   146649302.318        1115.728          43.000    27906414.760   112367763.330         854.770          48.000  
> 2024 04 14 23 05 00.0040000  0 27                     
S33  40942595.443   215154840.300        -782.076          42.000  
E33  29189839.039   153393637.775         870.585          35.000    29189839.465   117535411.335         666.630          38.000  
G13  22669918.779   119131208.715       -3574.797          48.000                                                                  
G15  22095836.230   116114411.794       -2046.881          48.000    22095833.724    90478795.424       -1594.843          44.000  
G17  23596163.310   123998762.312       -3050.454          46.000    23596158.197    96622563.292       -2377.009          45.000  
R14  21601571.735   115148596.759       -1738.642          54.000    21601570.624    89560101.764       -1352.376          49.000  
R17  24766610.921   132531165.952        3260.587          44.000                                                                  
R13  24956306.276                3      -3277.923          22.000    24956295.020                       -2550.189          26.000  
R05  22162852.004   118473179.089         727.667          52.000    22162850.316    92145820.166         566.010          49.000  
R03  24262983.581   129881301.846       -5233.965          46.000    24263002.833   101018684.121       -4070.875          43.000  
R04  21416641.391   114685142.698       -3199.108          51.000    21416638.520    89199574.566       -2488.114          50.000  
G19  22556126.758   118533414.653       -1822.330          47.000                                                                  
G22  24254756.005   127459632.471       -3794.242          41.000                                                                  
G06  26161160.835   137477887.057        1613.622          41.000    26161167.839   107125643.260        1257.344          39.000  
S31  39990590.955   210152020.166        -781.843          44.000  
R15  22404564.052   119723381.167         580.285          52.000    22404562.271    93118347.429         451.271          48.000  
R23  24082965.664   128827598.191       -1930.856          48.000                                                                  
R24  22948737.481   122717512.453        1457.220          49.000    22948737.608    95446966.422        1133.363          49.000  
E31  25962835.087   136435645.190       -2507.676          48.000    25962837.060   104541634.088       -1921.477          51.000  
E09  25291377.532   132907093.496       -2562.744          47.000    25291381.667   101837919.937       -1963.642          51.000  
E04  28796250.781   151324954.708       -3820.110          39.000    28796280.567   115950227.649       -2927.218          46.000  
E24  25045983.357   131617633.978        -584.170          47.000    25045984.683   100849929.189        -447.578          53.000  
G24  22623042.250   118884984.525         967.863          48.000    22623041.972    92637718.257         753.967          47.000  
G12  23278603.805   122330136.214         860.559          48.000    23278602.289    95322296.543         670.426          45.000  
E05  24039548.887   126328747.926         279.455          48.000    24039551.614    96797392.839         214.000          52.000  
G25  25476300.687   133878893.964        1614.094          39.000    25476311.270   104321236.691        1257.665          34.000  
E25  27900047.203   146615900.603        1110.808          43.000    27900057.888   112342170.177         851.184          48.000  
> 2024 04 14 23 05 30.0040000  0 27                     
S33  40947058.282   215178293.401        -781.541          42.000  
E33  29184888.477   153367635.873         863.709          32.000    29184891.856   117515487.928         661.325          38.000  
G13  22690360.881   119238633.928       -3587.107          47.000                                                                  
G15  22107567.270   116176059.842       -2063.232          47.000    22107564.359    90526832.830       -1607.672          45.000  
G17  23613622.061   124090509.150       -3066.113          46.000    23613616.375    96694054.408       -2389.282          45.000  
R14  21611366.053   115200809.495       -1742.340          53.000    21611365.537    89600711.656       -1355.108          50.000  
R17  24748323.199   132433308.059        3263.174          47.000    24748349.609   103003793.9861       2537.799          44.000  
R13  24974714.898                3      -3276.246          22.000    24974714.779                3      -2543.149          19.000  
R05  22158837.081   118451716.277         703.217          51.000    22158834.491    92129126.896         546.808          48.000  
R03  24292320.299   130038335.812       -5235.042          44.000    24292339.575   101140819.512       -4071.730          44.000  
R04  21434623.841   114781436.729       -3220.574          51.000    21434620.888    89274469.808       -2505.009          49.000  
G19  22566581.880   118588358.166       -1840.778          47.000                                                                  
G22  24276422.437   127573489.179       -3795.803          43.000                                                                  
G06  26151951.115   137429491.584        1612.555          42.000    26151957.603   107087933.248        1256.293          40.000  
S31  39995050.505   210175454.959        -780.869          43.000  
R15  22401319.374   119706044.314         575.375          51.000    22401318.017    93104863.357         447.510          49.000  
R23  24093861.308   128885878.645       -1954.458          49.000                                                                  
R24  22940612.583   122674065.746        1439.235          49.000    22940612.256    95413174.639        1119.282          50.000  
E31  25977153.831   136510891.524       -2508.897          48.000    25977156.135   104599290.404       -1922.347          52.000  
E09  25306038.381   132984132.373       -2573.276          48.000    25306041.847   101896949.661       -1971.756          51.000  
E04  28818065.361   151439579.554       -3821.315          40.000    28818095.154   116038055.401       -2928.177          47.000  
E24  25049334.430   131635244.524        -590.108          47.000    25049335.997   100863423.044        -452.096          53.000  
G24  22617530.370   118856019.368         963.154          48.000    22617530.269    92615148.046         750.481          47.000  
G12  23273716.049   122304452.198         851.594          48.000    23273714.552    95302283.173         663.452          44.000  
E05  24037986.402   126320537.733         267.799          49.000    24037989.002    96791101.942         205.232          52.000  
G25  25467097.049   133830527.680        1609.816          41.000    25467107.045   104283549.380        1254.543          36.000  
E25  27893717.621   146582637.681        1106.470          43.000    27893727.858   112316683.352         847.840          47.000  
> 2024 04 14 23 06 00.0040000  0 27                     
S33  40951517.259   215201726.672        -780.894          41.000  
E33  29179986.412   153341858.536         855.561          36.000    29179986.962   117495736.462         655.681          39.000  
G13  22710874.245   119346428.746       -3599.169          48.000                                                                  
G15  22119393.015   116238203.135       -2079.669          47.000    22119390.263    90575256.173       -1620.380          44.000  
G17  23631171.055   124182728.971       -3081.726          43.000    23631167.173    96765914.055       -2401.387          46.000  
R14  21621183.599   115253135.827       -1746.100          54.000    21621182.186    89641409.970       -1358.032          49.000  
R17  24730024.198   132335390.371        3264.866          45.000    24730049.319   102927636.178        2539.626          43.000  
R05  22154961.406   118431000.445         678.088          51.000    22154959.778    92113014.629         527.448          49.000  
R03  24321663.604   130195404.894       -5235.912          45.000    24321684.042   101262982.231       -4072.749          44.000  
R04  21452727.022   114878379.165       -3242.060          51.000    21452723.789    89349869.409       -2521.589          49.000  
G19  22577144.475   118643863.270       -1859.307          46.000                                                                  
G22  24298098.645   127687397.454       -3797.701          42.000                                                                  
G06  26142749.702   137381140.353        1610.938          42.000    26142756.536   107050257.643        1255.251          38.000  
S31  39999506.494   210198871.168        -780.319          43.000  
R15  22398102.067   119688853.642         570.641          52.000    22398101.035    93091492.977         443.755          49.000  
R23  24104888.371   128944870.127       -1978.085          48.000                                                                  
R24  22932590.325   122631166.467        1420.883          49.000    22932589.735    95379808.682        1105.137          49.000  
E31  25991480.685   136586178.260       -2510.187          48.000    25991482.366   104656977.679       -1923.343          51.000  
E09  25320758.970   133061490.568       -2583.901          48.000    25320762.418   101956224.104       -1979.836          51.000  
E04  28839887.328   151554244.268       -3822.928          41.000    28839916.284   116125913.805       -2929.119          46.000  
E24  25052719.077   131653029.844        -595.681          48.000    25052720.182   100877050.831        -456.416          52.000  
G24  22612045.841   118827196.437         958.356          48.000    22612045.171    92592688.665         746.902          47.000  
G12  23268879.499   122279036.914         842.792          48.000    23268877.703    95282479.197         656.718          45.000  
E05  24036491.123   126312677.892         256.252          49.000    24036493.509    96785079.456         196.361          52.000  
G25  25457919.786   133782300.420        1605.102          42.000    25457928.715   104245970.422        1251.069          36.000  
E25  27887412.087   146549505.360        1102.246          42.000    27887422.443   112291296.583         844.655          47.000  
R13                                                                  24993124.584                1      -2547.217          29.000  
> 2024 04 14 23 06 30.0040000  0 27                     
S33  40955971.697   215225134.744        -780.301          42.000  
E33  29175121.715   153316299.436         847.799          36.000    29175123.759   117476152.274         649.462          40.000  
G13  22731454.696   119454582.893       -3611.599          47.000                                                                  
G15  22131310.892   116300832.438       -2096.259          47.000    22131307.812    90624058.164       -1633.630          44.000  
G17  23648807.873   124275411.456       -3097.616          43.000    23648803.075    96838134.139       -2413.585          46.000  
R14  21631019.526   115305567.241       -1749.959          53.000    21631017.413    89682190.044       -1361.104          50.000  
R17  24711715.085   132237408.666        3266.606          48.000    24711738.094   102851428.823        2540.734          43.000  
R13  25011509.991                3      -3272.749          25.000    25011515.176                       -2545.251          29.000  
R05  22151224.444   118411025.181         653.076          51.000    22151222.072    92097478.323         507.904          48.000  
R03  24351011.946   130352496.911       -5237.470          44.000    24351031.218   101385162.871       -4073.250          43.000  
R04  21470950.420   114975958.393       -3263.645          52.000    21470946.457    89425764.295       -2538.425          50.000  
G19  22587811.887   118699920.672       -1878.237          47.000                                                                  
G22  24319782.475   127801347.314       -3799.451          40.000                                                                  
G06  26133555.862   137332828.250        1609.346          41.000    26133561.290   107012612.589        1253.855          38.000  
S31  40003957.393   210222261.174        -779.749          44.000  
R15  22394910.520   119671800.059         565.733          52.000    22394909.252    93078229.220         439.920          49.000  
R23  24116048.175   129004563.497       -2001.791          48.000                                                                  
R24  22924668.371   122588810.222        1402.175          49.000    22924668.511    95346865.127        1090.572          48.000  
E31  26005813.647   136661496.260       -2511.598          49.000    26005815.276   104714688.921       -1924.396          51.000  
E09  25335539.265   133139159.073       -2594.514          48.000    25335542.521   102015736.285       -1988.007          51.000  
E04  28861713.698   151668939.229       -3824.087          41.000    28861743.521   116213795.498       -2930.162          46.000  
E24  25056134.562   131670981.078        -601.471          47.000    25056136.066   100890805.713        -460.939          52.000  
G24  22606586.796   118798509.282         953.402          48.000    22606586.017    92570335.070         742.957          47.000  
G12  23264092.259   122253882.202         833.577          48.000    23264090.944    95262878.268         649.622          45.000  
E05  24035060.554   126305161.403         244.420          49.000    24035062.915    96779320.105         187.282          52.000  
G25  25448766.723   133734204.177        1600.476          43.000    25448775.421   104208493.482        1247.416          36.000  
E25  27881130.475   146516495.549        1097.834          41.000    27881140.282   112266003.722         841.242          46.000  
> 2024 04 14 23 07 00.0040000  0 27                     
S33  40960424.020   215248531.974        -779.239          42.000  
E33  29170302.673   153290976.605         840.703          33.000    29170304.895   117456749.214         643.923          39.000  
G13  22752107.633   119563110.507       -3623.798          48.000                                                                  
G15  22143324.441   116363962.837       -2112.476          48.000    22143321.436    90673250.600       -1646.075          44.000  
G17  23666535.119   124368569.687       -3113.006          41.000    23666530.185    96910724.995       -2425.855          45.000  
R14  21640877.643   115358118.606       -1753.522          53.000    21640875.826    89723063.349       -1363.831          48.000  
R17  24693396.257   132139383.625        3268.427          49.000    24693418.612   102775187.904        2542.281          42.000  
R13  25029895.764                3      -3273.276          24.000    25029879.744                3      -2540.782          21.000  
R05  22147628.934   118391808.570         628.040          51.000    22147627.217    92082532.107         488.532          49.000  
R03  24380366.829   130509624.464       -5238.104          46.000    24380386.318   101507371.307       -4073.958          44.000  
R04  21489291.979   115074186.969       -3284.909          51.000    21489288.822    89502164.215       -2554.903          49.000  
G19  22598586.718   118756545.121       -1896.796          46.000                                                                  
G22  24341475.577   127915353.633       -3801.042          39.000                                                                  
G06  26124372.377   137284574.756        1607.415          43.000    26124378.925   106975013.100        1252.935          40.000  
S31  40008406.195   210245640.821        -779.163          44.000  
R15  22391747.108   119654899.265         560.985          51.000    22391746.091    93065084.286         436.333          47.000  
R23  24127340.339   129064973.730       -2025.388          47.000                                                                  
R24  22916855.158   122547017.187        1383.781          51.000    22916852.697    95314359.541        1076.204          48.000  
E31  26020155.144   136736860.832       -2512.785          49.000    26020156.986   104772435.803       -1925.445          51.000  
E09  25350380.825   133217153.025       -2605.082          48.000    25350384.299   102075497.855       -1996.167          51.000  
E04  28883549.173   151783679.170       -3825.207          42.000    28883579.400   116301711.703       -2930.923          46.000  
E24  25059585.029   131689113.495        -607.301          47.000    25059586.328   100904699.437        -465.360          52.000  
G24  22601156.657   118769975.557         948.822          47.000    22601156.015    92548101.067         739.293          47.000  
G12  23259358.798   122229004.180         824.846          47.000    23259356.675    95243492.925         642.725          45.000  
E05  24033699.013   126298005.578         232.599          49.000    24033701.297    96773837.089         178.202          52.000  
G25  25439641.868   133686255.190        1595.879          44.000    25439649.644   104171131.255        1243.528          39.000  
E25  27874874.868   146483624.333        1093.557          42.000    27874884.068   112240816.994         837.930          46.000  
> 2024 04 14 23 07 30.0040000  0 27                     
S33  40964871.753   215271904.196        -779.131          42.000  
E33  29165523.128                         833.085          29.000    29165528.567   117437516.638         638.155          39.000  
G13  22772827.357   119671993.931       -3635.609          48.000                                                                  
G15  22155428.633   116427577.048       -2128.845          47.000    22155426.914    90722820.106       -1658.899          44.000  
G17  23684349.378   124462186.165       -3128.065          40.000    23684344.561    96983672.911       -2437.750          45.000  
R14  21650754.933   115410773.741       -1757.251          53.000    21650754.139    89764017.349       -1366.841          50.000  
R17  24675067.804   132041303.669        3269.958          50.000    24675088.957   102698904.459        2543.360          44.000  
R13  25048265.532                1      -3269.098          28.000    25048263.205                1      -2541.907          27.000  
R05  22144174.060   118373337.286         602.869          51.000    22144172.062    92068165.553         468.890          49.000  
R03  24409722.359   130666767.573       -5238.679          45.000    24409742.342   101629592.019       -4074.589          43.000  
R04  21507753.793   115173045.562       -3305.994          52.000    21507750.345    89579054.176       -2571.532          49.000  
G19  22609466.743   118813719.731       -1915.161          47.000                                                                  
G22  24363178.277   128029399.190       -3802.496          40.000                                                                  
G06  26115198.293   137236367.059        1606.001          41.000    26115205.329   106937449.356        1251.216          41.000  
S31  40012850.138   210268994.926        -778.527          43.000  
R15  22388610.713   119638134.630         556.301          52.000    22388608.059    93052045.272         432.582          47.000  
R23  24138764.088   129126084.087       -2048.963          44.000                                                                  
R24  22909142.768   122505775.686        1365.208          51.000    22909140.079    95282282.986        1061.846          47.000  
E31  26034502.563   136812255.297       -2513.972          50.000    26034503.785   104830205.619       -1926.270          51.000  
E09  25365281.755   133295455.716       -2615.500          48.000    25365284.807   102135495.979       -2004.137          51.000  
E04  28905389.875   151898446.902       -3826.232          41.000    28905420.100   116389649.369       -2931.928          46.000  
E24  25063067.018   131707410.575        -612.929          48.000    25063068.053   100918719.349        -469.685          52.000  
G24  22595753.962   118741581.347         943.734          49.000    22595752.928    92525975.720         735.298          47.000  
G12  23254673.850   122204386.447         815.944          47.000    23254672.243    95224310.400         635.773          45.000  
E05  24032403.333   126291195.825         220.918          49.000    24032405.233    96768619.243         169.175          52.000  
G25  25430541.695   133638437.825        1591.374          45.000    25430550.532   104133871.644        1240.139          41.000  
E25  27868642.901   146450875.878        1089.446          42.000    27868652.286   112215724.383         834.584          46.000  
> 2024 04 14 23 08 00.0040000  0 27                     
S33  40969318.506   215295273.316        -778.841          42.000  
E33  29160798.225                         825.992          30.000    29160799.342   117418474.178         631.476          39.000  
G13  22793619.617   119781254.491       -3648.096          49.000                                                                  
G15  22167630.824   116491697.161       -2145.599          48.000    22167629.048    90772783.807       -1671.851          45.000  
G17  23702254.708   124556282.066       -3144.791          39.000    23702250.605    97056994.414       -2450.314          44.000  
R14  21660656.523   115463555.901       -1761.463          51.000    21660656.382    89805070.148       -1370.075          51.000  
R17  24656733.211   131943196.803        3270.801          50.000    24656754.726   102622600.261        2543.916          45.000  
R13  25066624.193                       -3267.224          29.000    25066626.616                3      -2542.289          25.000  
R05  22140862.729   118355636.768         577.307          50.000    22140861.083    92054398.503         449.115          49.000  
R03  24439086.666   130823946.359       -5239.661          46.000    24439105.992   101751840.638       -4075.340          41.000  
R04  21526335.975   115272553.995       -3327.546          52.000    21526333.726    89656449.509       -2588.143          50.000  
G19  22620455.869   118871466.726       -1934.276          48.000                                                                  
G22  24384892.202   128143506.011       -3804.451          41.000                                                                  
G06  26106038.344   137188231.814        1603.379          42.000    26106045.232   106899941.990        1249.531          40.000  
S31  40017293.405   210292346.009        -778.034          42.000  
R15  22385502.697   119621529.132         551.089          52.000    22385501.694    93039130.002         428.516          49.000  
R23  24150322.296   129187916.900       -2072.998          42.000                                                                  
R24  22901537.906   122465113.140        1345.909          49.000    22901535.078    95250656.670        1046.785          47.000  
E31  26048858.511   136887702.247       -2515.647          49.000    26048860.839   104888015.661       -1927.536          51.000  
E09  25380245.247   133374089.625       -2626.565          48.000    25380248.105   102195747.888       -2012.547          51.000  
E04  28927238.698   152013264.479       -3828.290          40.000    28927269.832   116477625.336       -2933.089          46.000  
E24  25066584.999   131725894.994        -619.078          48.000    25066585.705   100932882.796        -474.412          53.000  
G24  22590381.924   118713351.648         938.356          48.000    22590380.840    92503978.609         731.043          47.000  
G12  23250043.191   122180052.403         806.652          47.000    23250042.162    95205348.940         628.566          45.000  
E05  24031177.739   126284756.724         208.590          49.000    24031180.141    96763685.409         159.813          52.000  
G25  25421471.402   133590775.702        1586.300          44.000    25421480.109   104096732.988        1235.621          40.000  
E25  27862438.347   146418273.653        1084.302          42.000    27862448.576   112190743.766         831.029          48.000  
> 2024 04 14 23 08 30.0040000  0 27                     
S33  40973761.526   215318621.757        -777.769          43.000  
E33  29156108.524                1        816.966          29.000    29156112.414   117399609.142         625.677          37.000  
G13  22814478.735   119890871.544       -3659.892          49.000                                                                  
G15  22179924.965   116556303.595       -2161.700          49.000    22179923.375    90823126.443       -1684.485          45.000  
G17  23720248.177   124650836.277       -3160.244          41.000    23720243.086    97130673.027       -2461.846          43.000  
R14  21670579.114   115516445.990       -1764.905          54.000    21670579.146    89846206.929       -1372.699          51.000  
R17  24638389.930   131845048.597        3272.131          48.000    24638413.727   102546264.027        2544.921          47.000  
R13  25084963.637                3      -3264.863          25.000    25084964.403                3      -2538.451          26.000  
R05  22137692.837   118338690.626         552.209          52.000    22137691.124    92041218.176         429.480          49.000  
R03  24468451.553   130981138.206       -5240.053          45.000    24468472.147   101874099.641       -4075.271          39.000  
R04  21545036.035   115372690.320       -3348.470          52.000    21545033.619    89734333.206       -2604.373          50.000  
G19  22631550.182   118929766.799       -1952.798          48.000                                                                  
G22  24406614.614   128257653.968       -3805.643          41.000                                                                  
G06  26096889.048   137140153.948        1601.432          41.000    26096895.568   106862479.329        1247.948          41.000  
S31  40021733.296   210315677.244        -777.531          41.000  
R15  22382422.582   119605063.957         546.422          52.000    22382420.154    93026323.889         424.982          49.000  
R23  24162012.795   129250452.873       -2096.386          40.000                                                                  
R24  22894039.899   122425014.795        1327.054          51.000    22894036.372    95219469.178        1032.263          47.000  
E31  26063222.296   136963182.622       -2516.618          49.000    26063224.221   104945851.298       -1928.342          51.000  
E09  25395268.214   133453035.557       -2636.896          48.000    25395271.043   102256238.878       -2020.359          51.000  
E04  28949094.993   152128112.196       -3828.862          40.000    28949126.227   116565624.552       -2933.735          46.000  
E24  25070134.673   131744547.750        -624.621          48.000    25070135.039   100947175.235        -478.572          52.000  
G24  22585038.161   118685269.936         933.431          49.000    22585037.359    92482096.814         727.205          47.000  
G12  23245462.889   122155984.159         797.732          47.000    23245461.684    95186594.569         621.553          45.000  
E05  24030020.055   126278671.254         196.894          49.000    24030022.124    96759022.532         150.819          52.000  
G25  25412426.941   133543250.681        1581.844          44.000    25412436.211   104059701.168        1232.526          41.000  
E25  27856258.055   146385799.317        1080.299          42.000    27856268.896   112165861.172         827.548          49.000  
> 2024 04 14 23 09 00.0040000  0 27                     
S33  40978205.344   215341973.350        -778.421          43.000  
E33  29151472.917   153192034.7791        808.126          33.000    29151477.271   117380940.666         618.921          40.000  
G13  22835409.895   120000866.322       -3672.740          48.000                                                                  
G15  22192316.488   116621417.908       -2179.027          48.000    22192315.169    90873864.830       -1697.926          44.000  
G17  23738331.964   124745869.644       -3175.182          42.000    23738327.336    97204725.096       -2474.558          41.000  
R14  21680526.064   115569466.570       -1769.592          52.000    21680525.998    89887445.216       -1376.416          52.000  
R17  24620044.892   131746886.792        3272.212          49.000    24620067.638   102469917.389        2544.928          46.000  
R13  25103303.187                3      -3263.457          23.000    25103299.781                3      -2541.378          21.000  
R05  22134668.908   118322523.894         525.830          52.000    22134666.372    92028644.060         408.923          49.000  
R03  24497822.913   131138362.555       -5241.350          44.000    24497844.264   101996384.333       -4076.611          40.000  
R04  21563856.883   115473474.178       -3370.344          50.000    21563853.688    89812720.529       -2621.245          49.000  
G19  22642753.826   118988641.225       -1972.067          47.000                                                                  
G22  24428348.003   128371864.840       -3808.293          43.000                                                                  
G06  26087755.543   137092159.460        1598.361          41.000    26087761.687   106825081.640        1245.671          42.000  
S31  40026174.011   210339010.865        -778.095          43.000  
R15  22379370.102   119588761.617         540.612          51.000    22379368.802    93013644.360         420.504          48.000  
R23  24173838.942   129313713.650       -2120.880          42.000                                                                  
R24  22886652.072   122385508.273        1306.844          51.000    22886650.038    95188742.023        1016.525          49.000  
E31  26077596.966   137038718.449       -2518.960          49.000    26077597.388   105003729.413       -1930.081          50.000  
E09  25410354.904   133532315.433       -2648.266          48.000    25410357.403   102316985.740       -2029.184          51.000  
E04  28970959.891   152243011.581       -3831.202          40.000    28970992.324   116653663.502       -2935.436          47.000  
E24  25073720.158   131763390.931        -631.381          48.000    25073721.087   100961613.578        -483.786          53.000  
G24  22579727.288   118657360.857         927.404          49.000    22579726.334    92460349.528         722.577          47.000  
G12  23240937.355   122132203.634         787.801          47.000    23240935.956    95168064.415         613.720          44.000  
E05  24028933.325   126272963.458         183.939          48.000    24028935.841    96754649.023         140.897          52.000  
G25  25403413.250   133495885.868        1576.119          44.000    25403421.968   104022794.119        1228.089          42.000  
E25  27850108.235   146353475.741        1074.826          44.000    27850117.162   112141094.076         823.497          48.000  
> 2024 04 14 23 09 30.0040000  0 27                     
S33  40982652.139   215365342.326        -779.323          42.000  
E33  29146891.994                         798.727          32.000    29146891.574   117362481.804         611.829          36.000  
G13  22856416.030   120111251.504       -3686.151          48.000                                                                  
G15  22204806.892   116687053.906       -2196.531          49.000    22204804.051    90925009.730       -1711.692          43.000  
G17  23756510.161   124841395.145       -3192.349          42.000    23756505.075    97279160.541       -2487.608          42.000  
R14  21690500.445   115622632.475       -1774.646          53.000    21690498.880    89928796.536       -1380.348          50.000  
R17  24601700.205   131648731.012        3271.709          48.000    24601724.104   102393575.559        2544.555          48.000  
R13  25121634.425                3      -3263.102          25.000    25121639.216                1      -2537.506          25.000  
R05  22131793.073   118307153.353         498.962          52.000    22131790.457    92016689.196         388.037          49.000  
R03  24527202.270   131295630.844       -5242.857          44.000    24527224.613   102118703.292       -4078.099          40.000  
R04  21582801.832   115574917.142       -3392.410          52.000    21582797.134    89891620.534       -2638.485          48.000  
G19  22654068.495   119048103.841       -1991.946          48.000                                                                  
G22  24450096.318   128486152.332       -3810.859          41.000                                                                  
G06  26078641.394   137044266.628        1594.491          41.000    26078648.106   106787763.124        1242.293          43.000  
S31  40030617.390   210362361.085        -778.989          44.000  
R15  22376352.690   119572636.716         534.435          51.000    22376351.729    93001102.910         415.617          50.000  
R23  24185803.519   129377713.582       -2145.918          38.000                                                                  
R24  22879377.390   122346612.111        1286.312          49.000    22879376.360    95158489.565        1000.435          49.000  
E31  26091984.267   137114323.885       -2521.464          49.000    26091985.384   105061660.871       -1932.035          51.000  
E09  25425507.611   133611943.233       -2660.178          48.000    25425510.296   102377999.228       -2038.375          51.000  
E04  28992837.922   152357976.169       -3833.256          40.000    28992869.971   116741752.544       -2937.157          47.000  
E24  25077344.194   131782438.759        -638.320          48.000    25077344.964   100976208.763        -489.264          52.000  
G24  22574451.727   118629641.105         920.736          47.000    22574450.701    92438749.769         717.434          46.000  
G12  23236469.565   122108725.765         777.379          47.000    23236468.313    95149770.089         605.817          45.000  
E05  24027921.944   126267649.426         170.423          48.000    24027924.962    96750577.237         130.615          52.000  
G25  25394433.075   133448696.384        1570.029          44.000    25394442.603   103986023.742        1223.510          43.000  
E25  27843987.516   146321317.889        1069.177          43.000    27843997.822   112116453.978         819.056          48.000  
> 2024 04 14 23 10 00.0040000  0 27                     
S33  40987100.527   215388717.558        -779.531          42.000  
E33  29142355.414                         789.440          31.000    29142359.203   117344226.282         605.147          38.000  
G13  22877494.096   120222015.009       -3698.487          49.000                                                                  
G15  22217393.529   116753200.096       -2213.390          48.000    22217391.383    90976552.191       -1724.846          44.000  
G17  23774779.624   124937399.763       -3208.232          43.000    23774774.024    97353969.341       -2499.767          41.000  
R14  21700498.663   115675932.948       -1779.024          52.000    21700497.228    89970252.488       -1383.564          51.000  
R17  24583357.174   131550575.165        3271.788          48.000    24583378.997   102317233.834        2544.733          46.000  
R13  25139964.270                3      -3265.200          23.000    25139966.329                3      -2537.628          26.000  
R05  22129065.413   118292571.125         472.882          52.000    22129063.086    92005347.474         367.737          49.000  
R03  24556589.100   131452929.231       -5243.846          46.000    24556609.761   102241046.008       -4078.216          41.000  
R04  21601866.650   115677005.322       -3413.668          53.000    21601861.262    89971022.373       -2655.098          48.000  
G19  22665492.833   119108143.683       -2011.141          47.000                                                                  
G22  24471856.641   128600505.021       -3812.931          42.000                                                                  
G06  26069544.993   136996468.507        1591.442          39.000    26069551.382   106750518.435        1240.208          42.000  
S31  40035062.325   210385720.013        -778.803          44.000  
R15  22373366.495   119556678.579         529.110          51.000    22373365.787    92988691.137         411.535          50.000  
R23  24197901.758   129442440.905       -2169.200          37.000                                                                  
R24  22872216.360   122308320.378        1266.241          50.000    22872214.827    95128707.258         984.893          48.000  
E31  26106382.433   137189988.151       -2523.231          49.000    26106383.658   105119637.408       -1933.229          50.000  
E09  25440723.977   133691908.051       -2671.244          48.000    25440726.875   102439270.918       -2046.649          51.000  
E04  29014725.590   152472994.597       -3834.876          40.000    29014757.905   116829883.010       -2938.573          47.000  
E24  25081006.048   131801680.559        -644.698          48.000    25081006.418   100990952.527        -494.008          52.000  
G24  22569211.543   118602102.434         914.783          48.000    22569210.163    92417291.116         712.677          47.000  
G12  23232057.511   122085540.402         767.818          47.000    23232055.849    95131703.683         598.381          45.000  
E05  24026984.770   126262720.365         157.832          49.000    24026986.749    96746800.443         120.922          52.000  
G25  25385484.191   133401672.398        1564.702          45.000    25385493.488   103949382.305        1219.323          42.000  
E25  27837897.811   146289315.769        1064.031          43.000    27837908.326   112091933.206         815.301          49.000  
> 2024 04 14 23 10 30.0040000  0 27                     
S33  40991549.024   215412094.889        -779.512          43.000  
E33  29137873.578   153120554.453         780.053          34.000    29137874.439   117326170.133         598.143          37.000  
G13  22898641.534   120333147.644       -3710.785          47.000                                                                  
G15  22230076.914   116819848.066       -2230.044          49.000    22230074.205    91028485.613       -1737.672          44.000  
G17  23793137.824   125033874.110       -3223.662          42.000    23793132.910    97429144.240       -2512.172          40.000  
R14  21710521.274   115729359.904       -1783.209          52.000    21710520.303    90011806.824       -1387.012          50.000  
R17  24565012.313   131452416.364        3271.777          49.000    24565032.860   102240889.903        2544.547          46.000  
R13  25158278.918                3      -3259.240          19.000    25158277.693                1      -2535.596          26.000  
R05  22126483.622   118278771.190         446.698          51.000    22126482.209    91994614.199         347.455          49.000  
R03  24585977.199   131610246.297       -5244.218          45.000    24585998.649   102363403.501       -4078.932          43.000  
R04  21621049.497   115779727.411       -3434.822          52.000    21621044.837    90050917.187       -2671.436          49.000  
G19  22677026.613   119168752.213       -2029.939          48.000                                                                  
G22  24493627.644   128714914.211       -3814.761          43.000                                                                  
G06  26060465.997   136948761.010        1588.663          40.000    26060471.835   106713344.383        1237.733          41.000  
S31  40039507.233   210409078.427        -778.922          44.000  
R15  22370410.201   119540879.060         523.821          52.000    22370408.523    92976402.716         407.343          49.000  
R23  24210138.234   129507887.103       -2193.588          39.000                                                                  
R24  22865168.484   122270629.537        1246.099          49.000    22865165.757    95099392.273         969.064          47.000  
E31  26120790.330   137265703.140       -2524.850          49.000    26120791.380   105177652.818       -1934.694          50.000  
E09  25456003.994   133772201.571       -2682.102          49.000    25456006.197   102500794.486       -2055.157          50.000  
E04  29036621.872   152588058.110       -3836.267          40.000    29036654.191   116918048.139       -2939.542          46.000  
E24  25084703.358   131821108.237        -650.947          49.000    25084703.275   101005838.714        -498.749          52.000  
G24  22564004.923   118574739.252         908.835          48.000    22564002.589    92395969.186         708.307          46.000  
G12  23227699.828   122062640.226         758.436          48.000    23227697.875    95113859.493         591.085          45.000  
E05  24026119.352   126258170.111         145.130          50.000    24026121.134    96743313.914         111.238          52.000  
G25  25376565.299   133354806.724        1559.336          44.000    25376574.522   103912864.199        1215.093          42.000  
E25  27831835.354   146257462.020        1059.126          41.000    27831846.110   112067526.114         811.480          49.000  
> 2024 04 14 23 11 00.0040000  0 27                     
S33  40995999.384   215435483.645        -779.948          42.000  
E33  29133440.514   153097263.484         771.595          33.000    29133440.805   117308323.907         591.759          34.000  
G13  22919861.569   120444659.068       -3723.281          48.000                                                                  
G15  22242856.756   116887008.333       -2247.195          47.000    22242854.470    91080818.230       -1750.888          44.000  
G17  23811587.622   125130827.401       -3239.646          43.000    23811581.331    97504692.330       -2523.818          36.000  
R14  21720569.773   115782925.264       -1787.586          52.000    21720568.955    90053468.772       -1390.456          51.000  
R17  24546670.090   131354271.129        3271.260          49.000    24546689.660   102164556.588        2544.403          44.000  
R13  25176589.302                3      -3251.151          18.000    25176584.893                3      -2538.765          19.000  
R05  22124051.154   118265767.687         420.190          52.000    22124049.377    91984500.377         326.874          50.000  
R03  24615370.885   131767590.040       -5245.126          46.000    24615392.647   102485782.009       -4079.414          41.000  
R04  21640351.674   115883092.033       -3456.064          52.000    21640347.636    90131311.791       -2688.083          49.000  
G19  22688670.752   119229939.716       -2049.104          48.000                                                                  
G22  24515411.545   128829390.358       -3816.937          43.000                                                                  
G06  26051407.148   136901159.394        1584.855          41.000    26051412.916   106676252.726        1235.121          41.000  
S31  40043954.396   210432450.173        -779.321          43.000  
R15  22367484.991   119525249.688         518.268          52.000    22367483.315    92964246.664         403.162          49.000  
R23  24222509.542   129574062.760       -2217.901          37.000                                                                  
R24  22858234.629   122233555.179        1225.532          50.000    22858232.112    95070556.778         953.268          48.000  
E31  26135209.840   137341479.971       -2526.808          49.000    26135211.377   105235715.607       -1936.063          50.000  
E09  25471347.723   133852834.734       -2693.280          48.000    25471350.780   102562578.306       -2063.665          51.000  
E04  29058527.460   152703177.217       -3838.182          38.000    29058561.128   117006256.044       -2940.829          46.000  
E24  25088437.616   131840732.980        -657.349          48.000    25088438.064   101020875.914        -503.670          52.000  
G24  22558833.725   118547565.234         902.710          48.000    22558831.635    92374794.683         703.408          46.000  
G12  23223398.316   122040036.589         748.820          47.000    23223396.387    95096246.414         583.316          46.000  
E05  24025327.532   126254011.768         132.209          49.000    24025329.776    96740127.670         101.249          52.000  
G25  25367678.849   133308111.422        1553.734          43.000    25367687.890   103876478.870        1210.697          42.000  
E25  27825804.584   146225768.559        1053.798          42.000    27825814.452   112043241.835         807.600          48.000  
> 2024 04 14 23 11 30.0040000  0 27                     
S33  41000450.844   215458877.217        -779.772          42.000  
E33  29129061.093   153074240.056         763.080          34.000    29129059.289   117290682.681         584.685          35.000  
G13  22941151.467   120556538.826       -3735.257          47.000                                                                  
G15  22255732.234   116954670.837       -2263.732          48.000    22255731.327    91133542.226       -1763.826          45.000  
G17  23830125.814   125228249.407       -3255.046          43.000    23830121.273    97580605.630       -2536.484          39.000  
R14  21730643.074   115836619.646       -1791.894          53.000    21730642.639    90095231.108       -1393.652          51.000  
R17  24528329.160   131256134.900        3271.039          48.000    24528348.978   102088230.387        2543.973          44.000  
R05  22121766.609   118253553.972         393.982          52.000    22121764.631    91975000.836         306.482          49.000  
R03  24644766.760   131924948.262       -5245.588          42.000    24644787.988   102608171.978       -4079.717          35.000  
R04  21659771.103   115987086.685       -3476.843          52.000    21659768.124    90212196.416       -2704.236          49.000  
G19  22700422.943   119291696.474       -2068.013          48.000                                                                  
G22  24537206.888   128943923.700       -3818.562          43.000                                                                  
G06  26042367.073   136853658.313        1581.701          40.000    26042374.158   106639239.418        1232.500          41.000  
S31  40048402.420   210455826.224        -779.643          42.000  
R15  22364590.306   119509781.445         512.977          52.000    22364588.176    92952215.904         398.898          49.000  
R23  24235014.916   129640958.051       -2242.149          36.000                                                                  
R24  22851417.003   122197092.662        1205.226          51.000    22851415.063    95042197.180         937.462          49.000  
E31  26149640.210   137417309.464       -2528.517          49.000    26149641.332   105293818.737       -1937.416          50.000  
E09  25486754.338   133933798.122       -2704.375          48.000    25486757.834   102624615.138       -2072.081          51.000  
E04  29080443.644   152818342.140       -3839.675          40.000    29080475.983   117094499.132       -2942.003          46.000  
E24  25092207.920   131860545.629        -663.489          48.000    25092208.556   101036057.100        -508.438          53.000  
G24  22553697.692   118520573.766         896.711          48.000    22553695.458    92353762.423         698.866          46.000  
G12  23219151.832   122017720.978         739.017          48.000    23219149.614    95078857.737         575.953          45.000  
E05  24024608.410   126250237.990         119.336          48.000    24024611.400    96737236.100          91.443          52.000  
G25  25358823.356   133261578.266        1548.543          44.000    25358833.103   103840219.858        1206.652          43.000  
E25  27819802.026   146194226.911        1049.019          42.000    27819811.761   112019073.889         803.679          48.000  
R13                                                                  25194876.641                3      -2539.641          16.000  
> 2024 04 14 23 12 00.0040000  0 28                     
S33  41004904.560   215482281.104        -780.279          42.000  
E33  29124730.733   153051491.809         753.634          32.000    29124731.062   117273252.338         577.228          36.000  
G13  22962513.164   120668790.478       -3747.984          48.000                                                                  
G15  22268704.466   117022840.203       -2280.837          49.000    22268701.953    91186661.179       -1777.348          44.000  
G17  23848753.328   125326143.305       -3271.044          43.000    23848748.034    97656886.647       -2548.873          36.000  
R14  21740741.938   115890448.449       -1796.705          52.000    21740740.619    90137098.029       -1397.450          53.000  
R17  24509991.307   131158018.528        3269.922          48.000    24510012.121   102011919.691        2543.364          45.000  
R05  22119630.816   118242137.309         367.157          51.000    22119628.574    91966121.206         285.455          49.000  
R03  24674164.740   132082323.021       -5246.213          36.000    24674184.841                       -4080.698          31.000  
R04  21679309.634   116091713.682       -3498.103          52.000    21679306.974    90293572.828       -2720.803          50.000  
G19  22712283.662   119354026.863       -2087.244          48.000                                                                  
G22  24559013.950   129058518.799       -3821.135          41.000                                                                  
G06  26033348.878   136806266.805        1577.667          40.000    26033355.326   106602311.477        1229.222          42.000  
S31  40052852.834   210479211.497        -780.051          44.000  
R15  22361727.225   119494479.444         507.231          52.000    22361724.780    92940314.442         394.418          49.000  
R23  24247642.797                1      -2265.861          31.000                                                                  
R24  22844714.435   122161251.593        1184.194          50.000    22844711.745    95014320.844         921.092          49.000  
E31  26164080.887   137493196.612       -2530.581          49.000    26164082.219   105351966.058       -1939.059          50.000  
E09  25502224.359   134015096.522       -2715.753          48.000    25502228.178   102686908.674       -2080.832          51.000  
E04  29102367.375   152933557.121       -3841.425          39.000    29102401.216   117182780.733       -2943.619          47.000  
E24  25096014.698   131880551.160        -670.107          48.000    25096015.781   101051386.092        -513.548          53.000  
G24  22548597.104   118493772.366         890.065          48.000    22548595.162    92332878.289         693.439          46.000  
G12  23214960.798   121995698.823         729.127          48.000    23214959.136    95061697.705         567.925          45.000  
E05  24023964.502   126246855.707         106.003          47.000    24023967.613    96734644.492          81.243          52.000  
G25  25350000.218   133215213.146        1542.708          44.000    25350009.140   103804091.791        1201.803          42.000  
E25  27813830.500   146162842.858        1043.322          42.000    27813839.240   111995026.669         799.357          47.000  
E14  21069304.690   110719939.5181       2832.185          46.000                                                                  
R13                                                                  25213209.848                3      -2558.314          11.000  
> 2024 04 14 23 12 30.0040000  0 28                     
S33  41009358.904   215505689.597        -780.555          42.000  
E33  29120453.880   153029015.955         744.569          33.000    29120453.054   117256030.632         570.791          35.000  
G13  22983942.509   120781407.137       -3760.044          47.000                                                                  
G15  22281771.642   117091509.796       -2297.336          48.000    22281768.974    91240169.952       -1790.323          43.000  
G17  23867469.635   125424501.567       -3285.943          44.000    23867466.708    97733529.424       -2560.881          40.000  
R14  21750863.617   115944406.592       -1800.725          54.000    21750862.779    90179065.480       -1400.586          50.000  
R17  24491658.351   131059920.874        3269.525          47.000    24491679.002   101935623.602        2542.989          45.000  
R13  25231469.203                3      -3258.675          17.000    25231462.056                3      -2534.141          14.000  
R05  22117643.005   118231514.294         340.875          52.000    22117641.552    91957858.878         265.076          50.000  
R03  24703553.189                1      -5245.971          28.000    24703577.875                3      -4079.947          18.000  
R04  21698964.524   116196964.113       -3518.659          52.000    21698961.734    90375434.197       -2736.843          50.000  
G19  22724252.896   119416925.106       -2105.947          47.000                                                                  
G22  24580831.352   129173169.281       -3822.587          42.000                                                                  
G06  26024350.265   136758983.059        1574.095          40.000    26024356.700   106565467.591        1226.704          41.000  
S31  40057304.235   210502602.208        -779.729          44.000  
R15  22358893.153   119479338.481         502.087          52.000    22358891.398    92928538.262         390.426          49.000  
R23  24260423.260   129776879.4921      -2289.899          33.000                                                                  
R24  22838127.873   122126030.917        1163.619          50.000    22838125.227    94986927.048         905.054          49.000  
E31  26178531.611   137569135.804       -2532.168          48.000    26178532.361   105410153.229       -1940.120          49.000  
E09  25517757.523   134096724.066       -2726.356          48.000    25517761.247   102749454.408       -2089.016          51.000  
E04  29124300.410   153048815.935       -3842.657          38.000    29124333.894   117271095.969       -2944.394          45.000  
E24  25099857.644   131900744.049        -676.239          48.000    25099858.204   101066858.618        -518.131          53.000  
G24  22543532.417   118467157.944         884.022          48.000    22543530.725    92312139.835         688.848          46.000  
G12  23210825.349   121973965.120         719.700          47.000    23210822.810    95044762.464         560.727          45.000  
E05  24023395.389   126243861.143          93.430          48.000    24023397.716    96732349.983          71.520          52.000  
G25  25341208.557   133169011.340        1537.385          44.000    25341216.275   103768090.900        1197.810          43.000  
E25  27807887.045   146131611.438        1038.538          43.000    27807896.048   111971096.437         795.765          48.000  
E14  21053219.256   110635417.448        2802.307          46.000                                                                  
> 2024 04 14 23 13 00.0040000  0 28                     
S33  41013813.298   215529095.847        -779.753          42.000  
E33  29116232.807   153006806.856         735.595          34.000    29116228.351   117239013.354         563.934          39.000  
G13  23005441.408   120894379.364       -3771.428          49.000                                                                  
G15  22294931.721   117160670.662       -2313.343          47.000    22294930.191    91294061.498       -1802.610          44.000  
G17  23886274.467   125523314.321       -3301.008          44.000    23886269.458    97810526.445       -2572.051          40.000  
R14  21761008.928   115998485.911       -1804.402          53.000    21761007.281    90221127.169       -1403.450          50.000  
R17  24473328.659   130961839.047        3269.352          48.000    24473348.275   101859339.876        2542.766          46.000  
R05  22115804.036   118221679.206         314.972          52.000    22115801.296    91950209.411         244.891          48.000  
R03  24732967.677                3      -5245.876          23.000    24733024.258                3      -4082.081          22.000  
R04  21718733.282   116302826.263       -3538.582          52.000    21718731.529    90457771.321       -2752.199          50.000  
G19  22736328.261   119480381.868       -2124.244          48.000                                                                  
G22  24602656.655   129287866.437       -3823.793          42.000                                                                  
G06  26015371.220   136711802.865        1571.085          40.000    26015377.244   106528704.330        1224.547          41.000  
S31  40061754.718   210525991.368        -779.255          44.000  
R15  22356087.082   119464349.923         497.360          50.000    22356086.714    92916880.606         386.885          50.000  
R23  24273334.391   129845925.022       -2313.165          38.000                                                                  
R24  22831655.477   122091426.633        1143.437          50.000    22831654.037    94960012.699         889.318          49.000  
E31  26192990.505   137645118.687       -2533.181          49.000    26192991.382   105468373.900       -1941.038          49.000  
E09  25533352.980   134178672.187       -2736.668          49.000    25533355.750   102812245.789       -2096.861          51.000  
E04  29146241.578   153164109.541       -3843.480          38.000    29146272.477   117359438.004       -2944.774          42.000  
E24  25103733.686   131921115.932        -681.816          49.000    25103734.652   101082468.320        -522.341          53.000  
G24  22538502.069   118440724.777         878.241          47.000    22538500.136    92291542.591         684.364          46.000  
G12  23206742.595   121952512.325         710.654          47.000    23206740.532    95028046.105         553.822          45.000  
E05  24022898.240   126241247.890          81.184          48.000    24022900.425    96730347.653          62.114          51.000  
G25  25332445.551   133122965.373        1532.451          43.000    25332452.630   103732211.498        1193.980          42.000  
E25  27801970.970   146100525.132        1033.999          43.000    27801980.238   111947277.364         792.298          48.000  
E14  21037305.512   110551796.845        2772.595          44.000                                                                  
R13                                                                  25249756.647                3      -2532.638          21.000  
> 2024 04 14 23 13 30.0040000  0 28                     
S33  41018264.362   215552487.356        -779.744          42.000  
E33  29112054.412   152984853.710         727.137          34.000    29112051.291   117222192.203         557.262          39.000  
G13  23027003.585   121007692.208       -3782.860          48.000                                                                  
G15  22308183.562   117230309.093       -2329.389          47.000    22308182.549    91348325.161       -1815.115          45.000  
G17  23905161.195   125622566.530       -3315.917          45.000    23905157.398    97887865.800       -2583.943          39.000  
R14  21771173.882   116052672.745       -1808.156          52.000    21771172.175    90263272.558       -1406.430          48.000  
R17  24454999.499   130863764.585        3268.754          49.000    24455018.839   101783061.848        2542.283          44.000  
R05  22114109.694   118212620.613         288.745          52.000    22114105.723    91943163.815         224.658          47.000  
R03  24762454.083                3      -5245.588          25.000    24762419.811                3      -4080.131          20.000  
R04  21738614.182   116409283.600       -3558.620          52.000    21738611.288    90540571.330       -2767.713          47.000  
G19  22748507.499   119544382.968       -2142.655          48.000                                                                  
G22  24624489.078   129402596.272       -3825.081          40.000                                                                  
G06  26006410.986   136664716.782        1567.777          41.000    26006417.229   106492014.361        1221.639          40.000  
S31  40066202.502   210549365.209        -778.900          44.000  
R15  22353308.978   119449500.514         492.463          51.000    22353307.559    92905331.181         383.127          48.000  
R23  24286373.790   129915664.668       -2336.368          41.000                                                                  
R24  22825297.868   122057429.485        1122.932          50.000    22825295.710    94933570.563         873.596          47.000  
E31  26207454.572   137721131.916       -2534.344          48.000    26207456.082   105526617.843       -1942.072          48.000  
E09  25549004.903   134260927.244       -2747.060          48.000    25549008.423   102875272.339       -2104.976          51.000  
E04  29168184.594   153279423.983       -3844.515          35.000    29168216.216   117447796.033       -2945.193          39.000  
E24  25107642.065   131941653.490        -687.464          49.000    25107642.805   101098204.945        -526.756          52.000  
G24  22533503.819   118414461.981         872.380          46.000    22533502.453    92271078.142         679.779          46.000  
G12  23202710.803   121931327.245         701.571          48.000    23202709.320    95011538.362         546.791          45.000  
E05  24022469.950   126239004.424          68.337          47.000    24022473.189    96728628.681          52.358          51.000  
G25  25323709.485   133077062.804        1527.425          43.000    25323717.479   103696443.802        1190.306          41.000  
E25  27796081.242   146069571.259        1029.239          43.000    27796089.559   111923559.755         788.823          48.000  
E14  21021564.295   110469070.771        2742.222          46.000                                                                  
R13                                                                  25268032.320                3      -2519.740          18.000  
> 2024 04 14 23 14 00.0040000  0 28                     
S33  41022713.512   215575869.052        -779.121          42.000  
E33  29107924.869   152963162.813         718.518          35.000    29107924.030   117205571.982         550.611          41.000  
G13  23048631.619   121121347.539       -3794.074          48.000                                                                  
G15  22321526.805   117300427.755       -2345.245          48.000    22321526.186    91402963.038       -1827.531          46.000  
G17  23924132.723   125722260.138       -3330.497          45.000    23924127.937    97965549.143       -2595.349          39.000  
R14  21781360.096   116106971.646       -1811.884          52.000    21781358.882    90305505.052       -1409.223          50.000  
R17  24436672.819   130765706.131        3268.285          48.000    24436692.238   101706796.311        2542.000          46.000  
R05  22112559.902   118204344.261         262.866          51.000    22112558.426    91936726.705         204.364          49.000  
R03  24791837.094                3      -5243.637          16.000    24791722.618                3      -4086.090          20.000  
R04  21758605.626   116516336.715       -3578.321          52.000    21758602.124    90623834.762       -2783.186          48.000  
G19  22760790.575   119608931.439       -2160.830          48.000                                                                  
G22  24646327.737   129517361.795       -3826.105          39.000                                                                  
G06  25997469.973   136617732.312        1564.285          41.000    25997475.623   106455403.538        1218.735          41.000  
S31  40070648.411   210572728.949        -779.072          43.000  
R15  22350556.202   119434794.401         487.777          50.000    22350555.425    92893893.200         379.421          50.000  
R23  24299541.745   129986101.333       -2359.568          41.000                                                                  
R24  22819055.232   122024047.289        1102.539          50.000    22819053.248    94907606.746         857.394          48.000  
E31  26221926.647   137797179.065       -2535.540          49.000    26221927.165   105584887.739       -1942.746          48.000  
E09  25564716.899   134343492.475       -2757.313          48.000    25564720.174   102938536.564       -2112.815          52.000  
E04  29190130.233                       -3845.505          30.000    29190164.584   117536172.361       -2946.291          39.000  
E24  25111582.652   131962360.313        -693.025          49.000    25111583.061   101114071.264        -531.027          53.000  
G24  22528539.412   118388375.683         866.560          45.000    22528538.355    92250751.194         675.258          46.000  
G12  23198731.434   121910413.850         692.606          48.000    23198728.869    94995242.320         539.772          45.000  
E05  24022114.401   126237136.109          56.009          47.000    24022117.421    96727197.140          42.886          51.000  
G25  25315002.511   133031308.064        1522.587          44.000    25315010.008   103660791.276        1186.244          42.000  
E25  27790215.692   146038754.025        1024.890          41.000    27790225.149   111899946.863         785.310          48.000  
E14  21005993.337   110387249.075        2712.424          45.000                                                                  
R13                                                                  25286290.604                3      -2533.273          20.000  
> 2024 04 14 23 14 30.0040000  0 28                     
S33  41027162.856   215599247.238        -779.194          42.000  
E33  29103849.663   152941742.554         709.585          33.000    29103847.660   117189159.104         543.423          41.000  
G13  23070325.609   121235350.039       -3805.915          48.000                                                                  
G15  22334963.256   117371031.460       -2361.534          48.000    22334961.753    91457978.884       -1840.393          45.000  
G17  23943188.350   125822398.873       -3345.630          45.000    23943185.102    98043579.305       -2606.864          42.000  
R14  21791567.965   116161388.269       -1815.883          52.000    21791567.303    90347829.119       -1412.398          50.000  
R17  24418352.729   130667674.778        3267.198          49.000    24418370.329   101630551.853        2541.050          47.000  
R05  22111160.161   118196858.486         236.304          52.000    22111158.691    91930904.414         183.783          49.000  
R04  21778708.467   116623988.336       -3598.385          52.000    21778706.614    90707563.680       -2798.715          48.000  
G19  22773178.194   119674032.381       -2179.397          47.000                                                                  
G22  24668174.553   129632168.042       -3827.738          41.000                                                                  
G06  25988549.896   136570859.131        1560.251          41.000    25988555.534   106418879.403        1216.169          41.000  
S31  40075093.645   210596089.659        -778.728          44.000  
R15  22347832.696   119420237.312         482.575          51.000    22347831.322    92882571.170         375.523          50.000  
R23  24312840.408   130057239.744       -2383.318          42.000                                                                  
R24  22812930.265   121991290.659        1081.410          49.000    22812927.963    94882129.452         841.099          49.000  
E31  26236405.886   137873265.781       -2536.894          48.000    26236406.212   105643187.980       -1943.828          49.000  
E09  25580488.589   134426373.256       -2767.930          48.000    25580492.224   103002042.570       -2120.897          52.000  
E04  29212086.879                       -3845.896          30.000    29212117.498   117624570.678       -2947.215          36.000  
E24  25115556.147   131983242.017        -699.028          48.000    25115556.287   101130071.580        -535.571          52.000  
G24  22523610.602   118362474.133         860.189          45.000    22523609.514    92230568.218         670.225          46.000  
G12  23194804.552   121889778.294         683.230          48.000    23194803.170    94979162.812         532.380          46.000  
E05  24021832.151   126235650.475          43.129          47.000    24021834.597    96726058.834          33.038          51.000  
G25  25306324.595   132985707.635        1517.439          44.000    25306332.061   103625258.985        1182.366          42.000  
E25  27784378.354   146008079.770        1020.051          41.000    27784387.836   111876443.554         781.523          48.000  
E14  20990596.067   110306343.868        2681.479          44.000                                                                  
R03                                                                  24821151.592                3      -4081.814          19.000  
R13                                                                  25304552.476                3      -2529.996          16.000  
